     2.10           Observation         G (GPS)             RINEX VERSION / TYPE
novaRinex v2.1 9/07 ARL:UT/GPSTk        20160822 210911 UTC PGM / RUN BY / DATE
                                                            MARKER NAME
                    ARL:UT/GPSTk                            OBSERVER / AGENCY
                    Novatel             OEM4                REC # / TYPE / VERS
                                                            ANT # / TYPE
        0.0000        0.0000        0.0000                  APPROX POSITION XYZ
        0.0000        0.0000        0.0000                  ANTENNA: DELTA H/E/N
     1     1                                                WAVELENGTH FACT L1/2
     4    C1    L1    D1    S1                              # / TYPES OF OBSERV
     0.100                                                  INTERVAL
  2016     4     2    12     1    6.6000000                 TIME OF FIRST OBS
  2016     4     2    14    43   23.8000000                 TIME OF LAST OBS
Created by GPSTK program novaRinex v2.1 9/072016/08/22 21:09COMMENT
    20                                                      # OF SATELLITES
   G02  1368  1368  1368  1368                              PRN / # OF OBS
   G04  3510  3510  3510  3510                              PRN / # OF OBS
   G05  2739  2739  2739  2739                              PRN / # OF OBS
   G07   395   395   395   395                              PRN / # OF OBS
   G08     1     1     1     1                              PRN / # OF OBS
   G09  1982  1982  1982  1982                              PRN / # OF OBS
   G13     5     5     5     5                              PRN / # OF OBS
   G14     1     1     1     1                              PRN / # OF OBS
   G16  1909  1909  1909  1909                              PRN / # OF OBS
   G20  1239  1239  1239  1239                              PRN / # OF OBS
   G21  1405  1405  1405  1405                              PRN / # OF OBS
   G22     2     2     2     2                              PRN / # OF OBS
   G23  1373  1373  1373  1373                              PRN / # OF OBS
   G24     1     1     1     1                              PRN / # OF OBS
   G26  2673  2673  2673  2673                              PRN / # OF OBS
   G27   113   113   113   113                              PRN / # OF OBS
   G29  3860  3860  3860  3860                              PRN / # OF OBS
   G30   221   221   221   221                              PRN / # OF OBS
   G31  1180  1180  1180  1180                              PRN / # OF OBS
   G32     1     1     1     1                              PRN / # OF OBS
                                                            END OF HEADER
 16  4  2 12  1  6.6000000  0  1G24
  24653926.391   129557256.953       -2298.320          48.000  
 16  4  2 12 11  6.9000000  0  2G08G21
  22548599.359   118493688.836       -3399.125          49.000  
  26767284.859   140663029.836        5674.629          48.000  
 16  4  2 12 21  6.6000000  0  1G22
  19570730.031   102844879.551       -2664.105          50.000  
 16  4  2 12 21  6.7000000  0  2G22G32
  19570780.789   102845146.258       -2669.906          50.000  
  18296813.016    96150400.629       -5337.758          49.000  
 16  4  2 12 31  7.2000000  0  1G16
  22356520.812   117484309.719        1146.816          49.000  
 16  4  2 12 31  7.3000000  0  1G16
  22356499.016   117484195.184        1143.148          49.000  
 16  4  2 12 31  7.4000000  0  1G16
  22356477.297   117484081.059        1139.285          49.000  
 16  4  2 12 31  7.5000000  0  1G16
  22356455.664   117483967.395        1134.512          49.000  
 16  4  2 12 31  7.6000000  0  1G16
  22356434.117   117483854.160        1130.051          49.000  
 16  4  2 12 31  7.7000000  0  1G16
  22356412.664   117483741.426        1125.117          49.000  
 16  4  2 12 31  7.8000000  0  1G16
  22356391.266   117483629.023        1121.844          49.000  
 16  4  2 12 31  7.9000000  0  1G16
  22356369.977   117483517.133        1116.602          49.000  
 16  4  2 12 31  8.0000000  0  1G16
  22356348.766   117483405.695        1112.430          49.000  
 16  4  2 12 31  8.1000000  0  1G16
  22356327.625   117483294.617        1108.676          49.000  
 16  4  2 12 31  8.2000000  0  1G16
  22356306.594   117483184.047        1103.480          49.000  
 16  4  2 12 31  8.3000000  0  1G16
  22356285.641   117483073.961        1098.371          49.000  
 16  4  2 12 31  8.4000000  0  1G16
  22356264.781   117482964.344        1093.965          49.000  
 16  4  2 12 31  8.5000000  0  1G16
  22356244.000   117482855.148        1089.797          49.000  
 16  4  2 12 31  8.6000000  0  1G16
  22356223.297   117482746.363        1085.574          49.000  
 16  4  2 12 31  8.7000000  0  1G16
  22356202.695   117482638.078        1080.691          49.000  
 16  4  2 12 31  8.8000000  0  1G16
  22356182.172   117482530.230        1076.113          49.000  
 16  4  2 12 31  8.9000000  0  1G16
  22356161.742   117482422.844        1071.617          49.000  
 16  4  2 12 31  9.0000000  0  1G16
  22356141.383   117482315.895        1067.250          49.000  
 16  4  2 12 31  9.1000000  0  1G16
  22356121.117   117482209.367        1063.023          49.000  
 16  4  2 12 31  9.2000000  0  1G16
  22356100.938   117482103.242        1059.297          49.000  
 16  4  2 12 31  9.3000000  0  1G16
  22356080.820   117481997.559        1054.629          49.000  
 16  4  2 12 31  9.4000000  0  1G16
  22356060.805   117481892.371        1049.555          49.000  
 16  4  2 12 31  9.5000000  0  1G16
  22356040.883   117481787.680        1044.371          49.000  
 16  4  2 12 31  9.6000000  0  1G16
  22356021.047   117481683.422        1040.164          49.000  
 16  4  2 12 31  9.7000000  0  1G16
  22356001.297   117481579.645        1035.328          49.000  
 16  4  2 12 31  9.8000000  0  1G16
  22355981.633   117481476.305        1031.168          49.000  
 16  4  2 12 31  9.9000000  0  1G16
  22355962.047   117481373.391        1026.918          49.000  
 16  4  2 12 31 10.0000000  0  1G16
  22355942.555   117481270.957        1022.211          49.000  
 16  4  2 12 31 10.1000000  0  1G16
  22355923.133   117481168.887        1018.441          49.000  
 16  4  2 12 31 10.2000000  0  1G16
  22355903.805   117481067.270        1013.973          49.000  
 16  4  2 12 31 10.3000000  0  1G16
  22355884.547   117480966.055        1009.965          49.000  
 16  4  2 12 31 10.4000000  0  1G16
  22355865.367   117480865.258        1005.715          49.000  
 16  4  2 12 31 10.5000000  0  1G16
  22355846.281   117480764.953        1000.836          49.000  
 16  4  2 12 31 10.6000000  0  1G16
  22355827.281   117480665.102         996.234          49.000  
 16  4  2 12 31 10.7000000  0  1G16
  22355808.359   117480565.660         992.105          49.000  
 16  4  2 12 31 10.8000000  0  1G16
  22355789.531   117480466.711         987.207          49.000  
 16  4  2 12 31 10.9000000  0  1G16
  22355770.781   117480368.184         983.094          49.000  
 16  4  2 12 31 11.0000000  0  1G16
  22355752.125   117480270.098         978.695          49.000  
 16  4  2 12 31 11.1000000  0  1G16
  22355733.547   117480172.453         974.113          49.000  
 16  4  2 12 31 11.2000000  0  1G16
  22355715.047   117480075.301         969.402          49.000  
 16  4  2 12 31 11.3000000  0  1G16
  22355696.633   117479978.508         965.773          49.000  
 16  4  2 12 31 11.4000000  0  1G16
  22355678.312   117479882.246         960.074          49.000  
 16  4  2 12 31 11.5000000  0  1G16
  22355660.086   117479786.465         955.555          49.000  
 16  4  2 12 31 11.6000000  0  1G16
  22355641.945   117479691.105         951.273          49.000  
 16  4  2 12 31 11.7000000  0  1G16
  22355623.875   117479596.141         947.410          49.000  
 16  4  2 12 31 11.8000000  0  1G16
  22355605.883   117479501.605         943.344          49.000  
 16  4  2 12 31 11.9000000  0  1G16
  22355587.977   117479407.500         938.777          49.000  
 16  4  2 12 31 12.0000000  0  1G16
  22355570.148   117479313.844         934.145          49.000  
 16  4  2 12 31 12.1000000  0  1G16
  22355552.430   117479220.723         928.875          49.000  
 16  4  2 12 31 12.2000000  0  1G16
  22355534.781   117479127.992         924.941          49.000  
 16  4  2 12 31 12.3000000  0  1G16
  22355517.219   117479035.695         920.688          49.000  
 16  4  2 12 31 12.4000000  0  1G16
  22355499.727   117478943.836         916.418          49.000  
 16  4  2 12 31 12.5000000  0  1G16
  22355482.328   117478852.398         912.281          49.000  
 16  4  2 12 31 12.6000000  0  1G16
  22355465.023   117478761.449         907.199          49.000  
 16  4  2 12 31 12.7000000  0  1G16
  22355447.797   117478670.902         903.250          49.000  
 16  4  2 12 31 12.8000000  0  1G16
  22355430.664   117478580.848         898.113          49.000  
 16  4  2 12 31 12.9000000  0  1G16
  22355413.609   117478491.219         894.230          49.000  
 16  4  2 12 31 13.0000000  0  1G16
  22355396.641   117478402.035         889.586          49.000  
 16  4  2 12 31 13.1000000  0  1G16
  22355379.758   117478313.320         884.730          49.000  
 16  4  2 12 31 13.2000000  0  1G16
  22355362.969   117478225.066         880.086          49.000  
 16  4  2 12 31 13.3000000  0  1G16
  22355346.258   117478137.254         875.977          49.000  
 16  4  2 12 31 13.4000000  0  1G16
  22355329.633   117478049.887         871.359          49.000  
 16  4  2 12 31 13.5000000  0  1G16
  22355313.094   117477962.957         867.117          49.000  
 16  4  2 12 31 13.6000000  0  1G16
  22355296.633   117477876.477         862.547          49.000  
 16  4  2 12 31 13.7000000  0  1G16
  22355280.258   117477790.434         858.145          49.000  
 16  4  2 12 31 13.8000000  0  1G16
  22355263.961   117477704.789         854.234          49.000  
 16  4  2 12 31 13.9000000  0  1G16
  22355247.758   117477619.629         849.438          49.000  
 16  4  2 12 31 14.0000000  0  1G16
  22355231.641   117477534.887         845.109          49.000  
 16  4  2 12 31 14.1000000  0  1G16
  22355215.602   117477450.578         840.750          49.000  
 16  4  2 12 31 14.2000000  0  1G16
  22355199.633   117477366.715         836.469          49.000  
 16  4  2 12 31 14.3000000  0  1G16
  22355183.766   117477283.340         831.570          49.000  
 16  4  2 12 31 14.4000000  0  1G16
  22355167.992   117477200.402         827.141          49.000  
 16  4  2 12 31 14.5000000  0  1G16
  22355152.281   117477117.844         823.348          49.000  
 16  4  2 12 31 14.6000000  0  1G16
  22355136.672   117477035.781         818.277          49.000  
 16  4  2 12 31 14.7000000  0  1G16
  22355121.148   117476954.223         813.465          49.000  
 16  4  2 12 31 14.8000000  0  1G16
  22355105.719   117476873.078         809.105          49.000  
 16  4  2 12 31 14.9000000  0  1G16
  22355090.352   117476792.348         804.922          49.000  
 16  4  2 12 31 15.0000000  0  1G16
  22355075.094   117476712.117         799.996          49.000  
 16  4  2 12 31 15.1000000  0  1G16
  22355059.914   117476632.352         795.227          49.000  
 16  4  2 12 31 15.2000000  0  1G16
  22355044.812   117476553.027         790.945          49.000  
 16  4  2 12 31 15.3000000  0  1G16
  22355029.797   117476474.109         786.773          49.000  
 16  4  2 12 31 15.4000000  0  1G16
  22355014.891   117476395.742         781.523          49.000  
 16  4  2 12 31 15.5000000  0  1G16
  22355000.047   117476317.742         777.590          49.000  
 16  4  2 12 31 15.6000000  0  1G16
  22354985.297   117476240.191         773.297          49.000  
 16  4  2 12 31 15.7000000  0  1G16
  22354970.625   117476163.125         768.426          49.000  
 16  4  2 12 31 15.8000000  0  1G16
  22354956.047   117476086.473         763.984          49.000  
 16  4  2 12 31 15.9000000  0  1G16
  22354941.547   117476010.281         759.754          49.000  
 16  4  2 12 31 16.0000000  0  1G16
  22354927.117   117475934.480         755.926          49.000  
 16  4  2 12 31 16.1000000  0  1G16
  22354912.766   117475859.094         751.676          49.000  
 16  4  2 12 31 16.2000000  0  1G16
  22354898.516   117475784.191         746.922          49.000  
 16  4  2 12 31 16.3000000  0  1G16
  22354884.344   117475709.711         742.641          49.000  
 16  4  2 12 31 16.4000000  0  1G16
  22354870.242   117475635.672         738.070          49.000  
 16  4  2 12 31 16.5000000  0  1G16
  22354856.250   117475562.133         733.090          49.000  
 16  4  2 12 31 16.6000000  0  1G16
  22354842.344   117475489.012         728.746          49.000  
 16  4  2 12 31 16.7000000  0  1G16
  22354828.531   117475416.418         723.723          49.000  
 16  4  2 12 31 16.8000000  0  1G16
  22354814.797   117475344.223         719.488          49.000  
 16  4  2 12 31 16.9000000  0  1G16
  22354801.148   117475272.504         715.102          49.000  
 16  4  2 12 31 17.0000000  0  1G16
  22354787.578   117475201.227         710.504          49.000  
 16  4  2 12 31 17.1000000  0  1G16
  22354774.086   117475130.320         706.824          49.000  
 16  4  2 12 31 17.2000000  0  1G16
  22354760.703   117475059.938         701.672          49.000  
 16  4  2 12 31 17.3000000  0  1G16
  22354747.383   117474989.949         697.562          49.000  
 16  4  2 12 31 17.4000000  0  1G16
  22354734.156   117474920.492         692.332          49.000  
 16  4  2 12 31 17.5000000  0  1G16
  22354721.008   117474851.414         688.547          49.000  
 16  4  2 12 31 17.6000000  0  1G16
  22354707.938   117474782.773         684.207          49.000  
 16  4  2 12 31 17.7000000  0  1G16
  22354694.961   117474714.559         680.145          49.000  
 16  4  2 12 31 17.8000000  0  1G16
  22354682.055   117474646.758         675.738          49.000  
 16  4  2 12 31 17.9000000  0  1G16
  22354669.250   117474579.473         670.578          49.000  
 16  4  2 12 31 18.0000000  0  1G16
  22354656.531   117474512.609         666.230          49.000  
 16  4  2 12 31 18.1000000  0  1G16
  22354643.891   117474446.191         661.730          49.000  
 16  4  2 12 31 18.2000000  0  1G16
  22354631.336   117474380.246         657.184          49.000  
 16  4  2 12 31 18.3000000  0  1G16
  22354618.875   117474314.734         652.883          49.000  
 16  4  2 12 31 18.4000000  0  1G16
  22354606.484   117474249.648         648.859          49.000  
 16  4  2 12 31 18.5000000  0  1G16
  22354594.180   117474184.980         644.289          49.000  
 16  4  2 12 31 18.6000000  0  1G16
  22354581.969   117474120.789         639.668          49.000  
 16  4  2 12 31 18.7000000  0  1G16
  22354569.836   117474057.055         635.152          49.000  
 16  4  2 12 31 18.8000000  0  1G16
  22354557.797   117473993.766         630.617          49.000  
 16  4  2 12 31 18.9000000  0  1G16
  22354545.828   117473930.883         626.672          49.000  
 16  4  2 12 31 19.0000000  0  1G16
  22354533.953   117473868.461         621.988          49.000  
 16  4  2 12 31 19.1000000  0  1G16
  22354522.156   117473806.465         617.738          49.000  
 16  4  2 12 31 19.2000000  0  1G16
  22354510.445   117473744.910         613.078          49.000  
 16  4  2 12 31 19.3000000  0  1G16
  22354498.820   117473683.812         608.844          49.000  
 16  4  2 12 31 19.4000000  0  1G16
  22354487.266   117473623.121         604.840          49.000  
 16  4  2 12 31 19.5000000  0  1G16
  22354475.805   117473562.879         599.945          49.000  
 16  4  2 12 31 19.6000000  0  1G16
  22354464.430   117473503.105         595.430          49.000  
 16  4  2 12 31 19.7000000  0  1G16
  22354453.141   117473443.781         590.969          49.000  
 16  4  2 12 31 19.8000000  0  1G16
  22354441.945   117473384.910         586.523          49.000  
 16  4  2 12 31 19.9000000  0  1G16
  22354430.812   117473326.430         582.613          49.000  
 16  4  2 12 31 20.0000000  0  1G16
  22354419.781   117473268.441         577.539          49.000  
 16  4  2 12 31 20.1000000  0  1G16
  22354408.820   117473210.852         573.469          49.000  
 16  4  2 12 31 20.2000000  0  1G16
  22354397.961   117473153.754         568.758          49.000  
 16  4  2 12 31 20.3000000  0  1G16
  22354387.180   117473097.098         564.215          49.000  
 16  4  2 12 31 20.4000000  0  1G16
  22354376.477   117473040.855         560.211          49.000  
 16  4  2 12 31 20.5000000  0  1G16
  22354365.859   117472985.066         555.672          49.000  
 16  4  2 12 31 20.6000000  0  1G16
  22354355.328   117472929.730         551.070          49.000  
 16  4  2 12 31 20.7000000  0  1G16
  22354344.875   117472874.793         547.340          49.000  
 16  4  2 12 31 20.8000000  0  1G16
  22354334.484   117472820.219         543.590          49.000  
 16  4  2 12 31 20.9000000  0  1G16
  22354324.188   117472766.113         538.770          49.000  
 16  4  2 12 31 21.0000000  0  1G16
  22354313.992   117472712.547         533.281          49.000  
 16  4  2 12 31 21.1000000  0  1G16
  22354303.883   117472659.395         529.043          49.000  
 16  4  2 12 31 21.2000000  0  1G16
  22354293.852   117472606.707         524.496          49.000  
 16  4  2 12 31 21.3000000  0  1G16
  22354283.914   117472554.480         519.805          49.000  
 16  4  2 12 31 21.4000000  0  1G16
  22354274.055   117472502.699         515.629          49.000  
 16  4  2 12 31 21.5000000  0  1G16
  22354264.266   117472451.254         512.410          49.000  
 16  4  2 12 31 21.6000000  0  1G16
  22354254.562   117472400.227         508.254          49.000  
 16  4  2 12 31 21.7000000  0  1G16
  22354244.930   117472349.641         503.676          49.000  
 16  4  2 12 31 21.8000000  0  1G16
  22354235.398   117472299.523         499.016          49.000  
 16  4  2 12 31 21.9000000  0  1G16
  22354225.953   117472249.863         494.094          49.000  
 16  4  2 12 31 22.0000000  0  1G16
  22354216.570   117472200.617         490.258          49.000  
 16  4  2 12 31 22.1000000  0  1G16
  22354207.281   117472151.812         485.684          49.000  
 16  4  2 12 31 22.2000000  0  1G16
  22354198.094   117472103.520         480.629          49.000  
 16  4  2 12 31 22.3000000  0  1G16
  22354188.977   117472055.625         476.641          49.000  
 16  4  2 12 31 22.4000000  0  1G16
  22354179.953   117472008.191         472.180          49.000  
 16  4  2 12 31 22.5000000  0  1G16
  22354171.008   117471961.172         468.129          49.000  
 16  4  2 12 31 22.6000000  0  1G16
  22354162.141   117471914.555         463.941          49.000  
 16  4  2 12 31 22.7000000  0  1G16
  22354153.367   117471868.434         458.977          49.000  
 16  4  2 12 31 22.8000000  0  1G16
  22354144.672   117471822.723         454.770          49.000  
 16  4  2 12 31 22.9000000  0  1G16
  22354136.047   117471777.410         451.133          49.000  
 16  4  2 12 31 23.0000000  0  1G16
  22354127.516   117471732.570         446.484          49.000  
 16  4  2 12 31 23.1000000  0  1G16
  22354119.055   117471688.133         442.070          49.000  
 16  4  2 12 31 23.2000000  0  1G16
  22354110.680   117471644.133         437.586          49.000  
 16  4  2 12 31 23.3000000  0  1G16
  22354102.406   117471600.648         432.531          49.000  
 16  4  2 12 31 23.4000000  0  1G16
  22354094.219   117471557.594         428.359          49.000  
 16  4  2 12 31 23.5000000  0  1G16
  22354086.102   117471514.926         424.340          49.000  
 16  4  2 12 31 23.6000000  0  1G16
  22354078.078   117471472.773         419.352          49.000  
 16  4  2 12 31 23.7000000  0  1G16
  22354070.133   117471430.992         415.500          49.000  
 16  4  2 12 31 23.8000000  0  1G16
  22354062.281   117471389.734         410.367          49.000  
 16  4  2 12 31 23.9000000  0  1G16
  22354054.500   117471348.848         406.586          49.000  
 16  4  2 12 31 24.0000000  0  1G16
  22354046.820   117471308.473         401.582          49.000  
 16  4  2 12 31 24.1000000  0  1G16
  22354039.219   117471268.531         397.109          49.000  
 16  4  2 12 31 24.2000000  0  1G16
  22354031.688   117471228.973         393.387          49.000  
 16  4  2 12 31 24.3000000  0  1G16
  22354024.242   117471189.832         389.387          49.000  
 16  4  2 12 31 24.4000000  0  1G16
  22354016.875   117471151.168         384.496          49.000  
 16  4  2 12 31 24.5000000  0  1G16
  22354009.609   117471112.996         379.285          49.000  
 16  4  2 12 31 24.6000000  0  1G16
  22354002.438   117471075.266         374.910          49.000  
 16  4  2 12 31 24.7000000  0  1G16
  22353995.328   117471037.934         371.203          49.000  
 16  4  2 12 31 24.8000000  0  1G16
  22353988.320   117471001.055         366.617          49.000  
 16  4  2 12 31 24.9000000  0  1G16
  22353981.375   117470964.578         362.578          49.000  
 16  4  2 12 31 25.0000000  0  1G16
  22353974.523   117470928.578         357.785          49.000  
 16  4  2 12 31 25.1000000  0  1G16
  22353967.758   117470893.043         353.039          49.000  
 16  4  2 12 31 25.2000000  0  1G16
  22353961.086   117470857.941         348.668          49.000  
 16  4  2 12 31 25.3000000  0  1G16
  22353954.484   117470823.277         344.398          49.000  
 16  4  2 12 31 25.4000000  0  1G16
  22353947.977   117470789.078         339.758          49.000  
 16  4  2 12 31 25.5000000  0  1G16
  22353941.555   117470755.324         335.309          49.000  
 16  4  2 12 31 25.6000000  0  1G16
  22353935.203   117470721.973         331.152          49.000  
 16  4  2 12 31 25.7000000  0  2G16G26
  22353928.945   117470689.090         326.562          49.000  
  21883966.094   115001016.996       13957.992          49.000  
 16  4  2 12 31 25.8000000  0  3G16G26G31
  22353922.773   117470656.637         322.258          49.000  
  21883700.531   114999621.438       13953.250          49.000  
  22469244.586   118076676.652       13151.477          50.000  
 16  4  2 12 31 25.9000000  0  3G16G26G31
  22353916.680   117470624.633         317.910          49.000  
  21883435.070   114998226.332       13948.848          49.000  
  22468994.367   118075361.750       13146.406          50.000  
 16  4  2 12 31 26.0000000  0  3G16G26G31
  22353910.672   117470593.023         313.934          49.000  
  21883169.680   114996831.668       13944.406          49.000  
  22468744.281   118074047.336       13141.512          50.000  
 16  4  2 12 31 26.1000000  0  3G16G26G31
  22353904.742   117470561.871         309.379          49.000  
  21882904.375   114995437.480       13939.629          49.000  
  22468494.258   118072733.461       13136.141          50.000  
 16  4  2 12 31 26.2000000  0  3G16G26G31
  22353898.898   117470531.172         304.684          49.000  
  21882639.164   114994043.777       13934.668          49.000  
  22468244.352   118071420.117       13130.621          50.000  
 16  4  2 12 31 26.3000000  0  3G16G26G31
  22353893.148   117470500.969         299.707          49.000  
  21882374.031   114992650.598       13929.391          49.000  
  22467994.547   118070107.359       13124.859          50.000  
 16  4  2 12 31 26.4000000  0  3G16G26G31
  22353887.492   117470471.215         295.297          49.000  
  21882109.008   114991257.891       13924.773          49.000  
  22467744.828   118068795.129       13119.602          50.000  
 16  4  2 12 31 26.5000000  0  3G16G26G31
  22353881.906   117470441.867         291.316          49.000  
  21881844.070   114989865.625       13920.430          49.000  
  22467495.211   118067483.398       13114.699          50.000  
 16  4  2 12 31 26.6000000  0  3G16G26G31
  22353876.391   117470412.891         287.582          49.000  
  21881579.203   114988473.770       13916.383          49.000  
  22467245.688   118066172.125       13110.180          50.000  
 16  4  2 12 31 26.7000000  0  3G16G26G31
  22353870.969   117470384.391         282.805          49.000  
  21881314.414   114987082.395       13911.531          49.000  
  22466996.266   118064861.406       13104.648          50.000  
 16  4  2 12 31 26.8000000  0  3G16G26G31
  22353865.641   117470356.391         277.734          49.000  
  21881049.750   114985691.566       13905.895          49.000  
  22466746.938   118063551.277       13098.559          50.000  
 16  4  2 12 31 26.9000000  0  3G16G26G31
  22353860.383   117470328.789         273.699          49.000  
  21880785.156   114984301.156       13901.660          49.000  
  22466497.727   118062241.629       13093.656          50.000  
 16  4  2 12 31 27.0000000  0  3G16G26G31
  22353855.219   117470301.602         269.566          49.000  
  21880520.656   114982911.191       13897.289          49.000  
  22466248.594   118060932.473       13088.770          50.000  
 16  4  2 12 31 27.1000000  0  3G16G26G31
  22353850.133   117470274.902         264.887          49.000  
  21880256.258   114981521.738       13892.297          49.000  
  22465999.586   118059623.898       13083.176          50.000  
 16  4  2 12 31 27.2000000  0  3G16G26G31
  22353845.141   117470248.629         260.188          49.000  
  21879991.938   114980132.746       13887.410          49.000  
  22465750.656   118058315.828       13077.668          50.000  
 16  4  2 12 31 27.3000000  0  3G16G26G31
  22353840.234   117470222.836         255.746          49.000  
  21879727.719   114978744.254       13882.648          49.000  
  22465501.844   118057008.324       13072.387          50.000  
 16  4  2 12 31 27.4000000  0  3G16G26G31
  22353835.398   117470197.434         251.809          49.000  
  21879463.578   114977356.191       13878.320          49.000  
  22465253.148   118055701.297       13067.562          50.000  
 16  4  2 12 31 27.5000000  0  3G16G26G31
  22353830.648   117470172.477         247.445          49.000  
  21879199.516   114975968.594       13873.699          49.000  
  22465004.531   118054394.797       13062.363          50.000  
 16  4  2 12 31 27.6000000  0  3G16G26G31
  22353825.977   117470147.953         243.055          49.000  
  21878935.555   114974581.457       13869.059          49.000  
  22464756.016   118053088.812       13057.188          50.000  
 16  4  2 12 31 27.7000000  0  3G16G26G31
  22353821.391   117470123.867         238.664          49.000  
  21878671.688   114973194.797       13864.344          49.000  
  22464507.594   118051783.355       13051.895          50.000  
 16  4  2 12 31 27.8000000  0  3G16G26G31
  22353816.914   117470100.305         233.348          49.000  
  21878407.922   114971808.688       13858.742          49.000  
  22464259.289   118050478.512       13045.746          50.000  
 16  4  2 12 31 27.9000000  0  3G16G26G31
  22353812.508   117470077.148         229.309          49.000  
  21878144.250   114970423.008       13854.348          49.000  
  22464011.078   118049174.152       13040.805          50.000  
 16  4  2 12 31 28.0000000  0  3G16G26G31
  22353808.188   117470054.453         224.848          49.000  
  21877880.656   114969037.801       13849.867          49.000  
  22463762.969   118047870.320       13035.684          50.000  
 16  4  2 12 31 28.1000000  0  3G16G26G31
  22353803.953   117470032.191         220.270          49.000  
  21877617.141   114967653.086       13844.875          49.000  
  22463514.961   118046567.043       13030.117          50.000  
 16  4  2 12 31 28.2000000  0  3G16G26G31
  22353799.805   117470010.422         215.504          49.000  
  21877353.734   114966268.875       13839.824          49.000  
  22463267.078   118045264.324       13024.512          50.000  
 16  4  2 12 31 28.3000000  0  3G16G26G31
  22353795.727   117469988.973         212.383          49.000  
  21877090.422   114964885.016       13836.352          49.000  
  22463019.258   118043962.008       13020.551          50.000  
 16  4  2 12 31 28.4000000  0  3G16G26G31
  22353791.734   117469968.012         207.355          49.000  
  21876827.180   114963501.676       13831.051          49.000  
  22462771.547   118042660.266       13014.742          50.000  
 16  4  2 12 31 28.5000000  0  3G16G26G31
  22353787.828   117469947.488         203.164          49.000  
  21876564.039   114962118.801       13826.633          49.000  
  22462523.930   118041359.051       13009.648          50.000  
 16  4  2 12 31 28.6000000  0  3G16G26G31
  22353784.000   117469927.387         198.750          49.000  
  21876300.969   114960736.375       13821.875          49.000  
  22462276.414   118040058.336       13004.391          50.000  
 16  4  2 12 31 28.7000000  0  3G16G26G31
  22353780.258   117469907.715         194.496          49.000  
  21876037.984   114959354.414       13817.352          49.000  
  22462029.000   118038758.145       12999.309          50.000  
 16  4  2 12 31 28.8000000  0  3G16G26G31
  22353776.602   117469888.457         190.414          49.000  
  21875775.086   114957972.883       13813.098          49.000  
  22461781.680   118037458.445       12994.422          50.000  
 16  4  2 12 31 28.9000000  0  3G16G26G31
  22353773.016   117469869.633         185.906          49.000  
  21875512.266   114956591.836       13808.090          49.000  
  22461534.453   118036159.266       12989.027          50.000  
 16  4  2 12 31 29.0000000  0  3G16G26G31
  22353769.531   117469851.297         181.211          49.000  
  21875249.555   114955211.285       13803.219          49.000  
  22461287.359   118034860.668       12983.379          50.000  
 16  4  2 12 31 29.1000000  0  3G16G26G31
  22353766.117   117469833.387         176.855          49.000  
  21874986.953   114953831.191       13798.574          49.000  
  22461040.336   118033562.562       12978.258          50.000  
 16  4  2 12 31 29.2000000  0  3G16G26G31
  22353762.812   117469815.977         171.691          49.000  
  21874724.430   114952451.633       13793.141          49.000  
  22460793.461   118032265.062       12972.188          50.000  
 16  4  2 12 31 29.3000000  0  3G16G26G31
  22353759.594   117469799.086         166.633          49.000  
  21874462.016   114951072.617       13787.828          49.000  
  22460546.664   118030968.148       12966.473          50.000  
 16  4  2 12 31 29.4000000  0  3G16G26G31
  22353756.438   117469782.496         163.473          49.000  
  21874199.664   114949693.938       13784.418          49.000  
  22460299.953   118029671.633       12962.336          50.000  
 16  4  2 12 31 29.5000000  0  3G16G26G31
  22353753.383   117469766.430         158.453          49.000  
  21873937.422   114948315.809       13779.004          49.000  
  22460053.352   118028375.727       12956.328          50.000  
 16  4  2 12 31 29.6000000  0  3G16G26G31
  22353750.391   117469750.758         154.734          49.000  
  21873675.250   114946938.102       13775.000          49.000  
  22459806.828   118027080.289       12951.938          50.000  
 16  4  2 12 31 29.7000000  0  3G16G26G31
  22353747.492   117469735.527         150.191          49.000  
  21873413.180   114945560.863       13770.176          49.000  
  22459560.414   118025785.387       12946.496          50.000  
 16  4  2 12 31 29.8000000  0  3G16G26G31
  22353744.672   117469720.711         145.984          49.000  
  21873151.188   114944184.074       13765.641          49.000  
  22459314.078   118024490.984       12941.438          50.000  
 16  4  2 12 31 29.9000000  0  3G16G26G31
  22353741.930   117469706.301         141.945          49.000  
  21872889.266   114942807.723       13761.312          49.000  
  22459067.852   118023197.066       12936.590          50.000  
 16  4  2 12 31 30.0000000  0  3G16G26G31
  22353739.273   117469692.367         137.168          49.000  
  21872627.445   114941431.859       13756.367          49.000  
  22458821.719   118021903.719       12930.852          50.000  
 16  4  2 12 31 30.1000000  0  3G16G26G31
  22353736.711   117469678.910         132.160          49.000  
  21872365.742   114940056.520       13750.938          49.000  
  22458575.703   118020610.922       12925.074          50.000  
 16  4  2 12 31 30.2000000  0  3G16G26G31
  22353734.234   117469665.887         127.898          49.000  
  21872104.109   114938681.633       13746.523          49.000  
  22458329.766   118019318.656       12919.938          50.000  
 16  4  2 12 31 30.3000000  0  3G16G26G31
  22353731.836   117469653.258         124.094          49.000  
  21871842.586   114937307.176       13742.285          49.000  
  22458083.945   118018026.859       12915.297          50.000  
 16  4  2 12 31 30.4000000  0  3G16G26G31
  22353729.531   117469641.137         119.031          49.000  
  21871581.141   114935933.254       13736.973          49.000  
  22457838.234   118016735.664       12909.340          50.000  
 16  4  2 12 31 30.5000000  0  3G16G26G31
  22353727.289   117469629.395         115.320          49.000  
  21871319.766   114934559.742       13732.891          49.000  
  22457592.617   118015444.930       12904.801          50.000  
 16  4  2 12 31 30.6000000  0  3G16G26G31
  22353725.133   117469618.051         111.176          49.000  
  21871058.477   114933186.652       13728.609          49.000  
  22457347.102   118014154.680       12899.797          50.000  
 16  4  2 12 31 30.7000000  0  3G16G26G31
  22353723.070   117469607.188         106.453          49.000  
  21870797.289   114931814.082       13723.434          49.000  
  22457101.680   118012864.996       12894.203          50.000  
 16  4  2 12 31 30.8000000  0  3G16G26G31
  22353721.078   117469596.738         102.320          49.000  
  21870536.180   114930441.949       13719.023          49.000  
  22456856.352   118011575.812       12889.215          50.000  
 16  4  2 12 31 30.9000000  0  3G16G26G31
  22353719.172   117469586.727          97.852          49.000  
  21870275.156   114929070.277       13714.379          49.000  
  22456611.125   118010287.145       12884.004          50.000  
 16  4  2 12 31 31.0000000  0  3G16G26G31
  22353717.344   117469577.141          93.762          49.000  
  21870014.219   114927699.066       13709.949          49.000  
  22456366.008   118008999.000       12878.961          50.000  
 16  4  2 12 31 31.1000000  0  3G16G26G31
  22353715.617   117469568.062          88.500          49.000  
  21869753.398   114926328.395       13704.352          49.000  
  22456120.992   118007711.434       12872.918          50.000  
 16  4  2 12 31 31.2000000  0  3G16G26G31
  22353713.969   117469559.410          84.285          49.000  
  21869492.656   114924958.164       13699.965          49.000  
  22455876.086   118006424.391       12867.809          50.000  
 16  4  2 12 31 31.3000000  0  3G16G26G31
  22353712.391   117469551.125          80.656          49.000  
  21869232.000   114923588.352       13695.859          49.000  
  22455631.250   118005137.801       12863.258          50.000  
 16  4  2 12 31 31.4000000  0  3G16G26G31
  22353710.914   117469543.320          75.922          49.000  
  21868971.430   114922219.039       13690.926          49.000  
  22455386.531   118003851.773       12857.703          50.000  
 16  4  2 12 31 31.5000000  0  3G16G26G31
  22353709.500   117469535.914          72.008          49.000  
  21868710.922   114920850.152       13686.738          49.000  
  22455141.898   118002566.227       12852.984          50.000  
 16  4  2 12 31 31.6000000  0  3G16G26G31
  22353708.180   117469528.965          67.148          49.000  
  21868450.523   114919481.758       13681.527          49.000  
  22454897.375   118001281.227       12847.148          50.000  
 16  4  2 12 31 31.7000000  0  3G16G26G31
  22353706.945   117469522.508          62.344          49.000  
  21868190.227   114918113.875       13676.469          49.000  
  22454652.953   117999996.801       12841.527          50.000  
 16  4  2 12 31 31.8000000  0  3G16G26G31
  22353705.805   117469516.473          58.051          49.000  
  21867930.016   114916746.457       13671.867          49.000  
  22454408.656   117998712.887       12836.371          50.000  
 16  4  2 12 31 31.9000000  0  3G16G26G31
  22353704.742   117469510.875          53.578          49.000  
  21867669.891   114915379.500       13667.141          49.000  
  22454164.438   117997429.496       12831.105          50.000  
 16  4  2 12 31 32.0000000  0  3G16G26G31
  22353703.773   117469505.793          48.492          49.000  
  21867409.867   114914013.082       13661.762          49.000  
  22453920.352   117996146.703       12825.098          50.000  
 16  4  2 12 31 32.1000000  0  3G16G26G31
  22353702.883   117469501.098          44.711          49.000  
  21867149.930   114912647.090       13657.570          49.000  
  22453676.328   117994864.383       12820.539          50.000  
 16  4  2 12 31 32.2000000  0  3G16G26G31
  22353702.070   117469496.844          40.277          49.000  
  21866890.078   114911281.562       13652.914          49.000  
  22453432.422   117993582.598       12815.012          50.000  
 16  4  2 12 31 32.3000000  0  3G16G26G31
  22353701.352   117469493.055          35.656          49.000  
  21866630.320   114909916.539       13647.914          49.000  
  22453188.609   117992301.348       12809.828          50.000  
 16  4  2 12 31 32.4000000  0  3G16G26G31
  22353700.711   117469489.656          31.715          49.000  
  21866370.641   114908551.930       13643.773          49.000  
  22452944.875   117991020.590       12804.855          50.000  
 16  4  2 12 31 32.5000000  0  3G16G26G31
  22353700.156   117469486.773          26.730          49.000  
  21866111.062   114907187.859       13638.621          49.000  
  22452701.266   117989740.422       12799.266          50.000  
 16  4  2 12 31 32.6000000  0  3G16G26G31
  22353699.672   117469484.270          22.660          49.000  
  21865851.570   114905824.203       13634.156          49.000  
  22452457.742   117988460.719       12794.223          50.000  
 16  4  2 12 31 32.7000000  0  3G16G26G31
  22353699.289   117469482.250          17.902          49.000  
  21865592.188   114904461.074       13628.926          49.000  
  22452214.336   117987181.598       12788.461          50.000  
 16  4  2 12 31 32.8000000  0  3G16G26G31
  22353698.977   117469480.605          14.344          49.000  
  21865332.867   114903098.328       13625.199          49.000  
  22451971.016   117985902.930       12784.102          50.000  
 16  4  2 12 31 32.9000000  0  3G16G26G31
  22353698.758   117469479.449           9.414          49.000  
  21865073.641   114901736.117       13619.883          49.000  
  22451727.805   117984624.844       12778.195          50.000  
 16  4  2 12 31 33.0000000  0  3G16G26G31
  22353698.625   117469478.754           4.891          49.000  
  21864814.516   114900374.383       13615.125          49.000  
  22451484.695   117983347.285       12773.000          50.000  
 16  4  2 12 31 33.1000000  0  3G16G26G31
  22353698.555   117469478.414           1.062          49.000  
  21864555.469   114899013.047       13610.949          49.000  
  22451241.672   117982070.184       12768.230          50.000  
 16  4  2 12 31 33.2000000  0  3G16G26G31
  22353698.578   117469478.508          -3.270          49.000  
  21864296.508   114897652.172       13606.352          49.000  
  22450998.734   117980793.594       12763.090          50.000  
 16  4  2 12 31 33.3000000  0  3G16G26G31
  22353698.703   117469479.137          -8.320          49.000  
  21864037.625   114896291.855       13600.992          49.000  
  22450755.930   117979517.633       12757.082          50.000  
 16  4  2 12 31 33.4000000  0  3G16G26G31
  22353698.898   117469480.176         -12.664          49.000  
  21863778.852   114894931.984       13596.324          49.000  
  22450513.219   117978242.168       12751.875          50.000  
 16  4  2 12 31 33.5000000  0  3G16G26G31
  22353699.164   117469481.605         -16.527          49.000  
  21863520.156   114893572.535       13592.168          49.000  
  22450270.594   117976967.172       12747.230          50.000  
 16  4  2 12 31 33.6000000  0  3G16G26G31
  22353699.523   117469483.492         -21.070          49.000  
  21863261.555   114892213.566       13587.418          49.000  
  22450028.078   117975692.727       12741.844          50.000  
 16  4  2 12 31 33.7000000  0  3G16G26G31
  22353699.969   117469485.840         -25.723          49.000  
  21863003.055   114890855.090       13582.488          49.000  
  22449785.664   117974418.824       12736.344          50.000  
 16  4  2 12 31 33.8000000  0  3G16G26G31
  22353700.492   117469488.578         -29.574          49.000  
  21862744.625   114889497.047       13578.094          49.000  
  22449543.352   117973145.406       12731.449          50.000  
 16  4  2 12 31 33.9000000  0  3G16G26G31
  22353701.102   117469491.762         -33.941          49.000  
  21862486.297   114888139.465       13573.578          49.000  
  22449301.125   117971872.512       12726.406          50.000  
 16  4  2 12 31 34.0000000  0  3G16G26G31
  22353701.789   117469495.395         -38.438          49.000  
  21862228.047   114886782.363       13568.832          49.000  
  22449058.992   117970600.145       12721.023          50.000  
 16  4  2 12 31 34.1000000  0  3G16G26G31
  22353702.578   117469499.504         -43.473          49.000  
  21861969.875   114885425.773       13563.445          49.000  
  22448816.977   117969328.355       12715.047          50.000  
 16  4  2 12 31 34.2000000  0  3G16G26G31
  22353703.445   117469504.059         -47.887          49.000  
  21861711.820   114884069.668       13558.699          49.000  
  22448575.062   117968057.090       12709.898          50.000  
 16  4  2 12 31 34.3000000  0  3G16G26G31
  22353704.398   117469509.070         -52.520          49.000  
  21861453.867   114882714.031       13553.863          49.000  
  22448333.258   117966786.367       12704.414          50.000  
 16  4  2 12 31 34.4000000  0  3G16G26G31
  22353705.422   117469514.449         -56.121          49.000  
  21861195.977   114881358.809       13549.879          49.000  
  22448091.523   117965516.102       12699.906          50.000  
 16  4  2 12 31 34.5000000  0  3G16G26G31
  22353706.539   117469520.320         -60.711          49.000  
  21860938.172   114880004.090       13545.082          49.000  
  22447849.914   117964246.422       12694.320          50.000  
 16  4  2 12 31 34.6000000  0  3G16G26G31
  22353707.750   117469526.668         -65.758          49.000  
  21860680.477   114878649.895       13539.645          49.000  
  22447608.406   117962977.289       12688.543          50.000  
 16  4  2 12 31 34.7000000  0  3G16G26G31
  22353709.031   117469533.418         -69.750          49.000  
  21860422.859   114877296.129       13535.359          49.000  
  22447366.992   117961708.656       12683.672          50.000  
 16  4  2 12 31 34.8000000  0  3G16G26G31
  22353710.406   117469540.625         -74.223          49.000  
  21860165.336   114875942.844       13530.641          49.000  
  22447125.664   117960440.559       12678.336          50.000  
 16  4  2 12 31 34.9000000  0  3G16G26G31
  22353711.859   117469548.242         -78.488          49.000  
  21859907.898   114874590.016       13525.945          49.000  
  22446884.453   117959172.969       12673.082          50.000  
 16  4  2 12 31 35.0000000  0  3G16G26G31
  22353713.398   117469556.336         -83.074          49.000  
  21859650.555   114873237.676       13521.160          49.000  
  22446643.352   117957905.930       12667.812          50.000  
 16  4  2 12 31 35.1000000  0  3G16G26G31
  22353715.016   117469564.855         -87.520          49.000  
  21859393.289   114871885.797       13516.430          49.000  
  22446402.336   117956639.402       12662.539          50.000  
 16  4  2 12 31 35.2000000  0  3G16G26G31
  22353716.727   117469573.824         -91.859          49.000  
  21859136.133   114870534.402       13511.680          49.000  
  22446161.422   117955373.426       12657.117          50.000  
 16  4  2 12 31 35.3000000  0  3G16G26G31
  22353718.523   117469583.273         -96.660          49.000  
  21858879.062   114869183.520       13506.543          49.000  
  22445920.617   117954108.000       12651.594          50.000  
 16  4  2 12 31 35.4000000  0  3G16G26G31
  22353720.391   117469593.121        -100.855          49.000  
  21858622.078   114867833.059       13502.160          49.000  
  22445679.898   117952843.062       12646.570          50.000  
 16  4  2 12 31 35.5000000  0  3G16G26G31
  22353722.352   117469603.422        -105.113          49.000  
  21858365.172   114866483.086       13497.531          49.000  
  22445439.297   117951578.672       12641.375          50.000  
 16  4  2 12 31 35.6000000  0  3G16G26G31
  22353724.391   117469614.137        -109.320          49.000  
  21858108.359   114865133.562       13493.039          49.000  
  22445198.789   117950314.785       12636.219          50.000  
 16  4  2 12 31 35.7000000  0  3G16G26G31
  22353726.516   117469625.293        -113.770          49.000  
  21857851.641   114863784.500       13488.383          49.000  
  22444958.375   117949051.414       12631.078          50.000  
 16  4  2 12 31 35.8000000  0  3G16G26G31
  22353728.742   117469636.988        -119.078          49.000  
  21857595.039   114862436.023       13482.523          49.000  
  22444718.086   117947788.676       12624.793          50.000  
 16  4  2 12 31 35.9000000  0  3G16G26G31
  22353731.031   117469649.039        -122.875          49.000  
  21857338.500   114861087.918       13478.559          49.000  
  22444477.883   117946526.379       12620.082          50.000  
 16  4  2 12 31 36.0000000  0  3G16G26G31
  22353733.398   117469661.500        -126.926          49.000  
  21857082.047   114859740.258       13474.250          49.000  
  22444237.789   117945264.566       12615.312          50.000  
 16  4  2 12 31 36.1000000  0  3G16G26G31
  22353735.859   117469674.434        -131.324          49.000  
  21856825.703   114858393.102       13469.473          49.000  
  22443997.781   117944003.332       12609.875          50.000  
 16  4  2 12 31 36.2000000  0  3G16G26G31
  22353738.406   117469687.812        -136.008          49.000  
  21856569.438   114857046.418       13464.648          49.000  
  22443757.859   117942742.613       12604.547          50.000  
 16  4  2 12 31 36.3000000  0  3G16G26G31
  22353741.031   117469701.621        -140.480          49.000  
  21856313.266   114855700.207       13459.688          49.000  
  22443518.047   117941482.418       12599.199          50.000  
 16  4  2 12 31 36.4000000  0  3G16G26G31
  22353743.734   117469715.828        -144.223          49.000  
  21856057.172   114854354.426       13455.629          49.000  
  22443278.336   117940222.723       12594.438          50.000  
 16  4  2 12 31 36.5000000  0  3G16G26G31
  22353746.523   117469730.480        -148.605          49.000  
  21855801.164   114853009.109       13450.934          49.000  
  22443038.719   117938963.543       12589.219          50.000  
 16  4  2 12 31 36.6000000  0  3G16G26G31
  22353749.398   117469745.574        -153.219          49.000  
  21855545.250   114851664.258       13446.156          49.000  
  22442799.219   117937704.887       12583.836          50.000  
 16  4  2 12 31 36.7000000  0  3G16G26G31
  22353752.344   117469761.062        -157.133          49.000  
  21855289.406   114850319.859       13441.680          49.000  
  22442559.805   117936446.730       12578.871          50.000  
 16  4  2 12 31 36.8000000  0  3G16G26G31
  22353755.383   117469777.027        -161.871          49.000  
  21855033.672   114848975.945       13436.859          49.000  
  22442320.484   117935189.113       12573.523          50.000  
 16  4  2 12 31 36.9000000  0  3G16G26G31
  22353758.508   117469793.457        -166.688          49.000  
  21854778.031   114847632.535       13431.633          49.000  
  22442081.281   117933932.074       12567.609          50.000  
 16  4  2 12 31 37.0000000  0  3G16G26G31
  22353761.703   117469810.258        -170.328          49.000  
  21854522.469   114846289.531       13427.668          49.000  
  22441842.172   117932675.484       12563.133          50.000  
 16  4  2 12 31 37.1000000  0  3G16G26G31
  22353764.992   117469827.523        -174.891          49.000  
  21854266.992   114844947.008       13422.934          49.000  
  22441603.156   117931419.438       12557.750          50.000  
 16  4  2 12 31 37.2000000  0  3G16G26G31
  22353768.359   117469845.246        -179.359          49.000  
  21854011.609   114843604.984       13418.031          49.000  
  22441364.234   117930163.938       12552.375          50.000  
 16  4  2 12 31 37.3000000  0  3G16G26G31
  22353771.812   117469863.367        -183.484          49.000  
  21853756.328   114842263.398       13413.473          49.000  
  22441125.414   117928908.926       12547.309          50.000  
 16  4  2 12 31 37.4000000  0  3G16G26G31
  22353775.352   117469881.992        -188.480          49.000  
  21853501.133   114840922.336       13408.359          49.000  
  22440886.695   117927654.504       12541.520          50.000  
 16  4  2 12 31 37.5000000  0  3G16G26G31
  22353778.977   117469901.035        -192.535          49.000  
  21853246.016   114839581.723       13403.973          49.000  
  22440648.086   117926400.590       12536.578          50.000  
 16  4  2 12 31 37.6000000  0  3G16G26G31
  22353782.680   117469920.492        -196.719          49.000  
  21852990.984   114838241.559       13399.461          49.000  
  22440409.570   117925147.168       12531.680          50.000  
 16  4  2 12 31 37.7000000  0  3G16G26G31
  22353786.461   117469940.379        -201.160          49.000  
  21852736.047   114836901.859       13394.715          49.000  
  22440171.148   117923894.270       12526.242          50.000  
 16  4  2 12 31 37.8000000  0  3G16G26G31
  22353790.344   117469960.773        -206.035          49.000  
  21852481.211   114835562.695       13389.359          49.000  
  22439932.836   117922641.969       12520.469          50.000  
 16  4  2 12 31 37.9000000  0  3G16G26G31
  22353794.289   117469981.512        -209.555          49.000  
  21852226.453   114834223.898       13385.730          49.000  
  22439694.609   117921390.094       12516.191          50.000  
 16  4  2 12 31 38.0000000  0  3G16G26G31
  22353798.320   117470002.688        -214.020          49.000  
  21851971.781   114832885.574       13380.965          49.000  
  22439456.492   117920138.746       12510.727          50.000  
 16  4  2 12 31 38.1000000  0  3G16G26G31
  22353802.453   117470024.406        -219.336          49.000  
  21851717.211   114831547.824       13375.254          49.000  
  22439218.492   117918888.020       12504.684          50.000  
 16  4  2 12 31 38.2000000  0  3G16G26G31
  22353806.664   117470046.523        -223.363          49.000  
  21851462.734   114830210.520       13370.805          49.000  
  22438980.570   117917637.789       12499.664          50.000  
 16  4  2 12 31 38.3000000  0  3G16G26G31
  22353810.938   117470069.012        -227.215          49.000  
  21851208.320   114828873.590       13366.965          49.000  
  22438742.750   117916388.020       12494.930          50.000  
 16  4  2 12 31 38.4000000  0  3G16G26G31
  22353815.305   117470091.953        -231.605          49.000  
  21850954.008   114827537.180       13361.922          49.000  
  22438505.023   117915138.781       12489.785          50.000  
 16  4  2 12 31 38.5000000  0  3G16G26G31
  22353819.758   117470115.348        -236.109          49.000  
  21850699.781   114826201.219       13357.363          49.000  
  22438267.406   117913890.086       12484.320          50.000  
 16  4  2 12 31 38.6000000  0  3G16G26G31
  22353824.297   117470139.215        -240.777          49.000  
  21850445.656   114824865.785       13352.129          49.000  
  22438029.898   117912641.953       12478.742          50.000  
 16  4  2 12 31 38.7000000  0  3G16G26G31
  22353828.922   117470163.527        -245.465          49.000  
  21850191.633   114823530.820       13347.230          49.000  
  22437792.484   117911394.348       12473.316          50.000  
 16  4  2 12 31 38.8000000  0  3G16G26G31
  22353833.625   117470188.258        -249.531          49.000  
  21849937.688   114822196.312       13342.781          49.000  
  22437555.172   117910147.266       12468.164          50.000  
 16  4  2 12 31 38.9000000  0  3G16G26G31
  22353838.422   117470213.445        -254.152          49.000  
  21849683.812   114820862.277       13337.953          49.000  
  22437317.953   117908900.703       12462.863          50.000  
 16  4  2 12 31 39.0000000  0  3G16G26G31
  22353843.297   117470239.062        -258.238          49.000  
  21849430.047   114819528.715       13333.441          49.000  
  22437080.836   117907654.672       12457.680          50.000  
 16  4  2 12 31 39.1000000  0  3G16G26G31
  22353848.250   117470265.105        -262.430          49.000  
  21849176.375   114818195.613       13328.895          49.000  
  22436843.820   117906409.156       12452.738          50.000  
 16  4  2 12 31 39.2000000  0  3G16G26G31
  22353853.289   117470291.566        -266.777          49.000  
  21848922.773   114816862.953       13324.312          49.000  
  22436606.914   117905164.129       12447.574          50.000  
 16  4  2 12 31 39.3000000  0  3G16G26G31
  22353858.414   117470318.512        -271.840          49.000  
  21848669.281   114815530.816       13318.867          49.000  
  22436370.102   117903919.691       12441.543          50.000  
 16  4  2 12 31 39.4000000  0  3G16G26G31
  22353863.625   117470345.902        -276.195          49.000  
  21848415.875   114814199.148       13314.281          49.000  
  22436133.398   117902675.773       12436.383          50.000  
 16  4  2 12 31 39.5000000  0  3G16G26G31
  22353868.914   117470373.680        -279.988          49.000  
  21848162.547   114812867.906       13310.191          49.000  
  22435896.781   117901432.340       12431.703          50.000  
 16  4  2 12 31 39.6000000  0  3G16G26G31
  22353874.289   117470401.910        -284.703          49.000  
  21847909.312   114811537.141       13305.215          49.000  
  22435660.258   117900189.438       12426.227          50.000  
 16  4  2 12 31 39.7000000  0  3G16G26G31
  22353879.758   117470430.641        -289.543          49.000  
  21847656.172   114810206.914       13299.973          49.000  
  22435423.852   117898947.125       12420.484          50.000  
 16  4  2 12 31 39.8000000  0  3G16G26G31
  22353885.305   117470459.820        -294.355          49.000  
  21847403.133   114808877.168       13294.871          49.000  
  22435187.555   117897705.363       12414.641          50.000  
 16  4  2 12 31 39.9000000  0  3G16G26G31
  22353890.953   117470489.488        -298.934          49.000  
  21847150.203   114807547.945       13289.828          49.000  
  22434951.359   117896464.164       12409.203          50.000  
 16  4  2 12 31 40.0000000  0  3G16G26G31
  22353896.672   117470519.535        -302.734          49.000  
  21846897.336   114806219.125       13285.832          49.000  
  22434715.250   117895223.434       12404.551          50.000  
 16  4  2 12 31 40.1000000  0  3G16G26G31
  22353902.477   117470550.051        -307.352          49.000  
  21846644.555   114804890.805       13280.922          49.000  
  22434479.258   117893983.254       12399.164          50.000  
 16  4  2 12 31 40.2000000  0  3G16G26G31
  22353908.359   117470580.934        -311.055          49.000  
  21846391.859   114803562.902       13276.723          49.000  
  22434243.336   117892743.539       12394.504          50.000  
 16  4  2 12 31 40.3000000  0  3G16G26G31
  22353914.320   117470612.277        -315.484          49.000  
  21846139.258   114802235.465       13272.184          49.000  
  22434007.531   117891504.363       12389.211          50.000  
 16  4  2 12 31 40.4000000  0  3G16G26G31
  22353920.375   117470644.074        -320.121          49.000  
  21845886.750   114800908.531       13267.121          49.000  
  22433771.820   117890265.738       12383.625          50.000  
 16  4  2 12 31 40.5000000  0  3G16G26G31
  22353926.500   117470676.262        -324.008          49.000  
  21845634.312   114799582.016       13262.980          49.000  
  22433536.211   117889027.594       12378.910          50.000  
 16  4  2 12 31 40.6000000  0  3G16G26G31
  22353932.719   117470708.906        -328.840          49.000  
  21845381.977   114798255.984       13257.898          49.000  
  22433300.703   117887789.973       12373.336          50.000  
 16  4  2 12 31 40.7000000  0  3G16G26G31
  22353939.016   117470742.008        -333.152          49.000  
  21845129.734   114796930.457       13253.016          49.000  
  22433065.297   117886552.926       12367.922          50.000  
 16  4  2 12 31 40.8000000  0  3G16G26G31
  22353945.398   117470775.551        -337.641          49.000  
  21844877.586   114795605.391       13248.367          49.000  
  22432829.992   117885316.387       12362.676          50.000  
 16  4  2 12 31 40.9000000  0  3G16G26G31
  22353951.875   117470809.613        -342.816          49.000  
  21844625.547   114794280.875       13242.848          49.000  
  22432594.805   117884080.453       12356.664          50.000  
 16  4  2 12 31 41.0000000  0  3G16G26G31
  22353958.422   117470844.047        -346.430          49.000  
  21844373.578   114792956.770       13238.844          49.000  
  22432359.695   117882844.996       12352.098          50.000  
 16  4  2 12 31 41.1000000  0  3G16G26G31
  22353965.047   117470878.836        -350.059          49.000  
  21844121.680   114791633.051       13234.852          49.000  
  22432124.680   117881609.977       12347.543          50.000  
 16  4  2 12 31 41.2000000  0  3G16G26G31
  22353971.766   117470914.164        -355.445          49.000  
  21843869.891   114790309.898       13229.234          49.000  
  22431889.773   117880375.574       12341.328          50.000  
 16  4  2 12 31 41.3000000  0  3G16G26G31
  22353978.570   117470949.914        -359.938          49.000  
  21843618.180   114788987.195       13224.578          49.000  
  22431654.977   117879141.684       12336.020          50.000  
 16  4  2 12 31 41.4000000  0  3G16G26G31
  22353985.453   117470986.074        -363.930          49.000  
  21843366.570   114787664.953       13220.117          49.000  
  22431420.281   117877908.293       12331.168          50.000  
 16  4  2 12 31 41.5000000  0  3G16G26G31
  22353992.414   117471022.668        -368.254          49.000  
  21843115.039   114786343.168       13215.516          49.000  
  22431185.672   117876675.434       12325.809          50.000  
 16  4  2 12 31 41.6000000  0  3G16G26G31
  22353999.477   117471059.766        -373.219          49.000  
  21842863.609   114785021.906       13210.285          49.000  
  22430951.164   117875443.148       12320.109          50.000  
 16  4  2 12 31 41.7000000  0  3G16G26G31
  22354006.609   117471097.234        -376.922          49.000  
  21842612.273   114783701.066       13206.215          49.000  
  22430716.758   117874211.340       12315.500          50.000  
 16  4  2 12 31 41.8000000  0  3G16G26G31
  22354013.828   117471135.168        -381.527          49.000  
  21842361.016   114782380.723       13201.211          49.000  
  22430482.477   117872980.086       12309.844          50.000  
 16  4  2 12 31 41.9000000  0  3G16G26G31
  22354021.133   117471173.555        -386.113          49.000  
  21842109.852   114781060.863       13196.211          49.000  
  22430248.273   117871749.355       12304.566          50.000  
 16  4  2 12 31 42.0000000  0  3G16G26G31
  22354028.523   117471212.383        -390.516          49.000  
  21841858.781   114779741.473       13191.492          49.000  
  22430014.180   117870519.168       12299.156          50.000  
 16  4  2 12 31 42.1000000  0  3G16G26G31
  22354036.000   117471251.688        -395.355          49.000  
  21841607.805   114778422.598       13186.328          49.000  
  22429780.188   117869289.535       12293.574          50.000  
 16  4  2 12 31 42.2000000  0  3G16G26G31
  22354043.555   117471291.387        -399.121          49.000  
  21841356.914   114777104.133       13182.352          49.000  
  22429546.305   117868060.395       12288.855          50.000  
 16  4  2 12 31 42.3000000  0  3G16G26G31
  22354051.203   117471331.570        -404.016          49.000  
  21841106.117   114775786.199       13177.035          49.000  
  22429312.516   117866831.824       12282.965          50.000  
 16  4  2 12 31 42.4000000  0  3G16G26G31
  22354058.914   117471372.141        -407.867          49.000  
  21840855.398   114774468.684       13172.840          49.000  
  22429078.797   117865603.723       12278.367          50.000  
 16  4  2 12 31 42.5000000  0  3G16G26G31
  22354066.727   117471413.184        -412.426          49.000  
  21840604.789   114773151.664       13167.969          49.000  
  22428845.203   117864376.184       12272.770          50.000  
 16  4  2 12 31 42.6000000  0  3G16G26G31
  22354074.625   117471454.691        -417.520          49.000  
  21840354.266   114771835.152       13162.711          49.000  
  22428611.719   117863149.199       12266.984          50.000  
 16  4  2 12 31 42.7000000  0  3G16G26G31
  22354082.602   117471496.641        -421.727          49.000  
  21840103.836   114770519.117       13158.070          49.000  
  22428378.328   117861922.742       12261.887          50.000  
 16  4  2 12 31 42.8000000  0  3G16G26G31
  22354090.672   117471539.004        -425.973          49.000  
  21839853.484   114769203.523       13153.438          49.000  
  22428145.047   117860696.801       12256.578          50.000  
 16  4  2 12 31 42.9000000  0  3G16G26G31
  22354098.812   117471581.793        -429.914          49.000  
  21839603.227   114767888.387       13149.211          49.000  
  22427911.852   117859471.359       12251.891          50.000  
 16  4  2 12 31 43.0000000  0  3G16G26G31
  22354107.039   117471625.035        -434.734          49.000  
  21839353.055   114766573.734       13144.125          49.000  
  22427678.758   117858246.457       12246.203          50.000  
 16  4  2 12 31 43.1000000  0  3G16G26G31
  22354115.352   117471668.730        -439.035          49.000  
  21839102.969   114765259.574       13139.418          49.000  
  22427445.773   117857022.102       12240.953          50.000  
 16  4  2 12 31 43.2000000  0  3G16G26G31
  22354123.734   117471712.777        -442.645          49.000  
  21838852.961   114763945.801       13135.414          49.000  
  22427212.875   117855798.191       12236.461          50.000  
 16  4  2 12 31 43.3000000  0  3G16G26G31
  22354132.203   117471757.266        -446.953          49.000  
  21838603.047   114762632.496       13130.879          49.000  
  22426980.070   117854574.809       12231.320          50.000  
 16  4  2 12 31 43.4000000  0  3G16G26G31
  22354140.750   117471802.211        -451.570          49.000  
  21838353.227   114761319.680       13125.871          49.000  
  22426747.375   117853351.961       12225.812          50.000  
 16  4  2 12 31 43.5000000  0  3G16G26G31
  22354149.383   117471847.570        -456.086          49.000  
  21838103.492   114760007.316       13121.086          49.000  
  22426514.773   117852129.629       12220.500          50.000  
 16  4  2 12 31 43.6000000  0  3G16G26G31
  22354158.102   117471893.395        -460.328          49.000  
  21837853.852   114758695.441       13116.555          49.000  
  22426282.281   117850907.844       12215.305          50.000  
 16  4  2 12 31 43.7000000  0  3G16G26G31
  22354166.914   117471939.676        -465.309          49.000  
  21837604.305   114757384.059       13111.234          49.000  
  22426049.883   117849686.598       12209.527          50.000  
 16  4  2 12 31 43.8000000  0  3G16G26G31
  22354175.812   117471986.430        -469.797          49.000  
  21837354.859   114756073.195       13106.281          49.000  
  22425817.594   117848465.930       12203.961          50.000  
 16  4  2 12 31 43.9000000  0  3G16G26G31
  22354184.789   117472033.605        -473.836          49.000  
  21837105.500   114754762.770       13102.020          49.000  
  22425585.398   117847245.754       12199.113          50.000  
 16  4  2 12 31 44.0000000  0  3G16G26G31
  22354193.844   117472081.219        -478.098          49.000  
  21836856.227   114753452.828       13097.281          49.000  
  22425353.312   117846026.121       12193.891          50.000  
 16  4  2 12 31 44.1000000  0  3G16G26G31
  22354202.969   117472129.148        -481.395          49.000  
  21836607.008   114752143.223       13093.820          49.000  
  22425121.297   117844806.879       12189.918          50.000  
 16  4  2 12 31 44.2000000  0  3G16G26G31
  22354212.172   117472177.512        -485.820          49.000  
  21836357.883   114750834.086       13089.215          49.000  
  22424889.398   117843588.168       12184.477          50.000  
 16  4  2 12 31 44.3000000  0  3G16G26G31
  22354221.461   117472226.344        -490.547          49.000  
  21836108.859   114749525.461       13084.023          49.000  
  22424657.586   117842370.012       12178.898          50.000  
 16  4  2 12 31 44.4000000  0  3G16G26G31
  22354230.844   117472275.609        -494.898          49.000  
  21835859.930   114748217.309       13079.293          49.000  
  22424425.867   117841152.387       12173.551          50.000  
 16  4  2 12 31 44.5000000  0  3G16G26G31
  22354240.305   117472325.328        -499.305          49.000  
  21835611.078   114746909.621       13074.613          49.000  
  22424194.258   117839935.281       12168.402          50.000  
 16  4  2 12 31 44.6000000  0  3G16G26G31
  22354249.828   117472375.422        -503.305          49.000  
  21835362.312   114745602.363       13070.137          49.000  
  22423962.750   117838718.656       12163.441          50.000  
 16  4  2 12 31 44.7000000  0  3G16G26G31
  22354259.461   117472426.016        -508.230          49.000  
  21835113.648   114744295.621       13064.996          49.000  
  22423731.344   117837502.613       12157.660          50.000  
 16  4  2 12 31 44.8000000  0  3G16G26G31
  22354269.180   117472477.109        -513.293          49.000  
  21834865.094   114742989.422       13059.578          49.000  
  22423500.055   117836287.168       12151.598          50.000  
 16  4  2 12 31 44.9000000  0  3G16G26G31
  22354278.977   117472528.582        -517.000          49.000  
  21834616.609   114741683.629       13055.566          49.000  
  22423268.852   117835072.176       12147.160          50.000  
 16  4  2 12 31 45.0000000  0  3G16G26G31
  22354288.867   117472580.523        -521.609          49.000  
  21834368.227   114740378.340       13050.637          49.000  
  22423037.742   117833857.750       12141.648          50.000  
 16  4  2 12 31 45.1000000  0  3G16G26G31
  22354298.820   117472632.852        -525.445          49.000  
  21834119.914   114739073.469       13046.531          49.000  
  22422806.742   117832643.797       12136.914          50.000  
 16  4  2 12 31 45.2000000  0  3G16G26G31
  22354308.859   117472685.633        -529.891          49.000  
  21833871.703   114737769.105       13041.453          49.000  
  22422575.828   117831430.391       12131.555          50.000  
 16  4  2 12 31 45.3000000  0  3G16G26G31
  22354318.984   117472738.863        -534.527          49.000  
  21833623.578   114736465.199       13036.668          49.000  
  22422345.023   117830217.516       12126.066          50.000  
 16  4  2 12 31 45.4000000  0  3G16G26G31
  22354329.195   117472792.547        -539.219          49.000  
  21833375.547   114735161.785       13031.688          49.000  
  22422114.328   117829005.188       12120.449          50.000  
 16  4  2 12 31 45.5000000  0  3G16G26G31
  22354339.492   117472846.652        -543.219          49.000  
  21833127.609   114733858.836       13027.195          49.000  
  22421883.727   117827793.375       12115.535          50.000  
 16  4  2 12 31 45.6000000  0  3G16G26G31
  22354349.883   117472901.230        -548.145          49.000  
  21832879.766   114732556.383       13022.039          49.000  
  22421653.234   117826582.105       12109.867          50.000  
 16  4  2 12 31 45.7000000  0  3G16G26G31
  22354360.352   117472956.254        -552.422          49.000  
  21832632.008   114731254.414       13017.355          49.000  
  22421422.844   117825371.398       12104.480          50.000  
 16  4  2 12 31 45.8000000  0  3G16G26G31
  22354370.906   117473011.707        -556.742          49.000  
  21832384.336   114729952.906       13012.781          49.000  
  22421192.547   117824161.188       12099.445          50.000  
 16  4  2 12 31 45.9000000  0  3G16G26G31
  22354381.531   117473067.562        -560.758          49.000  
  21832136.758   114728651.840       13008.324          49.000  
  22420962.352   117822951.480       12094.461          50.000  
 16  4  2 12 31 46.0000000  0  3G16G26G31
  22354392.250   117473123.902        -565.574          49.000  
  21831889.266   114727351.277       13003.305          49.000  
  22420732.266   117821742.340       12088.770          50.000  
 16  4  2 12 31 46.1000000  0  3G16G26G31
  22354403.047   117473180.641        -569.727          49.000  
  21831641.867   114726051.152       12998.922          49.000  
  22420502.266   117820533.684       12083.758          50.000  
 16  4  2 12 31 46.2000000  0  3G16G26G31
  22354413.930   117473237.832        -574.047          49.000  
  21831394.555   114724751.516       12994.203          49.000  
  22420272.383   117819325.574       12078.562          50.000  
 16  4  2 12 31 46.3000000  0  3G16G26G31
  22354424.891   117473295.426        -578.250          49.000  
  21831147.328   114723452.332       12989.516          49.000  
  22420042.586   117818117.957       12073.441          50.000  
 16  4  2 12 31 46.4000000  0  3G16G26G31
  22354435.945   117473353.500        -583.012          49.000  
  21830900.203   114722153.645       12984.492          49.000  
  22419812.898   117816910.918       12067.617          50.000  
 16  4  2 12 31 46.5000000  0  3G16G26G31
  22354447.078   117473412.000        -587.320          49.000  
  21830653.156   114720855.422       12979.742          49.000  
  22419583.305   117815704.383       12062.504          50.000  
 16  4  2 12 31 46.6000000  0  3G16G26G31
  22354458.297   117473470.984        -592.125          49.000  
  21830406.211   114719557.707       12974.723          49.000  
  22419353.812   117814498.410       12056.941          50.000  
 16  4  2 12 31 46.7000000  0  3G16G26G31
  22354469.602   117473530.375        -596.156          49.000  
  21830159.344   114718260.445       12970.359          49.000  
  22419124.422   117813292.957       12051.883          50.000  
 16  4  2 12 31 46.8000000  0  3G16G26G31
  22354480.984   117473590.199        -600.426          49.000  
  21829912.578   114716963.648       12965.664          49.000  
  22418895.125   117812088.004       12046.875          50.000  
 16  4  2 12 31 46.9000000  0  3G16G26G31
  22354492.453   117473650.445        -604.723          49.000  
  21829665.898   114715667.312       12960.922          49.000  
  22418665.930   117810883.586       12041.488          50.000  
 16  4  2 12 31 47.0000000  0  3G16G26G31
  22354504.008   117473711.188        -609.707          49.000  
  21829419.312   114714371.496       12955.648          49.000  
  22418436.844   117809679.738       12035.645          50.000  
 16  4  2 12 31 47.1000000  0  3G16G26G31
  22354515.641   117473772.336        -613.770          49.000  
  21829172.812   114713076.121       12951.344          49.000  
  22418207.852   117808476.379       12030.777          50.000  
 16  4  2 12 31 47.2000000  0  3G16G26G31
  22354527.375   117473833.957        -618.219          49.000  
  21828926.406   114711781.262       12946.387          49.000  
  22417978.969   117807273.598       12025.316          50.000  
 16  4  2 12 31 47.3000000  0  3G16G26G31
  22354539.164   117473895.941        -622.109          49.000  
  21828680.078   114710486.793       12942.398          49.000  
  22417750.172   117806071.266       12020.719          50.000  
 16  4  2 12 31 47.4000000  0  3G16G26G31
  22354551.055   117473958.414        -626.824          49.000  
  21828433.852   114709192.844       12937.203          49.000  
  22417521.484   117804869.508       12014.949          50.000  
 16  4  2 12 31 47.5000000  0  3G16G26G31
  22354563.023   117474021.324        -631.387          49.000  
  21828187.703   114707899.375       12932.234          49.000  
  22417292.898   117803668.273       12009.531          50.000  
 16  4  2 12 31 47.6000000  0  3G16G26G31
  22354575.078   117474084.668        -635.633          49.000  
  21827941.648   114706606.359       12927.855          49.000  
  22417064.406   117802467.570       12004.344          50.000  
 16  4  2 12 31 47.7000000  0  3G16G26G31
  22354587.211   117474148.449        -639.945          49.000  
  21827695.695   114705313.824       12923.055          49.000  
  22416836.016   117801267.379       11999.289          50.000  
 16  4  2 12 31 47.8000000  0  3G16G26G31
  22354599.430   117474212.668        -644.516          49.000  
  21827449.828   114704021.773       12918.090          49.000  
  22416607.742   117800067.734       11993.672          50.000  
 16  4  2 12 31 47.9000000  0  3G16G26G31
  22354611.734   117474277.348        -649.027          49.000  
  21827204.031   114702730.191       12913.320          49.000  
  22416379.555   117798868.625       11988.355          50.000  
 16  4  2 12 31 48.0000000  0  3G16G26G31
  22354624.125   117474342.410        -652.875          49.000  
  21826958.328   114701439.039       12909.289          49.000  
  22416151.461   117797669.996       11983.598          50.000  
 16  4  2 12 31 48.1000000  0  3G16G26G31
  22354636.594   117474407.941        -657.559          49.000  
  21826712.734   114700148.402       12904.055          49.000  
  22415923.477   117796471.926       11978.082          50.000  
 16  4  2 12 31 48.2000000  0  3G16G26G31
  22354649.148   117474473.879        -661.520          49.000  
  21826467.211   114698858.184       12899.973          49.000  
  22415695.586   117795274.336       11973.199          50.000  
 16  4  2 12 31 48.3000000  0  3G16G26G31
  22354661.773   117474540.254        -665.918          49.000  
  21826221.789   114697568.453       12895.152          49.000  
  22415467.797   117794077.297       11967.828          50.000  
 16  4  2 12 31 48.4000000  0  3G16G26G31
  22354674.492   117474607.051        -670.109          49.000  
  21825976.445   114696279.176       12890.473          49.000  
  22415240.102   117792880.746       11962.820          50.000  
 16  4  2 12 31 48.5000000  0  3G16G26G31
  22354687.281   117474674.285        -674.547          49.000  
  21825731.195   114694990.371       12885.738          49.000  
  22415012.508   117791684.742       11957.445          50.000  
 16  4  2 12 31 48.6000000  0  3G16G26G31
  22354700.164   117474741.953        -679.156          49.000  
  21825486.031   114693702.031       12880.844          49.000  
  22414785.023   117790489.250       11952.023          50.000  
 16  4  2 12 31 48.7000000  0  3G16G26G31
  22354713.141   117474810.152        -684.340          49.000  
  21825240.977   114692414.250       12875.375          49.000  
  22414557.641   117789294.383       11946.016          50.000  
 16  4  2 12 31 48.8000000  0  3G16G26G31
  22354726.203   117474878.812        -689.035          49.000  
  21824996.016   114691126.973       12870.258          49.000  
  22414330.367   117788100.066       11940.277          50.000  
 16  4  2 12 31 48.9000000  0  3G16G26G31
  22354739.344   117474947.883        -692.766          49.000  
  21824751.133   114689840.137       12866.160          49.000  
  22414103.188   117786906.238       11935.805          50.000  
 16  4  2 12 31 49.0000000  0  3G16G26G31
  22354752.562   117475017.324        -696.648          49.000  
  21824506.336   114688553.719       12861.781          49.000  
  22413876.109   117785712.895       11930.730          50.000  
 16  4  2 12 31 49.1000000  0  3G16G26G31
  22354765.875   117475087.277        -701.637          49.000  
  21824261.625   114687267.832       12856.695          49.000  
  22413649.141   117784520.137       11925.051          50.000  
 16  4  2 12 31 49.2000000  0  3G16G26G31
  22354779.273   117475157.660        -706.148          49.000  
  21824017.023   114685982.406       12851.793          49.000  
  22413422.250   117783327.895       11919.598          50.000  
 16  4  2 12 31 49.3000000  0  3G16G26G31
  22354792.750   117475228.496        -710.504          49.000  
  21823772.508   114684697.480       12847.137          49.000  
  22413195.477   117782136.207       11914.352          50.000  
 16  4  2 12 31 49.4000000  0  3G16G26G31
  22354806.305   117475299.715        -714.547          49.000  
  21823528.070   114683412.973       12842.680          49.000  
  22412968.797   117780944.992       11909.305          50.000  
 16  4  2 12 31 49.5000000  0  3G16G26G31
  22354819.953   117475371.430        -719.324          49.000  
  21823283.727   114682128.988       12837.602          49.000  
  22412742.227   117779754.355       11903.605          50.000  
 16  4  2 12 31 49.6000000  0  3G16G26G31
  22354833.672   117475443.555        -723.652          49.000  
  21823039.484   114680845.457       12832.898          49.000  
  22412515.750   117778564.223       11898.512          50.000  
 16  4  2 12 31 49.7000000  0  3G16G26G31
  22354847.492   117475516.160        -728.113          49.000  
  21822795.328   114679562.430       12828.055          49.000  
  22412289.383   117777374.652       11893.176          50.000  
 16  4  2 12 31 49.8000000  0  3G16G26G31
  22354861.383   117475589.172        -732.305          49.000  
  21822551.266   114678279.859       12823.410          49.000  
  22412063.109   117776185.594       11887.914          50.000  
 16  4  2 12 31 49.9000000  0  3G16G26G31
  22354875.352   117475662.559        -736.148          49.000  
  21822307.273   114676997.676       12819.398          49.000  
  22411836.930   117774996.984       11883.207          50.000  
 16  4  2 12 31 50.0000000  0  3G16G26G31
  22354889.406   117475736.426        -740.820          49.000  
  21822063.383   114675716.023       12814.348          49.000  
  22411610.852   117773808.953       11877.703          50.000  
 16  4  2 12 31 50.1000000  0  3G16G26G31
  22354903.547   117475810.734        -745.332          49.000  
  21821819.578   114674434.844       12809.387          49.000  
  22411384.875   117772621.445       11872.273          50.000  
 16  4  2 12 31 50.2000000  0  3G16G26G31
  22354917.766   117475885.473        -749.680          49.000  
  21821575.867   114673154.129       12804.820          49.000  
  22411159.000   117771434.469       11867.023          50.000  
 16  4  2 12 31 50.3000000  0  3G16G26G31
  22354932.078   117475960.668        -754.156          49.000  
  21821332.258   114671873.910       12799.906          49.000  
  22410933.227   117770248.035       11861.609          50.000  
 16  4  2 12 31 50.4000000  0  3G16G26G31
  22354946.445   117476036.215        -757.832          49.000  
  21821088.711   114670594.070       12795.945          49.000  
  22410707.539   117769062.035       11857.152          50.000  
 16  4  2 12 31 50.5000000  0  3G16G26G31
  22354960.922   117476112.270        -762.816          49.000  
  21820845.273   114669314.785       12790.590          49.000  
  22410481.961   117767876.645       11851.188          50.000  
 16  4  2 12 31 50.6000000  0  3G16G26G31
  22354975.469   117476188.742        -766.938          49.000  
  21820601.914   114668035.945       12786.098          49.000  
  22410256.484   117766691.766       11846.117          50.000  
 16  4  2 12 31 50.7000000  0  3G16G26G31
  22354990.109   117476265.695        -771.621          49.000  
  21820358.648   114666757.598       12781.219          49.000  
  22410031.109   117765507.434       11840.664          50.000  
 16  4  2 12 31 50.8000000  0  3G16G26G31
  22355004.828   117476343.020        -775.570          49.000  
  21820115.477   114665479.699       12776.629          49.000  
  22409805.828   117764323.590       11835.715          50.000  
 16  4  2 12 31 50.9000000  0  3G16G26G31
  22355019.633   117476420.793        -779.746          49.000  
  21819872.391   114664202.262       12772.219          49.000  
  22409580.648   117763140.266       11830.711          50.000  
 16  4  2 12 31 51.0000000  0  3G16G26G31
  22355034.492   117476498.941        -783.660          49.000  
  21819629.375   114662925.234       12768.016          49.000  
  22409355.562   117761957.418       11825.887          50.000  
 16  4  2 12 31 51.1000000  0  3G16G26G31
  22355049.461   117476577.578        -788.598          49.000  
  21819386.469   114661648.734       12762.656          49.000  
  22409130.586   117760775.145       11820.020          50.000  
 16  4  2 12 31 51.2000000  0  3G16G26G31
  22355064.508   117476656.676        -793.188          49.000  
  21819143.648   114660372.734       12757.711          49.000  
  22408905.703   117759593.422       11814.547          50.000  
 16  4  2 12 31 51.3000000  0  3G16G26G31
  22355079.641   117476736.203        -797.570          49.000  
  21818900.914   114659097.184       12753.141          49.000  
  22408680.930   117758412.223       11809.199          50.000  
 16  4  2 12 31 51.4000000  0  3G16G26G31
  22355094.867   117476816.207        -802.277          49.000  
  21818658.289   114657822.168       12747.867          49.000  
  22408456.273   117757231.590       11803.637          50.000  
 16  4  2 12 31 51.5000000  0  3G16G26G31
  22355110.164   117476896.586        -805.832          49.000  
  21818415.734   114656547.539       12744.105          49.000  
  22408231.695   117756051.410       11799.234          50.000  
 16  4  2 12 31 51.6000000  0  3G16G26G31
  22355125.531   117476977.402        -810.305          49.000  
  21818173.273   114655273.402       12739.117          49.000  
  22408007.211   117754871.773       11793.750          50.000  
 16  4  2 12 31 51.7000000  0  3G16G26G31
  22355140.992   117477058.633        -814.402          49.000  
  21817930.898   114653999.703       12734.789          49.000  
  22407782.836   117753692.641       11788.746          50.000  
 16  4  2 12 31 51.8000000  0  3G16G26G31
  22355156.539   117477140.332        -819.117          49.000  
  21817688.617   114652726.512       12729.664          49.000  
  22407558.555   117752514.059       11783.168          50.000  
 16  4  2 12 31 51.9000000  0  3G16G26G31
  22355172.172   117477222.461        -823.609          49.000  
  21817446.430   114651453.785       12724.859          49.000  
  22407334.383   117751336.004       11777.809          50.000  
 16  4  2 12 31 52.0000000  0  3G16G26G31
  22355187.883   117477305.031        -827.977          49.000  
  21817204.328   114650181.535       12720.156          49.000  
  22407110.297   117750158.480       11772.461          50.000  
 16  4  2 12 31 52.1000000  0  3G16G26G31
  22355203.672   117477388.027        -832.078          49.000  
  21816962.312   114648909.750       12715.605          49.000  
  22406886.320   117748981.465       11767.523          50.000  
 16  4  2 12 31 52.2000000  0  3G16G26G31
  22355219.555   117477471.469        -836.691          49.000  
  21816720.391   114647638.430       12710.891          49.000  
  22406662.445   117747804.992       11762.008          50.000  
 16  4  2 12 31 52.3000000  0  3G16G26G31
  22355235.523   117477555.395        -841.500          49.000  
  21816478.562   114646367.648       12705.617          49.000  
  22406438.680   117746629.090       11756.312          50.000  
 16  4  2 12 31 52.4000000  0  3G16G26G31
  22355251.578   117477639.750        -845.723          49.000  
  21816236.828   114645097.332       12700.879          49.000  
  22406215.016   117745453.719       11751.156          50.000  
 16  4  2 12 31 52.5000000  0  3G16G26G31
  22355267.695   117477724.477        -849.539          49.000  
  21815995.172   114643827.402       12696.953          49.000  
  22405991.438   117744278.793       11746.508          50.000  
 16  4  2 12 31 52.6000000  0  3G16G26G31
  22355283.922   117477809.703        -854.445          49.000  
  21815753.617   114642558.039       12691.441          49.000  
  22405767.969   117743104.469       11740.609          50.000  
 16  4  2 12 31 52.7000000  0  3G16G26G31
  22355300.227   117477895.395        -859.258          49.000  
  21815512.164   114641289.156       12686.367          49.000  
  22405544.609   117741930.695       11734.930          50.000  
 16  4  2 12 31 52.8000000  0  3G16G26G31
  22355316.609   117477981.488        -863.367          49.000  
  21815270.789   114640020.703       12681.988          49.000  
  22405321.344   117740757.418       11729.922          50.000  
 16  4  2 12 31 52.9000000  0  3G16G26G31
  22355333.094   117478068.094        -868.391          49.000  
  21815029.508   114638752.812       12676.445          49.000  
  22405098.188   117739584.746       11723.898          50.000  
 16  4  2 12 31 53.0000000  0  3G16G26G31
  22355349.648   117478155.098        -872.270          49.000  
  21814788.320   114637485.348       12672.312          49.000  
  22404875.133   117738412.555       11719.207          50.000  
 16  4  2 12 31 53.1000000  0  3G16G26G31
  22355366.289   117478242.516        -876.305          49.000  
  21814547.219   114636218.340       12667.941          49.000  
  22404652.164   117737240.875       11714.219          50.000  
 16  4  2 12 31 53.2000000  0  3G16G26G31
  22355383.000   117478330.340        -880.469          49.000  
  21814306.195   114634951.773       12663.285          49.000  
  22404429.297   117736069.688       11709.199          50.000  
 16  4  2 12 31 53.3000000  0  3G16G26G31
  22355399.805   117478418.660        -885.402          49.000  
  21814065.273   114633685.734       12658.090          49.000  
  22404206.531   117734899.082       11703.461          50.000  
 16  4  2 12 31 53.4000000  0  3G16G26G31
  22355416.703   117478507.410        -889.836          49.000  
  21813824.445   114632420.160       12653.355          49.000  
  22403983.883   117733729.012       11698.012          50.000  
 16  4  2 12 31 53.5000000  0  3G16G26G31
  22355433.688   117478596.668        -894.984          49.000  
  21813583.711   114631155.141       12647.621          49.000  
  22403761.344   117732559.531       11691.852          50.000  
 16  4  2 12 31 53.6000000  0  3G16G26G31
  22355450.758   117478686.379        -899.422          49.000  
  21813343.078   114629890.598       12642.961          49.000  
  22403538.898   117731390.594       11686.566          50.000  
 16  4  2 12 31 53.7000000  0  3G16G26G31
  22355467.906   117478776.512        -903.477          49.000  
  21813102.523   114628626.512       12638.574          49.000  
  22403316.555   117730222.164       11681.586          50.000  
 16  4  2 12 31 53.8000000  0  3G16G26G31
  22355485.133   117478867.070        -907.734          49.000  
  21812862.070   114627362.887       12633.980          49.000  
  22403094.320   117729054.262       11676.352          50.000  
 16  4  2 12 31 53.9000000  0  3G16G26G31
  22355502.461   117478958.125        -912.707          49.000  
  21812621.711   114626099.805       12628.609          49.000  
  22402872.180   117727886.938       11670.605          50.000  
 16  4  2 12 31 54.0000000  0  3G16G26G31
  22355519.852   117479049.488        -915.832          49.000  
  21812381.422   114624837.062       12625.137          49.000  
  22402650.117   117726720.020       11666.570          50.000  
 16  4  2 12 31 54.1000000  0  3G16G26G31
  22355537.320   117479141.309        -920.227          49.000  
  21812141.227   114623574.809       12620.422          49.000  
  22402428.164   117725553.645       11661.340          50.000  
 16  4  2 12 31 54.2000000  0  3G16G26G31
  22355554.875   117479233.559        -924.867          49.000  
  21811901.117   114622313.027       12615.449          49.000  
  22402206.312   117724387.801       11655.680          50.000  
 16  4  2 12 31 54.3000000  0  3G16G26G31
  22355572.539   117479326.383        -930.566          49.000  
  21811661.109   114621051.852       12609.312          49.000  
  22401984.586   117723222.609       11649.133          50.000  
 16  4  2 12 31 54.4000000  0  3G16G26G31
  22355590.266   117479419.527        -933.781          49.000  
  21811421.188   114619791.027       12605.809          49.000  
  22401762.930   117722057.828       11645.070          50.000  
 16  4  2 12 31 54.5000000  0  3G16G26G31
  22355608.070   117479513.129        -938.227          49.000  
  21811181.367   114618530.711       12600.867          49.000  
  22401541.391   117720893.602       11639.578          50.000  
 16  4  2 12 31 54.6000000  0  3G16G26G31
  22355625.977   117479607.188        -942.871          49.000  
  21810941.625   114617270.879       12595.941          49.000  
  22401319.945   117719729.926       11634.047          50.000  
 16  4  2 12 31 54.7000000  0  3G16G26G31
  22355643.953   117479701.680        -947.086          49.000  
  21810701.977   114616011.516       12591.375          49.000  
  22401098.602   117718566.773       11628.879          50.000  
 16  4  2 12 31 54.8000000  0  3G16G26G31
  22355662.016   117479796.570        -951.145          49.000  
  21810462.406   114614752.586       12586.969          49.000  
  22400877.352   117717404.109       11623.840          50.000  
 16  4  2 12 31 54.9000000  0  3G16G26G31
  22355680.164   117479891.941        -955.766          49.000  
  21810222.938   114613494.180       12581.938          49.000  
  22400656.211   117716242.008       11618.434          50.000  
 16  4  2 12 31 55.0000000  0  3G16G26G31
  22355698.398   117479987.773        -960.555          49.000  
  21809983.562   114612236.266       12576.770          49.000  
  22400435.180   117715080.473       11612.613          50.000  
 16  4  2 12 31 55.1000000  0  3G16G26G31
  22355716.719   117480084.027        -965.016          49.000  
  21809744.281   114610978.809       12572.098          49.000  
  22400214.242   117713919.438       11607.453          50.000  
 16  4  2 12 31 55.2000000  0  3G16G26G31
  22355735.117   117480180.711        -968.992          49.000  
  21809505.086   114609721.828       12567.605          49.000  
  22399993.414   117712758.941       11602.406          50.000  
 16  4  2 12 31 55.3000000  0  3G16G26G31
  22355753.594   117480277.797        -973.016          49.000  
  21809265.984   114608465.273       12563.121          49.000  
  22399772.672   117711598.914       11597.539          50.000  
 16  4  2 12 31 55.4000000  0  3G16G26G31
  22355772.164   117480375.391        -978.191          49.000  
  21809026.969   114607209.270       12557.773          49.000  
  22399552.039   117710439.500       11591.445          50.000  
 16  4  2 12 31 55.5000000  0  3G16G26G31
  22355790.812   117480473.406        -982.555          49.000  
  21808788.039   114605953.715       12553.012          49.000  
  22399331.508   117709280.594       11586.238          50.000  
 16  4  2 12 31 55.6000000  0  3G16G26G31
  22355809.547   117480571.828        -986.281          49.000  
  21808549.203   114604698.617       12548.812          49.000  
  22399111.070   117708122.195       11581.539          50.000  
 16  4  2 12 31 55.7000000  0  3G16G26G31
  22355828.344   117480670.641        -990.258          49.000  
  21808310.453   114603443.938       12544.539          49.000  
  22398890.727   117706964.273       11576.570          50.000  
 16  4  2 12 31 55.8000000  0  3G16G26G31
  22355847.242   117480769.941        -995.039          49.000  
  21808071.789   114602189.773       12539.516          49.000  
  22398670.500   117705806.934       11570.918          50.000  
 16  4  2 12 31 55.9000000  0  3G16G26G31
  22355866.211   117480869.602        -998.676          49.000  
  21807833.203   114600936.020       12535.344          49.000  
  22398450.352   117704650.035       11566.379          50.000  
 16  4  2 12 31 56.0000000  0  3G16G26G31
  22355885.258   117480969.691       -1003.047          49.000  
  21807594.711   114599682.723       12530.723          49.000  
  22398230.305   117703493.656       11561.078          50.000  
 16  4  2 12 31 56.1000000  0  3G16G26G31
  22355904.391   117481070.238       -1007.570          49.000  
  21807356.305   114598429.934       12525.734          49.000  
  22398010.359   117702337.840       11555.582          50.000  
 16  4  2 12 31 56.2000000  0  3G16G26G31
  22355923.609   117481171.234       -1012.273          49.000  
  21807118.000   114597177.613       12520.785          49.000  
  22397790.523   117701182.551       11550.055          50.000  
 16  4  2 12 31 56.3000000  0  3G16G26G31
  22355942.914   117481272.688       -1016.664          49.000  
  21806879.789   114595925.801       12515.891          49.000  
  22397570.781   117700027.809       11544.891          50.000  
 16  4  2 12 31 56.4000000  0  3G16G26G31
  22355962.305   117481374.590       -1021.367          49.000  
  21806641.664   114594674.469       12510.820          49.000  
  22397351.141   117698873.625       11539.082          50.000  
 16  4  2 12 31 56.5000000  0  3G16G26G31
  22355981.781   117481476.938       -1025.746          49.000  
  21806403.648   114593423.625       12506.074          49.000  
  22397131.609   117697719.973       11533.762          50.000  
 16  4  2 12 31 56.6000000  0  3G16G26G31
  22356001.344   117481579.742       -1030.242          49.000  
  21806165.711   114592173.262       12501.262          49.000  
  22396912.180   117696566.855       11528.512          50.000  
 16  4  2 12 31 56.7000000  0  3G16G26G31
  22356020.992   117481682.973       -1034.578          49.000  
  21805927.852   114590923.371       12496.559          49.000  
  22396692.852   117695414.270       11523.223          50.000  
 16  4  2 12 31 56.8000000  0  3G16G26G31
  22356040.719   117481786.648       -1039.039          49.000  
  21805690.102   114589673.957       12491.652          49.000  
  22396473.625   117694262.211       11517.750          50.000  
 16  4  2 12 31 56.9000000  0  3G16G26G31
  22356060.523   117481890.727       -1042.758          49.000  
  21805452.422   114588424.973       12487.703          49.000  
  22396254.492   117693110.648       11513.191          50.000  
 16  4  2 12 31 57.0000000  0  3G16G26G31
  22356080.414   117481995.219       -1047.273          49.000  
  21805214.836   114587176.457       12482.824          49.000  
  22396035.453   117691959.586       11507.844          50.000  
 16  4  2 12 31 57.1000000  0  3G16G26G31
  22356100.383   117482100.168       -1051.793          49.000  
  21804977.344   114585928.430       12477.926          49.000  
  22395816.516   117690809.094       11502.273          50.000  
 16  4  2 12 31 57.2000000  0  3G16G26G31
  22356120.445   117482205.574       -1056.371          49.000  
  21804739.945   114584680.898       12472.863          49.000  
  22395597.680   117689659.129       11496.887          50.000  
 16  4  2 12 31 57.3000000  0  3G16G26G31
  22356140.578   117482311.375       -1060.246          49.000  
  21804502.633   114583433.785       12468.746          49.000  
  22395378.945   117688509.656       11491.969          50.000  
 16  4  2 12 31 57.4000000  0  3G16G26G31
  22356160.797   117482417.641       -1064.770          49.000  
  21804265.414   114582187.195       12463.695          49.000  
  22395160.312   117687360.746       11486.492          50.000  
 16  4  2 12 31 57.5000000  0  3G16G26G31
  22356181.102   117482524.336       -1069.301          49.000  
  21804028.289   114580941.051       12459.000          49.000  
  22394941.781   117686212.340       11481.258          50.000  
 16  4  2 12 31 57.6000000  0  3G16G26G31
  22356201.492   117482631.504       -1073.852          49.000  
  21803791.258   114579695.438       12453.930          49.000  
  22394723.352   117685064.520       11475.570          50.000  
 16  4  2 12 31 57.7000000  0  3G16G26G31
  22356221.961   117482739.059       -1077.996          49.000  
  21803554.297   114578450.219       12449.707          49.000  
  22394505.023   117683917.168       11470.531          50.000  
 16  4  2 12 31 57.8000000  0  3G16G26G31
  22356242.523   117482847.113       -1082.656          49.000  
  21803317.445   114577205.559       12444.496          49.000  
  22394286.797   117682770.410       11465.008          50.000  
 16  4  2 12 31 57.9000000  0  3G16G26G31
  22356263.164   117482955.559       -1086.699          49.000  
  21803080.680   114575961.324       12439.977          49.000  
  22394068.672   117681624.125       11460.078          50.000  
 16  4  2 12 31 58.0000000  0  3G16G26G31
  22356283.883   117483064.480       -1091.508          49.000  
  21802844.008   114574717.598       12434.996          49.000  
  22393850.641   117680478.422       11454.379          50.000  
 16  4  2 12 31 58.1000000  0  3G16G26G31
  22356304.695   117483173.848       -1095.988          49.000  
  21802607.422   114573474.363       12430.117          49.000  
  22393632.727   117679333.250       11449.012          50.000  
 16  4  2 12 31 58.2000000  0  3G16G26G31
  22356325.594   117483283.664       -1100.445          49.000  
  21802370.930   114572231.605       12425.215          49.000  
  22393414.914   117678188.617       11443.555          50.000  
 16  4  2 12 31 58.3000000  0  3G16G26G31
  22356346.570   117483393.902       -1104.512          49.000  
  21802134.531   114570989.316       12420.723          49.000  
  22393197.195   117677044.504       11438.512          50.000  
 16  4  2 12 31 58.4000000  0  3G16G26G31
  22356367.633   117483504.562       -1108.895          49.000  
  21801898.219   114569747.484       12415.977          49.000  
  22392979.562   117675900.895       11433.344          50.000  
 16  4  2 12 31 58.5000000  0  3G16G26G31
  22356388.773   117483615.668       -1113.250          49.000  
  21801661.992   114568506.129       12411.125          49.000  
  22392762.047   117674757.832       11427.988          50.000  
 16  4  2 12 31 58.6000000  0  3G16G26G31
  22356410.008   117483727.254       -1118.113          49.000  
  21801425.867   114567265.289       12406.059          49.000  
  22392544.633   117673615.340       11422.113          50.000  
 16  4  2 12 31 58.7000000  0  3G16G26G31
  22356431.328   117483839.293       -1122.598          49.000  
  21801189.836   114566024.949       12401.023          49.000  
  22392327.328   117672473.383       11416.867          50.000  
 16  4  2 12 31 58.8000000  0  3G16G26G31
  22356452.719   117483951.703       -1126.457          49.000  
  21800953.883   114564785.004       12396.930          49.000  
  22392110.109   117671331.906       11411.984          50.000  
 16  4  2 12 31 58.9000000  0  3G16G26G31
  22356474.188   117484064.516       -1130.172          49.000  
  21800718.016   114563545.516       12392.781          49.000  
  22391892.984   117670190.910       11407.363          50.000  
 16  4  2 12 31 59.0000000  0  3G16G26G31
  22356495.750   117484177.793       -1134.832          49.000  
  21800482.242   114562306.520       12387.711          49.000  
  22391675.977   117669050.480       11401.691          50.000  
 16  4  2 12 31 59.1000000  0  3G16G26G31
  22356517.391   117484291.543       -1139.855          49.000  
  21800246.570   114561068.035       12382.352          49.000  
  22391459.062   117667910.605       11395.902          50.000  
 16  4  2 12 31 59.2000000  0  3G16G26G31
  22356539.125   117484405.746       -1144.191          49.000  
  21800010.984   114559830.031       12377.746          49.000  
  22391242.258   117666771.285       11390.469          50.000  
 16  4  2 12 31 59.3000000  0  3G16G26G31
  22356560.938   117484520.371       -1148.508          49.000  
  21799775.500   114558592.492       12373.008          49.000  
  22391025.547   117665632.469       11385.367          50.000  
 16  4  2 12 31 59.4000000  0  3G16G26G31
  22356582.828   117484635.395       -1152.469          49.000  
  21799540.086   114557355.410       12368.566          49.000  
  22390808.930   117664494.148       11380.602          50.000  
 16  4  2 12 31 59.5000000  0  3G16G26G31
  22356604.797   117484750.852       -1156.742          49.000  
  21799304.766   114556118.781       12364.035          49.000  
  22390592.422   117663356.352       11375.383          50.000  
 16  4  2 12 31 59.6000000  0  3G16G26G31
  22356626.844   117484866.695       -1160.523          49.000  
  21799069.523   114554882.574       12359.855          49.000  
  22390376.008   117662219.039       11370.551          50.000  
 16  4  2 12 31 59.7000000  0  3G16G26G31
  22356648.977   117484983.020       -1165.266          49.000  
  21798834.375   114553646.883       12354.855          49.000  
  22390159.688   117661082.305       11364.758          50.000  
 16  4  2 12 31 59.8000000  0  3G16G26G31
  22356671.203   117485099.832       -1170.551          49.000  
  21798599.336   114552411.723       12349.230          49.000  
  22389943.484   117659946.137       11358.602          50.000  
 16  4  2 12 31 59.9000000  0  3G16G26G31
  22356693.508   117485217.023       -1174.180          49.000  
  21798364.367   114551176.984       12345.145          49.000  
  22389727.367   117658810.445       11354.113          50.000  
 16  4  2 12 32  0.0000000  0  3G16G26G31
  22356715.891   117485334.660       -1178.301          49.000  
  21798129.492   114549942.723       12340.582          49.000  
  22389511.359   117657675.277       11349.141          50.000  
 16  4  2 12 32  0.1000000  0  3G16G26G31
  22356738.359   117485452.715       -1182.711          49.000  
  21797894.719   114548708.934       12335.582          49.000  
  22389295.445   117656540.641       11343.832          50.000  
 16  4  2 12 32  0.2000000  0  3G16G26G31
  22356760.898   117485571.184       -1186.785          49.000  
  21797660.016   114547475.570       12331.176          49.000  
  22389079.625   117655406.500       11338.949          50.000  
 16  4  2 12 32  0.3000000  0  3G16G26G31
  22356783.531   117485690.094       -1191.254          49.000  
  21797425.406   114546242.672       12326.676          49.000  
  22388863.906   117654272.902       11333.391          50.000  
 16  4  2 12 32  0.4000000  0  3G16G26G31
  22356806.250   117485809.445       -1195.664          49.000  
  21797190.891   114545010.297       12321.688          49.000  
  22388648.289   117653139.840       11327.914          50.000  
 16  4  2 12 32  0.5000000  0  3G16G26G31
  22356829.047   117485929.246       -1200.320          49.000  
  21796956.469   114543778.398       12316.555          49.000  
  22388432.781   117652007.305       11322.578          50.000  
 16  4  2 12 32  0.6000000  0  3G16G26G31
  22356851.938   117486049.520       -1204.992          49.000  
  21796722.141   114542546.984       12311.754          49.000  
  22388217.367   117650875.344       11316.844          50.000  
 16  4  2 12 32  0.7000000  0  3G16G26G31
  22356874.898   117486170.203       -1209.121          49.000  
  21796487.898   114541316.051       12307.082          49.000  
  22388002.055   117649743.875       11311.895          50.000  
 16  4  2 12 32  0.8000000  0  3G16G26G31
  22356897.953   117486291.324       -1213.344          49.000  
  21796253.742   114540085.574       12302.449          49.000  
  22387786.852   117648612.957       11306.602          50.000  
 16  4  2 12 32  0.9000000  0  3G16G26G31
  22356921.086   117486412.914       -1218.215          49.000  
  21796019.688   114538855.605       12297.289          49.000  
  22387571.750   117647482.566       11301.145          50.000  
 16  4  2 12 32  1.0000000  0  3G16G26G31
  22356944.312   117486534.930       -1222.512          49.000  
  21795785.719   114537626.094       12292.625          49.000  
  22387356.742   117646352.734       11295.523          50.000  
 16  4  2 12 32  1.1000000  0  3G16G26G31
  22356967.617   117486657.418       -1227.129          49.000  
  21795551.844   114536397.117       12287.438          49.000  
  22387141.844   117645223.430       11290.414          50.000  
 16  4  2 12 32  1.2000000  0  3G16G26G31
  22356991.016   117486780.359       -1231.957          49.000  
  21795318.062   114535168.605       12282.469          49.000  
  22386927.055   117644094.699       11284.336          50.000  
 16  4  2 12 32  1.3000000  0  3G16G26G31
  22357014.500   117486903.754       -1236.293          49.000  
  21795084.375   114533940.586       12277.816          49.000  
  22386712.367   117642966.500       11279.145          50.000  
 16  4  2 12 32  1.4000000  0  3G16G26G31
  22357038.055   117487027.582       -1240.402          49.000  
  21794850.781   114532713.062       12272.980          49.000  
  22386497.781   117641838.848       11273.887          50.000  
 16  4  2 12 32  1.5000000  0  3G16G26G31
  22357061.703   117487151.832       -1244.762          49.000  
  21794617.281   114531485.977       12268.469          49.000  
  22386283.289   117640711.676       11269.000          50.000  
 16  4  2 12 32  1.6000000  0  3G16G26G31
  22357085.438   117487276.527       -1249.301          49.000  
  21794383.867   114530259.387       12263.535          49.000  
  22386068.898   117639585.059       11263.445          50.000  
 16  4  2 12 32  1.7000000  0  3G16G26G31
  22357109.250   117487401.699       -1253.934          49.000  
  21794150.539   114529033.297       12258.582          49.000  
  22385854.625   117638459.020       11257.781          50.000  
 16  4  2 12 32  1.8000000  0  3G16G26G31
  22357133.148   117487527.230       -1257.434          49.000  
  21793917.305   114527807.625       12254.582          49.000  
  22385640.430   117637333.434       11253.262          50.000  
 16  4  2 12 32  1.9000000  0  3G16G26G31
  22357157.133   117487653.266       -1262.520          49.000  
  21793684.164   114526582.477       12249.133          49.000  
  22385426.352   117636208.422       11247.465          50.000  
 16  4  2 12 32  2.0000000  0  3G16G26G31
  22357181.188   117487779.684       -1266.449          49.000  
  21793451.109   114525357.762       12244.812          49.000  
  22385212.359   117635083.895       11242.512          50.000  
 16  4  2 12 32  2.1000000  0  3G16G26G31
  22357205.320   117487906.523       -1270.480          49.000  
  21793218.133   114524133.500       12240.383          49.000  
  22384998.469   117633959.879       11237.613          50.000  
 16  4  2 12 32  2.2000000  0  3G16G26G31
  22357229.531   117488033.758       -1274.395          49.000  
  21792985.250   114522909.672       12236.195          49.000  
  22384784.672   117632836.363       11232.703          50.000  
 16  4  2 12 32  2.3000000  0  3G16G26G31
  22357253.828   117488161.438       -1278.816          49.000  
  21792752.453   114521686.328       12231.328          49.000  
  22384570.977   117631713.395       11227.195          50.000  
 16  4  2 12 32  2.4000000  0  3G16G26G31
  22357278.211   117488289.566       -1283.430          49.000  
  21792519.750   114520463.477       12226.312          49.000  
  22384357.375   117630590.938       11221.844          50.000  
 16  4  2 12 32  2.5000000  0  3G16G26G31
  22357302.672   117488418.117       -1287.637          49.000  
  21792287.133   114519241.082       12221.719          49.000  
  22384143.883   117629469.016       11216.629          50.000  
 16  4  2 12 32  2.6000000  0  3G16G26G31
  22357327.227   117488547.164       -1292.734          49.000  
  21792054.625   114518019.219       12216.234          49.000  
  22383930.508   117628347.676       11210.629          50.000  
 16  4  2 12 32  2.7000000  0  3G16G26G31
  22357351.875   117488676.684       -1297.473          49.000  
  21791822.211   114516797.879       12211.086          49.000  
  22383717.227   117627226.902       11205.047          50.000  
 16  4  2 12 32  2.8000000  0  3G16G26G31
  22357376.586   117488806.566       -1301.172          49.000  
  21791589.875   114515576.918       12207.141          49.000  
  22383504.039   117626106.582       11200.477          50.000  
 16  4  2 12 32  2.9000000  0  3G16G26G31
  22357401.383   117488936.875       -1305.164          49.000  
  21791357.617   114514356.441       12202.668          49.000  
  22383290.953   117624986.797       11195.262          50.000  
 16  4  2 12 32  3.0000000  0  3G16G26G31
  22357426.273   117489067.637       -1309.727          49.000  
  21791125.469   114513136.465       12197.559          49.000  
  22383077.961   117623867.543       11189.957          50.000  
 16  4  2 12 32  3.1000000  0  3G16G26G31
  22357451.234   117489198.824       -1314.184          49.000  
  21790893.391   114511916.922       12192.891          49.000  
  22382865.078   117622748.805       11184.656          50.000  
 16  4  2 12 32  3.2000000  0  3G16G26G31
  22357476.281   117489330.465       -1318.594          49.000  
  21790661.422   114510697.883       12188.082          49.000  
  22382652.289   117621630.621       11179.203          50.000  
 16  4  2 12 32  3.3000000  0  3G16G26G31
  22357501.414   117489462.551       -1323.020          49.000  
  21790429.547   114509479.336       12183.266          49.000  
  22382439.602   117620512.973       11173.824          50.000  
 16  4  2 12 32  3.4000000  0  3G16G26G31
  22357526.641   117489595.121       -1328.070          49.000  
  21790197.766   114508261.301       12177.898          49.000  
  22382227.031   117619395.895       11167.934          50.000  
 16  4  2 12 32  3.5000000  0  3G16G26G31
  22357551.938   117489728.055       -1331.582          49.000  
  21789966.055   114507043.676       12173.941          49.000  
  22382014.547   117618279.293       11163.336          50.000  
 16  4  2 12 32  3.6000000  0  3G16G26G31
  22357577.328   117489861.461       -1336.176          49.000  
  21789734.445   114505826.555       12169.000          49.000  
  22381802.164   117617163.227       11158.000          50.000  
 16  4  2 12 32  3.7000000  0  3G16G26G31
  22357602.797   117489995.293       -1340.559          49.000  
  21789502.922   114504609.902       12164.262          49.000  
  22381589.891   117616047.699       11152.582          50.000  
 16  4  2 12 32  3.8000000  0  3G16G26G31
  22357628.352   117490129.605       -1345.508          49.000  
  21789271.508   114503393.781       12158.777          49.000  
  22381377.719   117614932.750       11146.730          50.000  
 16  4  2 12 32  3.9000000  0  3G16G26G31
  22357653.992   117490264.348       -1349.594          49.000  
  21789040.172   114502178.121       12154.363          49.000  
  22381165.648   117613818.312       11141.785          50.000  
 16  4  2 12 32  4.0000000  0  3G16G26G31
  22357679.703   117490399.496       -1353.613          49.000  
  21788808.922   114500962.891       12150.047          49.000  
  22380953.680   117612704.375       11136.707          50.000  
 16  4  2 12 32  4.1000000  0  3G16G26G31
  22357705.508   117490535.078       -1357.746          49.000  
  21788577.766   114499748.145       12145.422          49.000  
  22380741.805   117611590.973       11131.699          50.000  
 16  4  2 12 32  4.2000000  0  3G16G26G31
  22357731.375   117490671.047       -1362.020          49.000  
  21788346.688   114498533.828       12140.742          49.000  
  22380530.023   117610478.039       11126.539          50.000  
 16  4  2 12 32  4.3000000  0  3G16G26G31
  22357757.344   117490807.496       -1366.586          49.000  
  21788115.703   114497320.020       12135.891          49.000  
  22380318.352   117609365.688       11120.984          50.000  
 16  4  2 12 32  4.4000000  0  3G16G26G31
  22357783.391   117490944.367       -1370.973          49.000  
  21787884.812   114496106.688       12131.004          49.000  
  22380106.773   117608253.844       11115.680          50.000  
 16  4  2 12 32  4.5000000  0  3G16G26G31
  22357809.516   117491081.660       -1375.012          49.000  
  21787654.016   114494893.805       12126.613          49.000  
  22379895.297   117607142.520       11110.734          50.000  
 16  4  2 12 32  4.6000000  0  3G16G26G31
  22357835.727   117491219.375       -1379.543          49.000  
  21787423.297   114493681.391       12121.699          49.000  
  22379683.914   117606031.715       11105.172          50.000  
 16  4  2 12 32  4.7000000  0  3G16G26G31
  22357862.039   117491357.652       -1385.051          49.000  
  21787192.695   114492469.574       12115.738          49.000  
  22379472.664   117604921.562       11098.762          50.000  
 16  4  2 12 32  4.8000000  0  3G16G26G31
  22357888.430   117491496.344       -1389.375          49.000  
  21786962.180   114491258.207       12111.086          49.000  
  22379261.500   117603811.918       11093.441          50.000  
 16  4  2 12 32  4.9000000  0  3G16G26G31
  22357914.906   117491635.473       -1393.555          49.000  
  21786731.758   114490047.316       12106.562          49.000  
  22379050.445   117602702.801       11088.398          50.000  
 16  4  2 12 32  5.0000000  0  3G16G26G31
  22357941.461   117491775.004       -1397.496          49.000  
  21786501.414   114488836.879       12102.160          49.000  
  22378839.477   117601594.184       11083.559          50.000  
 16  4  2 12 32  5.1000000  0  3G16G26G31
  22357968.102   117491914.992       -1402.098          49.000  
  21786271.164   114487626.918       12097.207          49.000  
  22378628.617   117600486.105       11078.059          50.000  
 16  4  2 12 32  5.2000000  0  3G16G26G31
  22357994.828   117492055.449       -1406.672          49.000  
  21786041.023   114486417.496       12091.906          49.000  
  22378417.867   117599378.605       11072.480          50.000  
 16  4  2 12 32  5.3000000  0  3G16G26G31
  22358021.633   117492196.285       -1410.602          49.000  
  21785810.945   114485208.469       12087.797          49.000  
  22378207.203   117598271.570       11067.730          50.000  
 16  4  2 12 32  5.4000000  0  3G16G26G31
  22358048.523   117492337.613       -1415.676          49.000  
  21785580.977   114483999.973       12082.445          49.000  
  22377996.648   117597165.125       11061.625          50.000  
 16  4  2 12 32  5.5000000  0  3G16G26G31
  22358075.516   117492479.434       -1420.605          49.000  
  21785351.109   114482792.008       12077.137          49.000  
  22377786.211   117596059.270       11055.594          50.000  
 16  4  2 12 32  5.6000000  0  3G16G26G31
  22358102.570   117492621.652       -1424.363          49.000  
  21785121.328   114481584.484       12073.004          49.000  
  22377575.859   117594953.887       11051.184          50.000  
 16  4  2 12 32  5.7000000  0  3G16G26G31
  22358129.711   117492764.297       -1428.609          49.000  
  21784891.633   114480377.422       12068.379          49.000  
  22377365.609   117593849.035       11045.809          50.000  
 16  4  2 12 32  5.8000000  0  3G16G26G31
  22358156.945   117492907.398       -1433.102          49.000  
  21784662.039   114479170.867       12063.227          49.000  
  22377155.477   117592744.742       11040.441          50.000  
 16  4  2 12 32  5.9000000  0  3G16G26G31
  22358184.250   117493050.883       -1437.047          49.000  
  21784432.516   114477964.723       12059.133          49.000  
  22376945.430   117591640.910       11035.539          50.000  
 16  4  2 12 32  6.0000000  0  3G16G26G31
  22358211.641   117493194.797       -1441.328          49.000  
  21784203.086   114476759.059       12054.379          49.000  
  22376735.477   117590537.605       11030.367          50.000  
 16  4  2 12 32  6.1000000  0  3G16G26G31
  22358239.117   117493339.180       -1446.098          49.000  
  21783973.750   114475553.887       12049.344          49.000  
  22376525.633   117589434.871       11024.652          50.000  
 16  4  2 12 32  6.2000000  0  3G16G26G31
  22358266.672   117493483.988       -1450.355          49.000  
  21783744.508   114474349.191       12044.617          49.000  
  22376315.883   117588332.648       11019.441          50.000  
 16  4  2 12 32  6.3000000  0  3G16G26G31
  22358294.312   117493629.242       -1454.633          49.000  
  21783515.352   114473144.977       12039.938          49.000  
  22376106.242   117587230.969       11014.238          50.000  
 16  4  2 12 32  6.4000000  0  3G16G26G31
  22358322.023   117493774.898       -1458.781          49.000  
  21783286.281   114471941.207       12035.414          49.000  
  22375896.688   117586129.781       11009.156          50.000  
 16  4  2 12 32  6.5000000  0  3G16G26G31
  22358349.828   117493920.996       -1463.070          49.000  
  21783057.305   114470737.914       12030.719          49.000  
  22375687.242   117585029.133       11003.930          50.000  
 16  4  2 12 32  6.6000000  0  3G16G26G31
  22358377.727   117494067.590       -1468.180          49.000  
  21782828.430   114469535.176       12025.008          49.000  
  22375477.906   117583929.074       10997.855          50.000  
 16  4  2 12 32  6.7000000  0  3G16G26G31
  22358405.695   117494214.590       -1472.215          49.000  
  21782599.633   114468332.848       12020.836          49.000  
  22375268.672   117582829.516       10992.863          50.000  
 16  4  2 12 32  6.8000000  0  3G16G26G31
  22358433.758   117494362.023       -1476.727          49.000  
  21782370.930   114467131.012       12015.973          49.000  
  22375059.523   117581730.473       10987.531          50.000  
 16  4  2 12 32  6.9000000  0  3G16G26G31
  22358461.891   117494509.887       -1480.863          49.000  
  21782142.320   114465929.652       12011.281          49.000  
  22374850.484   117580631.969       10982.344          50.000  
 16  4  2 12 32  7.0000000  0  3G16G26G31
  22358490.125   117494658.227       -1485.695          49.000  
  21781913.812   114464728.809       12006.117          49.000  
  22374641.562   117579534.035       10976.613          50.000  
 16  4  2 12 32  7.1000000  0  3G16G26G31
  22358518.453   117494807.090       -1491.047          49.000  
  21781685.406   114463528.520       12000.379          49.000  
  22374432.742   117578436.711       10970.371          50.000  
 16  4  2 12 32  7.2000000  0  3G16G26G31
  22358546.859   117494956.383       -1495.234          49.000  
  21781457.094   114462328.711       11995.578          49.000  
  22374224.039   117577339.918       10965.121          50.000  
 16  4  2 12 32  7.3000000  0  3G16G26G31
  22358575.336   117495106.051       -1498.762          49.000  
  21781228.859   114461129.301       11991.883          49.000  
  22374015.414   117576243.582       10960.777          50.000  
 16  4  2 12 32  7.4000000  0  3G16G26G31
  22358603.891   117495256.078       -1502.156          49.000  
  21781000.695   114459930.301       11987.996          49.000  
  22373806.875   117575147.711       10956.293          50.000  
 16  4  2 12 32  7.5000000  0  3G16G26G31
  22358632.539   117495406.645       -1507.652          49.000  
  21780772.648   114458731.879       11982.035          49.000  
  22373598.453   117574052.461       10950.074          50.000  
 16  4  2 12 32  7.6000000  0  3G16G26G31
  22358661.266   117495557.605       -1511.832          49.000  
  21780544.672   114457533.875       11977.559          49.000  
  22373390.133   117572957.711       10944.809          50.000  
 16  4  2 12 32  7.7000000  0  3G16G26G31
  22358690.078   117495709.023       -1516.438          49.000  
  21780316.805   114456336.387       11972.562          49.000  
  22373181.914   117571863.512       10939.199          50.000  
 16  4  2 12 32  7.8000000  0  3G16G26G31
  22358718.977   117495860.895       -1521.012          49.000  
  21780089.023   114455139.391       11967.641          49.000  
  22372973.805   117570769.848       10933.793          50.000  
 16  4  2 12 32  7.9000000  0  3G16G26G31
  22358747.953   117496013.176       -1525.121          49.000  
  21779861.320   114453942.844       11963.102          49.000  
  22372765.781   117569676.695       10928.840          50.000  
 16  4  2 12 32  8.0000000  0  3G16G26G31
  22358777.008   117496165.891       -1529.199          49.000  
  21779633.719   114452746.766       11958.543          49.000  
  22372557.859   117568584.074       10923.633          50.000  
 16  4  2 12 32  8.1000000  0  3G16G26G31
  22358806.156   117496319.055       -1533.961          49.000  
  21779406.203   114451551.180       11953.359          49.000  
  22372350.039   117567491.992       10918.016          50.000  
 16  4  2 12 32  8.2000000  0  3G16G26G31
  22358835.383   117496472.637       -1537.934          49.000  
  21779178.781   114450356.043       11949.152          49.000  
  22372142.320   117566400.426       10913.148          50.000  
 16  4  2 12 32  8.3000000  0  3G16G26G31
  22358864.695   117496626.664       -1542.605          49.000  
  21778951.445   114449161.398       11944.059          49.000  
  22371934.703   117565309.387       10907.621          50.000  
 16  4  2 12 32  8.4000000  0  3G16G26G31
  22358894.102   117496781.211       -1547.852          49.000  
  21778724.219   114447967.316       11938.363          49.000  
  22371727.203   117564218.980       10901.211          50.000  
 16  4  2 12 32  8.5000000  0  3G16G26G31
  22358923.586   117496936.137       -1551.516          49.000  
  21778497.070   114446773.652       11934.195          49.000  
  22371519.797   117563129.031       10896.668          50.000  
 16  4  2 12 32  8.6000000  0  3G16G26G31
  22358953.156   117497091.539       -1556.188          49.000  
  21778270.023   114445580.508       11929.242          49.000  
  22371312.500   117562039.660       10891.109          50.000  
 16  4  2 12 32  8.7000000  0  3G16G26G31
  22358982.812   117497247.379       -1560.617          49.000  
  21778043.062   114444387.832       11924.418          49.000  
  22371105.305   117560950.820       10885.672          50.000  
 16  4  2 12 32  8.8000000  0  3G16G26G31
  22359012.547   117497403.645       -1564.812          49.000  
  21777816.195   114443195.629       11919.711          49.000  
  22370898.203   117559862.504       10880.508          50.000  
 16  4  2 12 32  8.9000000  0  3G16G26G31
  22359042.359   117497560.293       -1568.570          49.000  
  21777589.406   114442003.852       11915.562          49.000  
  22370691.195   117558774.660       10875.895          50.000  
 16  4  2 12 32  9.0000000  0  3G16G26G31
  22359072.250   117497717.430       -1573.480          49.000  
  21777362.719   114440812.590       11910.449          49.000  
  22370484.297   117557687.395       10870.109          50.000  
 16  4  2 12 32  9.1000000  0  3G16G26G31
  22359102.234   117497874.992       -1577.926          49.000  
  21777136.125   114439621.809       11905.441          49.000  
  22370277.500   117556600.652       10864.613          50.000  
 16  4  2 12 32  9.2000000  0  3G16G26G31
  22359132.305   117498033.016       -1582.422          49.000  
  21776909.625   114438431.523       11900.520          49.000  
  22370070.812   117555514.477       10859.066          50.000  
 16  4  2 12 32  9.3000000  0  3G16G26G31
  22359162.461   117498191.480       -1586.785          49.000  
  21776683.211   114437241.719       11895.742          49.000  
  22369864.219   117554428.816       10853.910          50.000  
 16  4  2 12 32  9.4000000  0  3G16G26G31
  22359192.703   117498350.371       -1590.910          49.000  
  21776456.883   114436052.371       11891.383          49.000  
  22369657.727   117553343.691       10848.871          50.000  
 16  4  2 12 32  9.5000000  0  3G16G26G31
  22359223.016   117498509.668       -1595.297          49.000  
  21776230.648   114434863.484       11886.453          49.000  
  22369451.328   117552259.059       10843.516          50.000  
 16  4  2 12 32  9.6000000  0  3G16G26G31
  22359253.414   117498669.438       -1599.758          49.000  
  21776004.508   114433675.102       11881.590          49.000  
  22369245.039   117551174.996       10838.059          50.000  
 16  4  2 12 32  9.7000000  0  3G16G26G31
  22359283.891   117498829.602       -1603.863          49.000  
  21775778.445   114432487.168       11877.078          49.000  
  22369038.836   117550091.422       10833.121          50.000  
 16  4  2 12 32  9.8000000  0  3G16G26G31
  22359314.453   117498990.184       -1607.945          49.000  
  21775552.477   114431299.676       11872.586          49.000  
  22368832.734   117549008.359       10827.945          50.000  
 16  4  2 12 32  9.9000000  0  3G16G26G31
  22359345.102   117499151.238       -1612.727          49.000  
  21775326.609   114430112.699       11867.516          49.000  
  22368626.742   117547925.867       10822.293          50.000  
 16  4  2 12 32 10.0000000  0  3G16G26G31
  22359375.828   117499312.707       -1616.855          49.000  
  21775100.820   114428926.184       11862.887          49.000  
  22368420.852   117546843.883       10817.164          50.000  
 16  4  2 12 32 10.1000000  0  3G16G26G31
  22359406.648   117499474.656       -1621.715          49.000  
  21774875.133   114427740.188       11857.578          49.000  
  22368215.062   117545762.469       10811.355          50.000  
 16  4  2 12 32 10.2000000  0  3G16G26G31
  22359437.555   117499637.102       -1626.762          49.000  
  21774649.547   114426554.727       11852.266          49.000  
  22368009.383   117544681.648       10805.512          50.000  
 16  4  2 12 32 10.3000000  0  3G16G26G31
  22359468.547   117499799.938       -1630.711          49.000  
  21774424.047   114425369.703       11847.793          49.000  
  22367803.805   117543601.320       10800.504          50.000  
 16  4  2 12 32 10.4000000  0  3G16G26G31
  22359499.609   117499963.191       -1634.598          49.000  
  21774198.633   114424185.125       11843.527          49.000  
  22367598.320   117542521.492       10795.695          50.000  
 16  4  2 12 32 10.5000000  0  3G16G26G31
  22359530.758   117500126.844       -1638.668          49.000  
  21773973.305   114423001.012       11838.875          49.000  
  22367392.938   117541442.176       10790.547          50.000  
 16  4  2 12 32 10.6000000  0  3G16G26G31
  22359561.984   117500290.977       -1643.523          49.000  
  21773748.062   114421817.391       11833.812          49.000  
  22367187.656   117540363.414       10784.891          50.000  
 16  4  2 12 32 10.7000000  0  3G16G26G31
  22359593.305   117500455.543       -1647.902          49.000  
  21773522.922   114420634.254       11829.074          49.000  
  22366982.477   117539285.191       10779.621          50.000  
 16  4  2 12 32 10.8000000  0  3G16G26G31
  22359624.703   117500620.531       -1652.164          49.000  
  21773297.867   114419451.578       11824.379          49.000  
  22366777.391   117538207.477       10774.398          50.000  
 16  4  2 12 32 10.9000000  0  3G16G26G31
  22359656.180   117500785.961       -1656.504          49.000  
  21773072.898   114418269.387       11819.586          49.000  
  22366572.414   117537130.301       10769.051          50.000  
 16  4  2 12 32 11.0000000  0  3G16G26G31
  22359687.742   117500951.809       -1660.793          49.000  
  21772848.023   114417087.656       11814.918          49.000  
  22366367.523   117536053.641       10763.887          50.000  
 16  4  2 12 32 11.1000000  0  3G16G26G31
  22359719.391   117501118.129       -1665.270          49.000  
  21772623.250   114415906.438       11809.980          49.000  
  22366162.750   117534977.551       10758.340          50.000  
 16  4  2 12 32 11.2000000  0  3G16G26G31
  22359751.125   117501284.879       -1669.719          49.000  
  21772398.562   114414725.691       11805.090          49.000  
  22365958.078   117533901.980       10753.051          50.000  
 16  4  2 12 32 11.3000000  0  3G16G26G31
  22359782.930   117501452.039       -1673.844          49.000  
  21772173.961   114413545.391       11800.633          49.000  
  22365753.500   117532826.914       10747.918          50.000  
 16  4  2 12 32 11.4000000  0  3G16G26G31
  22359814.828   117501619.652       -1678.355          49.000  
  21771949.453   114412365.590       11795.637          49.000  
  22365549.016   117531752.406       10742.449          50.000  
 16  4  2 12 32 11.5000000  0  3G16G26G31
  22359846.805   117501787.699       -1682.625          49.000  
  21771725.031   114411186.258       11791.129          49.000  
  22365344.648   117530678.410       10737.344          50.000  
 16  4  2 12 32 11.6000000  0  3G16G26G31
  22359878.867   117501956.164       -1686.871          49.000  
  21771500.695   114410007.387       11786.406          49.000  
  22365140.367   117529604.938       10732.086          50.000  
 16  4  2 12 32 11.7000000  0  3G16G26G31
  22359911.016   117502125.129       -1691.785          49.000  
  21771276.461   114408829.062       11780.918          49.000  
  22364936.203   117528532.059       10726.105          50.000  
 16  4  2 12 32 11.8000000  0  3G16G26G31
  22359943.258   117502294.543       -1696.527          49.000  
  21771052.328   114407651.230       11775.859          49.000  
  22364732.148   117527459.734       10720.461          50.000  
 16  4  2 12 32 11.9000000  0  3G16G26G31
  22359975.562   117502464.309       -1699.562          49.000  
  21770828.266   114406473.777       11772.484          49.000  
  22364528.172   117526387.832       10716.598          50.000  
 16  4  2 12 32 12.0000000  0  3G16G26G31
  22360007.953   117502634.520       -1704.457          49.000  
  21770604.297   114405296.816       11767.223          49.000  
  22364324.297   117525316.488       10710.656          50.000  
 16  4  2 12 32 12.1000000  0  3G16G26G31
  22360040.438   117502805.230       -1709.199          49.000  
  21770380.438   114404120.406       11761.922          49.000  
  22364120.539   117524245.730       10705.082          50.000  
 16  4  2 12 32 12.2000000  0  3G16G26G31
  22360073.000   117502976.320       -1713.359          49.000  
  21770156.648   114402944.402       11757.438          49.000  
  22363916.875   117523175.461       10699.793          50.000  
 16  4  2 12 32 12.3000000  0  3G16G26G31
  22360105.648   117503147.910       -1718.168          49.000  
  21769932.969   114401768.945       11752.281          49.000  
  22363713.320   117522105.773       10694.125          50.000  
 16  4  2 12 32 12.4000000  0  3G16G26G31
  22360138.383   117503319.898       -1722.133          49.000  
  21769709.367   114400593.930       11747.777          49.000  
  22363509.859   117521036.574       10689.258          50.000  
 16  4  2 12 32 12.5000000  0  3G16G26G31
  22360171.203   117503492.359       -1726.680          49.000  
  21769485.867   114399419.418       11742.801          49.000  
  22363306.508   117519967.953       10683.652          50.000  
 16  4  2 12 32 12.6000000  0  3G16G26G31
  22360204.102   117503665.258       -1731.418          49.000  
  21769262.461   114398245.406       11737.688          49.000  
  22363103.250   117518899.863       10678.023          50.000  
 16  4  2 12 32 12.7000000  0  3G16G26G31
  22360237.086   117503838.586       -1735.488          49.000  
  21769039.133   114397071.840       11733.348          49.000  
  22362900.102   117517832.289       10673.062          50.000  
 16  4  2 12 32 12.8000000  0  3G16G26G31
  22360270.156   117504012.379       -1740.062          49.000  
  21768815.906   114395898.797       11728.164          49.000  
  22362697.055   117516765.293       10667.355          50.000  
 16  4  2 12 32 12.9000000  0  3G16G26G31
  22360303.320   117504186.625       -1744.895          49.000  
  21768592.773   114394726.238       11723.121          49.000  
  22362494.117   117515698.824       10661.758          50.000  
 16  4  2 12 32 13.0000000  0  3G16G26G31
  22360336.555   117504361.289       -1748.816          49.000  
  21768369.734   114393554.156       11718.699          49.000  
  22362291.273   117514632.891       10656.816          50.000  
 16  4  2 12 32 13.1000000  0  3G16G26G31
  22360369.867   117504536.352       -1752.824          49.000  
  21768146.781   114392382.496       11714.242          49.000  
  22362088.523   117513567.426       10651.867          50.000  
 16  4  2 12 32 13.2000000  0  3G16G26G31
  22360403.266   117504711.859       -1757.125          49.000  
  21767923.914   114391211.328       11709.445          49.000  
  22361885.875   117512502.523       10646.457          50.000  
 16  4  2 12 32 13.3000000  0  3G16G26G31
  22360436.734   117504887.766       -1761.156          49.000  
  21767701.133   114390040.605       11704.953          49.000  
  22361683.320   117511438.098       10641.645          50.000  
 16  4  2 12 32 13.4000000  0  3G16G26G31
  22360470.297   117505064.090       -1765.410          49.000  
  21767478.438   114388870.332       11700.371          49.000  
  22361480.867   117510374.195       10636.480          50.000  
 16  4  2 12 32 13.5000000  0  3G16G26G31
  22360503.930   117505240.852       -1769.746          49.000  
  21767255.828   114387700.551       11695.633          49.000  
  22361278.516   117509310.832       10631.113          50.000  
 16  4  2 12 32 13.6000000  0  3G16G26G31
  22360537.648   117505418.023       -1774.066          49.000  
  21767033.312   114386531.203       11691.125          49.000  
  22361076.266   117508247.957       10626.000          50.000  
 16  4  2 12 32 13.7000000  0  3G16G26G31
  22360571.461   117505595.719       -1779.188          49.000  
  21766810.898   114385362.445       11685.230          49.000  
  22360874.125   117507185.727       10619.586          50.000  
 16  4  2 12 32 13.8000000  0  3G16G26G31
  22360605.352   117505773.781       -1782.758          49.000  
  21766588.570   114384194.086       11681.258          49.000  
  22360672.070   117506123.934       10615.191          50.000  
 16  4  2 12 32 13.9000000  0  3G16G26G31
  22360639.312   117505952.262       -1786.965          49.000  
  21766366.320   114383026.172       11676.793          49.000  
  22360470.117   117505062.656       10610.086          50.000  
 16  4  2 12 32 14.0000000  0  3G16G26G31
  22360673.367   117506131.223       -1791.746          49.000  
  21766144.180   114381858.793       11671.633          49.000  
  22360268.273   117504001.969       10604.281          50.000  
 16  4  2 12 32 14.1000000  0  3G16G26G31
  22360707.500   117506310.602       -1795.855          49.000  
  21765922.117   114380691.871       11666.957          49.000  
  22360066.523   117502941.777       10599.285          50.000  
 16  4  2 12 32 14.2000000  0  3G16G26G31
  22360741.734   117506490.480       -1801.023          49.000  
  21765700.164   114379525.488       11661.488          49.000  
  22359864.891   117501882.199       10593.121          50.000  
 16  4  2 12 32 14.3000000  0  3G16G26G31
  22360776.031   117506670.742       -1804.902          49.000  
  21765478.289   114378359.527       11657.090          49.000  
  22359663.352   117500823.082       10588.281          50.000  
 16  4  2 12 32 14.4000000  0  3G16G26G31
  22360810.430   117506851.492       -1809.641          49.000  
  21765256.516   114377194.105       11651.984          49.000  
  22359461.922   117499764.559       10582.660          50.000  
 16  4  2 12 32 14.5000000  0  3G16G26G31
  22360844.906   117507032.668       -1813.973          49.000  
  21765034.836   114376029.152       11647.184          49.000  
  22359260.594   117498706.555       10577.375          50.000  
 16  4  2 12 32 14.6000000  0  3G16G26G31
  22360879.461   117507214.281       -1818.434          49.000  
  21764813.242   114374864.676       11642.242          49.000  
  22359059.359   117497649.090       10571.840          50.000  
 16  4  2 12 32 14.7000000  0  3G16G26G31
  22360914.109   117507396.371       -1823.168          49.000  
  21764591.750   114373700.711       11637.297          49.000  
  22358858.242   117496592.180       10566.363          50.000  
 16  4  2 12 32 14.8000000  0  3G16G26G31
  22360948.836   117507578.871       -1827.172          49.000  
  21764370.336   114372537.195       11632.871          49.000  
  22358657.219   117495535.793       10561.336          50.000  
 16  4  2 12 32 14.9000000  0  3G16G26G31
  22360983.648   117507761.785       -1831.242          49.000  
  21764149.023   114371374.145       11628.316          49.000  
  22358456.289   117494479.902       10556.441          50.000  
 16  4  2 12 32 15.0000000  0  3G16G26G31
  22361018.523   117507945.098       -1835.285          49.000  
  21763927.781   114370211.535       11623.805          49.000  
  22358255.461   117493424.520       10551.219          50.000  
 16  4  2 12 32 15.1000000  0  3G16G26G31
  22361053.492   117508128.863       -1839.723          49.000  
  21763706.641   114369049.418       11618.996          49.000  
  22358054.727   117492369.672       10545.957          50.000  
 16  4  2 12 32 15.2000000  0  3G16G26G31
  22361088.539   117508313.039       -1843.926          49.000  
  21763485.578   114367887.754       11614.438          49.000  
  22357854.102   117491315.344       10540.703          50.000  
 16  4  2 12 32 15.3000000  0  3G16G26G31
  22361123.672   117508497.664       -1848.555          49.000  
  21763264.617   114366726.574       11609.465          49.000  
  22357653.570   117490261.551       10535.262          50.000  
 16  4  2 12 32 15.4000000  0  3G16G26G31
  22361158.891   117508682.734       -1852.863          49.000  
  21763043.750   114365565.895       11604.516          49.000  
  22357453.141   117489208.316       10529.637          50.000  
 16  4  2 12 32 15.5000000  0  3G16G26G31
  22361194.188   117508868.242       -1857.250          49.000  
  21762822.969   114364405.691       11599.684          49.000  
  22357252.820   117488155.594       10524.484          50.000  
 16  4  2 12 32 15.6000000  0  3G16G26G31
  22361229.578   117509054.191       -1861.758          49.000  
  21762602.281   114363245.965       11594.801          49.000  
  22357052.594   117487103.410       10518.988          50.000  
 16  4  2 12 32 15.7000000  0  3G16G26G31
  22361265.047   117509240.594       -1866.324          49.000  
  21762381.695   114362086.734       11589.906          49.000  
  22356852.477   117486051.789       10513.480          50.000  
 16  4  2 12 32 15.8000000  0  3G16G26G31
  22361300.609   117509427.457       -1870.914          49.000  
  21762161.195   114360928.008       11584.863          49.000  
  22356652.453   117485000.711       10508.023          50.000  
 16  4  2 12 32 15.9000000  0  3G16G26G31
  22361336.242   117509614.734       -1875.109          49.000  
  21761940.789   114359769.746       11580.172          49.000  
  22356452.539   117483950.145       10502.766          50.000  
 16  4  2 12 32 16.0000000  0  3G16G26G31
  22361371.969   117509802.484       -1879.801          49.000  
  21761720.477   114358611.980       11575.246          49.000  
  22356252.734   117482900.148       10497.191          50.000  
 16  4  2 12 32 16.1000000  0  3G16G26G31
  22361407.781   117509990.676       -1884.031          49.000  
  21761500.250   114357454.711       11570.531          49.000  
  22356053.023   117481850.691       10491.988          50.000  
 16  4  2 12 32 16.2000000  0  3G16G26G31
  22361443.664   117510179.250       -1888.012          49.000  
  21761280.117   114356297.871       11566.105          49.000  
  22355853.406   117480801.707       10487.191          50.000  
 16  4  2 12 32 16.3000000  0  3G16G26G31
  22361479.641   117510368.281       -1892.520          49.000  
  21761060.070   114355141.523       11561.152          49.000  
  22355653.906   117479753.289       10481.512          50.000  
 16  4  2 12 32 16.4000000  0  3G16G26G31
  22361515.695   117510557.750       -1897.082          49.000  
  21760840.117   114353985.656       11556.262          49.000  
  22355454.500   117478705.395       10476.035          50.000  
 16  4  2 12 32 16.5000000  0  3G16G26G31
  22361551.836   117510747.680       -1901.605          49.000  
  21760620.266   114352830.305       11551.141          49.000  
  22355255.195   117477658.066       10470.418          50.000  
 16  4  2 12 32 16.6000000  0  3G16G26G31
  22361588.055   117510938.012       -1905.535          49.000  
  21760400.492   114351675.383       11546.762          49.000  
  22355055.992   117476611.223       10465.664          50.000  
 16  4  2 12 32 16.7000000  0  3G16G26G31
  22361624.367   117511128.844       -1910.551          49.000  
  21760180.820   114350521.004       11541.391          49.000  
  22354856.898   117475564.984       10459.559          50.000  
 16  4  2 12 32 16.8000000  0  3G16G26G31
  22361660.750   117511320.039       -1913.988          49.000  
  21759961.227   114349367.035       11537.426          49.000  
  22354657.891   117474519.203       10455.277          50.000  
 16  4  2 12 32 16.9000000  0  3G16G26G31
  22361697.219   117511511.672       -1918.461          49.000  
  21759741.727   114348213.551       11532.652          49.000  
  22354458.984   117473473.953       10449.793          50.000  
 16  4  2 12 32 17.0000000  0  3G16G26G31
  22361733.773   117511703.773       -1923.160          49.000  
  21759522.320   114347060.566       11527.559          49.000  
  22354260.188   117472429.266       10444.332          50.000  
 16  4  2 12 32 17.1000000  0  3G16G26G31
  22361770.406   117511896.293       -1927.418          49.000  
  21759302.992   114345908.039       11522.949          49.000  
  22354061.492   117471385.094       10439.086          50.000  
 16  4  2 12 32 17.2000000  0  3G16G26G31
  22361807.141   117512089.301       -1932.258          49.000  
  21759083.781   114344756.066       11517.473          49.000  
  22353862.906   117470341.516       10433.062          50.000  
 16  4  2 12 32 17.3000000  0  3G16G26G31
  22361843.938   117512282.691       -1936.160          49.000  
  21758864.648   114343604.496       11513.320          49.000  
  22353664.406   117469298.398       10428.402          50.000  
 16  4  2 12 32 17.4000000  0  3G16G26G31
  22361880.828   117512476.535       -1940.641          49.000  
  21758645.609   114342453.438       11508.375          49.000  
  22353466.023   117468255.859       10422.746          50.000  
 16  4  2 12 32 17.5000000  0  3G16G26G31
  22361917.781   117512670.742       -1944.059          49.000  
  21758426.648   114341302.773       11504.523          49.000  
  22353267.711   117467213.754       10418.535          50.000  
 16  4  2 12 32 17.6000000  0  3G16G26G31
  22361954.836   117512865.445       -1949.219          49.000  
  21758207.781   114340152.652       11498.832          49.000  
  22353069.523   117466172.246       10412.328          50.000  
 16  4  2 12 32 17.7000000  0  3G16G26G31
  22361991.961   117513060.543       -1953.312          49.000  
  21757989.000   114339002.969       11494.375          49.000  
  22352871.422   117465131.234       10407.340          50.000  
 16  4  2 12 32 17.8000000  0  3G16G26G31
  22362029.180   117513256.113       -1957.898          49.000  
  21757770.320   114337853.793       11489.441          49.000  
  22352673.430   117464090.781       10401.793          50.000  
 16  4  2 12 32 17.9000000  0  3G16G26G31
  22362066.477   117513452.121       -1962.316          49.000  
  21757551.734   114336705.117       11484.480          49.000  
  22352475.539   117463050.871       10396.445          50.000  
 16  4  2 12 32 18.0000000  0  3G16G26G31
  22362103.852   117513648.512       -1966.059          49.000  
  21757333.227   114335556.844       11480.367          49.000  
  22352277.742   117462011.430       10391.758          50.000  
 16  4  2 12 32 18.1000000  0  3G16G26G31
  22362141.297   117513845.320       -1970.242          49.000  
  21757114.805   114334409.059       11475.547          49.000  
  22352080.047   117460972.527       10386.352          50.000  
 16  4  2 12 32 18.2000000  0  3G16G26G31
  22362178.836   117514042.594       -1974.996          49.000  
  21756896.484   114333261.754       11470.641          49.000  
  22351882.453   117459934.160       10380.805          50.000  
 16  4  2 12 32 18.3000000  0  3G16G26G31
  22362216.461   117514240.312       -1979.273          49.000  
  21756678.250   114332114.945       11465.797          49.000  
  22351684.961   117458896.344       10375.691          50.000  
 16  4  2 12 32 18.4000000  0  3G16G26G31
  22362254.172   117514438.469       -1983.797          49.000  
  21756460.109   114330968.633       11460.750          49.000  
  22351487.578   117457859.066       10370.062          50.000  
 16  4  2 12 32 18.5000000  0  3G16G26G31
  22362291.961   117514637.020       -1987.637          49.000  
  21756242.047   114329822.727       11456.793          49.000  
  22351290.281   117456822.270       10365.309          50.000  
 16  4  2 12 32 18.6000000  0  3G16G26G31
  22362329.828   117514836.039       -1992.465          49.000  
  21756024.094   114328677.352       11451.344          49.000  
  22351093.094   117455786.043       10359.410          50.000  
 16  4  2 12 32 18.7000000  0  3G16G26G31
  22362367.789   117515035.508       -1996.871          49.000  
  21755806.227   114327532.484       11446.426          49.000  
  22350896.008   117454750.355       10354.266          50.000  
 16  4  2 12 32 18.8000000  0  3G16G26G31
  22362405.828   117515235.430       -2001.488          49.000  
  21755588.453   114326388.074       11441.684          49.000  
  22350699.031   117453715.230       10348.465          50.000  
 16  4  2 12 32 18.9000000  0  3G16G26G31
  22362443.945   117515435.715       -2004.980          49.000  
  21755370.766   114325244.098       11437.598          49.000  
  22350502.141   117452680.562       10344.082          50.000  
 16  4  2 12 32 19.0000000  0  3G16G26G31
  22362482.141   117515636.441       -2009.387          49.000  
  21755153.164   114324100.609       11432.633          49.000  
  22350305.352   117451646.422       10338.750          50.000  
 16  4  2 12 32 19.1000000  0  3G16G26G31
  22362520.430   117515837.648       -2014.332          49.000  
  21754935.656   114322957.633       11427.273          49.000  
  22350108.672   117450612.871       10332.684          50.000  
 16  4  2 12 32 19.2000000  0  3G16G26G31
  22362558.812   117516039.328       -2019.051          49.000  
  21754718.258   114321815.176       11422.133          49.000  
  22349912.102   117449579.879       10327.191          50.000  
 16  4  2 12 32 19.3000000  0  3G16G26G31
  22362597.258   117516241.391       -2023.043          49.000  
  21754500.938   114320673.129       11417.898          49.000  
  22349715.617   117448547.367       10322.199          50.000  
 16  4  2 12 32 19.4000000  0  3G16G26G31
  22362635.805   117516443.953       -2027.820          49.000  
  21754283.719   114319531.648       11412.668          49.000  
  22349519.266   117447515.465       10316.398          50.000  
 16  4  2 12 32 19.5000000  0  3G16G26G31
  22362674.422   117516646.891       -2031.527          49.000  
  21754066.586   114318390.578       11408.328          49.000  
  22349322.984   117446484.020       10311.770          50.000  
 16  4  2 12 32 19.6000000  0  3G16G26G31
  22362713.117   117516850.215       -2035.414          49.000  
  21753849.523   114317249.938       11404.180          49.000  
  22349126.805   117445453.066       10306.902          50.000  
 16  4  2 12 32 19.7000000  0  3G16G26G31
  22362751.898   117517054.035       -2040.617          49.000  
  21753632.570   114316109.840       11398.480          49.000  
  22348930.734   117444422.699       10300.703          50.000  
 16  4  2 12 32 19.8000000  0  3G16G26G31
  22362790.789   117517258.371       -2045.531          49.000  
  21753415.719   114314970.289       11393.191          49.000  
  22348734.781   117443392.953       10294.812          50.000  
 16  4  2 12 32 19.9000000  0  3G16G26G31
  22362829.734   117517463.070       -2049.289          49.000  
  21753198.961   114313831.156       11388.930          49.000  
  22348538.914   117442363.656       10290.176          50.000  
 16  4  2 12 32 20.0000000  0  3G16G26G31
  22362868.773   117517668.195       -2053.312          49.000  
  21752982.273   114312692.484       11384.535          49.000  
  22348343.148   117441334.875       10285.250          50.000  
 16  4  2 12 32 20.1000000  0  3G16G26G31
  22362907.883   117517873.719       -2057.539          49.000  
  21752765.688   114311554.262       11379.863          49.000  
  22348147.477   117440306.613       10279.883          50.000  
 16  4  2 12 32 20.2000000  0  3G16G26G31
  22362947.086   117518079.738       -2062.375          49.000  
  21752549.188   114310416.578       11374.562          49.000  
  22347951.914   117439278.930       10274.223          50.000  
 16  4  2 12 32 20.3000000  0  3G16G26G31
  22362986.367   117518286.172       -2066.559          49.000  
  21752332.789   114309279.348       11369.938          49.000  
  22347756.445   117438251.762       10268.992          50.000  
 16  4  2 12 32 20.4000000  0  3G16G26G31
  22363025.727   117518492.988       -2070.184          49.000  
  21752116.461   114308142.559       11365.773          49.000  
  22347561.070   117437225.078       10264.324          50.000  
 16  4  2 12 32 20.5000000  0  3G16G26G31
  22363065.164   117518700.262       -2074.953          49.000  
  21751900.234   114307006.250       11360.613          49.000  
  22347365.805   117436198.934       10258.633          50.000  
 16  4  2 12 32 20.6000000  0  3G16G26G31
  22363104.711   117518908.055       -2080.180          49.000  
  21751684.109   114305870.500       11355.156          49.000  
  22347170.656   117435173.406       10252.504          50.000  
 16  4  2 12 32 20.7000000  0  3G16G26G31
  22363144.344   117519116.324       -2085.062          49.000  
  21751468.078   114304735.297       11349.602          49.000  
  22346975.609   117434148.461       10246.637          50.000  
 16  4  2 12 32 20.8000000  0  3G16G26G31
  22363184.047   117519324.957       -2088.855          49.000  
  21751252.133   114303600.496       11345.375          49.000  
  22346780.664   117433123.977       10241.859          50.000  
 16  4  2 12 32 20.9000000  0  3G16G26G31
  22363223.836   117519534.047       -2093.059          49.000  
  21751036.281   114302466.164       11340.945          49.000  
  22346585.812   117432100.047       10236.578          50.000  
 16  4  2 12 32 21.0000000  0  3G16G26G31
  22363263.719   117519743.629       -2098.059          49.000  
  21750820.531   114301332.395       11335.324          49.000  
  22346391.078   117431076.691       10230.867          50.000  
 16  4  2 12 32 21.1000000  0  3G16G26G31
  22363303.688   117519953.652       -2102.484          49.000  
  21750604.875   114300199.109       11330.480          49.000  
  22346196.445   117430053.895       10225.258          50.000  
 16  4  2 12 32 21.2000000  0  3G16G26G31
  22363343.727   117520164.090       -2106.633          49.000  
  21750389.305   114299066.273       11325.918          49.000  
  22346001.914   117429031.594       10220.246          50.000  
 16  4  2 12 32 21.3000000  0  3G16G26G31
  22363383.844   117520374.883       -2109.984          49.000  
  21750173.812   114297933.840       11322.020          49.000  
  22345807.461   117428009.754       10215.828          50.000  
 16  4  2 12 32 21.4000000  0  3G16G26G31
  22363424.039   117520586.141       -2114.867          49.000  
  21749958.414   114296801.926       11316.793          49.000  
  22345613.117   117426988.477       10209.961          50.000  
 16  4  2 12 32 21.5000000  0  3G16G26G31
  22363464.336   117520797.906       -2119.602          49.000  
  21749743.117   114295670.543       11311.613          49.000  
  22345418.891   117425967.797       10204.258          50.000  
 16  4  2 12 32 21.6000000  0  3G16G26G31
  22363504.703   117521010.039       -2123.648          49.000  
  21749527.898   114294539.586       11307.117          49.000  
  22345224.750   117424947.586       10199.301          50.000  
 16  4  2 12 32 21.7000000  0  3G16G26G31
  22363545.156   117521222.621       -2127.984          49.000  
  21749312.781   114293409.113       11302.367          49.000  
  22345030.711   117423927.914       10194.020          50.000  
 16  4  2 12 32 21.8000000  0  3G16G26G31
  22363585.688   117521435.582       -2131.629          49.000  
  21749097.742   114292279.074       11298.180          49.000  
  22344836.766   117422908.738       10189.320          50.000  
 16  4  2 12 32 21.9000000  0  3G16G26G31
  22363626.297   117521648.980       -2135.949          49.000  
  21748882.781   114291149.500       11293.602          49.000  
  22344642.922   117421890.074       10184.031          50.000  
 16  4  2 12 32 22.0000000  0  3G16G26G31
  22363667.000   117521862.875       -2141.109          49.000  
  21748667.938   114290020.480       11287.926          49.000  
  22344449.195   117420872.023       10177.930          50.000  
 16  4  2 12 32 22.1000000  0  3G16G26G31
  22363707.773   117522077.156       -2145.145          49.000  
  21748453.172   114288891.879       11283.605          49.000  
  22344255.555   117419854.438       10172.973          50.000  
 16  4  2 12 32 22.2000000  0  3G16G26G31
  22363748.648   117522291.938       -2149.875          49.000  
  21748238.516   114287763.832       11278.281          49.000  
  22344062.031   117418837.445       10167.301          50.000  
 16  4  2 12 32 22.3000000  0  3G16G26G31
  22363789.586   117522507.059       -2153.516          49.000  
  21748023.922   114286636.176       11274.234          49.000  
  22343868.594   117417820.918       10162.559          50.000  
 16  4  2 12 32 22.4000000  0  3G16G26G31
  22363830.617   117522722.699       -2158.477          49.000  
  21747809.438   114285509.066       11268.949          49.000  
  22343675.266   117416804.984       10156.742          50.000  
 16  4  2 12 32 22.5000000  0  3G16G26G31
  22363871.734   117522938.785       -2163.273          49.000  
  21747595.055   114284382.457       11263.598          49.000  
  22343482.039   117415789.602       10150.969          50.000  
 16  4  2 12 32 22.6000000  0  3G16G26G31
  22363912.945   117523155.316       -2167.535          49.000  
  21747380.758   114283256.332       11258.820          49.000  
  22343288.922   117414774.762       10145.621          50.000  
 16  4  2 12 32 22.7000000  0  3G16G26G31
  22363954.234   117523372.289       -2171.953          49.000  
  21747166.555   114282130.695       11254.012          49.000  
  22343095.906   117413760.461       10140.273          50.000  
 16  4  2 12 32 22.8000000  0  3G16G26G31
  22363995.609   117523589.703       -2176.371          49.000  
  21746952.445   114281005.543       11249.188          49.000  
  22342902.992   117412746.691       10134.883          50.000  
 16  4  2 12 32 22.9000000  0  3G16G26G31
  22364037.062   117523807.527       -2180.402          49.000  
  21746738.414   114279880.844       11244.715          49.000  
  22342710.172   117411733.430       10129.883          50.000  
 16  4  2 12 32 23.0000000  0  3G16G26G31
  22364078.594   117524025.789       -2184.758          49.000  
  21746524.484   114278756.629       11239.844          49.000  
  22342517.461   117410720.711       10124.586          50.000  
 16  4  2 12 32 23.1000000  0  3G16G26G31
  22364120.203   117524244.457       -2188.828          49.000  
  21746310.641   114277632.863       11235.348          49.000  
  22342324.844   117409708.492       10119.539          50.000  
 16  4  2 12 32 23.2000000  0  3G16G26G31
  22364161.898   117524463.562       -2193.227          49.000  
  21746096.891   114276509.578       11230.605          49.000  
  22342132.328   117408696.816       10114.059          50.000  
 16  4  2 12 32 23.3000000  0  3G16G26G31
  22364203.680   117524683.113       -2197.680          49.000  
  21745883.227   114275386.785       11225.582          49.000  
  22341939.914   117407685.664       10108.848          50.000  
 16  4  2 12 32 23.4000000  0  3G16G26G31
  22364245.539   117524903.113       -2202.402          49.000  
  21745669.664   114274264.480       11220.527          49.000  
  22341747.602   117406675.074       10103.047          50.000  
 16  4  2 12 32 23.5000000  0  3G16G26G31
  22364287.477   117525123.508       -2206.184          49.000  
  21745456.180   114273142.617       11216.266          49.000  
  22341555.391   117405664.973       10098.211          50.000  
 16  4  2 12 32 23.6000000  0  3G16G26G31
  22364329.516   117525344.410       -2211.203          49.000  
  21745242.797   114272021.301       11210.898          49.000  
  22341363.281   117404655.473       10092.352          50.000  
 16  4  2 12 32 23.7000000  0  3G16G26G31
  22364371.633   117525565.719       -2215.285          49.000  
  21745029.508   114270900.449       11206.145          49.000  
  22341171.281   117403646.484       10087.227          50.000  
 16  4  2 12 32 23.8000000  0  3G16G26G31
  22364413.820   117525787.430       -2219.344          49.000  
  21744816.297   114269780.031       11201.730          49.000  
  22340979.367   117402637.980       10082.320          50.000  
 16  4  2 12 32 23.9000000  0  3G16G26G31
  22364456.094   117526009.582       -2223.730          49.000  
  21744603.180   114268660.109       11196.922          49.000  
  22340787.562   117401630.039       10076.754          50.000  
 16  4  2 12 32 24.0000000  0  3G16G26G31
  22364498.461   117526232.215       -2228.602          49.000  
  21744390.164   114267540.707       11191.668          49.000  
  22340595.867   117400622.668       10070.852          50.000  
 16  4  2 12 32 24.1000000  0  3G16G26G31
  22364540.898   117526455.246       -2232.578          49.000  
  21744177.234   114266421.750       11187.172          49.000  
  22340404.266   117399615.770       10066.121          50.000  
 16  4  2 12 32 24.2000000  0  3G16G26G31
  22364583.430   117526678.746       -2237.324          49.000  
  21743964.406   114265303.297       11182.176          49.000  
  22340212.766   117398609.461       10060.340          50.000  
 16  4  2 12 32 24.3000000  0  3G16G26G31
  22364626.039   117526902.648       -2241.215          49.000  
  21743751.656   114264185.297       11177.809          49.000  
  22340021.367   117397603.645       10055.539          50.000  
 16  4  2 12 32 24.4000000  0  3G16G26G31
  22364668.727   117527126.965       -2245.270          49.000  
  21743539.000   114263067.773       11172.949          49.000  
  22339830.062   117396598.355       10050.176          50.000  
 16  4  2 12 32 24.5000000  0  3G16G26G31
  22364711.500   117527351.770       -2250.145          49.000  
  21743326.438   114261950.762       11167.762          49.000  
  22339638.867   117395593.629       10044.625          50.000  
 16  4  2 12 32 24.6000000  0  3G16G26G31
  22364754.359   117527576.992       -2254.441          49.000  
  21743113.969   114260834.207       11163.184          49.000  
  22339447.773   117394589.430       10039.352          50.000  
 16  4  2 12 32 24.7000000  0  3G16G26G31
  22364797.305   117527802.648       -2258.875          49.000  
  21742901.594   114259718.152       11158.141          49.000  
  22339256.781   117393585.758       10033.898          50.000  
 16  4  2 12 32 24.8000000  0  3G16G26G31
  22364840.320   117528028.734       -2263.195          49.000  
  21742689.305   114258602.547       11153.555          49.000  
  22339065.891   117392582.613       10028.660          50.000  
 16  4  2 12 32 24.9000000  0  3G16G26G31
  22364883.430   117528255.254       -2267.129          49.000  
  21742477.102   114257487.438       11149.066          49.000  
  22338875.102   117391580.008       10023.617          50.000  
 16  4  2 12 32 25.0000000  0  3G16G26G31
  22364926.609   117528482.160       -2271.391          49.000  
  21742264.984   114256372.754       11144.398          49.000  
  22338684.391   117390577.871       10018.641          50.000  
 16  4  2 12 32 25.1000000  0  3G16G26G31
  22364969.859   117528709.465       -2275.191          49.000  
  21742052.961   114255258.523       11140.062          49.000  
  22338493.789   117389576.250       10013.723          50.000  
 16  4  2 12 32 25.2000000  0  3G16G26G31
  22365013.211   117528937.273       -2280.254          49.000  
  21741841.031   114254144.824       11134.742          49.000  
  22338303.297   117388575.215       10007.812          50.000  
 16  4  2 12 32 25.3000000  0  3G16G26G31
  22365056.641   117529165.480       -2284.336          49.000  
  21741629.180   114253031.578       11130.129          49.000  
  22338112.906   117387574.688       10002.520          50.000  
 16  4  2 12 32 25.4000000  0  3G16G26G31
  22365100.164   117529394.184       -2289.121          49.000  
  21741417.445   114251918.883       11124.746          49.000  
  22337922.625   117386574.758        9996.711          50.000  
 16  4  2 12 32 25.5000000  0  3G16G26G31
  22365143.750   117529623.242       -2292.883          49.000  
  21741205.773   114250806.570       11120.645          49.000  
  22337732.422   117385575.258        9992.078          50.000  
 16  4  2 12 32 25.6000000  0  3G16G26G31
  22365187.422   117529852.734       -2297.141          49.000  
  21740994.195   114249694.746       11115.910          49.000  
  22337542.336   117384576.312        9986.762          50.000  
 16  4  2 12 32 25.7000000  0  3G16G26G31
  22365231.180   117530082.691       -2301.750          49.000  
  21740782.719   114248583.418       11111.082          49.000  
  22337352.352   117383577.930        9981.301          50.000  
 16  4  2 12 32 25.8000000  0  3G16G26G31
  22365275.023   117530313.070       -2306.156          49.000  
  21740571.336   114247472.582       11105.961          49.000  
  22337162.461   117382580.043        9975.988          50.000  
 16  4  2 12 32 25.9000000  0  3G16G26G31
  22365318.953   117530543.926       -2310.652          49.000  
  21740360.047   114246362.246       11101.027          49.000  
  22336972.680   117381582.758        9970.254          50.000  
 16  4  2 12 32 26.0000000  0  3G16G26G31
  22365362.961   117530775.223       -2315.375          49.000  
  21740148.852   114245252.414       11095.863          49.000  
  22336783.008   117380586.012        9964.609          50.000  
 16  4  2 12 32 26.1000000  0  3G16G26G31
  22365407.055   117531006.949       -2319.402          49.000  
  21739937.742   114244143.039       11091.352          49.000  
  22336593.430   117379589.773        9959.594          50.000  
 16  4  2 12 32 26.2000000  0  3G16G26G31
  22365451.234   117531239.102       -2323.617          49.000  
  21739726.727   114243034.141       11086.695          49.000  
  22336403.953   117378594.066        9954.461          50.000  
 16  4  2 12 32 26.3000000  0  3G16G26G31
  22365495.500   117531471.699       -2328.000          49.000  
  21739515.805   114241925.746       11081.691          49.000  
  22336214.578   117377598.910        9948.957          50.000  
 16  4  2 12 32 26.4000000  0  3G16G26G31
  22365539.836   117531704.691       -2331.949          49.000  
  21739304.961   114240817.770       11077.480          49.000  
  22336025.305   117376604.238        9944.191          50.000  
 16  4  2 12 32 26.5000000  0  3G16G26G31
  22365584.258   117531938.133       -2336.742          49.000  
  21739094.219   114239710.289       11072.496          49.000  
  22335836.125   117375610.102        9938.578          50.000  
 16  4  2 12 32 26.6000000  0  3G16G26G31
  22365628.758   117532171.992       -2340.762          49.000  
  21738883.562   114238603.297       11067.656          49.000  
  22335647.047   117374616.508        9933.293          50.000  
 16  4  2 12 32 26.7000000  0  3G16G26G31
  22365673.344   117532406.301       -2345.441          49.000  
  21738673.000   114237496.773       11062.809          49.000  
  22335458.078   117373623.453        9927.680          50.000  
 16  4  2 12 32 26.8000000  0  3G16G26G31
  22365718.016   117532641.078       -2349.754          49.000  
  21738462.539   114236390.773       11057.859          49.000  
  22335269.211   117372630.949        9922.551          50.000  
 16  4  2 12 32 26.9000000  0  3G16G26G31
  22365762.773   117532876.262       -2354.043          49.000  
  21738252.164   114235285.227       11053.098          49.000  
  22335080.445   117371638.977        9916.969          50.000  
 16  4  2 12 32 27.0000000  0  3G16G26G31
  22365807.602   117533111.844       -2357.977          49.000  
  21738041.867   114234180.125       11048.672          49.000  
  22334891.773   117370647.473        9912.297          50.000  
 16  4  2 12 32 27.1000000  0  3G16G26G31
  22365852.516   117533347.867       -2362.402          49.000  
  21737831.664   114233075.496       11044.059          49.000  
  22334703.195   117369656.523        9906.973          50.000  
 16  4  2 12 32 27.2000000  0  3G16G26G31
  22365897.508   117533584.328       -2366.789          49.000  
  21737621.555   114231971.371       11038.953          49.000  
  22334514.727   117368666.113        9901.480          50.000  
 16  4  2 12 32 27.3000000  0  3G16G26G31
  22365942.594   117533821.254       -2371.504          49.000  
  21737411.539   114230867.742       11033.844          49.000  
  22334326.367   117367676.262        9895.801          50.000  
 16  4  2 12 32 27.4000000  0  3G16G26G31
  22365987.758   117534058.590       -2375.574          49.000  
  21737201.609   114229764.574       11029.352          49.000  
  22334138.094   117366686.926        9890.594          50.000  
 16  4  2 12 32 27.5000000  0  3G16G26G31
  22366033.016   117534296.391       -2380.262          49.000  
  21736991.781   114228661.914       11024.285          49.000  
  22333949.938   117365698.137        9885.094          50.000  
 16  4  2 12 32 27.6000000  0  3G16G26G31
  22366078.352   117534534.660       -2384.855          49.000  
  21736782.047   114227559.773       11019.109          49.000  
  22333761.891   117364709.922        9879.594          50.000  
 16  4  2 12 32 27.7000000  0  3G16G26G31
  22366123.773   117534773.328       -2389.176          49.000  
  21736572.398   114226458.070       11014.426          49.000  
  22333573.930   117363722.203        9874.199          50.000  
 16  4  2 12 32 27.8000000  0  3G16G26G31
  22366169.273   117535012.453       -2393.246          49.000  
  21736362.852   114225356.871       11009.758          49.000  
  22333386.086   117362735.047        9869.082          50.000  
 16  4  2 12 32 27.9000000  0  3G16G26G31
  22366214.859   117535252.020       -2398.016          49.000  
  21736153.383   114224256.152       11004.734          49.000  
  22333198.336   117361748.414        9863.543          50.000  
 16  4  2 12 32 28.0000000  0  3G16G26G31
  22366260.531   117535492.016       -2402.129          49.000  
  21735944.016   114223155.922       10999.992          49.000  
  22333010.688   117360762.332        9858.180          50.000  
 16  4  2 12 32 28.1000000  0  3G16G26G31
  22366306.281   117535732.434       -2406.340          49.000  
  21735734.734   114222056.148       10995.422          49.000  
  22332823.133   117359776.750        9853.172          50.000  
 16  4  2 12 32 28.2000000  0  3G16G26G31
  22366352.102   117535973.250       -2410.336          49.000  
  21735525.539   114220956.828       10990.934          49.000  
  22332635.680   117358791.688        9848.051          50.000  
 16  4  2 12 32 28.3000000  0  3G16G26G31
  22366398.000   117536214.430       -2413.660          49.000  
  21735316.430   114219857.914       10987.039          49.000  
  22332448.312   117357807.062        9843.746          50.000  
 16  4  2 12 32 28.4000000  0  3G16G26G31
  22366443.984   117536456.105       -2418.750          49.000  
  21735107.414   114218759.535       10981.645          49.000  
  22332261.062   117356823.051        9837.551          50.000  
 16  4  2 12 32 28.5000000  0  3G16G26G31
  22366490.062   117536698.238       -2423.566          49.000  
  21734898.500   114217661.664       10976.305          49.000  
  22332073.914   117355839.582        9831.922          50.000  
 16  4  2 12 32 28.6000000  0  3G16G26G31
  22366536.234   117536940.855       -2428.566          49.000  
  21734689.680   114216564.328       10970.816          49.000  
  22331886.875   117354856.699        9825.918          50.000  
 16  4  2 12 32 28.7000000  0  3G16G26G31
  22366582.484   117537183.914       -2432.926          49.000  
  21734480.961   114215467.473       10966.055          49.000  
  22331699.945   117353874.355        9820.617          50.000  
 16  4  2 12 32 28.8000000  0  3G16G26G31
  22366628.812   117537427.387       -2436.957          49.000  
  21734272.328   114214371.078       10961.547          49.000  
  22331513.109   117352892.527        9815.547          50.000  
 16  4  2 12 32 28.9000000  0  3G16G26G31
  22366675.234   117537671.320       -2441.551          49.000  
  21734063.781   114213275.188       10956.500          49.000  
  22331326.375   117351911.258        9809.961          50.000  
 16  4  2 12 32 29.0000000  0  3G16G26G31
  22366721.727   117537915.664       -2445.516          49.000  
  21733855.328   114212179.754       10952.188          49.000  
  22331139.742   117350930.496        9805.031          50.000  
 16  4  2 12 32 29.1000000  0  3G16G26G31
  22366768.312   117538160.441       -2449.977          49.000  
  21733646.969   114211084.812       10947.102          49.000  
  22330953.211   117349950.270        9799.637          50.000  
 16  4  2 12 32 29.2000000  0  3G16G26G31
  22366814.969   117538405.617       -2453.828          49.000  
  21733438.688   114209990.297       10942.871          49.000  
  22330766.781   117348970.543        9794.738          50.000  
 16  4  2 12 32 29.3000000  0  3G16G26G31
  22366861.695   117538651.168       -2457.777          49.000  
  21733230.492   114208896.227       10938.367          49.000  
  22330580.430   117347991.289        9789.809          50.000  
 16  4  2 12 32 29.4000000  0  3G16G26G31
  22366908.516   117538897.227       -2462.719          49.000  
  21733022.398   114207802.688       10933.008          49.000  
  22330394.195   117347012.633        9783.887          50.000  
 16  4  2 12 32 29.5000000  0  3G16G26G31
  22366955.422   117539143.703       -2467.066          49.000  
  21732814.398   114206709.609       10928.289          49.000  
  22330208.062   117346034.504        9778.445          50.000  
 16  4  2 12 32 29.6000000  0  3G16G26G31
  22367002.406   117539390.625       -2471.316          49.000  
  21732606.484   114205617.047       10923.406          49.000  
  22330022.031   117345056.914        9773.211          50.000  
 16  4  2 12 32 29.7000000  0  3G16G26G31
  22367049.477   117539637.984       -2475.750          49.000  
  21732398.664   114204524.945       10918.656          49.000  
  22329836.102   117344079.855        9767.941          50.000  
 16  4  2 12 32 29.8000000  0  3G16G26G31
  22367096.633   117539885.770       -2480.074          49.000  
  21732190.938   114203433.328       10913.844          49.000  
  22329650.273   117343103.324        9762.586          50.000  
 16  4  2 12 32 29.9000000  0  3G16G26G31
  22367143.867   117540133.984       -2484.363          49.000  
  21731983.305   114202342.180       10909.195          49.000  
  22329464.547   117342127.328        9757.242          50.000  
 16  4  2 12 32 30.0000000  0  3G16G26G31
  22367191.172   117540382.598       -2488.219          49.000  
  21731775.750   114201251.484       10904.793          49.000  
  22329278.914   117341151.816        9752.609          50.000  
 16  4  2 12 32 30.1000000  0  3G16G26G31
  22367238.570   117540631.652       -2492.688          49.000  
  21731568.289   114200161.266       10899.863          49.000  
  22329093.391   117340176.855        9747.102          50.000  
 16  4  2 12 32 30.2000000  0  3G16G26G31
  22367286.039   117540881.102       -2496.770          49.000  
  21731360.914   114199071.496       10895.391          49.000  
  22328907.953   117339202.391        9741.949          50.000  
 16  4  2 12 32 30.3000000  0  3G16G26G31
  22367333.602   117541131.066       -2502.082          49.000  
  21731153.641   114197982.293       10889.473          49.000  
  22328722.633   117338228.539        9735.629          50.000  
 16  4  2 12 32 30.4000000  0  3G16G26G31
  22367381.266   117541381.508       -2506.586          49.000  
  21730946.477   114196893.598       10884.512          49.000  
  22328537.430   117337255.262        9729.992          50.000  
 16  4  2 12 32 30.5000000  0  3G16G26G31
  22367428.984   117541632.281       -2510.141          49.000  
  21730739.375   114195805.293       10880.512          49.000  
  22328352.305   117336282.406        9725.566          50.000  
 16  4  2 12 32 30.6000000  0  3G16G26G31
  22367476.805   117541883.555       -2514.898          49.000  
  21730532.383   114194717.527       10875.262          49.000  
  22328167.289   117335310.156        9719.789          50.000  
 16  4  2 12 32 30.7000000  0  3G16G26G31
  22367524.695   117542135.242       -2519.066          49.000  
  21730325.477   114193630.219       10870.770          49.000  
  22327982.367   117334338.414        9714.820          50.000  
 16  4  2 12 32 30.8000000  0  3G16G26G31
  22367572.680   117542387.375       -2523.449          49.000  
  21730118.664   114192543.418       10865.785          49.000  
  22327797.562   117333367.230        9709.207          50.000  
 16  4  2 12 32 30.9000000  0  3G16G26G31
  22367620.734   117542639.918       -2527.574          49.000  
  21729911.930   114191457.051       10861.309          49.000  
  22327612.844   117332396.535        9704.242          50.000  
 16  4  2 12 32 31.0000000  0  3G16G26G31
  22367668.875   117542892.871       -2531.680          49.000  
  21729705.289   114190371.156       10856.789          49.000  
  22327428.227   117331426.363        9699.223          50.000  
 16  4  2 12 32 31.1000000  0  3G16G26G31
  22367717.094   117543146.262       -2536.043          49.000  
  21729498.750   114189285.746       10851.805          49.000  
  22327243.711   117330456.734        9693.715          50.000  
 16  4  2 12 32 31.2000000  0  3G16G26G31
  22367765.398   117543400.109       -2540.746          49.000  
  21729292.297   114188200.836       10846.711          49.000  
  22327059.305   117329487.652        9688.023          50.000  
 16  4  2 12 32 31.3000000  0  3G16G26G31
  22367813.789   117543654.422       -2545.551          49.000  
  21729085.938   114187116.434       10841.480          49.000  
  22326875.008   117328519.137        9682.250          50.000  
 16  4  2 12 32 31.4000000  0  3G16G26G31
  22367862.281   117543909.219       -2550.285          49.000  
  21728879.688   114186032.566       10836.215          49.000  
  22326690.812   117327551.199        9676.562          50.000  
 16  4  2 12 32 31.5000000  0  3G16G26G31
  22367910.836   117544164.406       -2554.090          49.000  
  21728673.516   114184949.137       10832.020          49.000  
  22326506.711   117326583.754        9671.758          50.000  
 16  4  2 12 32 31.6000000  0  3G16G26G31
  22367959.484   117544420.027       -2558.391          49.000  
  21728467.438   114183866.191       10827.094          49.000  
  22326322.719   117325616.848        9666.344          50.000  
 16  4  2 12 32 31.7000000  0  3G16G26G31
  22368008.211   117544676.086       -2562.793          49.000  
  21728261.445   114182783.723       10822.441          49.000  
  22326138.820   117324650.469        9661.098          50.000  
 16  4  2 12 32 31.8000000  0  4G04G16G26G31
  22214028.789   116735509.086       15706.328          49.000  
  22368057.016   117544932.547       -2566.816          49.000  
  21728055.547   114181701.703       10817.906          49.000  
  22325955.023   117323684.598        9656.023          50.000  
 16  4  2 12 32 31.9000000  0  4G04G16G26G31
  22213729.945   116733938.676       15701.941          49.000  
  22368105.898   117545189.434       -2570.961          49.000  
  21727849.734   114180620.160       10813.242          49.000  
  22325771.328   117322719.250        9650.875          50.000  
 16  4  2 12 32 32.0000000  0  4G04G16G26G31
  22213431.180   116732368.727       15697.375          49.000  
  22368154.867   117545446.773       -2575.492          49.000  
  21727644.016   114179539.121       10808.223          49.000  
  22325587.727   117321754.449        9645.434          50.000  
 16  4  2 12 32 32.1000000  0  4G04G16G26G31
  22213132.516   116730799.219       15692.766          49.000  
  22368203.922   117545704.547       -2579.949          49.000  
  21727438.398   114178458.551       10803.266          49.000  
  22325404.234   117320790.191        9639.879          50.000  
 16  4  2 12 32 32.2000000  0  4G04G16G26G31
  22212833.922   116729230.141       15688.520          49.000  
  22368253.047   117545962.730       -2584.078          49.000  
  21727232.859   114177378.453       10798.602          49.000  
  22325220.844   117319826.441        9634.691          50.000  
 16  4  2 12 32 32.3000000  0  4G04G16G26G31
  22212535.422   116727661.516       15683.883          49.000  
  22368302.266   117546221.371       -2588.691          49.000  
  21727027.422   114176298.840       10793.727          49.000  
  22325037.547   117318863.238        9629.191          50.000  
 16  4  2 12 32 32.4000000  0  4G04G16G26G31
  22212237.039   116726093.391       15678.980          49.000  
  22368351.578   117546480.477       -2593.258          49.000  
  21726822.078   114175219.750       10788.547          49.000  
  22324854.367   117317900.613        9623.562          50.000  
 16  4  2 12 32 32.5000000  0  4G04G16G26G31
  22211938.719   116724525.707       15674.367          49.000  
  22368400.969   117546740.035       -2597.996          49.000  
  21726616.828   114174141.156       10783.395          49.000  
  22324671.289   117316938.523        9618.016          50.000  
 16  4  2 12 32 32.6000000  0  4G04G16G26G31
  22211640.492   116722958.438       15670.496          49.000  
  22368450.438   117546999.984       -2601.652          49.000  
  21726411.664   114173063.004       10779.230          49.000  
  22324488.305   117315976.941        9613.262          50.000  
 16  4  2 12 32 32.7000000  0  4G04G16G26G31
  22211342.344   116721391.648       15665.629          49.000  
  22368499.992   117547260.406       -2606.395          49.000  
  21726206.594   114171985.363       10774.035          49.000  
  22324305.430   117315015.914        9607.539          50.000  
 16  4  2 12 32 32.8000000  0  4G04G16G26G31
  22211044.305   116719825.324       15660.934          49.000  
  22368549.633   117547521.281       -2611.004          49.000  
  21726001.617   114170908.230       10768.941          49.000  
  22324122.664   117314055.457        9601.891          50.000  
 16  4  2 12 32 32.9000000  0  4G04G16G26G31
  22210746.328   116718259.445       15656.320          49.000  
  22368599.359   117547782.586       -2615.434          49.000  
  21725796.734   114169831.574       10764.082          49.000  
  22323939.992   117313095.516        9596.527          50.000  
 16  4  2 12 32 33.0000000  0  4G04G16G26G31
  22210448.438   116716693.992       15652.379          49.000  
  22368649.164   117548044.316       -2619.344          49.000  
  21725591.945   114168755.395       10759.602          49.000  
  22323757.422   117312136.105        9591.586          50.000  
 16  4  2 12 32 33.1000000  0  4G04G16G26G31
  22210150.617   116715128.914       15648.742          49.000  
  22368699.039   117548306.402       -2622.930          49.000  
  21725387.234   114167679.613       10755.582          49.000  
  22323574.938   117311177.148        9586.992          50.000  
 16  4  2 12 32 33.2000000  0  4G04G16G26G31
  22209852.852   116713564.254       15644.578          49.000  
  22368748.984   117548568.891       -2627.000          49.000  
  21725182.602   114166604.277       10751.156          49.000  
  22323392.547   117310218.695        9581.941          50.000  
 16  4  2 12 32 33.3000000  0  4G04G16G26G31
  22209555.203   116712000.109       15639.230          49.000  
  22368799.031   117548831.883       -2632.020          49.000  
  21724978.078   114165529.500       10745.504          49.000  
  22323210.273   117309260.848        9575.887          50.000  
 16  4  2 12 32 33.4000000  0  4G04G16G26G31
  22209257.633   116710436.367       15635.094          49.000  
  22368849.148   117549095.270       -2636.133          49.000  
  21724773.633   114164455.152       10741.055          49.000  
  22323028.094   117308303.492        9570.770          50.000  
 16  4  2 12 32 33.5000000  0  4G04G16G26G31
  22208960.141   116708873.051       15631.004          49.000  
  22368899.352   117549359.066       -2640.090          49.000  
  21724569.281   114163381.273       10736.555          49.000  
  22322846.016   117307346.648        9565.754          50.000  
 16  4  2 12 32 33.6000000  0  4G04G16G26G31
  22208662.734   116707310.223       15625.914          49.000  
  22368949.641   117549623.348       -2645.184          49.000  
  21724365.031   114162307.918       10731.133          49.000  
  22322664.039   117306390.375        9559.910          50.000  
 16  4  2 12 32 33.7000000  0  4G04G16G26G31
  22208365.422   116705747.812       15621.879          49.000  
  22369000.008   117549888.027       -2649.004          49.000  
  21724160.859   114161235.012       10726.773          49.000  
  22322482.164   117305434.617        9554.965          50.000  
 16  4  2 12 32 33.8000000  0  4G04G16G26G31
  22208068.203   116704185.832       15617.613          49.000  
  22369050.461   117550153.129       -2653.133          49.000  
  21723956.781   114160162.578       10722.074          49.000  
  22322300.391   117304479.375        9549.809          50.000  
 16  4  2 12 32 33.9000000  0  4G04G16G26G31
  22207771.055   116702624.309       15612.902          49.000  
  22369100.992   117550418.676       -2657.734          49.000  
  21723752.805   114159090.637       10717.051          49.000  
  22322118.719   117303524.676        9544.238          50.000  
 16  4  2 12 32 34.0000000  0  4G04G16G26G31
  22207474.016   116701063.254       15608.258          49.000  
  22369151.609   117550684.680       -2662.309          49.000  
  21723548.914   114158019.188       10712.012          49.000  
  22321937.141   117302570.523        9538.797          50.000  
 16  4  2 12 32 34.1000000  0  4G04G16G26G31
  22207177.039   116699502.598       15604.344          49.000  
  22369202.297   117550951.066       -2666.133          49.000  
  21723345.109   114156948.176       10707.711          49.000  
  22321755.672   117301616.867        9533.848          50.000  
 16  4  2 12 32 34.2000000  0  4G04G16G26G31
  22206880.148   116697942.461       15599.066          49.000  
  22369253.086   117551217.961       -2671.184          49.000  
  21723141.406   114155877.730       10702.082          49.000  
  22321574.312   117300663.828        9527.672          50.000  
 16  4  2 12 32 34.3000000  0  4G04G16G26G31
  22206583.336   116696382.707       15595.363          49.000  
  22369303.945   117551485.227       -2674.883          49.000  
  21722937.789   114154807.695       10698.000          49.000  
  22321393.039   117299711.246        9523.043          50.000  
 16  4  2 12 32 34.4000000  0  4G04G16G26G31
  22206286.602   116694823.406       15590.758          49.000  
  22369354.891   117551752.938       -2679.270          49.000  
  21722734.258   114153738.141       10693.191          49.000  
  22321211.875   117298759.203        9517.660          50.000  
 16  4  2 12 32 34.5000000  0  4G04G16G26G31
  22205989.969   116693264.586       15585.988          49.000  
  22369405.922   117552021.105       -2683.875          49.000  
  21722530.828   114152669.117       10687.949          49.000  
  22321030.812   117297807.727        9512.070          50.000  
 16  4  2 12 32 34.6000000  0  4G04G16G26G31
  22205693.430   116691706.242       15581.027          49.000  
  22369457.039   117552289.758       -2688.820          49.000  
  21722327.492   114151600.598       10682.676          49.000  
  22320849.859   117296856.832        9506.102          50.000  
 16  4  2 12 32 34.7000000  0  4G04G16G26G31
  22205396.969   116690148.352       15576.531          49.000  
  22369508.242   117552558.824       -2693.070          49.000  
  21722124.258   114150532.559       10677.930          49.000  
  22320669.008   117295906.449        9500.949          50.000  
 16  4  2 12 32 34.8000000  0  4G04G16G26G31
  22205100.594   116688590.879       15572.375          49.000  
  22369559.523   117552828.324       -2697.266          49.000  
  21721921.109   114149464.992       10673.242          49.000  
  22320488.258   117294956.602        9495.754          50.000  
 16  4  2 12 32 34.9000000  0  4G04G16G26G31
  22204804.289   116687033.812       15568.504          49.000  
  22369610.883   117553098.199       -2700.914          49.000  
  21721718.039   114148397.848       10669.082          49.000  
  22320307.594   117294007.227        9491.102          50.000  
 16  4  2 12 32 35.0000000  0  4G04G16G26G31
  22204508.109   116685477.227       15563.609          49.000  
  22369662.328   117553368.543       -2705.574          49.000  
  21721515.070   114147331.234       10663.758          49.000  
  22320127.047   117293058.430        9485.293          50.000  
 16  4  2 12 32 35.1000000  0  4G04G16G26G31
  22204211.977   116683921.062       15559.488          49.000  
  22369713.852   117553639.305       -2709.734          49.000  
  21721312.180   114146265.066       10659.316          49.000  
  22319946.586   117292110.145        9480.219          50.000  
 16  4  2 12 32 35.2000000  0  4G04G16G26G31
  22203915.930   116682365.363       15554.836          49.000  
  22369765.461   117553910.520       -2714.301          49.000  
  21721109.391   114145199.406       10654.332          49.000  
  22319766.242   117291162.406        9474.703          50.000  
 16  4  2 12 32 35.3000000  0  4G04G16G26G31
  22203619.977   116680810.125       15550.172          49.000  
  22369817.156   117554182.176       -2718.715          49.000  
  21720906.695   114144134.238       10649.340          49.000  
  22319586.000   117290215.211        9469.332          50.000  
 16  4  2 12 32 35.4000000  0  4G04G16G26G31
  22203324.102   116679255.301       15545.836          49.000  
  22369868.930   117554454.234       -2722.918          49.000  
  21720704.086   114143069.516       10644.680          49.000  
  22319405.852   117289268.523        9464.074          50.000  
 16  4  2 12 32 35.5000000  0  4G04G16G26G31
  22203028.312   116677700.918       15541.660          49.000  
  22369920.781   117554726.734       -2727.082          49.000  
  21720501.570   114142005.277       10640.188          49.000  
  22319225.805   117288322.375        9458.914          50.000  
 16  4  2 12 32 35.6000000  0  4G04G16G26G31
  22202732.594   116676146.969       15537.230          49.000  
  22369972.711   117554999.629       -2731.223          49.000  
  21720299.141   114140941.496       10635.500          49.000  
  22319045.859   117287376.727        9453.723          50.000  
 16  4  2 12 32 35.7000000  0  4G04G16G26G31
  22202436.977   116674593.453       15533.059          49.000  
  22370024.727   117555272.965       -2735.480          49.000  
  21720096.797   114139878.199       10630.805          49.000  
  22318866.008   117286431.617        9448.527          50.000  
 16  4  2 12 32 35.8000000  0  4G04G16G26G31
  22202141.438   116673040.391       15528.477          49.000  
  22370076.820   117555546.746       -2739.891          49.000  
  21719894.555   114138815.387       10625.859          49.000  
  22318686.266   117285487.047        9443.039          50.000  
 16  4  2 12 32 35.9000000  0  4G04G16G26G31
  22201845.969   116671487.723       15524.379          49.000  
  22370128.992   117555820.887       -2743.641          49.000  
  21719692.383   114137752.992       10621.648          49.000  
  22318506.609   117284542.941        9438.367          50.000  
 16  4  2 12 32 36.0000000  0  4G04G16G26G31
  22201550.609   116669935.562       15519.285          49.000  
  22370181.258   117556095.547       -2748.742          49.000  
  21719490.328   114136691.160       10616.027          49.000  
  22318327.070   117283599.453        9432.188          50.000  
 16  4  2 12 32 36.1000000  0  4G04G16G26G31
  22201255.320   116668383.816       15515.121          49.000  
  22370233.594   117556370.590       -2752.730          49.000  
  21719288.352   114135629.762       10611.492          49.000  
  22318147.625   117282656.449        9427.246          50.000  
 16  4  2 12 32 36.2000000  0  4G04G16G26G31
  22200960.102   116666832.496       15511.016          49.000  
  22370286.008   117556646.047       -2756.719          49.000  
  21719086.461   114134568.828       10606.973          49.000  
  22317968.273   117281713.965        9422.152          50.000  
 16  4  2 12 32 36.3000000  0  4G04G16G26G31
  22200664.977   116665281.605       15506.734          49.000  
  22370338.508   117556921.934       -2760.957          49.000  
  21718884.656   114133508.363       10602.348          49.000  
  22317789.023   117280772.000        9417.004          50.000  
 16  4  2 12 32 36.4000000  0  4G04G16G26G31
  22200369.953   116663731.211       15501.785          49.000  
  22370391.102   117557198.293       -2765.738          49.000  
  21718682.961   114132448.422       10597.188          49.000  
  22317609.883   117279830.617        9411.246          50.000  
 16  4  2 12 32 36.5000000  0  4G04G16G26G31
  22200075.008   116662181.270       15497.234          49.000  
  22370443.773   117557475.098       -2770.227          49.000  
  21718481.352   114131388.973       10592.164          49.000  
  22317430.844   117278889.773        9405.715          50.000  
 16  4  2 12 32 36.6000000  0  4G04G16G26G31
  22199780.125   116660631.680       15493.684          49.000  
  22370496.516   117557752.234       -2773.496          49.000  
  21718279.820   114130329.906       10588.336          49.000  
  22317251.891   117277949.363        9401.418          50.000  
 16  4  2 12 32 36.7000000  0  4G04G16G26G31
  22199485.352   116659082.602       15488.469          49.000  
  22370549.352   117558029.883       -2778.809          49.000  
  21718078.391   114129271.398       10582.699          49.000  
  22317073.055   117277009.559        9395.305          50.000  
 16  4  2 12 32 36.8000000  0  4G04G16G26G31
  22199190.664   116657533.996       15483.691          49.000  
  22370602.273   117558307.984       -2783.355          49.000  
  21717877.062   114128213.391       10577.590          49.000  
  22316894.320   117276070.320        9389.551          50.000  
 16  4  2 12 32 36.9000000  0  4G04G16G26G31
  22198896.062   116655985.840       15479.414          49.000  
  22370655.273   117558586.523       -2787.516          49.000  
  21717675.820   114127155.871       10572.926          49.000  
  22316715.688   117275131.613        9384.422          50.000  
 16  4  2 12 32 37.0000000  0  4G04G16G26G31
  22198601.531   116654438.129       15474.832          49.000  
  22370708.359   117558865.492       -2791.910          49.000  
  21717474.672   114126098.824       10568.090          49.000  
  22316537.164   117274193.434        9379.102          50.000  
 16  4  2 12 32 37.1000000  0  4G04G16G26G31
  22198307.086   116652890.805       15471.020          49.000  
  22370761.516   117559144.824       -2795.484          49.000  
  21717273.602   114125042.195       10563.977          49.000  
  22316358.719   117273255.723        9374.480          50.000  
 16  4  2 12 32 37.2000000  0  4G04G16G26G31
  22198012.742   116651343.934       15466.617          49.000  
  22370814.750   117559424.609       -2799.863          49.000  
  21717072.625   114123986.070       10559.078          49.000  
  22316180.383   117272318.566        9369.059          50.000  
 16  4  2 12 32 37.3000000  0  4G04G16G26G31
  22197718.461   116649797.453       15462.574          49.000  
  22370868.070   117559704.777       -2803.805          49.000  
  21716871.734   114122930.367       10554.742          49.000  
  22316002.141   117271381.887        9364.168          50.000  
 16  4  2 12 32 37.4000000  0  4G04G16G26G31
  22197424.242   116648251.480       15457.363          49.000  
  22370921.477   117559985.422       -2808.664          49.000  
  21716670.945   114121875.195       10549.316          49.000  
  22315824.008   117270445.789        9358.234          50.000  
 16  4  2 12 32 37.5000000  0  4G04G16G26G31
  22197130.141   116646705.965       15452.906          49.000  
  22370974.969   117560266.535       -2813.367          49.000  
  21716470.250   114120820.531       10544.301          49.000  
  22315645.984   117269510.258        9352.641          50.000  
 16  4  2 12 32 37.6000000  0  4G04G16G26G31
  22196836.117   116645160.875       15448.441          49.000  
  22371028.531   117560548.035       -2817.500          49.000  
  21716269.641   114119766.316       10539.578          49.000  
  22315468.047   117268575.219        9347.430          50.000  
 16  4  2 12 32 37.7000000  0  4G04G16G26G31
  22196542.188   116643616.277       15443.738          49.000  
  22371082.195   117560830.023       -2822.109          49.000  
  21716069.133   114118712.629       10534.449          49.000  
  22315290.227   117267640.766        9341.824          50.000  
 16  4  2 12 32 37.8000000  0  4G04G16G26G31
  22196248.352   116642072.074       15440.070          49.000  
  22371135.930   117561112.395       -2825.609          49.000  
  21715868.703   114117659.371       10530.473          49.000  
  22315112.492   117266706.789        9337.344          50.000  
 16  4  2 12 32 37.9000000  0  4G04G16G26G31
  22195954.586   116640528.348       15434.855          49.000  
  22371189.750   117561395.219       -2830.555          49.000  
  21715668.375   114116606.629       10525.086          49.000  
  22314934.875   117265773.379        9331.305          50.000  
 16  4  2 12 32 38.0000000  0  4G04G16G26G31
  22195660.922   116638985.012       15431.355          49.000  
  22371243.648   117561678.441       -2834.180          49.000  
  21715468.125   114115554.316       10520.965          49.000  
  22314757.344   117264840.457        9326.766          50.000  
 16  4  2 12 32 38.1000000  0  4G04G16G26G31
  22195367.312   116637442.086       15427.137          49.000  
  22371297.617   117561962.055       -2838.234          49.000  
  21715267.961   114114502.449       10516.461          49.000  
  22314579.914   117263908.031        9321.699          50.000  
 16  4  2 12 32 38.2000000  0  4G04G16G26G31
  22195073.797   116635899.645       15422.316          49.000  
  22371351.672   117562246.129       -2842.918          49.000  
  21715067.891   114113451.090       10511.344          49.000  
  22314402.586   117262976.160        9316.047          50.000  
 16  4  2 12 32 38.3000000  0  4G04G16G26G31
  22194780.367   116634357.652       15417.664          49.000  
  22371405.812   117562530.633       -2847.250          49.000  
  21714867.914   114112400.219       10506.336          49.000  
  22314225.359   117262044.836        9310.586          50.000  
 16  4  2 12 32 38.4000000  0  4G04G16G26G31
  22194487.031   116632816.082       15413.398          49.000  
  22371460.031   117562815.566       -2851.613          49.000  
  21714668.031   114111349.809       10501.691          49.000  
  22314048.234   117261114.027        9305.309          50.000  
 16  4  2 12 32 38.5000000  0  4G04G16G26G31
  22194193.773   116631275.004       15408.605          49.000  
  22371514.344   117563100.965       -2856.199          49.000  
  21714468.242   114110299.930       10496.488          49.000  
  22313871.219   117260183.789        9299.734          50.000  
 16  4  2 12 32 38.6000000  0  4G04G16G26G31
  22193900.586   116629734.336       15404.445          49.000  
  22371568.734   117563386.762       -2860.227          49.000  
  21714268.539   114109250.480       10492.082          49.000  
  22313694.297   117259254.043        9294.723          50.000  
 16  4  2 12 32 38.7000000  0  4G04G16G26G31
  22193607.500   116628194.145       15399.668          49.000  
  22371623.203   117563673.020       -2864.727          49.000  
  21714068.938   114108201.555       10486.996          49.000  
  22313517.477   117258324.867        9289.055          50.000  
 16  4  2 12 32 38.8000000  0  4G04G16G26G31
  22193314.508   116626654.344       15395.871          49.000  
  22371677.750   117563959.660       -2868.492          49.000  
  21713869.414   114107153.051       10482.805          49.000  
  22313340.750   117257396.172        9284.434          50.000  
 16  4  2 12 32 38.9000000  0  4G04G16G26G31
  22193021.570   116625114.945       15391.801          49.000  
  22371732.367   117564246.680       -2872.383          49.000  
  21713669.977   114106104.988       10478.367          49.000  
  22313164.117   117256467.961        9279.484          50.000  
 16  4  2 12 32 39.0000000  0  4G04G16G26G31
  22192728.734   116623576.055       15386.762          49.000  
  22371787.078   117564534.199       -2877.238          49.000  
  21713470.641   114105057.465       10472.992          49.000  
  22312987.602   117255540.344        9273.578          50.000  
 16  4  2 12 32 39.1000000  0  4G04G16G26G31
  22192435.977   116622037.594       15382.410          49.000  
  22371841.875   117564822.137       -2881.484          49.000  
  21713271.391   114104010.406       10468.242          49.000  
  22312811.180   117254613.250        9268.273          50.000  
 16  4  2 12 32 39.2000000  0  4G04G16G26G31
  22192143.273   116620499.566       15377.938          49.000  
  22371896.742   117565110.492       -2885.816          49.000  
  21713072.234   114102963.816       10463.418          49.000  
  22312634.852   117253686.668        9263.023          50.000  
 16  4  2 12 32 39.3000000  0  4G04G16G26G31
  22191850.688   116618962.008       15373.461          49.000  
  22371951.703   117565399.293       -2889.980          49.000  
  21712873.164   114101917.723       10458.766          49.000  
  22312458.641   117252760.645        9257.695          50.000  
 16  4  2 12 32 39.4000000  0  4G04G16G26G31
  22191558.180   116617424.840       15369.355          49.000  
  22372006.734   117565688.500       -2894.277          49.000  
  21712674.188   114100872.070       10454.195          49.000  
  22312282.516   117251835.109        9252.648          50.000  
 16  4  2 12 32 39.5000000  0  4G04G16G26G31
  22191265.766   116615888.203       15364.117          49.000  
  22372061.859   117565978.195       -2899.195          49.000  
  21712475.312   114099826.973       10448.629          49.000  
  22312106.508   117250910.176        9246.586          50.000  
 16  4  2 12 32 39.6000000  0  4G04G16G26G31
  22190973.461   116614352.043       15359.379          49.000  
  22372117.078   117566268.363       -2903.859          49.000  
  21712276.539   114098782.391       10443.480          49.000  
  22311930.602   117249985.816        9240.910          50.000  
 16  4  2 12 32 39.7000000  0  4G04G16G26G31
  22190681.203   116612816.230       15355.723          49.000  
  22372172.359   117566558.859       -2907.340          49.000  
  21712077.828   114097738.184       10439.562          49.000  
  22311754.789   117249061.887        9236.387          50.000  
 16  4  2 12 32 39.8000000  0  4G04G16G26G31
  22190389.039   116611280.926       15350.891          49.000  
  22372227.734   117566849.859       -2912.027          49.000  
  21711879.234   114096694.531       10434.387          49.000  
  22311579.086   117248138.551        9230.824          50.000  
 16  4  2 12 32 39.9000000  0  4G04G16G26G31
  22190096.953   116609746.004       15347.066          49.000  
  22372283.180   117567141.211       -2915.652          49.000  
  21711680.711   114095651.289       10430.227          49.000  
  22311403.469   117247215.684        9226.105          50.000  
 16  4  2 12 32 40.0000000  0  4G04G16G26G31
  22189804.930   116608211.531       15342.465          49.000  
  22372338.703   117567433.012       -2920.098          49.000  
  21711482.281   114094608.539       10425.117          49.000  
  22311227.961   117246293.367        9220.504          50.000  
 16  4  2 12 32 40.1000000  0  4G04G16G26G31
  22189513.008   116606677.508       15337.973          49.000  
  22372394.320   117567725.258       -2924.680          49.000  
  21711283.945   114093566.262       10420.367          49.000  
  22311052.547   117245371.574        9215.070          50.000  
 16  4  2 12 32 40.2000000  0  4G04G16G26G31
  22189221.180   116605143.875       15334.254          49.000  
  22372449.992   117568017.852       -2928.008          49.000  
  21711085.688   114092524.414       10416.293          49.000  
  22310877.227   117244450.258        9210.570          50.000  
 16  4  2 12 32 40.3000000  0  4G04G16G26G31
  22188929.430   116603610.711       15329.473          49.000  
  22372505.766   117568310.926       -2932.855          49.000  
  21710887.523   114091483.066       10411.281          49.000  
  22310702.008   117243529.496        9204.980          50.000  
 16  4  2 12 32 40.4000000  0  4G04G16G26G31
  22188637.773   116602077.977       15325.191          49.000  
  22372561.609   117568604.398       -2936.859          49.000  
  21710689.445   114090442.188       10406.559          49.000  
  22310526.891   117242609.250        9199.898          50.000  
 16  4  2 12 32 40.5000000  0  4G04G16G26G31
  22188346.180   116600545.656       15320.910          49.000  
  22372617.531   117568898.277       -2940.953          49.000  
  21710491.461   114089401.762       10401.910          49.000  
  22310351.875   117241689.512        9194.652          50.000  
 16  4  2 12 32 40.6000000  0  4G04G16G26G31
  22188054.680   116599013.820       15316.336          49.000  
  22372673.547   117569192.625       -2945.457          49.000  
  21710293.578   114088361.852       10397.004          49.000  
  22310176.961   117240770.344        9189.164          50.000  
 16  4  2 12 32 40.7000000  0  4G04G16G26G31
  22187763.250   116597482.352       15312.473          49.000  
  22372729.625   117569487.328       -2949.211          49.000  
  21710095.758   114087322.340       10392.773          49.000  
  22310002.133   117239851.621        9184.512          50.000  
 16  4  2 12 32 40.8000000  0  4G04G16G26G31
  22187471.930   116595951.434       15306.840          49.000  
  22372785.812   117569782.559       -2954.602          49.000  
  21709898.062   114086283.414       10386.844          49.000  
  22309827.430   117238933.543        9178.059          50.000  
 16  4  2 12 32 40.9000000  0  4G04G16G26G31
  22187180.688   116594420.938       15302.621          49.000  
  22372842.070   117570078.207       -2958.820          49.000  
  21709700.453   114085244.957       10382.148          49.000  
  22309652.820   117238015.973        9172.949          50.000  
 16  4  2 12 32 41.0000000  0  4G04G16G26G31
  22186889.516   116592890.832       15298.801          49.000  
  22372898.398   117570374.227       -2962.438          49.000  
  21709502.914   114084206.910       10378.094          49.000  
  22309478.305   117237098.879        9168.180          50.000  
 16  4  2 12 32 41.1000000  0  4G04G16G26G31
  22186598.445   116591361.227       15293.914          49.000  
  22372954.828   117570670.734       -2967.105          49.000  
  21709305.484   114083169.406       10372.852          49.000  
  22309303.898   117236182.375        9162.438          50.000  
 16  4  2 12 32 41.2000000  0  4G04G16G26G31
  22186307.453   116589832.055       15289.543          49.000  
  22373011.328   117570967.664       -2971.434          49.000  
  21709108.141   114082132.367       10368.086          49.000  
  22309129.594   117235266.383        9157.223          50.000  
 16  4  2 12 32 41.3000000  0  4G04G16G26G31
  22186016.547   116588303.316       15284.973          49.000  
  22373067.914   117571265.004       -2975.738          49.000  
  21708910.891   114081095.793       10363.336          49.000  
  22308955.383   117234350.910        9151.871          50.000  
 16  4  2 12 32 41.4000000  0  4G04G16G26G31
  22185725.711   116586775.016       15280.832          49.000  
  22373124.578   117571562.781       -2979.867          49.000  
  21708713.727   114080059.699       10358.684          49.000  
  22308781.273   117233435.973        9146.840          50.000  
 16  4  2 12 32 41.5000000  0  4G04G16G26G31
  22185434.977   116585247.215       15275.730          49.000  
  22373181.328   117571861.023       -2984.691          49.000  
  21708516.664   114079024.137       10353.188          49.000  
  22308607.273   117232521.621        9140.727          50.000  
 16  4  2 12 32 41.6000000  0  4G04G16G26G31
  22185144.344   116583719.844       15271.527          49.000  
  22373238.164   117572159.703       -2988.836          49.000  
  21708319.688   114077989.039       10348.695          49.000  
  22308433.383   117231607.785        9135.742          50.000  
 16  4  2 12 32 41.7000000  0  4G04G16G26G31
  22184853.789   116582192.934       15266.855          49.000  
  22373295.078   117572458.797       -2993.219          49.000  
  21708122.812   114076954.434       10343.715          49.000  
  22308259.586   117230694.484        9130.238          50.000  
 16  4  2 12 32 41.8000000  0  4G04G16G26G31
  22184563.312   116580666.484       15262.289          49.000  
  22373352.086   117572758.367       -2997.773          49.000  
  21707926.023   114075920.324       10338.859          49.000  
  22308085.898   117229781.734        9124.852          50.000  
 16  4  2 12 32 41.9000000  0  4G04G16G26G31
  22184272.914   116579140.430       15258.258          49.000  
  22373409.164   117573058.301       -3001.590          49.000  
  21707729.328   114074886.645       10334.457          49.000  
  22307912.297   117228869.473        9119.980          50.000  
 16  4  2 12 32 42.0000000  0  4G04G16G26G31
  22183982.617   116577614.820       15253.867          49.000  
  22373466.328   117573358.688       -3005.953          49.000  
  21707532.719   114073853.457       10329.594          49.000  
  22307738.805   117227957.742        9114.691          50.000  
 16  4  2 12 32 42.1000000  0  4G04G16G26G31
  22183692.398   116576089.715       15248.773          49.000  
  22373523.570   117573659.535       -3010.809          49.000  
  21707336.211   114072820.789       10324.273          49.000  
  22307565.422   117227046.598        9108.719          50.000  
 16  4  2 12 32 42.2000000  0  4G04G16G26G31
  22183402.250   116574565.043       15244.629          49.000  
  22373580.906   117573960.820       -3014.855          49.000  
  21707139.789   114071788.602       10319.699          49.000  
  22307392.133   117226135.977        9103.648          50.000  
 16  4  2 12 32 42.3000000  0  4G04G16G26G31
  22183112.180   116573040.723       15240.883          49.000  
  22373638.305   117574262.430       -3018.434          49.000  
  21706943.445   114070756.797       10315.609          49.000  
  22307218.930   117225225.801        9099.008          50.000  
 16  4  2 12 32 42.4000000  0  4G04G16G26G31
  22182822.211   116571516.910       15236.043          49.000  
  22373695.789   117574564.531       -3023.078          49.000  
  21706747.203   114069725.535       10310.398          49.000  
  22307045.844   117224316.211        9093.309          50.000  
 16  4  2 12 32 42.5000000  0  4G04G16G26G31
  22182532.336   116569993.570       15231.195          49.000  
  22373753.367   117574867.102       -3027.801          49.000  
  21706551.055   114068694.773       10305.359          49.000  
  22306872.859   117223407.172        9087.695          50.000  
 16  4  2 12 32 42.6000000  0  4G04G16G26G31
  22182242.531   116568470.637       15227.137          49.000  
  22373811.023   117575170.062       -3031.801          49.000  
  21706354.992   114067664.465       10300.781          49.000  
  22306699.969   117222498.633        9082.781          50.000  
 16  4  2 12 32 42.7000000  0  4G04G16G26G31
  22181952.820   116566948.172       15222.512          49.000  
  22373868.758   117575473.469       -3036.133          49.000  
  21706159.023   114066634.656       10295.855          49.000  
  22306527.188   117221590.656        9077.277          50.000  
 16  4  2 12 32 42.8000000  0  4G04G16G26G31
  22181663.219   116565426.180       15217.629          49.000  
  22373926.578   117575777.328       -3040.848          49.000  
  21705963.148   114065605.340       10290.766          49.000  
  22306354.508   117220683.227        9071.449          50.000  
 16  4  2 12 32 42.9000000  0  4G04G16G26G31
  22181373.680   116563904.652       15212.945          49.000  
  22373984.492   117576081.641       -3045.383          49.000  
  21705767.375   114064576.547       10285.555          49.000  
  22306181.938   117219776.355        9065.930          50.000  
 16  4  2 12 32 43.0000000  0  4G04G16G26G31
  22181084.219   116562383.527       15208.988          49.000  
  22374042.477   117576386.355       -3049.199          49.000  
  21705571.680   114063548.172       10281.438          49.000  
  22306009.461   117218869.977        9061.188          50.000  
 16  4  2 12 32 43.1000000  0  4G04G16G26G31
  22180794.844   116560862.836       15204.840          49.000  
  22374100.539   117576691.469       -3053.262          49.000  
  21705376.078   114062520.270       10276.828          49.000  
  22305837.078   117217964.105        9056.121          50.000  
 16  4  2 12 32 43.2000000  0  4G04G16G26G31
  22180505.547   116559342.578       15200.332          49.000  
  22374158.680   117576997.020       -3057.746          49.000  
  21705180.570   114061492.848       10271.828          49.000  
  22305664.797   117217058.766        9050.648          50.000  
 16  4  2 12 32 43.3000000  0  4G04G16G26G31
  22180216.344   116557822.781       15195.773          49.000  
  22374216.906   117577303.000       -3061.934          49.000  
  21704985.156   114060465.914       10267.074          49.000  
  22305492.625   117216153.973        9045.297          50.000  
 16  4  2 12 32 43.4000000  0  4G04G16G26G31
  22179927.227   116556303.465       15190.980          49.000  
  22374275.219   117577609.449       -3066.535          49.000  
  21704789.828   114059439.492       10261.988          49.000  
  22305320.555   117215249.738        9039.691          50.000  
 16  4  2 12 32 43.5000000  0  4G04G16G26G31
  22179638.188   116554784.539       15186.973          49.000  
  22374333.609   117577916.273       -3070.449          49.000  
  21704594.594   114058413.500       10257.539          49.000  
  22305148.570   117214345.984        9034.793          50.000  
 16  4  2 12 32 43.6000000  0  4G04G16G26G31
  22179349.242   116553266.125       15181.926          49.000  
  22374392.094   117578223.594       -3075.422          49.000  
  21704399.453   114057388.043       10252.207          49.000  
  22304976.711   117213442.820        9028.977          50.000  
 16  4  2 12 32 43.7000000  0  4G04G16G26G31
  22179060.383   116551748.188       15176.887          49.000  
  22374450.664   117578531.383       -3080.328          49.000  
  21704204.414   114056363.105       10246.824          49.000  
  22304804.953   117212540.238        9022.922          50.000  
 16  4  2 12 32 43.8000000  0  4G04G16G26G31
  22178771.625   116550230.664       15172.914          49.000  
  22374509.305   117578839.566       -3084.109          49.000  
  21704009.461   114055338.621       10242.457          49.000  
  22304633.289   117211638.141        9018.203          50.000  
 16  4  2 12 32 43.9000000  0  4G04G16G26G31
  22178482.922   116548713.543       15169.027          49.000  
  22374568.023   117579148.125       -3087.703          49.000  
  21703814.586   114054314.562       10238.336          49.000  
  22304461.719   117210736.535        9013.480          50.000  
 16  4  2 12 32 44.0000000  0  4G04G16G26G31
  22178194.305   116547196.867       15164.594          49.000  
  22374626.820   117579457.125       -3091.922          49.000  
  21703619.805   114053291.000       10233.430          49.000  
  22304290.250   117209835.465        9008.172          50.000  
 16  4  2 12 32 44.1000000  0  4G04G16G26G31
  22177905.773   116545680.641       15160.027          49.000  
  22374685.711   117579766.570       -3096.570          49.000  
  21703425.117   114052267.906       10228.562          49.000  
  22304118.883   117208934.934        9002.727          50.000  
 16  4  2 12 32 44.2000000  0  4G04G16G26G31
  22177617.336   116544164.879       15155.359          49.000  
  22374744.672   117580076.438       -3100.910          49.000  
  21703230.523   114051245.312       10223.543          49.000  
  22303947.617   117208034.941        8997.188          50.000  
 16  4  2 12 32 44.3000000  0  4G04G16G26G31
  22177328.984   116542649.578       15150.793          49.000  
  22374803.727   117580386.781       -3105.586          49.000  
  21703036.023   114050223.215       10218.621          49.000  
  22303776.461   117207135.508        8991.676          50.000  
 16  4  2 12 32 44.4000000  0  4G04G16G26G31
  22177040.727   116541134.727       15146.305          49.000  
  22374862.859   117580697.539       -3109.867          49.000  
  21702841.617   114049201.613       10213.719          49.000  
  22303605.406   117206236.605        8986.332          50.000  
 16  4  2 12 32 44.5000000  0  4G04G16G26G31
  22176752.547   116539620.336       15141.488          49.000  
  22374922.078   117581008.730       -3114.348          49.000  
  21702647.305   114048180.492       10208.699          49.000  
  22303434.453   117205338.238        8980.852          50.000  
 16  4  2 12 32 44.6000000  0  4G04G16G26G31
  22176464.453   116538106.379       15137.512          49.000  
  22374981.383   117581320.359       -3118.320          49.000  
  21702453.078   114047159.844       10204.344          49.000  
  22303263.602   117204440.410        8975.738          50.000  
 16  4  2 12 32 44.7000000  0  4G04G16G26G31
  22176176.430   116536592.816       15133.527          49.000  
  22375040.750   117581632.352       -3121.949          49.000  
  21702258.938   114046139.625       10199.980          49.000  
  22303092.836   117203543.051        8971.086          50.000  
 16  4  2 12 32 44.8000000  0  4G04G16G26G31
  22175888.500   116535079.730       15128.609          49.000  
  22375100.211   117581944.832       -3126.945          49.000  
  21702064.898   114045119.922       10194.656          49.000  
  22302922.188   117202646.266        8965.160          50.000  
 16  4  2 12 32 44.9000000  0  4G04G16G26G31
  22175600.656   116533567.102       15124.152          49.000  
  22375159.758   117582257.723       -3131.164          49.000  
  21701870.945   114044100.707       10189.898          49.000  
  22302751.633   117201750.004        8960.000          50.000  
 16  4  2 12 32 45.0000000  0  4G04G16G26G31
  22175312.898   116532054.898       15119.699          49.000  
  22375219.375   117582571.035       -3135.410          49.000  
  21701677.078   114043081.949       10185.141          49.000  
  22302581.180   117200854.270        8954.648          50.000  
 16  4  2 12 32 45.1000000  0  4G04G16G26G31
  22175025.219   116530543.133       15115.434          49.000  
  22375279.078   117582884.766       -3139.508          49.000  
  21701483.305   114042063.664       10180.469          49.000  
  22302410.828   117199959.055        8949.414          50.000  
 16  4  2 12 32 45.2000000  0  4G04G16G26G31
  22174737.633   116529031.824       15110.941          49.000  
  22375338.867   117583198.945       -3143.840          49.000  
  21701289.625   114041045.875       10175.617          49.000  
  22302240.578   117199064.383        8944.145          50.000  
 16  4  2 12 32 45.3000000  0  4G04G16G26G31
  22174450.117   116527520.934       15106.621          49.000  
  22375398.727   117583513.520       -3147.926          49.000  
  21701096.039   114040028.539       10170.895          49.000  
  22302070.422   117198170.207        8938.984          50.000  
 16  4  2 12 32 45.4000000  0  4G04G16G26G31
  22174162.711   116526010.523       15101.887          49.000  
  22375458.680   117583828.566       -3152.648          49.000  
  21700902.539   114039011.703       10166.000          49.000  
  22301900.375   117197276.609        8933.434          50.000  
 16  4  2 12 32 45.5000000  0  4G04G16G26G31
  22173875.359   116524500.516       15097.871          49.000  
  22375518.703   117584143.992       -3156.395          49.000  
  21700709.125   114037995.320       10161.523          49.000  
  22301730.422   117196383.500        8928.445          50.000  
 16  4  2 12 32 45.6000000  0  4G04G16G26G31
  22173588.117   116522990.965       15093.410          49.000  
  22375578.812   117584459.863       -3160.777          49.000  
  21700515.805   114036979.418       10156.770          49.000  
  22301560.570   117195490.922        8923.078          50.000  
 16  4  2 12 32 45.7000000  0  4G04G16G26G31
  22173300.945   116521481.879       15088.582          49.000  
  22375639.000   117584776.176       -3165.246          49.000  
  21700322.578   114035964.027       10151.609          49.000  
  22301390.828   117194598.902        8917.555          50.000  
 16  4  2 12 32 45.8000000  0  4G04G16G26G31
  22173013.852   116519973.219       15084.359          49.000  
  22375699.273   117585092.902       -3169.359          49.000  
  21700129.438   114034949.082       10147.113          49.000  
  22301221.180   117193707.395        8912.469          50.000  
 16  4  2 12 32 45.9000000  0  4G04G16G26G31
  22172726.844   116518464.973       15080.223          49.000  
  22375759.625   117585410.031       -3173.492          49.000  
  21699936.391   114033934.602       10142.500          49.000  
  22301051.625   117192816.395        8907.242          50.000  
 16  4  2 12 32 46.0000000  0  4G04G16G26G31
  22172439.914   116516957.168       15075.965          49.000  
  22375820.047   117585727.574       -3177.387          49.000  
  21699743.430   114032920.582       10138.008          49.000  
  22300882.172   117191925.906        8902.398          50.000  
 16  4  2 12 32 46.1000000  0  4G04G16G26G31
  22172153.078   116515449.809       15071.355          49.000  
  22375880.555   117586045.559       -3182.031          49.000  
  21699550.562   114031907.047       10133.039          49.000  
  22300712.820   117191035.949        8896.883          50.000  
 16  4  2 12 32 46.2000000  0  4G04G16G26G31
  22171866.320   116513942.898       15066.742          49.000  
  22375941.148   117586363.961       -3186.305          49.000  
  21699357.781   114030894.004       10128.082          49.000  
  22300543.570   117190146.543        8891.344          50.000  
 16  4  2 12 32 46.3000000  0  4G04G16G26G31
  22171579.656   116512436.477       15061.906          49.000  
  22376001.836   117586682.859       -3191.258          49.000  
  21699165.102   114029881.480       10122.793          49.000  
  22300374.430   117189257.703        8885.582          50.000  
 16  4  2 12 32 46.4000000  0  4G04G16G26G31
  22171293.070   116510930.527       15057.117          49.000  
  22376062.602   117587002.195       -3195.707          49.000  
  21698972.523   114028869.461       10117.723          49.000  
  22300205.398   117188369.418        8880.059          50.000  
 16  4  2 12 32 46.5000000  0  4G04G16G26G31
  22171006.586   116509425.031       15052.723          49.000  
  22376123.453   117587321.965       -3199.910          49.000  
  21698780.031   114027857.922       10112.965          49.000  
  22300036.469   117187481.676        8874.816          50.000  
 16  4  2 12 32 46.6000000  0  4G04G16G26G31
  22170720.172   116507919.949       15048.652          49.000  
  22376184.375   117587642.152       -3204.039          49.000  
  21698587.633   114026846.836       10108.590          49.000  
  22299867.625   117186594.434        8869.812          50.000  
 16  4  2 12 32 46.7000000  0  4G04G16G26G31
  22170433.852   116506415.312       15044.172          49.000  
  22376245.383   117587962.742       -3208.125          49.000  
  21698395.312   114025836.227       10103.777          49.000  
  22299698.891   117185707.715        8864.496          50.000  
 16  4  2 12 32 46.8000000  0  4G04G16G26G31
  22170147.602   116504911.055       15040.543          49.000  
  22376306.461   117588283.715       -3211.754          49.000  
  21698203.086   114024826.043       10099.711          49.000  
  22299530.250   117184821.477        8859.891          50.000  
 16  4  2 12 32 46.9000000  0  4G04G16G26G31
  22169861.438   116503407.250       15035.961          49.000  
  22376367.625   117588605.109       -3216.109          49.000  
  21698010.945   114023816.332       10094.887          49.000  
  22299361.703   117183935.762        8854.586          50.000  
 16  4  2 12 32 47.0000000  0  4G04G16G26G31
  22169575.344   116501903.828       15032.074          49.000  
  22376428.852   117588926.883       -3219.867          49.000  
  21697818.883   114022807.047       10090.629          49.000  
  22299193.250   117183050.523        8849.766          50.000  
 16  4  2 12 32 47.1000000  0  4G04G16G26G31
  22169289.352   116500400.922       15026.891          49.000  
  22376490.172   117589249.129       -3224.711          49.000  
  21697626.930   114021798.305       10085.172          49.000  
  22299024.906   117182165.875        8843.848          50.000  
 16  4  2 12 32 47.2000000  0  4G04G16G26G31
  22169003.430   116498898.422       15022.789          49.000  
  22376551.578   117589571.801       -3228.699          49.000  
  21697435.062   114020790.020       10080.633          49.000  
  22298856.664   117181281.738        8838.828          50.000  
 16  4  2 12 32 47.3000000  0  4G04G16G26G31
  22168717.609   116497396.418       15017.695          49.000  
  22376613.070   117589894.941       -3233.738          49.000  
  21697243.289   114019782.254       10075.203          49.000  
  22298688.531   117180398.176        8832.777          50.000  
 16  4  2 12 32 47.4000000  0  4G04G16G26G31
  22168431.883   116495894.859       15013.492          49.000  
  22376674.641   117590218.500       -3237.668          49.000  
  21697051.609   114018774.965       10070.621          49.000  
  22298520.492   117179515.137        8827.805          50.000  
 16  4  2 12 32 47.5000000  0  4G04G16G26G31
  22168146.219   116494393.695       15009.352          49.000  
  22376736.281   117590542.441       -3241.688          49.000  
  21696860.008   114017768.105       10066.242          49.000  
  22298352.547   117178632.586        8822.840          50.000  
 16  4  2 12 32 47.6000000  0  4G04G16G26G31
  22167860.664   116492893.023       15004.586          49.000  
  22376798.016   117590866.855       -3246.312          49.000  
  21696668.508   114016761.773       10061.062          49.000  
  22298184.711   117177750.598        8817.266          50.000  
 16  4  2 12 32 47.7000000  0  4G04G16G26G31
  22167575.188   116491392.824       14999.770          49.000  
  22376859.836   117591191.730       -3251.000          49.000  
  21696477.109   114015755.949       10055.844          49.000  
  22298016.984   117176869.188        8811.414          50.000  
 16  4  2 12 32 47.8000000  0  4G04G16G26G31
  22167289.773   116489893.043       14995.570          49.000  
  22376921.734   117591516.992       -3254.730          49.000  
  21696285.789   114014750.562       10051.520          49.000  
  22297849.352   117175988.266        8806.586          50.000  
 16  4  2 12 32 47.9000000  0  4G04G16G26G31
  22167004.445   116488393.648       14991.746          49.000  
  22376983.703   117591842.637       -3258.523          49.000  
  21696094.555   114013745.613       10047.320          49.000  
  22297681.805   117175107.820        8801.883          50.000  
 16  4  2 12 32 48.0000000  0  4G04G16G26G31
  22166719.227   116486894.746       14986.816          49.000  
  22377045.758   117592168.758       -3263.270          49.000  
  21695903.422   114012741.188       10042.016          49.000  
  22297514.383   117174227.965        8795.961          50.000  
 16  4  2 12 32 48.1000000  0  4G04G16G26G31
  22166434.086   116485396.312       14982.047          49.000  
  22377107.898   117592495.332       -3267.812          49.000  
  21695712.383   114011737.273       10036.906          49.000  
  22297347.055   117173348.652        8790.441          50.000  
 16  4  2 12 32 48.2000000  0  4G04G16G26G31
  22166149.008   116483898.270       14978.039          49.000  
  22377170.117   117592822.277       -3271.766          49.000  
  21695521.422   114010733.773       10032.586          49.000  
  22297179.812   117172469.816        8785.633          50.000  
 16  4  2 12 32 48.3000000  0  4G04G16G26G31
  22165864.031   116482400.699       14973.363          49.000  
  22377232.414   117593149.664       -3276.059          49.000  
  21695330.555   114009730.777       10027.629          49.000  
  22297012.680   117171591.531        8780.152          50.000  
 16  4  2 12 32 48.4000000  0  4G04G16G26G31
  22165579.148   116480903.625       14968.320          49.000  
  22377294.812   117593477.551       -3281.160          49.000  
  21695139.797   114008728.324       10022.082          49.000  
  22296845.664   117170713.848        8774.070          50.000  
 16  4  2 12 32 48.5000000  0  4G04G16G26G31
  22165294.344   116479406.977       14964.141          49.000  
  22377357.281   117593805.832       -3285.031          49.000  
  21694949.125   114007726.324       10017.617          49.000  
  22296678.742   117169836.664        8769.102          50.000  
 16  4  2 12 32 48.6000000  0  4G04G16G26G31
  22165009.625   116477910.754       14960.156          49.000  
  22377419.828   117594134.535       -3289.117          49.000  
  21694758.539   114006724.785       10013.031          49.000  
  22296511.922   117168960.000        8764.031          50.000  
 16  4  2 12 32 48.7000000  0  4G04G16G26G31
  22164724.992   116476414.961       14956.000          49.000  
  22377482.453   117594463.637       -3292.949          49.000  
  21694568.047   114005723.707       10008.602          49.000  
  22296345.195   117168083.832        8759.191          50.000  
 16  4  2 12 32 48.8000000  0  4G04G16G26G31
  22164440.438   116474919.598       14951.520          49.000  
  22377545.156   117594793.156       -3297.277          49.000  
  21694377.633   114004723.086       10004.008          49.000  
  22296178.562   117167208.188        8753.910          50.000  
 16  4  2 12 32 48.9000000  0  4G04G16G26G31
  22164155.969   116473424.680       14946.980          49.000  
  22377607.945   117595123.105       -3301.684          49.000  
  21694187.320   114003722.961        9999.016          49.000  
  22296012.039   117166333.086        8748.391          50.000  
 16  4  2 12 32 49.0000000  0  4G04G16G26G31
  22163871.562   116471930.199       14942.660          49.000  
  22377670.812   117595453.465       -3305.680          49.000  
  21693997.094   114002723.293        9994.367          49.000  
  22295845.609   117165458.488        8743.355          50.000  
 16  4  2 12 32 49.1000000  0  4G04G16G26G31
  22163587.258   116470436.168       14937.863          49.000  
  22377733.758   117595784.266       -3310.324          49.000  
  21693806.961   114001724.121        9989.215          49.000  
  22295679.281   117164584.445        8737.609          50.000  
 16  4  2 12 32 49.2000000  0  4G04G16G26G31
  22163303.047   116468942.625       14933.492          49.000  
  22377796.797   117596115.535       -3314.605          49.000  
  21693616.914   114000725.449        9984.602          49.000  
  22295513.062   117163710.957        8732.414          50.000  
 16  4  2 12 32 49.3000000  0  4G04G16G26G31
  22163018.906   116467449.461       14929.273          49.000  
  22377859.906   117596447.172       -3318.664          49.000  
  21693426.961   113999727.211        9980.035          49.000  
  22295346.938   117162837.945        8727.332          50.000  
 16  4  2 12 32 49.4000000  0  4G04G16G26G31
  22162734.852   116465956.742       14925.039          49.000  
  22377923.094   117596779.234       -3322.684          49.000  
  21693237.094   113998729.457        9975.410          49.000  
  22295180.906   117161965.461        8722.293          50.000  
 16  4  2 12 32 49.5000000  0  4G04G16G26G31
  22162450.883   116464464.484       14920.238          49.000  
  22377986.367   117597111.730       -3327.227          49.000  
  21693047.312   113997732.176        9970.398          49.000  
  22295014.984   117161093.520        8716.621          50.000  
 16  4  2 12 32 49.6000000  0  4G04G16G26G31
  22162167.016   116462972.727       14915.289          49.000  
  22378049.727   117597444.715       -3332.023          49.000  
  21692857.641   113996735.445        9965.016          49.000  
  22294849.172   117160222.164        8710.820          50.000  
 16  4  2 12 32 49.7000000  0  4G04G16G26G31
  22161883.219   116461481.379       14911.148          49.000  
  22378113.164   117597778.086       -3335.836          49.000  
  21692668.055   113995739.160        9960.508          49.000  
  22294683.453   117159351.309        8705.859          50.000  
 16  4  2 12 32 49.8000000  0  4G04G16G26G31
  22161599.508   116459990.422       14907.305          49.000  
  22378176.680   117598111.848       -3339.840          49.000  
  21692478.547   113994743.289        9956.297          49.000  
  22294517.828   117158480.926        8701.113          50.000  
 16  4  2 12 32 49.9000000  0  4G04G16G26G31
  22161315.883   116458499.969       14902.410          49.000  
  22378240.281   117598446.082       -3344.336          49.000  
  21692289.141   113993747.961        9951.117          49.000  
  22294352.312   117157611.125        8695.445          50.000  
 16  4  2 12 32 50.0000000  0  4G04G16G26G31
  22161032.328   116457009.895       14898.582          49.000  
  22378303.953   117598780.684       -3348.070          49.000  
  21692099.812   113992753.051        9946.863          49.000  
  22294186.883   117156741.812        8690.574          50.000  
 16  4  2 12 32 50.1000000  0  4G04G16G26G31
  22160748.875   116455520.320       14893.570          49.000  
  22378367.719   117599115.762       -3352.914          49.000  
  21691910.594   113991758.668        9941.559          49.000  
  22294021.570   117155873.066        8684.766          50.000  
 16  4  2 12 32 50.2000000  0  4G04G16G26G31
  22160465.492   116454031.184       14889.117          49.000  
  22378431.562   117599451.258       -3357.164          49.000  
  21691721.461   113990764.762        9936.625          49.000  
  22293856.352   117155004.832        8679.617          50.000  
 16  4  2 12 32 50.3000000  0  4G04G16G26G31
  22160182.203   116452542.480       14884.816          49.000  
  22378495.484   117599787.172       -3361.316          49.000  
  21691532.414   113989771.320        9932.031          49.000  
  22293691.234   117154137.141        8674.285          50.000  
 16  4  2 12 32 50.4000000  0  4G04G16G26G31
  22159898.992   116451054.215       14880.559          49.000  
  22378559.492   117600123.512       -3365.426          49.000  
  21691343.453   113988778.344        9927.449          49.000  
  22293526.211   117153269.957        8669.234          50.000  
 16  4  2 12 32 50.5000000  0  4G04G16G26G31
  22159615.867   116449566.406       14875.727          49.000  
  22378623.570   117600460.281       -3370.098          49.000  
  21691154.602   113987785.863        9922.301          49.000  
  22293361.297   117152403.312        8663.570          50.000  
 16  4  2 12 32 50.6000000  0  4G04G16G26G31
  22159332.828   116448079.027       14871.676          49.000  
  22378687.734   117600797.465       -3373.848          49.000  
  21690965.820   113986793.852        9917.969          49.000  
  22293196.477   117151537.199        8658.656          50.000  
 16  4  2 12 32 50.7000000  0  4G04G16G26G31
  22159049.875   116446592.109       14866.809          49.000  
  22378751.984   117601135.098       -3378.602          49.000  
  21690777.141   113985802.328        9912.770          49.000  
  22293031.766   117150671.621        8652.953          50.000  
 16  4  2 12 32 50.8000000  0  4G04G16G26G31
  22158767.016   116445105.676       14862.160          49.000  
  22378816.320   117601473.199       -3383.176          49.000  
  21690588.562   113984811.328        9907.691          49.000  
  22292867.156   117149806.621        8647.312          50.000  
 16  4  2 12 32 50.9000000  0  4G04G16G26G31
  22158484.227   116443619.625       14858.148          49.000  
  22378880.727   117601811.645       -3386.863          49.000  
  21690400.055   113983820.738        9903.402          49.000  
  22292702.641   117148942.074        8642.637          50.000  
 16  4  2 12 32 51.0000000  0  4G04G16G26G31
  22158201.523   116442134.012       14854.059          49.000  
  22378945.219   117602150.531       -3390.910          49.000  
  21690211.648   113982830.625        9898.934          49.000  
  22292538.227   117148078.062        8637.578          50.000  
 16  4  2 12 32 51.1000000  0  4G04G16G26G31
  22157918.906   116440648.855       14849.391          49.000  
  22379009.781   117602489.848       -3395.223          49.000  
  21690023.328   113981841.004        9893.941          49.000  
  22292373.914   117147214.582        8632.133          50.000  
 16  4  2 12 32 51.2000000  0  4G04G16G26G31
  22157636.367   116439164.125       14845.156          49.000  
  22379074.430   117602829.574       -3399.379          49.000  
  21689835.094   113980851.840        9889.309          49.000  
  22292209.695   117146351.621        8627.043          50.000  
 16  4  2 12 32 51.3000000  0  4G04G16G26G31
  22157353.922   116437679.863       14840.336          49.000  
  22379139.164   117603169.746       -3403.934          49.000  
  21689646.961   113979863.172        9884.363          49.000  
  22292045.586   117145489.207        8621.496          50.000  
 16  4  2 12 32 51.4000000  0  4G04G16G26G31
  22157071.562   116436196.043       14835.855          49.000  
  22379203.984   117603510.348       -3408.273          49.000  
  21689458.914   113978874.992        9879.445          49.000  
  22291881.578   117144627.328        8616.016          50.000  
 16  4  2 12 32 51.5000000  0  4G04G16G26G31
  22156789.281   116434712.676       14831.445          49.000  
  22379268.875   117603851.371       -3412.332          49.000  
  21689270.961   113977887.285        9874.789          49.000  
  22291717.664   117143765.977        8610.844          50.000  
 16  4  2 12 32 51.6000000  0  4G04G16G26G31
  22156507.078   116433229.711       14827.375          49.000  
  22379333.844   117604192.805       -3416.426          49.000  
  21689083.094   113976900.039        9870.098          49.000  
  22291553.852   117142905.125        8605.941          50.000  
 16  4  2 12 32 51.7000000  0  4G04G16G26G31
  22156224.969   116431747.242       14822.516          49.000  
  22379398.906   117604534.707       -3421.191          49.000  
  21688895.328   113975913.301        9865.016          49.000  
  22291390.148   117142044.855        8600.008          50.000  
 16  4  2 12 32 51.8000000  0  4G04G16G26G31
  22155942.961   116430265.207       14818.129          49.000  
  22379464.047   117604877.000       -3425.207          49.000  
  21688707.648   113974927.027        9860.449          49.000  
  22291226.547   117141185.082        8595.113          50.000  
 16  4  2 12 32 51.9000000  0  4G04G16G26G31
  22155661.008   116428783.570       14814.160          49.000  
  22379529.258   117605219.699       -3429.133          49.000  
  21688520.055   113973941.207        9855.906          49.000  
  22291063.031   117140325.820        8590.102          50.000  
 16  4  2 12 32 52.0000000  0  4G04G16G26G31
  22155379.164   116427302.434       14809.230          49.000  
  22379594.562   117605562.867       -3433.789          49.000  
  21688332.555   113972955.902        9850.746          49.000  
  22290899.633   117139467.129        8584.328          50.000  
 16  4  2 12 32 52.1000000  0  4G04G16G26G31
  22155097.391   116425821.711       14804.918          49.000  
  22379659.945   117605906.445       -3438.012          49.000  
  21688145.148   113971971.055        9846.070          49.000  
  22290736.328   117138608.949        8578.938          50.000  
 16  4  2 12 32 52.2000000  0  4G04G16G26G31
  22154815.695   116424341.418       14801.031          49.000  
  22379725.398   117606250.410       -3441.469          49.000  
  21687957.820   113970986.660        9841.895          49.000  
  22290573.117   117137751.258        8574.469          50.000  
 16  4  2 12 32 52.3000000  0  4G04G16G26G31
  22154534.078   116422861.531       14796.785          49.000  
  22379790.938   117606594.789       -3445.902          49.000  
  21687770.586   113970002.719        9837.230          49.000  
  22290410.000   117136894.074        8569.227          50.000  
 16  4  2 12 32 52.4000000  0  4G04G16G26G31
  22154252.555   116421382.133       14791.746          49.000  
  22379856.555   117606939.613       -3450.516          49.000  
  21687583.445   113969019.293        9831.836          49.000  
  22290246.984   117136037.457        8563.516          50.000  
 16  4  2 12 32 52.5000000  0  4G04G16G26G31
  22153971.117   116419903.172       14787.289          49.000  
  22379922.258   117607284.875       -3454.801          49.000  
  21687396.398   113968036.336        9827.312          49.000  
  22290084.078   117135181.375        8558.160          50.000  
 16  4  2 12 32 52.6000000  0  4G04G16G26G31
  22153689.773   116418424.633       14783.133          49.000  
  22379988.031   117607630.535       -3458.922          49.000  
  21687209.438   113967053.848        9822.488          49.000  
  22289921.266   117134325.785        8553.141          50.000  
 16  4  2 12 32 52.7000000  0  4G04G16G26G31
  22153408.508   116416946.582       14778.336          49.000  
  22380053.898   117607976.652       -3463.422          49.000  
  21687022.570   113966071.855        9817.512          49.000  
  22289758.562   117133470.770        8547.539          50.000  
 16  4  2 12 32 52.8000000  0  4G04G16G26G31
  22153127.344   116415469.000       14773.441          49.000  
  22380119.852   117608323.234       -3468.105          49.000  
  21686835.805   113965090.395        9812.203          49.000  
  22289595.969   117132616.320        8541.738          50.000  
 16  4  2 12 32 52.9000000  0  4G04G16G26G31
  22152846.258   116413991.871       14769.125          49.000  
  22380185.883   117608670.246       -3472.156          49.000  
  21686649.125   113964109.398        9807.684          49.000  
  22289433.469   117131762.398        8536.645          50.000  
 16  4  2 12 32 53.0000000  0  4G04G16G26G31
  22152565.234   116412515.148       14765.078          49.000  
  22380251.992   117609017.652       -3476.242          49.000  
  21686462.531   113963128.855        9803.168          49.000  
  22289271.070   117130908.973        8531.668          50.000  
 16  4  2 12 32 53.1000000  0  4G04G16G26G31
  22152284.312   116411038.875       14760.512          49.000  
  22380318.180   117609365.484       -3480.582          49.000  
  21686276.031   113962148.789        9798.422          49.000  
  22289108.773   117130056.082        8526.359          50.000  
 16  4  2 12 32 53.2000000  0  4G04G16G26G31
  22152003.477   116409563.094       14755.668          49.000  
  22380384.461   117609713.773       -3484.926          49.000  
  21686089.633   113961169.258        9793.062          49.000  
  22288946.586   117129203.766        8520.566          50.000  
 16  4  2 12 32 53.3000000  0  4G04G16G26G31
  22151722.727   116408087.715       14751.449          49.000  
  22380450.812   117610062.473       -3489.141          49.000  
  21685903.312   113960190.156        9788.586          49.000  
  22288784.484   117128351.941        8515.457          50.000  
 16  4  2 12 32 53.4000000  0  4G04G16G26G31
  22151442.062   116406612.809       14746.918          49.000  
  22380517.250   117610411.609       -3493.617          49.000  
  21685717.094   113959211.566        9783.613          49.000  
  22288622.492   117127500.664        8510.090          50.000  
 16  4  2 12 32 53.5000000  0  4G04G16G26G31
  22151161.477   116405138.340       14742.344          49.000  
  22380583.773   117610761.168       -3497.867          49.000  
  21685530.961   113958233.438        9778.848          49.000  
  22288460.602   117126649.922        8504.641          50.000  
 16  4  2 12 32 53.6000000  0  4G04G16G26G31
  22150880.984   116403664.367       14737.602          49.000  
  22380650.375   117611111.191       -3502.348          49.000  
  21685344.930   113957255.840        9773.715          49.000  
  22288298.812   117125799.746        8499.125          50.000  
 16  4  2 12 32 53.7000000  0  4G04G16G26G31
  22150600.578   116402190.812       14733.227          49.000  
  22380717.062   117611461.625       -3506.570          49.000  
  21685158.984   113956278.699        9768.914          49.000  
  22288137.125   117124950.078        8493.852          50.000  
 16  4  2 12 32 53.8000000  0  4G04G16G26G31
  22150320.258   116400717.711       14728.684          49.000  
  22380783.836   117611812.508       -3511.090          49.000  
  21684973.133   113955302.051        9764.055          49.000  
  22287975.547   117124100.957        8488.473          50.000  
 16  4  2 12 32 53.9000000  0  4G04G16G26G31
  22150040.023   116399245.074       14724.258          49.000  
  22380850.688   117612163.812       -3515.188          49.000  
  21684787.383   113954325.887        9759.262          49.000  
  22287814.062   117123252.371        8483.176          50.000  
 16  4  2 12 32 54.0000000  0  4G04G16G26G31
  22149759.867   116397772.840       14719.969          49.000  
  22380917.609   117612515.508       -3519.141          49.000  
  21684601.703   113953350.160        9754.902          49.000  
  22287652.680   117122404.273        8478.250          50.000  
 16  4  2 12 32 54.1000000  0  4G04G16G26G31
  22149479.805   116396301.102       14715.152          49.000  
  22380984.625   117612867.680       -3523.875          49.000  
  21684416.133   113952374.980        9749.453          49.000  
  22287491.406   117121556.770        8472.305          50.000  
 16  4  2 12 32 54.2000000  0  4G04G16G26G31
  22149199.812   116394829.750       14711.363          49.000  
  22381051.711   117613220.230       -3527.609          49.000  
  21684230.641   113951400.195        9745.539          49.000  
  22287330.219   117120709.715        8468.039          50.000  
 16  4  2 12 32 54.3000000  0  4G04G16G26G31
  22148919.906   116393358.828       14706.844          49.000  
  22381118.875   117613573.184       -3531.832          49.000  
  21684045.234   113950425.895        9740.648          49.000  
  22287169.133   117119863.203        8462.238          50.000  
 16  4  2 12 32 54.4000000  0  4G04G16G26G31
  22148640.086   116391888.391       14702.250          49.000  
  22381186.133   117613926.594       -3536.188          49.000  
  21683859.930   113949452.113        9735.598          49.000  
  22287008.148   117119017.242        8457.031          50.000  
 16  4  2 12 32 54.5000000  0  4G04G16G26G31
  22148360.359   116390418.422       14697.453          49.000  
  22381253.469   117614280.477       -3540.938          49.000  
  21683674.719   113948478.824        9730.484          49.000  
  22286847.273   117118171.832        8451.387          50.000  
 16  4  2 12 32 54.6000000  0  4G04G16G26G31
  22148080.703   116388948.816       14693.730          49.000  
  22381320.875   117614634.672       -3544.379          49.000  
  21683489.586   113947505.934        9726.566          49.000  
  22286686.484   117117326.883        8446.730          50.000  
 16  4  2 12 32 54.7000000  0  4G04G16G26G31
  22147801.141   116387479.680       14689.238          49.000  
  22381388.367   117614989.336       -3548.621          49.000  
  21683304.547   113946533.539        9721.703          49.000  
  22286525.797   117116482.477        8441.430          50.000  
 16  4  2 12 32 54.8000000  0  4G04G16G26G31
  22147521.648   116386010.965       14685.066          49.000  
  22381455.930   117615344.395       -3552.645          49.000  
  21683119.594   113945561.605        9717.160          49.000  
  22286365.203   117115638.574        8436.469          50.000  
 16  4  2 12 32 54.9000000  0  4G04G16G26G31
  22147242.242   116384542.688       14680.488          49.000  
  22381523.570   117615699.875       -3556.961          49.000  
  21682934.734   113944590.152        9712.207          49.000  
  22286204.719   117114795.203        8431.035          50.000  
 16  4  2 12 32 55.0000000  0  4G04G16G26G31
  22146962.922   116383074.883       14675.832          49.000  
  22381591.305   117616055.816       -3561.547          49.000  
  21682749.969   113943619.188        9707.383          49.000  
  22286044.336   117113952.383        8425.613          50.000  
 16  4  2 12 32 55.1000000  0  4G04G16G26G31
  22146683.695   116381607.531       14671.246          49.000  
  22381659.117   117616412.176       -3565.910          49.000  
  21682565.297   113942648.742        9702.082          49.000  
  22285884.055   117113110.113        8419.996          50.000  
 16  4  2 12 32 55.2000000  0  4G04G16G26G31
  22146404.562   116380140.629       14666.746          49.000  
  22381727.016   117616768.965       -3570.059          49.000  
  21682380.711   113941678.742        9697.582          49.000  
  22285723.883   117112268.363        8414.781          50.000  
 16  4  2 12 32 55.3000000  0  4G04G16G26G31
  22146125.492   116378674.102       14663.031          49.000  
  22381794.984   117617126.129       -3573.801          49.000  
  21682196.211   113940709.172        9693.422          49.000  
  22285563.789   117111427.086        8410.141          50.000  
 16  4  2 12 32 55.4000000  0  4G04G16G26G31
  22145846.516   116377208.082       14658.008          49.000  
  22381863.039   117617483.758       -3578.387          49.000  
  21682011.805   113939740.133        9688.074          49.000  
  22285403.812   117110586.375        8404.383          50.000  
 16  4  2 12 32 55.5000000  0  4G04G16G26G31
  22145567.625   116375742.488       14653.766          49.000  
  22381931.172   117617841.812       -3582.723          49.000  
  21681827.500   113938771.559        9683.406          49.000  
  22285243.930   117109746.191        8399.258          50.000  
 16  4  2 12 32 55.6000000  0  4G04G16G26G31
  22145288.812   116374277.348       14649.145          49.000  
  22381999.391   117618200.285       -3587.012          49.000  
  21681643.273   113937803.469        9678.516          49.000  
  22285084.148   117108906.547        8393.781          50.000  
 16  4  2 12 32 55.7000000  0  4G04G16G26G31
  22145010.102   116372812.723       14643.914          49.000  
  22382067.703   117618559.258       -3592.059          49.000  
  21681459.156   113936835.922        9673.090          49.000  
  22284924.484   117108067.500        8387.648          50.000  
 16  4  2 12 32 55.8000000  0  4G04G16G26G31
  22144731.461   116371348.488       14640.141          49.000  
  22382136.078   117618918.605       -3595.574          49.000  
  21681275.125   113935868.812        9668.762          49.000  
  22284764.906   117107228.926        8382.973          50.000  
 16  4  2 12 32 55.9000000  0  4G04G16G26G31
  22144452.898   116369884.621       14636.582          49.000  
  22382204.531   117619278.301       -3599.016          49.000  
  21681091.164   113934902.105        9664.820          49.000  
  22284605.414   117106390.809        8378.656          50.000  
 16  4  2 12 32 56.0000000  0  4G04G16G26G31
  22144174.422   116368421.227       14631.805          49.000  
  22382273.062   117619638.441       -3603.551          49.000  
  21680907.297   113933935.891        9659.914          49.000  
  22284446.031   117105553.234        8373.160          50.000  
 16  4  2 12 32 56.1000000  0  4G04G16G26G31
  22143896.023   116366958.246       14627.867          49.000  
  22382341.672   117619998.980       -3607.184          49.000  
  21680723.516   113932970.129        9655.566          49.000  
  22284286.742   117104716.180        8368.234          50.000  
 16  4  2 12 32 56.2000000  0  4G04G16G26G31
  22143617.703   116365495.684       14623.297          49.000  
  22382410.352   117620359.922       -3611.613          49.000  
  21680539.828   113932004.816        9650.742          49.000  
  22284127.555   117103879.609        8362.961          50.000  
 16  4  2 12 32 56.3000000  0  4G04G16G26G31
  22143339.477   116364033.578       14618.926          49.000  
  22382479.117   117620721.289       -3615.832          49.000  
  21680356.227   113931039.996        9645.953          49.000  
  22283968.469   117103043.590        8357.586          50.000  
 16  4  2 12 32 56.4000000  0  4G04G16G26G31
  22143061.344   116362571.941       14614.125          49.000  
  22382547.969   117621083.105       -3620.293          49.000  
  21680172.727   113930075.680        9640.906          49.000  
  22283809.484   117102208.125        8351.984          50.000  
 16  4  2 12 32 56.5000000  0  4G04G16G26G31
  22142783.289   116361110.750       14609.750          49.000  
  22382616.906   117621445.375       -3624.785          49.000  
  21679989.312   113929111.852        9636.027          49.000  
  22283650.594   117101373.188        8346.750          50.000  
 16  4  2 12 32 56.6000000  0  4G04G16G26G31
  22142505.328   116359650.035       14604.828          49.000  
  22382685.930   117621808.062       -3629.219          49.000  
  21679806.000   113928148.516        9630.867          49.000  
  22283491.820   117100538.805        8341.023          50.000  
 16  4  2 12 32 56.7000000  0  4G04G16G26G31
  22142227.445   116358189.754       14600.602          49.000  
  22382755.031   117622171.188       -3633.344          49.000  
  21679622.766   113927185.660        9626.258          49.000  
  22283333.141   117099704.945        8335.891          50.000  
 16  4  2 12 32 56.8000000  0  4G04G16G26G31
  22141949.648   116356729.934       14595.887          49.000  
  22382824.211   117622534.738       -3637.750          49.000  
  21679439.633   113926223.285        9621.332          49.000  
  22283174.562   117098871.617        8330.508          50.000  
 16  4  2 12 32 56.9000000  0  4G04G16G26G31
  22141671.945   116355270.602       14591.062          49.000  
  22382893.484   117622898.777       -3642.500          49.000  
  21679256.602   113925261.445        9616.129          49.000  
  22283016.102   117098038.887        8324.734          50.000  
 16  4  2 12 32 57.0000000  0  4G04G16G26G31
  22141394.312   116353811.617       14587.742          49.000  
  22382962.820   117623263.133       -3645.625          49.000  
  21679073.648   113924299.992        9612.297          49.000  
  22282857.711   117097206.570        8320.547          50.000  
 16  4  2 12 32 57.1000000  0  4G04G16G26G31
  22141116.781   116352353.176       14582.023          49.000  
  22383032.250   117623628.004       -3651.117          49.000  
  21678890.789   113923339.094        9606.480          49.000  
  22282699.453   117096374.887        8314.000          50.000  
 16  4  2 12 32 57.2000000  0  4G04G16G26G31
  22140839.328   116350895.152       14578.012          49.000  
  22383101.758   117623993.270       -3654.723          49.000  
  21678708.023   113922378.652        9602.141          49.000  
  22282541.281   117095543.695        8309.266          50.000  
 16  4  2 12 32 57.3000000  0  4G04G16G26G31
  22140561.945   116349437.469       14574.703          49.000  
  22383171.328   117624358.875       -3658.082          49.000  
  21678525.336   113921418.602        9598.312          49.000  
  22282383.195   117094712.945        8304.961          50.000  
 16  4  2 12 32 57.4000000  0  4G04G16G26G31
  22140284.648   116347980.293       14569.652          49.000  
  22383240.992   117624724.957       -3662.836          49.000  
  21678342.750   113920459.078        9593.121          49.000  
  22282225.219   117093882.781        8299.219          50.000  
 16  4  2 12 32 57.5000000  0  4G04G16G26G31
  22140007.445   116346523.551       14565.168          49.000  
  22383310.734   117625091.457       -3667.270          49.000  
  21678160.250   113919500.035        9588.031          49.000  
  22282067.344   117093053.133        8293.773          50.000  
 16  4  2 12 32 57.6000000  0  4G04G16G26G31
  22139730.336   116345067.289       14560.484          49.000  
  22383380.562   117625458.402       -3671.625          49.000  
  21677977.844   113918541.484        9583.141          49.000  
  22281909.570   117092224.043        8288.281          50.000  
 16  4  2 12 32 57.7000000  0  4G04G16G26G31
  22139453.297   116343611.434       14556.289          49.000  
  22383450.461   117625825.750       -3675.688          49.000  
  21677795.523   113917583.387        9578.547          49.000  
  22281751.891   117091395.453        8283.102          50.000  
 16  4  2 12 32 57.8000000  0  4G04G16G26G31
  22139176.336   116342156.008       14552.219          49.000  
  22383520.445   117626193.492       -3679.445          49.000  
  21677613.289   113916625.750        9574.102          49.000  
  22281594.320   117090567.367        8278.414          50.000  
 16  4  2 12 32 57.9000000  0  4G04G16G26G31
  22138899.469   116340701.055       14547.375          49.000  
  22383590.516   117626561.695       -3684.188          49.000  
  21677431.148   113915668.609        9569.117          49.000  
  22281436.844   117089739.840        8272.688          50.000  
 16  4  2 12 32 58.0000000  0  4G04G16G26G31
  22138622.680   116339246.504       14543.293          49.000  
  22383660.648   117626930.285       -3688.023          49.000  
  21677249.102   113914711.922        9564.629          49.000  
  22281279.469   117088912.812        8267.648          50.000  
 16  4  2 12 32 58.1000000  0  4G04G16G26G31
  22138345.984   116337792.422       14538.551          49.000  
  22383730.875   117627299.305       -3692.383          49.000  
  21677067.141   113913755.727        9559.641          49.000  
  22281122.195   117088086.320        8262.238          50.000  
 16  4  2 12 32 58.2000000  0  4G04G16G26G31
  22138069.375   116336338.836       14533.555          49.000  
  22383801.188   117627668.812       -3697.410          49.000  
  21676885.281   113912800.059        9554.227          49.000  
  22280965.031   117087260.418        8256.164          50.000  
 16  4  2 12 32 58.3000000  0  4G04G16G26G31
  22137792.852   116334885.711       14528.930          49.000  
  22383871.586   117628038.766       -3701.734          49.000  
  21676703.516   113911844.891        9549.277          49.000  
  22280807.969   117086435.059        8250.777          50.000  
 16  4  2 12 32 58.4000000  0  4G04G16G26G31
  22137516.414   116333432.992       14525.102          49.000  
  22383942.055   117628409.098       -3705.465          49.000  
  21676521.844   113910890.164        9545.043          49.000  
  22280651.000   117085610.188        8246.121          50.000  
 16  4  2 12 32 58.5000000  0  4G04G16G26G31
  22137240.062   116331980.746       14520.332          49.000  
  22384012.617   117628779.875       -3709.871          49.000  
  21676340.258   113909935.941        9539.941          49.000  
  22280494.141   117084785.875        8240.535          50.000  
 16  4  2 12 32 58.6000000  0  4G04G16G26G31
  22136963.797   116330528.953       14515.590          49.000  
  22384083.258   117629151.090       -3714.414          49.000  
  21676158.766   113908982.195        9534.938          49.000  
  22280337.375   117083962.094        8235.000          50.000  
 16  4  2 12 32 58.7000000  0  4G04G16G26G31
  22136687.609   116329077.574       14511.523          49.000  
  22384153.969   117629522.707       -3718.363          49.000  
  21675977.359   113908028.914        9530.477          49.000  
  22280180.711   117083138.824        8230.008          50.000  
 16  4  2 12 32 58.8000000  0  4G04G16G26G31
  22136411.508   116327626.637       14507.180          49.000  
  22384224.758   117629894.727       -3722.355          49.000  
  21675796.039   113907076.094        9525.906          49.000  
  22280024.148   117082316.066        8224.844          50.000  
 16  4  2 12 32 58.9000000  0  4G04G16G26G31
  22136135.492   116326176.172       14502.359          49.000  
  22384295.641   117630267.211       -3727.008          49.000  
  21675614.820   113906123.785        9520.691          49.000  
  22279867.688   117081493.863        8219.250          50.000  
 16  4  2 12 32 59.0000000  0  4G04G16G26G31
  22135859.570   116324726.152       14497.988          49.000  
  22384366.602   117630640.117       -3731.230          49.000  
  21675433.695   113905171.953        9516.094          49.000  
  22279711.328   117080672.195        8214.121          50.000  
 16  4  2 12 32 59.1000000  0  4G04G16G26G31
  22135583.719   116323276.559       14493.684          49.000  
  22384437.641   117631013.430       -3735.297          49.000  
  21675252.656   113904220.578        9511.445          49.000  
  22279555.070   117079851.043        8208.781          50.000  
 16  4  2 12 32 59.2000000  0  4G04G16G26G31
  22135307.953   116321827.434       14488.953          49.000  
  22384508.766   117631387.184       -3739.789          49.000  
  21675071.711   113903269.711        9506.305          49.000  
  22279398.914   117079030.438        8203.309          50.000  
 16  4  2 12 32 59.3000000  0  4G04G16G26G31
  22135032.289   116320378.781       14484.203          49.000  
  22384579.977   117631761.391       -3744.352          49.000  
  21674890.859   113902319.344        9501.266          49.000  
  22279242.859   117078210.383        8197.754          50.000  
 16  4  2 12 32 59.4000000  0  4G04G16G26G31
  22134756.703   116318930.582       14479.645          49.000  
  22384651.273   117632136.039       -3748.641          49.000  
  21674710.102   113901369.465        9496.469          49.000  
  22279086.906   117077390.863        8192.449          50.000  
 16  4  2 12 32 59.5000000  0  4G04G16G26G31
  22134481.188   116317482.758       14476.094          49.000  
  22384722.633   117632511.039       -3752.078          49.000  
  21674529.430   113900420.004        9492.395          49.000  
  22278931.047   117076571.828        8187.809          50.000  
 16  4  2 12 32 59.6000000  0  4G04G16G26G31
  22134205.766   116316035.465       14470.707          49.000  
  22384794.086   117632886.535       -3757.258          49.000  
  21674348.852   113899471.090        9486.812          49.000  
  22278775.297   117075753.371        8181.766          50.000  
 16  4  2 12 32 59.7000000  0  4G04G16G26G31
  22133930.453   116314588.652       14465.855          49.000  
  22384865.633   117633262.504       -3761.934          49.000  
  21674168.383   113898522.699        9481.605          49.000  
  22278619.664   117074935.508        8175.961          50.000  
 16  4  2 12 32 59.8000000  0  4G04G16G26G31
  22133655.211   116313142.266       14461.441          49.000  
  22384937.250   117633638.867       -3766.035          49.000  
  21673988.000   113897574.766        9476.773          49.000  
  22278464.125   117074118.133        8170.883          50.000  
 16  4  2 12 32 59.9000000  0  4G04G16G26G31
  22133380.047   116311696.273       14457.699          49.000  
  22385008.945   117634015.617       -3769.562          49.000  
  21673807.695   113896627.266        9472.703          49.000  
  22278308.672   117073301.254        8166.129          50.000  
 16  4  2 12 33  0.0000000  0  4G04G16G26G31
  22133104.984   116310250.781       14452.832          49.000  
  22385080.727   117634392.836       -3774.289          49.000  
  21673627.492   113895680.301        9467.445          49.000  
  22278153.336   117072484.953        8160.328          50.000  
 16  4  2 12 33  0.1000000  0  4G04G16G26G31
  22132829.992   116308805.680       14448.715          49.000  
  22385152.578   117634770.430       -3778.148          49.000  
  21673447.367   113894733.754        9463.066          49.000  
  22277998.086   117071669.121        8155.527          50.000  
 16  4  2 12 33  0.2000000  0  4G04G16G26G31
  22132555.102   116307361.105       14443.598          49.000  
  22385224.523   117635148.516       -3782.973          49.000  
  21673267.352   113893787.758        9457.730          49.000  
  22277842.953   117070853.891        8149.723          50.000  
 16  4  2 12 33  0.3000000  0  4G04G16G26G31
  22132280.273   116305916.898       14439.812          49.000  
  22385296.547   117635526.973       -3786.773          49.000  
  21673087.414   113892842.184        9453.414          49.000  
  22277687.906   117070039.137        8144.922          50.000  
 16  4  2 12 33  0.4000000  0  4G04G16G26G31
  22132005.539   116304473.125       14435.574          49.000  
  22385368.633   117635905.816       -3790.508          49.000  
  21672907.562   113891897.059        9449.023          49.000  
  22277532.961   117069224.879        8139.980          50.000  
 16  4  2 12 33  0.5000000  0  4G04G16G26G31
  22131730.883   116303029.805       14430.961          49.000  
  22385440.812   117636285.098       -3794.887          49.000  
  21672727.812   113890952.414        9444.199          49.000  
  22277378.117   117068411.160        8134.543          50.000  
 16  4  2 12 33  0.6000000  0  4G04G16G26G31
  22131456.320   116301586.945       14426.406          49.000  
  22385513.070   117636664.824       -3799.340          49.000  
  21672548.148   113890008.281        9438.988          49.000  
  22277223.375   117067598.000        8128.980          50.000  
 16  4  2 12 33  0.7000000  0  4G04G16G26G31
  22131181.836   116300144.504       14422.168          49.000  
  22385585.406   117637044.953       -3803.551          49.000  
  21672368.562   113889064.598        9434.492          49.000  
  22277068.727   117066785.332        8123.926          50.000  
 16  4  2 12 33  0.8000000  0  4G04G16G26G31
  22130907.438   116298702.559       14417.094          49.000  
  22385657.828   117637425.551       -3808.336          49.000  
  21672189.094   113888121.445        9428.949          49.000  
  22276914.195   117065973.254        8117.984          50.000  
 16  4  2 12 33  0.9000000  0  4G04G16G26G31
  22130633.133   116297261.094       14412.520          49.000  
  22385730.336   117637806.594       -3812.480          49.000  
  21672009.711   113887178.793        9424.281          49.000  
  22276759.766   117065161.719        8112.773          50.000  
 16  4  2 12 33  1.0000000  0  4G04G16G26G31
  22130358.914   116295820.004       14408.465          49.000  
  22385802.914   117638187.996       -3816.332          49.000  
  21671830.406   113886236.543        9420.008          49.000  
  22276605.422   117064350.645        8107.891          50.000  
 16  4  2 12 33  1.1000000  0  4G04G16G26G31
  22130084.766   116294379.363       14404.344          49.000  
  22385875.578   117638569.840       -3820.379          49.000  
  21671651.195   113885294.797        9415.367          49.000  
  22276451.180   117063540.117        8102.859          50.000  
 16  4  2 12 33  1.2000000  0  4G04G16G26G31
  22129810.703   116292939.168       14399.547          49.000  
  22385948.320   117638952.105       -3824.918          49.000  
  21671472.078   113884353.527        9410.191          49.000  
  22276297.047   117062730.113        8097.219          50.000  
 16  4  2 12 33  1.3000000  0  4G04G16G26G31
  22129536.742   116291499.465       14394.832          49.000  
  22386021.156   117639334.832       -3829.441          49.000  
  21671293.062   113883412.773        9405.223          49.000  
  22276143.016   117061920.695        8091.539          50.000  
 16  4  2 12 33  1.4000000  0  4G04G16G26G31
  22129262.859   116290060.219       14390.246          49.000  
  22386094.062   117639718.000       -3833.762          49.000  
  21671114.141   113882472.531        9400.086          49.000  
  22275989.086   117061111.805        8086.238          50.000  
 16  4  2 12 33  1.5000000  0  4G04G16G26G31
  22128989.062   116288621.375       14386.445          49.000  
  22386167.047   117640101.539       -3837.531          49.000  
  21670935.297   113881532.695        9395.938          49.000  
  22275835.258   117060303.398        8081.441          50.000  
 16  4  2 12 33  1.6000000  0  4G04G16G26G31
  22128715.352   116287183.008       14381.664          49.000  
  22386240.125   117640485.535       -3841.988          49.000  
  21670756.547   113880593.355        9391.203          49.000  
  22275681.531   117059495.551        8076.035          50.000  
 16  4  2 12 33  1.7000000  0  4G04G16G26G31
  22128441.711   116285745.035       14377.398          49.000  
  22386313.266   117640869.902       -3845.828          49.000  
  21670577.875   113879654.465        9386.746          49.000  
  22275527.891   117058688.188        8070.922          50.000  
 16  4  2 12 33  1.8000000  0  4G04G16G26G31
  22128168.172   116284307.570       14372.309          49.000  
  22386386.500   117641254.770       -3850.996          49.000  
  21670399.320   113878716.141        9380.797          49.000  
  22275374.367   117057881.422        8064.836          50.000  
 16  4  2 12 33  1.9000000  0  4G04G16G26G31
  22127894.719   116282870.562       14367.773          49.000  
  22386459.820   117641640.047       -3854.945          49.000  
  21670220.852   113877778.273        9376.262          49.000  
  22275220.945   117057075.176        8059.742          50.000  
 16  4  2 12 33  2.0000000  0  4G04G16G26G31
  22127621.336   116281433.965       14363.598          49.000  
  22386533.211   117642025.738       -3859.195          49.000  
  21670042.469   113876840.867        9371.574          49.000  
  22275067.617   117056269.445        8054.406          50.000  
 16  4  2 12 33  2.1000000  0  4G04G16G26G31
  22127348.039   116279997.797       14359.652          49.000  
  22386606.680   117642411.820       -3862.785          49.000  
  21669864.172   113875903.910        9367.359          49.000  
  22274914.391   117055464.207        8049.949          50.000  
 16  4  2 12 33  2.2000000  0  4G04G16G26G31
  22127074.828   116278562.062       14355.223          49.000  
  22386680.234   117642798.320       -3867.012          49.000  
  21669685.961   113874967.418        9362.715          49.000  
  22274761.258   117054659.500        8044.570          50.000  
 16  4  2 12 33  2.3000000  0  4G04G16G26G31
  22126801.703   116277126.805       14350.348          49.000  
  22386753.867   117643185.277       -3871.758          49.000  
  21669507.852   113874031.438        9357.555          49.000  
  22274608.234   117053855.352        8038.980          50.000  
 16  4  2 12 33  2.4000000  0  4G04G16G26G31
  22126528.664   116275691.945       14346.301          49.000  
  22386827.570   117643572.613       -3875.531          49.000  
  21669329.828   113873095.918        9352.934          49.000  
  22274455.305   117053051.695        8033.926          50.000  
 16  4  2 12 33  2.5000000  0  4G04G16G26G31
  22126255.703   116274257.539       14342.117          49.000  
  22386901.359   117643960.367       -3879.574          49.000  
  21669151.891   113872160.852        9348.340          49.000  
  22274302.477   117052248.559        8028.797          50.000  
 16  4  2 12 33  2.6000000  0  4G04G16G26G31
  22125982.844   116272823.660       14336.180          49.000  
  22386975.242   117644348.625       -3885.012          49.000  
  21668974.062   113871226.332        9342.617          49.000  
  22274149.766   117051446.023        8022.371          50.000  
 16  4  2 12 33  2.7000000  0  4G04G16G26G31
  22125710.078   116271390.230       14332.133          49.000  
  22387049.211   117644737.332       -3889.090          49.000  
  21668796.328   113870292.340        9337.820          49.000  
  22273997.148   117050644.051        8017.180          50.000  
 16  4  2 12 33  2.8000000  0  4G04G16G26G31
  22125437.367   116269957.121       14328.961          49.000  
  22387123.234   117645126.320       -3892.098          49.000  
  21668618.656   113869358.680        9334.215          49.000  
  22273844.617   117049842.469        8013.109          50.000  
 16  4  2 12 33  2.9000000  0  4G04G16G26G31
  22125164.758   116268524.539       14323.723          49.000  
  22387197.352   117645515.816       -3897.043          49.000  
  21668441.094   113868425.562        9329.016          49.000  
  22273692.195   117049041.477        8007.363          50.000  
 16  4  2 12 33  3.0000000  0  4G04G16G26G31
  22124892.234   116267092.438       14318.516          49.000  
  22387271.555   117645905.766       -3901.930          49.000  
  21668263.633   113867492.988        9323.270          49.000  
  22273539.883   117048241.074        8001.191          50.000  
 16  4  2 12 33  3.1000000  0  4G04G16G26G31
  22124619.797   116265660.797       14314.230          49.000  
  22387345.844   117646296.152       -3905.949          49.000  
  21668086.258   113866560.887        9318.676          49.000  
  22273387.672   117047441.207        7996.051          50.000  
 16  4  2 12 33  3.2000000  0  4G04G16G26G31
  22124347.453   116264229.551       14310.246          49.000  
  22387420.211   117646686.926       -3909.871          49.000  
  21667908.969   113865629.230        9314.215          49.000  
  22273235.555   117046641.816        7991.141          50.000  
 16  4  2 12 33  3.3000000  0  4G04G16G26G31
  22124075.188   116262798.797       14305.383          49.000  
  22387494.656   117647078.148       -3914.320          49.000  
  21667731.773   113864698.078        9309.234          49.000  
  22273083.539   117045843.000        7985.555          50.000  
 16  4  2 12 33  3.4000000  0  4G04G16G26G31
  22123802.992   116261368.418       14301.637          49.000  
  22387569.172   117647469.742       -3917.941          49.000  
  21667554.664   113863767.348        9305.055          49.000  
  22272931.625   117045044.641        7981.000          50.000  
 16  4  2 12 33  3.5000000  0  4G04G16G26G31
  22123530.883   116259938.477       14297.180          49.000  
  22387643.773   117647861.750       -3922.238          49.000  
  21667377.641   113862837.094        9300.211          49.000  
  22272779.805   117044246.816        7975.660          50.000  
 16  4  2 12 33  3.6000000  0  4G04G16G26G31
  22123258.867   116258509.066       14291.926          49.000  
  22387718.461   117648254.250       -3927.121          49.000  
  21667200.727   113861907.375        9294.871          49.000  
  22272628.094   117043449.578        7969.660          50.000  
 16  4  2 12 33  3.7000000  0  4G04G16G26G31
  22122986.945   116257080.070       14287.590          49.000  
  22387793.227   117648647.148       -3931.312          49.000  
  21667023.891   113860978.125        9290.020          49.000  
  22272476.484   117042652.855        7964.422          50.000  
 16  4  2 12 33  3.8000000  0  4G04G16G26G31
  22122715.094   116255651.504       14283.410          49.000  
  22387868.070   117649040.469       -3935.371          49.000  
  21666847.156   113860049.348        9285.523          49.000  
  22272324.969   117041856.652        7959.387          50.000  
 16  4  2 12 33  3.9000000  0  4G04G16G26G31
  22122443.336   116254223.406       14278.754          49.000  
  22387943.000   117649434.219       -3939.723          49.000  
  21666670.508   113859121.062        9280.500          49.000  
  22272173.562   117041060.996        7953.895          50.000  
 16  4  2 12 33  4.0000000  0  4G04G16G26G31
  22122171.664   116252795.793       14273.961          49.000  
  22388018.016   117649828.430       -3944.273          49.000  
  21666493.961   113858193.289        9275.414          49.000  
  22272022.258   117040265.902        7948.246          50.000  
 16  4  2 12 33  4.1000000  0  4G04G16G26G31
  22121900.078   116251368.570       14269.918          49.000  
  22388093.102   117650223.016       -3948.051          49.000  
  21666317.492   113857265.934        9271.180          49.000  
  22271871.047   117039471.273        7943.531          50.000  
 16  4  2 12 33  4.2000000  0  4G04G16G26G31
  22121628.562   116249941.832       14265.141          49.000  
  22388168.273   117650618.059       -3952.590          49.000  
  21666141.125   113856339.109        9265.949          49.000  
  22271719.945   117038677.230        7937.832          50.000  
 16  4  2 12 33  4.3000000  0  4G04G16G26G31
  22121357.148   116248515.512       14260.941          49.000  
  22388243.523   117651013.496       -3956.523          49.000  
  21665964.844   113855412.730        9261.457          49.000  
  22271568.938   117037883.676        7932.836          50.000  
 16  4  2 12 33  4.4000000  0  4G04G16G26G31
  22121085.805   116247089.637       14256.590          49.000  
  22388318.852   117651409.363       -3960.734          49.000  
  21665788.648   113854486.824        9256.805          49.000  
  22271418.031   117037090.656        7927.566          50.000  
 16  4  2 12 33  4.5000000  0  4G04G16G26G31
  22120814.555   116245664.191       14252.418          49.000  
  22388394.266   117651805.633       -3964.648          49.000  
  21665612.547   113853561.398        9252.129          49.000  
  22271267.219   117036298.148        7922.617          50.000  
 16  4  2 12 33  4.6000000  0  4G04G16G26G31
  22120543.391   116244239.199       14247.711          49.000  
  22388469.750   117652202.328       -3969.070          49.000  
  21665436.531   113852636.438        9247.230          49.000  
  22271116.508   117035506.164        7917.219          50.000  
 16  4  2 12 33  4.7000000  0  4G04G16G26G31
  22120272.305   116242814.656       14243.281          49.000  
  22388545.320   117652599.457       -3973.340          49.000  
  21665260.609   113851711.977        9242.336          49.000  
  22270965.898   117034714.730        7911.816          50.000  
 16  4  2 12 33  4.8000000  0  4G04G16G26G31
  22120001.305   116241390.523       14239.094          49.000  
  22388620.961   117652996.965       -3977.355          49.000  
  21665084.773   113850787.941        9237.938          49.000  
  22270815.391   117033923.777        7906.805          50.000  
 16  4  2 12 33  4.9000000  0  4G04G16G26G31
  22119730.391   116239966.867       14234.316          49.000  
  22388696.695   117653394.930       -3981.734          49.000  
  21664909.031   113849864.422        9232.977          49.000  
  22270664.984   117033133.391        7901.234          50.000  
 16  4  2 12 33  5.0000000  0  4G04G16G26G31
  22119459.555   116238543.645       14230.004          49.000  
  22388772.500   117653793.312       -3986.062          49.000  
  21664733.383   113848941.375        9228.129          49.000  
  22270514.672   117032343.516        7896.027          50.000  
 16  4  2 12 33  5.1000000  0  4G04G16G26G31
  22119188.812   116237120.859       14225.656          49.000  
  22388848.391   117654192.102       -3990.055          49.000  
  21664557.820   113848018.789        9223.586          49.000  
  22270364.469   117031554.168        7890.867          50.000  
 16  4  2 12 33  5.2000000  0  4G04G16G26G31
  22118918.148   116235698.562       14220.734          49.000  
  22388924.367   117654591.348       -3994.668          49.000  
  21664382.352   113847096.723        9218.328          49.000  
  22270214.367   117030765.375        7885.195          50.000  
 16  4  2 12 33  5.3000000  0  4G04G16G26G31
  22118647.555   116234276.582       14217.656          49.000  
  22389000.398   117654990.898       -3997.535          49.000  
  21664206.961   113846175.016        9214.816          49.000  
  22270064.344   117029977.000        7881.211          50.000  
 16  4  2 12 33  5.4000000  0  4G04G16G26G31
  22118377.070   116232855.160       14211.961          49.000  
  22389076.531   117655390.980       -4002.980          49.000  
  21664031.680   113845253.902        9208.785          49.000  
  22269914.438   117029189.254        7874.758          50.000  
 16  4  2 12 33  5.5000000  0  4G04G16G26G31
  22118106.672   116231434.188       14207.582          49.000  
  22389152.742   117655791.492       -4007.223          49.000  
  21663856.484   113844333.258        9204.203          49.000  
  22269764.641   117028402.047        7869.574          50.000  
 16  4  2 12 33  5.6000000  0  4G04G16G26G31
  22117836.336   116230013.598       14203.641          49.000  
  22389229.031   117656192.359       -4010.891          49.000  
  21663681.375   113843413.039        9199.812          49.000  
  22269614.930   117027615.301        7864.742          50.000  
 16  4  2 12 33  5.7000000  0  4G04G16G26G31
  22117566.094   116228593.461       14199.094          49.000  
  22389305.391   117656593.664       -4015.277          49.000  
  21663506.352   113842493.305        9194.969          49.000  
  22269465.320   117026829.098        7859.359          50.000  
 16  4  2 12 33  5.8000000  0  4G04G16G26G31
  22117295.938   116227173.793       14194.523          49.000  
  22389381.844   117656995.406       -4019.438          49.000  
  21663331.422   113841574.070        9190.121          49.000  
  22269315.812   117026043.445        7853.922          50.000  
 16  4  2 12 33  5.9000000  0  4G04G16G26G31
  22117025.859   116225754.531       14190.301          49.000  
  22389458.359   117657397.535       -4023.473          49.000  
  21663156.586   113840655.277        9185.652          49.000  
  22269166.398   117025258.277        7849.000          50.000  
 16  4  2 12 33  6.0000000  0  4G04G16G26G31
  22116755.883   116224335.770       14185.418          49.000  
  22389534.969   117657800.129       -4028.090          49.000  
  21662981.844   113839737.000        9180.484          49.000  
  22269017.094   117024473.680        7843.324          50.000  
 16  4  2 12 33  6.1000000  0  4G04G16G26G31
  22116485.984   116222917.469       14180.633          49.000  
  22389611.672   117658203.172       -4032.750          49.000  
  21662807.203   113838819.246        9175.094          49.000  
  22268867.898   117023689.648        7837.520          50.000  
 16  4  2 12 33  6.2000000  0  4G04G16G26G31
  22116216.180   116221499.637       14176.086          49.000  
  22389688.453   117658606.656       -4036.938          49.000  
  21662632.648   113837901.965        9170.543          49.000  
  22268718.805   117022906.156        7832.234          50.000  
 16  4  2 12 33  6.3000000  0  4G04G16G26G31
  22115946.453   116220082.219       14171.773          49.000  
  22389765.305   117659010.535       -4041.066          49.000  
  21662458.188   113836985.148        9165.715          49.000  
  22268569.812   117022123.160        7827.141          50.000  
 16  4  2 12 33  6.4000000  0  4G04G16G26G31
  22115676.812   116218665.242       14167.500          49.000  
  22389842.242   117659414.828       -4045.082          49.000  
  21662283.805   113836068.801        9161.164          49.000  
  22268420.906   117021340.691        7822.047          50.000  
 16  4  2 12 33  6.5000000  0  4G04G16G26G31
  22115407.258   116217248.746       14162.699          49.000  
  22389919.258   117659819.574       -4049.758          49.000  
  21662109.531   113835152.969        9155.922          49.000  
  22268272.117   117020558.789        7816.289          50.000  
 16  4  2 12 33  6.6000000  0  4G04G16G26G31
  22115137.789   116215832.688       14158.516          49.000  
  22389996.359   117660224.746       -4053.652          49.000  
  21661935.344   113834237.605        9151.480          49.000  
  22268123.422   117019777.402        7811.363          50.000  
 16  4  2 12 33  6.7000000  0  4G04G16G26G31
  22114868.398   116214417.031       14154.316          49.000  
  22390073.531   117660630.289       -4057.637          49.000  
  21661761.234   113833322.672        9147.031          49.000  
  22267974.820   117018996.496        7806.309          50.000  
 16  4  2 12 33  6.8000000  0  4G04G16G26G31
  22114599.102   116213001.895       14149.262          49.000  
  22390150.797   117661036.328       -4062.516          49.000  
  21661587.234   113832408.305        9141.406          49.000  
  22267826.336   117018216.195        7800.473          50.000  
 16  4  2 12 33  6.9000000  0  4G04G16G26G31
  22114329.891   116211587.160       14145.129          49.000  
  22390228.133   117661442.742       -4066.332          49.000  
  21661413.320   113831494.348        9137.297          49.000  
  22267677.945   117017436.383        7795.484          50.000  
 16  4  2 12 33  7.0000000  0  4G04G16G26G31
  22114060.750   116210172.852       14140.980          49.000  
  22390305.555   117661849.562       -4070.309          49.000  
  21661239.492   113830580.875        9132.562          49.000  
  22267529.648   117016657.078        7790.430          50.000  
 16  4  2 12 33  7.1000000  0  4G04G16G26G31
  22113791.711   116208759.016       14136.238          49.000  
  22390383.055   117662256.836       -4074.844          49.000  
  21661065.758   113829667.898        9127.410          49.000  
  22267381.453   117015878.332        7784.828          50.000  
 16  4  2 12 33  7.2000000  0  4G04G16G26G31
  22113522.750   116207345.621       14131.676          49.000  
  22390460.633   117662664.508       -4078.930          49.000  
  21660892.109   113828755.391        9122.754          49.000  
  22267233.359   117015100.094        7779.621          50.000  
 16  4  2 12 33  7.3000000  0  4G04G16G26G31
  22113253.875   116205932.699       14126.883          49.000  
  22390538.297   117663072.648       -4083.641          49.000  
  21660718.562   113827843.387        9117.688          49.000  
  22267085.375   117014322.426        7773.996          50.000  
 16  4  2 12 33  7.4000000  0  4G04G16G26G31
  22112985.078   116204520.199       14122.719          49.000  
  22390616.039   117663481.168       -4087.348          49.000  
  21660545.102   113826931.844        9113.113          49.000  
  22266937.484   117013545.254        7769.031          50.000  
 16  4  2 12 33  7.5000000  0  4G04G16G26G31
  22112716.367   116203108.105       14118.691          49.000  
  22390693.852   117663890.098       -4091.449          49.000  
  21660371.719   113826020.738        9108.816          49.000  
  22266789.688   117012768.586        7764.004          50.000  
 16  4  2 12 33  7.6000000  0  4G04G16G26G31
  22112447.750   116201696.492       14113.996          49.000  
  22390771.750   117664299.457       -4095.652          49.000  
  21660198.445   113825110.148        9103.719          49.000  
  22266642.000   117011992.461        7758.609          50.000  
 16  4  2 12 33  7.7000000  0  4G04G16G26G31
  22112179.211   116200285.309       14109.594          49.000  
  22390849.727   117664709.238       -4100.004          49.000  
  21660025.250   113824200.012        9098.969          49.000  
  22266494.406   117011216.855        7753.355          50.000  
 16  4  2 12 33  7.8000000  0  4G04G16G26G31
  22111910.758   116198874.586       14105.051          49.000  
  22390927.789   117665119.453       -4104.324          49.000  
  21659852.148   113823290.383        9094.105          49.000  
  22266346.914   117010441.793        7747.969          50.000  
 16  4  2 12 33  7.9000000  0  4G04G16G26G31
  22111642.398   116197464.332       14100.195          49.000  
  22391005.938   117665530.109       -4108.848          49.000  
  21659679.148   113822381.250        9088.941          49.000  
  22266199.531   117009667.289        7742.355          50.000  
 16  4  2 12 33  8.0000000  0  4G04G16G26G31
  22111374.109   116196054.508       14095.973          49.000  
  22391084.156   117665941.172       -4112.820          49.000  
  21659506.227   113821472.566        9084.488          49.000  
  22266052.242   117008893.285        7737.383          50.000  
 16  4  2 12 33  8.1000000  0  4G04G16G26G31
  22111105.930   116194645.180       14091.000          49.000  
  22391162.469   117666352.707       -4117.523          49.000  
  21659333.414   113820564.434        9079.027          49.000  
  22265905.070   117008119.867        7731.422          50.000  
 16  4  2 12 33  8.2000000  0  4G04G16G26G31
  22110837.820   116193236.258       14087.051          49.000  
  22391240.852   117666764.621       -4121.340          49.000  
  21659160.688   113819656.727        9074.703          49.000  
  22265757.984   117007346.941        7726.590          50.000  
 16  4  2 12 33  8.3000000  0  4G04G16G26G31
  22110569.789   116191827.727       14083.172          49.000  
  22391319.305   117667176.895       -4124.836          49.000  
  21658988.031   113818749.441        9070.570          49.000  
  22265610.992   117006574.477        7722.047          50.000  
 16  4  2 12 33  8.4000000  0  4G04G16G26G31
  22110301.852   116190419.730       14077.809          49.000  
  22391397.859   117667589.695       -4130.188          49.000  
  21658815.492   113817842.730        9064.797          49.000  
  22265464.117   117005802.645        7715.656          50.000  
 16  4  2 12 33  8.5000000  0  4G04G16G26G31
  22110034.000   116189012.172       14073.473          49.000  
  22391476.492   117668002.902       -4134.129          49.000  
  21658643.039   113816936.484        9060.078          49.000  
  22265317.336   117005031.320        7710.598          50.000  
 16  4  2 12 33  8.6000000  0  4G04G16G26G31
  22109766.242   116187605.082       14068.406          49.000  
  22391555.203   117668416.547       -4138.852          49.000  
  21658470.680   113816030.746        9054.797          49.000  
  22265170.664   117004260.547        7704.828          50.000  
 16  4  2 12 33  8.7000000  0  4G04G16G26G31
  22109498.570   116186198.449       14064.172          49.000  
  22391634.008   117668830.637       -4142.988          49.000  
  21658298.414   113815125.488        9050.195          49.000  
  22265024.094   117003490.316        7699.633          50.000  
 16  4  2 12 33  8.8000000  0  4G04G16G26G31
  22109230.977   116184792.223       14060.070          49.000  
  22391712.875   117669245.098       -4146.742          49.000  
  21658126.234   113814220.668        9045.891          49.000  
  22264877.617   117002720.574        7694.805          50.000  
 16  4  2 12 33  8.9000000  0  4G04G16G26G31
  22108963.461   116183386.418       14055.789          49.000  
  22391791.820   117669659.957       -4150.746          49.000  
  21657954.141   113813316.309        9041.246          49.000  
  22264731.234   117001951.332        7689.730          50.000  
 16  4  2 12 33  9.0000000  0  4G04G16G26G31
  22108696.039   116181981.082       14051.199          49.000  
  22391870.852   117670075.262       -4155.152          49.000  
  21657782.141   113812412.449        9036.363          49.000  
  22264584.961   117001182.652        7684.219          50.000  
 16  4  2 12 33  9.1000000  0  4G04G16G26G31
  22108428.695   116180576.172       14047.039          49.000  
  22391949.961   117670490.973       -4159.078          49.000  
  21657610.234   113811509.051        9031.742          49.000  
  22264438.781   117000414.469        7679.301          50.000  
 16  4  2 12 33  9.2000000  0  4G04G16G26G31
  22108161.422   116179171.688       14042.570          49.000  
  22392029.141   117670907.082       -4163.273          49.000  
  21657438.406   113810606.094        9027.266          49.000  
  22264292.688   116999646.789        7674.152          50.000  
 16  4  2 12 33  9.3000000  0  4G04G16G26G31
  22107894.242   116177767.648       14038.145          49.000  
  22392108.406   117671323.602       -4167.340          49.000  
  21657266.672   113809703.633        9022.332          49.000  
  22264146.711   116998879.645        7668.871          50.000  
 16  4  2 12 33  9.4000000  0  4G04G16G26G31
  22107627.172   116176364.113       14033.129          49.000  
  22392187.758   117671740.617       -4172.258          49.000  
  21657095.047   113808801.711        9016.852          49.000  
  22264000.836   116998113.098        7662.793          50.000  
 16  4  2 12 33  9.5000000  0  4G04G16G26G31
  22107360.156   116174960.965       14029.398          49.000  
  22392267.180   117672157.992       -4175.816          49.000  
  21656923.492   113807900.207        9012.773          49.000  
  22263855.055   116997347.004        7658.289          50.000  
 16  4  2 12 33  9.6000000  0  4G04G16G26G31
  22107093.227   116173558.277       14024.617          49.000  
  22392346.688   117672575.801       -4180.301          49.000  
  21656752.039   113806999.188        9007.828          49.000  
  22263709.383   116996581.465        7652.695          50.000  
 16  4  2 12 33  9.7000000  0  4G04G16G26G31
  22106826.398   116172156.082       14019.520          49.000  
  22392426.281   117672994.059       -4184.871          49.000  
  21656580.672   113806098.676        9002.703          49.000  
  22263563.812   116995816.477        7647.039          50.000  
 16  4  2 12 33  9.8000000  0  4G04G16G26G31
  22106559.656   116170754.348       14014.922          49.000  
  22392505.953   117673412.773       -4189.461          49.000  
  21656409.414   113805198.688        8997.527          49.000  
  22263418.344   116995052.055        7641.422          50.000  
 16  4  2 12 33  9.9000000  0  4G04G16G26G31
  22106293.000   116169353.070       14010.438          49.000  
  22392585.719   117673831.922       -4193.723          49.000  
  21656238.242   113804299.180        8992.633          49.000  
  22263272.977   116994288.156        7636.234          50.000  
 16  4  2 12 33 10.0000000  0  4G04G16G26G31
  22106026.414   116167952.176       14006.844          49.000  
  22392665.547   117674251.418       -4197.043          49.000  
  21656067.148   113803400.082        8988.809          49.000  
  22263127.703   116993524.734        7631.816          50.000  
 16  4  2 12 33 10.1000000  0  4G04G16G26G31
  22105759.906   116166551.664       14002.852          49.000  
  22392745.438   117674671.270       -4200.730          49.000  
  21655896.133   113802501.402        8984.469          49.000  
  22262982.516   116992761.773        7626.891          50.000  
 16  4  2 12 33 10.2000000  0  4G04G16G26G31
  22105493.492   116165151.680       13997.816          49.000  
  22392825.430   117675091.641       -4205.715          49.000  
  21655725.227   113801603.289        8978.891          49.000  
  22262837.445   116991999.430        7620.980          50.000  
 16  4  2 12 33 10.3000000  0  4G04G16G26G31
  22105227.164   116163752.117       13993.375          49.000  
  22392905.500   117675512.383       -4209.723          49.000  
  21655554.414   113800705.625        8974.203          49.000  
  22262692.469   116991237.574        7615.785          50.000  
 16  4  2 12 33 10.4000000  0  4G04G16G26G31
  22104960.914   116162352.961       13989.367          49.000  
  22392985.641   117675933.520       -4213.434          49.000  
  21655383.672   113799808.391        8970.023          49.000  
  22262547.586   116990476.203        7611.074          50.000  
 16  4  2 12 33 10.5000000  0  4G04G16G26G31
  22104694.758   116160954.301       13984.461          49.000  
  22393065.867   117676355.117       -4217.895          49.000  
  21655213.039   113798911.688        8964.844          49.000  
  22262402.820   116989715.430        7605.352          50.000  
 16  4  2 12 33 10.6000000  0  4G04G16G26G31
  22104428.688   116159556.082       13979.875          49.000  
  22393146.180   117676777.160       -4222.574          49.000  
  21655042.492   113798015.473        8959.781          49.000  
  22262258.141   116988955.180        7599.703          50.000  
 16  4  2 12 33 10.7000000  0  4G04G16G26G31
  22104162.703   116158158.324       13975.340          49.000  
  22393226.570   117677199.617       -4226.773          49.000  
  21654872.039   113797119.742        8954.918          49.000  
  22262113.570   116988195.461        7594.457          50.000  
 16  4  2 12 33 10.8000000  0  4G04G16G26G31
  22103896.797   116156760.984       13971.316          49.000  
  22393307.039   117677622.469       -4230.512          49.000  
  21654701.672   113796224.457        8950.625          49.000  
  22261969.094   116987436.242        7589.707          50.000  
 16  4  2 12 33 10.9000000  0  4G04G16G26G31
  22103630.977   116155364.094       13966.527          49.000  
  22393387.586   117678045.742       -4235.020          49.000  
  21654531.398   113795329.656        8945.590          49.000  
  22261824.727   116986677.555        7584.121          50.000  
 16  4  2 12 33 11.0000000  0  4G04G16G26G31
  22103365.242   116153967.633       13962.543          49.000  
  22393468.203   117678469.434       -4238.871          49.000  
  21654361.211   113794435.320        8941.141          49.000  
  22261680.453   116985919.395        7579.086          50.000  
 16  4  2 12 33 11.1000000  0  4G04G16G26G31
  22103099.586   116152571.582       13958.223          49.000  
  22393548.898   117678893.488       -4242.812          49.000  
  21654191.109   113793541.426        8936.602          49.000  
  22261536.266   116985161.699        7574.227          50.000  
 16  4  2 12 33 11.2000000  0  4G04G16G26G31
  22102834.016   116151175.973       13953.840          49.000  
  22393629.680   117679317.980       -4247.051          49.000  
  21654021.094   113792648.016        8931.688          49.000  
  22261392.188   116984404.555        7568.832          50.000  
 16  4  2 12 33 11.3000000  0  4G04G16G26G31
  22102568.523   116149780.816       13949.457          49.000  
  22393710.539   117679742.883       -4251.188          49.000  
  21653851.172   113791755.070        8927.098          49.000  
  22261248.203   116983647.918        7563.703          50.000  
 16  4  2 12 33 11.4000000  0  4G04G16G26G31
  22102303.125   116148386.109       13944.781          49.000  
  22393791.477   117680168.219       -4255.473          49.000  
  21653681.344   113790862.617        8922.258          49.000  
  22261104.328   116982891.836        7558.137          50.000  
 16  4  2 12 33 11.5000000  0  4G04G16G26G31
  22102037.812   116146991.914       13939.773          49.000  
  22393872.500   117680594.035       -4260.305          49.000  
  21653511.617   113789970.699        8916.871          49.000  
  22260960.555   116982136.328        7552.418          50.000  
