     2.10           OBSERVATION DATA    G (GPS)             RINEX VERSION / TYPE
Convert v1.8.0                          09-Jun-2016 14:21   PGM / RUN BY / DATE 
Signal Strength values S1,S2 are in dBHz                    COMMENT             
                                                            MARKER NAME         
                                                            MARKER NUMBER       
                                                            OBSERVER / AGENCY   
                    NovAtel GPSCard                         REC # / TYPE / VERS 
                                                            ANT # / TYPE        
0.0000        0.0000        0.0000                          APPROX POSITION XYZ 
        0.0000        0.0000        0.0000                  ANTENNA: DELTA H/E/N
     1     0                                                WAVELENGTH FACT L1/2
     1     0     2   G04   G23                              WAVELENGTH FACT L1/2
                                                            COMMENT             
                                                            COMMENT             
                                                            COMMENT             
                                                            COMMENT             
                                                            COMMENT             
                                                            COMMENT             
     4    C1    L1    D1    S1                              # / TYPES OF OBSERV 
     0.100                                                  INTERVAL            
  2016    04    02    12    40    36.8000000    GPS         TIME OF FIRST OBS   
  2016    04    02    12    42     2.3000000    GPS         TIME OF LAST OBS    
Leap Seconds Unknown                                        COMMENT             
                                                            END OF HEADER       
 16 04 02 12 40 36.8000000  0  1G04                                             
  21383803.26649 112372644.10559     -7627.94549        50.000  
 16 04 02 12 40 36.9000000  0  1G04                                             
  21383948.47749 112373407.21149     -7633.20349        50.000  
 16 04 02 12 40 37.0000000  0  2G04G23                                          
  21384093.78149 112374170.76249     -7637.83649        50.000  
  22523787.18849 118363300.46959      2245.22749        50.000  
 16 04 02 12 40 37.1000000  0  2G04G23                                          
  21384239.16449 112374934.73449     -7641.86349        50.000  
  22523744.50049 118363076.16849      2240.16049        50.000  
 16 04 02 12 40 37.2000000  0  2G04G23                                          
  21384384.64149 112375699.25849     -7647.51649        50.000  
  22523701.94549 118362852.52049      2233.44949        50.000  
 16 04 02 12 40 37.3000000  0  2G04G23                                          
  21384530.22749 112376464.30549     -7652.91849        50.000  
  22523659.50849 118362629.51649      2226.89549        50.000  
 16 04 02 12 40 37.4000000  0  2G04G23                                          
  21384675.92249 112377229.89549     -7658.41449        50.000  
  22523617.17249 118362407.14849      2220.44149        50.000  
 16 04 02 12 40 37.5000000  0  2G04G23                                          
  21384821.71149 112377996.01649     -7663.65249        50.000  
  22523574.98449 118362185.41849      2214.05949        50.000  
 16 04 02 12 40 37.6000000  0  2G04G23                                          
  21384967.59449 112378762.59849     -7668.20749        50.000  
  22523532.87549 118361964.26649      2208.36749        50.000  
 16 04 02 12 40 37.7000000  0  2G04G23                                          
  21385113.56249 112379529.67649     -7673.02749        50.000  
  22523490.89849 118361743.70749      2202.56249        50.000  
 16 04 02 12 40 37.8000000  0  2G04G23                                          
  21385259.64149 112380297.32849     -7678.80149        50.000  
  22523449.05549 118361523.82049      2195.74249        50.000  
 16 04 02 12 40 37.9000000  0  2G04G23                                          
  21385405.80549 112381065.40649     -7683.20749        50.000  
  22523407.32049 118361304.48449      2190.24249        50.000  
 16 04 02 12 40 38.0000000  0  2G04G23                                          
  21385552.08649 112381834.04349     -7688.64849        50.000  
  22523365.71949 118361085.80149      2183.76249        50.000  
 16 04 02 12 40 38.1000000  0  2G04G23                                          
  21385698.44549 112382603.18449     -7693.88749        50.000  
  22523324.21949 118360867.73049      2177.46149        50.000  
 16 04 02 12 40 38.2000000  0  2G04G23                                          
  21385844.91449 112383372.78549     -7698.39149        50.000  
  22523282.81249 118360650.22349      2172.03949        50.000  
 16 04 02 12 40 38.3000000  0  2G04G23                                          
  21385991.47749 112384142.98049     -7704.45349        50.000  
  22523241.55549 118360433.41849      2164.80149        50.000  
 16 04 02 12 40 38.4000000  0  2G04G23                                          
  21386138.14149 112384913.71149     -7709.79349        50.000  
  22523200.40649 118360217.26649      2158.38349        50.000  
 16 04 02 12 40 38.5000000  0  2G04G23                                          
  21386284.89149 112385684.89549     -7714.32849        50.000  
  22523159.38349 118360001.66049      2152.81649        50.000  
 16 04 02 12 40 38.6000000  0  2G04G23                                          
  21386431.72749 112386456.52349     -7718.59449        50.000  
  22523118.45349 118359786.60949      2147.50049        50.000  
 16 04 02 12 40 38.7000000  0  2G04G23                                          
  21386578.66449 112387228.71549     -7724.13349        50.000  
  22523077.66449 118359572.23449      2140.73849        50.000  
 16 04 02 12 40 38.8000000  0  2G04G23                                          
  21386725.69549 112388001.38349     -7729.10949        50.000  
  22523036.97749 118359358.42649      2134.87949        50.000  
 16 04 02 12 40 38.9000000  0  2G04G23                                          
  21386872.82849 112388774.57449     -7734.32449        50.000  
  22522996.41449 118359145.27349      2128.43449        50.000  
 16 04 02 12 40 39.0000000  0  2G04G23                                          
  21387020.05549 112389548.25449     -7739.17249        50.000  
  22522955.95349 118358932.69149      2122.68849        50.000  
 16 04 02 12 40 39.1000000  0  2G04G23                                          
  21387167.36749 112390322.40649     -7743.87949        50.000  
  22522915.60949 118358720.70349      2116.86349        50.000  
 16 04 02 12 40 39.2000000  0  2G04G23                                          
  21387314.77349 112391097.07849     -7749.03149        49.000  
  22522875.38349 118358509.33249      2110.57049        50.000  
 16 04 02 12 40 39.3000000  0  2G04G23                                          
  21387462.28949 112391872.25049     -7754.18849        49.000  
  22522835.27349 118358298.56649      2104.43849        50.000  
 16 04 02 12 40 39.4000000  0  2G04G23                                          
  21387609.88349 112392647.97749     -7759.82849        49.000  
  22522795.28949 118358088.47349      2097.61749        50.000  
 16 04 02 12 40 39.5000000  0  2G04G23                                          
  21387757.60249 112393424.22349     -7764.87949        49.000  
  22522755.43049 118357879.00449      2091.52349        50.000  
 16 04 02 12 40 39.6000000  0  2G04G23                                          
  21387905.40649 112394200.90249     -7769.17649        49.000  
  22522715.65649 118357670.06649      2086.12949        50.000  
 16 04 02 12 40 39.7000000  0  2G04G23                                          
  21388053.30549 112394978.10949     -7774.32449        49.000  
  22522676.02349 118357461.76649      2080.00049        50.000  
 16 04 02 12 40 39.8000000  0  2G04G23                                          
  21388201.31249 112395755.89549     -7780.33649        49.000  
  22522636.50849 118357254.15649      2072.85249        50.000  
 16 04 02 12 40 39.9000000  0  2G04G23                                          
  21388349.41449 112396534.15649     -7785.08649        49.000  
  22522597.11749 118357047.12949      2066.95349        50.000  
 16 04 02 12 40 40.0000000  0  2G04G23                                          
  21388497.60249 112397312.89149     -7789.73849        49.000  
  22522557.82849 118356840.66849      2061.46549        50.000  
 16 04 02 12 40 40.1000000  0  2G04G23                                          
  21388645.88349 112398092.10549     -7794.45349        49.000  
  22522518.64849 118356634.80949      2055.58649        50.000  
 16 04 02 12 40 40.2000000  0  2G04G23                                          
  21388794.27349 112398871.85249     -7799.77049        49.000  
  22522479.59449 118356429.57849      2049.21949        50.000  
 16 04 02 12 40 40.3000000  0  2G04G23                                          
  21388942.75049 112399652.12149     -7805.06649        49.000  
  22522440.66449 118356224.98849      2042.75849        50.000  
 16 04 02 12 40 40.4000000  0  2G04G23                                          
  21389091.32049 112400432.87149     -7810.05149        49.000  
  22522401.85249 118356020.98849      2036.64149        50.000  
 16 04 02 12 40 40.5000000  0  2G04G23                                          
  21389240.00049 112401214.18049     -7815.60949        49.000  
  22522363.14849 118355817.64149      2030.16849        50.000  
 16 04 02 12 40 40.6000000  0  2G04G23                                          
  21389388.77349 112401995.99249     -7820.44149        49.000  
  22522324.57049 118355614.90249      2024.40649        50.000  
 16 04 02 12 40 40.7000000  0  2G04G23                                          
  21389537.61749 112402778.19549     -7824.50849        49.000  
  22522286.09449 118355412.67649      2019.09849        50.000  
 16 04 02 12 40 40.8000000  0  2G04G23                                          
  21389686.57049 112403560.98049     -7830.16849        49.000  
  22522247.72749 118355211.13749      2012.38749        50.000  
 16 04 02 12 40 40.9000000  0  2G04G23                                          
  21389835.63349 112404344.28149     -7835.38749        49.000  
  22522209.49249 118355010.20749      2006.21949        50.000  
 16 04 02 12 40 41.0000000  0  2G04G23                                          
  21389984.78149 112405128.06249     -7840.46149        49.000  
  22522171.37549 118354809.89149      1999.76249        50.000  
 16 04 02 12 40 41.1000000  0  2G04G23                                          
  21390134.03149 112405912.35949     -7845.18449        49.000  
  22522133.36749 118354610.16849      1994.24249        50.000  
 16 04 02 12 40 41.2000000  0  2G04G23                                          
  21390283.35949 112406697.08249     -7849.57049        49.000  
  22522095.46149 118354410.99249      1988.64149        50.000  
 16 04 02 12 40 41.3000000  0  2G04G23                                          
  21390432.79749 112407482.35549     -7855.14849        49.000  
  22522057.68849 118354212.46549      1982.11349        50.000  
 16 04 02 12 40 41.4000000  0  2G04G23                                          
  21390582.32049 112408268.14549     -7860.14549        49.000  
  22522020.02349 118354014.57049      1976.01249        50.000  
 16 04 02 12 40 41.5000000  0  2G04G23                                          
  21390731.93849 112409054.41449     -7865.19549        49.000  
  22521982.47749 118353817.27349      1969.72349        50.000  
 16 04 02 12 40 41.6000000  0  2G04G23                                          
  21390881.66449 112409841.20749     -7870.24249        49.000  
  22521945.05549 118353620.59049      1963.75449        50.000  
 16 04 02 12 40 41.7000000  0  2G04G23                                          
  21391031.48449 112410628.50049     -7875.23449        49.000  
  22521907.74249 118353424.51249      1957.81649        50.000  
 16 04 02 12 40 41.8000000  0  2G04G23                                          
  21391181.39149 112411416.23849     -7879.82449        49.000  
  22521870.53949 118353229.00449      1952.04349        50.000  
 16 04 02 12 40 41.9000000  0  2G04G23                                          
  21391331.39149 112412204.50049     -7884.93449        49.000  
  22521833.46149 118353034.12149      1945.73049        50.000  
 16 04 02 12 40 42.0000000  0  2G04G23                                          
  21391481.49249 112412993.29749     -7890.28549        49.000  
  22521796.50049 118352839.87549      1939.36749        50.000  
 16 04 02 12 40 42.1000000  0  2G04G23                                          
  21391631.69549 112413782.62949     -7895.76249        49.000  
  22521759.65649 118352646.27349      1932.75849        50.000  
 16 04 02 12 40 42.2000000  0  2G04G23                                          
  21391781.99249 112414572.38749     -7899.92249        49.000  
  22521722.91449 118352453.20349      1927.59449        50.000  
 16 04 02 12 40 42.3000000  0  2G04G23                                          
  21391932.37549 112415362.65249     -7904.92649        49.000  
  22521686.28949 118352260.75449      1921.43849        50.000  
 16 04 02 12 40 42.4000000  0  2G04G23                                          
  21392082.86749 112416153.45349     -7910.28149        49.000  
  22521649.78949 118352068.94149      1915.09449        50.000  
 16 04 02 12 40 42.5000000  0  2G04G23                                          
  21392233.44549 112416944.73049     -7915.22749        49.000  
  22521613.40649 118351877.71949      1909.05149        50.000  
 16 04 02 12 40 42.6000000  0  2G04G23                                          
  21392384.11749 112417736.49249     -7920.08249        49.000  
  22521577.11749 118351687.07849      1903.20349        50.000  
 16 04 02 12 40 42.7000000  0  2G04G23                                          
  21392534.89149 112418528.80949     -7925.51249        49.000  
  22521540.96949 118351497.11749      1896.54749        50.000  
 16 04 02 12 40 42.8000000  0  2G04G23                                          
  21392685.75049 112419321.59049     -7930.19549        49.000  
  22521504.92249 118351307.71549      1890.93849        50.000  
 16 04 02 12 40 42.9000000  0  2G04G23                                          
  21392836.70349 112420114.88349     -7935.32049        49.000  
  22521468.99249 118351118.93449      1884.71549        50.000  
 16 04 02 12 40 43.0000000  0  2G04G23                                          
  21392987.76649 112420908.69549     -7940.56249        49.000  
  22521433.20349 118350930.79349      1878.21149        50.000  
 16 04 02 12 40 43.1000000  0  2G04G23                                          
  21393138.91449 112421702.95749     -7944.96549        49.000  
  22521397.50049 118350743.19549      1872.80149        50.000  
 16 04 02 12 40 43.2000000  0  2G04G23                                          
  21393290.14849 112422497.75049     -7950.24249        49.000  
  22521361.92249 118350556.23849      1866.42249        50.000  
 16 04 02 12 40 43.3000000  0  2G04G23                                          
  21393441.48449 112423293.05549     -7955.53549        49.000  
  22521326.46149 118350369.89849      1860.21949        50.000  
 16 04 02 12 40 43.4000000  0  2G04G23                                          
  21393592.93849 112424088.82849     -7960.12149        49.000  
  22521291.11749 118350184.14549      1854.37149        50.000  
 16 04 02 12 40 43.5000000  0  2G04G23                                          
  21393744.46149 112424885.10949     -7965.12949        49.000  
  22521255.89149 118349999.00449      1848.32049        50.000  
 16 04 02 12 40 43.6000000  0  2G04G23                                          
  21393896.10249 112425681.94949     -7970.88349        49.000  
  22521220.77349 118349814.52349      1841.60249        50.000  
 16 04 02 12 40 43.7000000  0  2G04G23                                          
  21394047.83649 112426479.30149     -7976.05149        49.000  
  22521185.78949 118349630.66449      1835.35549        50.000  
 16 04 02 12 40 43.8000000  0  2G04G23                                          
  21394199.66449 112427277.16449     -7981.11749        49.000  
  22521150.93849 118349447.43449      1829.11749        50.000  
 16 04 02 12 40 43.9000000  0  2G04G23                                          
  21394351.59449 112428075.53949     -7986.12549        49.000  
  22521116.18049 118349264.81249      1823.12949        50.000  
 16 04 02 12 40 44.0000000  0  2G04G23                                          
  21394503.60949 112428874.42649     -7991.31649        49.000  
  22521081.55549 118349082.81649      1816.68049        50.000  
 16 04 02 12 40 44.1000000  0  2G04G23                                          
  21394655.73449 112429673.82849     -7996.41849        49.000  
  22521047.03949 118348901.44149      1810.69949        50.000  
 16 04 02 12 40 44.2000000  0  2G04G23                                          
  21394807.93849 112430473.70749     -8001.21149        49.000  
  22521012.64149 118348720.65649      1804.74249        50.000  
 16 04 02 12 40 44.3000000  0  2G04G23                                          
  21394960.25049 112431274.09049     -8006.13749        49.000  
  22520978.35949 118348540.48449      1798.67249        50.000  
 16 04 02 12 40 44.4000000  0  2G04G23                                          
  21395112.64849 112432074.96549     -8011.03149        49.000  
  22520944.18049 118348360.89849      1792.77749        50.000  
 16 04 02 12 40 44.5000000  0  2G04G23                                          
  21395265.12549 112432876.23049     -8014.91849        49.000  
  22520910.10949 118348181.83249      1787.67249        50.000  
 16 04 02 12 40 44.6000000  0  2G04G23                                          
  21395417.71149 112433678.09849     -8020.89549        49.000  
  22520876.16449 118348003.46149      1780.67249        50.000  
 16 04 02 12 40 44.7000000  0  2G04G23                                          
  21395570.39849 112434480.45749     -8025.94949        49.000  
  22520842.33649 118347825.69149      1774.57849        50.000  
 16 04 02 12 40 44.8000000  0  2G04G23                                          
  21395723.18049 112435283.27349     -8030.55149        49.000  
  22520808.62549 118347648.49649      1768.76649        50.000  
 16 04 02 12 40 44.9000000  0  2G04G23                                          
  21395876.07049 112436086.71149     -8036.84049        49.000  
  22520775.03949 118347472.02049      1761.61349        50.000  
 16 04 02 12 40 45.0000000  0  2G04G23                                          
  21396029.04749 112436890.57849     -8041.18849        49.000  
  22520741.54749 118347296.08249      1756.08649        50.000  
 16 04 02 12 40 45.1000000  0  2G04G23                                          
  21396182.11749 112437694.97349     -8046.27349        49.000  
  22520708.19549 118347120.79349      1749.82049        50.000  
 16 04 02 12 40 45.2000000  0  2G04G23                                          
  21396335.28949 112438499.89849     -8051.66049        49.000  
  22520674.93849 118346946.13349      1743.39149        50.000  
 16 04 02 12 40 45.3000000  0  2G04G23                                          
  21396488.55549 112439305.30149     -8056.56649        49.000  
  22520641.81249 118346772.06249      1737.43449        50.000  
 16 04 02 12 40 45.4000000  0  2G04G23                                          
  21396641.91449 112440111.19949     -8061.12149        49.000  
  22520608.79749 118346598.59449      1731.75049        50.000  
 16 04 02 12 40 45.5000000  0  2G04G23                                          
  21396795.35249 112440917.53949     -8065.62149        49.000  
  22520575.89149 118346425.66849      1726.23449        50.000  
 16 04 02 12 40 45.6000000  0  2G04G23                                          
  21396948.89149 112441724.38349     -8070.74249        49.000  
  22520543.10249 118346253.37549      1719.98049        50.000  
 16 04 02 12 40 45.7000000  0  2G04G23                                          
  21397102.52349 112442531.73849     -8075.79349        49.000  
  22520510.43049 118346081.68449      1713.86349        50.000  
 16 04 02 12 40 45.8000000  0  2G04G23                                          
  21397256.25049 112443339.62149     -8081.34049        49.000  
  22520477.87549 118345910.63749      1707.21949        50.000  
 16 04 02 12 40 45.9000000  0  2G04G23                                          
  21397410.09449 112444148.05149     -8086.68849        49.000  
  22520445.44549 118345740.23449      1700.86349        50.000  
 16 04 02 12 40 46.0000000  0  2G04G23                                          
  21397564.02349 112444956.96549     -8091.60949        49.000  
  22520413.14849 118345570.44549      1694.73449        50.000  
 16 04 02 12 40 46.1000000  0  2G04G23                                          
  21397718.04749 112445766.38349     -8096.71549        49.000  
  22520380.95349 118345401.25449      1688.65249        50.000  
 16 04 02 12 40 46.2000000  0  2G04G23                                          
  21397872.16449 112446576.27349     -8101.27349        49.000  
  22520348.86749 118345232.65249      1682.98449        50.000  
 16 04 02 12 40 46.3000000  0  2G04G23                                          
  21398026.38349 112447386.67249     -8106.37549        49.000  
  22520316.89849 118345064.66049      1676.69549        50.000  
 16 04 02 12 40 46.4000000  0  2G04G23                                          
  21398180.71149 112448197.65649     -8112.30549        49.000  
  22520285.06249 118344897.35949      1669.80949        50.000  
 16 04 02 12 40 46.5000000  0  2G04G23                                          
  21398335.11749 112449009.05549     -8116.36749        49.000  
  22520253.32849 118344730.59449      1664.62149        50.000  
 16 04 02 12 40 46.6000000  0  2G04G23                                          
  21398489.61749 112449820.93049     -8120.96149        49.000  
  22520221.71149 118344564.41049      1658.82049        50.000  
 16 04 02 12 40 46.7000000  0  2G04G23                                          
  21398644.22749 112450633.39149     -8126.98849        49.000  
  22520190.21949 118344398.91049      1651.85549        50.000  
 16 04 02 12 40 46.8000000  0  2G04G23                                          
  21398798.93849 112451446.34049     -8132.04749        49.000  
  22520158.82849 118344234.02349      1645.53149        50.000  
 16 04 02 12 40 46.9000000  0  2G04G23                                          
  21398953.74249 112452259.81249     -8137.04349        49.000  
  22520127.57049 118344069.75849      1639.63749        50.000  
 16 04 02 12 40 47.0000000  0  2G04G23                                          
  21399108.61749 112453073.70349     -8141.37549        49.000  
  22520096.40649 118343906.02749      1634.08249        50.000  
 16 04 02 12 40 47.1000000  0  2G04G23                                          
  21399263.60249 112453888.14549     -8146.69149        49.000  
  22520065.37549 118343742.94949      1627.77749        50.000  
 16 04 02 12 40 47.2000000  0  2G04G23                                          
  21399418.66449 112454703.05949     -8151.32449        49.000  
  22520034.44549 118343580.46149      1621.95349        50.000  
 16 04 02 12 40 47.3000000  0  2G04G23                                          
  21399573.82849 112455518.44149     -8156.12549        49.000  
  22520003.63349 118343418.53549      1616.16849        50.000  
 16 04 02 12 40 47.4000000  0  2G04G23                                          
  21399729.10949 112456334.42649     -8162.40249        49.000  
  22519972.95349 118343257.33649      1608.78149        50.000  
 16 04 02 12 40 47.5000000  0  2G04G23                                          
  21399884.47749 112457150.89549     -8167.22749        49.000  
  22519942.39149 118343096.72349      1602.90649        50.000  
 16 04 02 12 40 47.6000000  0  2G04G23                                          
  21400039.93049 112457967.78949     -8171.27749        49.000  
  22519911.94549 118342936.65249      1597.70349        50.000  
 16 04 02 12 40 47.7000000  0  2G04G23                                          
  21400195.47749 112458785.17249     -8175.93049        49.000  
  22519881.59449 118342777.17249      1591.94149        50.000  
 16 04 02 12 40 47.8000000  0  2G04G23                                          
  21400351.12549 112459603.07849     -8181.30149        49.000  
  22519851.35949 118342618.32849      1585.56249        50.000  
 16 04 02 12 40 47.9000000  0  2G04G23                                          
  21400506.85949 112460421.44949     -8186.18849        49.000  
  22519821.24249 118342460.05149      1579.54349        50.000  
 16 04 02 12 40 48.0000000  0  2G04G23                                          
  21400662.70349 112461240.41049     -8191.97749        49.000  
  22519791.26649 118342302.48849      1572.54349        50.000  
 16 04 02 12 40 48.1000000  0  2G04G23                                          
  21400818.63349 112462059.81649     -8196.51249        49.000  
  22519761.38349 118342145.46949      1566.95349        50.000  
 16 04 02 12 40 48.2000000  0  2G04G23                                          
  21400974.65649 112462879.69549     -8201.08649        49.000  
  22519731.61749 118341989.03949      1561.24649        50.000  
 16 04 02 12 40 48.3000000  0  2G04G23                                          
  21401130.77349 112463700.07849     -8206.02349        49.000  
  22519701.96149 118341833.21149      1555.36749        50.000  
 16 04 02 12 40 48.4000000  0  2G04G23                                          
  21401286.98449 112464520.93849     -8210.87949        49.000  
  22519672.43849 118341677.97749      1549.35549        50.000  
 16 04 02 12 40 48.5000000  0  2G04G23                                          
  21401443.28149 112465342.32049     -8216.19949        49.000  
  22519643.01649 118341523.37149      1543.03549        50.000  
 16 04 02 12 40 48.6000000  0  2G04G23                                          
  21401599.66449 112466164.14549     -8220.52049        49.000  
  22519613.69549 118341369.32449      1537.41849        50.000  
 16 04 02 12 40 48.7000000  0  2G04G23                                          
  21401756.15649 112466986.50849     -8225.85549        49.000  
  22519584.50849 118341215.92249      1531.03949        50.000  
 16 04 02 12 40 48.8000000  0  2G04G23                                          
  21401912.73449 112467809.33249     -8230.52749        49.000  
  22519555.42249 118341063.09849      1525.25049        50.000  
 16 04 02 12 40 48.9000000  0  2G04G23                                          
  21402069.40649 112468632.63749     -8235.39849        49.000  
  22519526.44549 118340910.83649      1519.43049        50.000  
 16 04 02 12 40 49.0000000  0  2G04G23                                          
  21402226.17249 112469456.44549     -8240.30149        49.000  
  22519497.58649 118340759.21949      1513.22749        50.000  
 16 04 02 12 40 49.1000000  0  2G04G23                                          
  21402383.03949 112470280.77349     -8245.68449        49.000  
  22519468.85249 118340608.21549      1506.83249        50.000  
 16 04 02 12 40 49.2000000  0  2G04G23                                          
  21402540.00849 112471105.66049     -8251.30149        49.000  
  22519440.25049 118340457.89149      1500.15249        50.000  
 16 04 02 12 40 49.3000000  0  2G04G23                                          
  21402697.07049 112471931.00449     -8255.76649        49.000  
  22519411.75049 118340308.12149      1494.58649        50.000  
 16 04 02 12 40 49.4000000  0  2G04G23                                          
  21402854.21949 112472756.80149     -8260.30949        49.000  
  22519383.35249 118340158.91449      1489.02749        50.000  
 16 04 02 12 40 49.5000000  0  2G04G23                                          
  21403011.46149 112473583.11749     -8265.48849        49.000  
  22519355.08649 118340010.35549      1482.54749        50.000  
 16 04 02 12 40 49.6000000  0  2G04G23                                          
  21403168.81249 112474409.94149     -8270.46949        49.000  
  22519326.93849 118339862.39549      1476.57449        50.000  
 16 04 02 12 40 49.7000000  0  2G04G23                                          
  21403326.25849 112475237.29349     -8275.96149        49.000  
  22519298.89849 118339715.07449      1469.97349        50.000  
 16 04 02 12 40 49.8000000  0  2G04G23                                          
  21403483.78149 112476065.10549     -8280.51249        49.000  
  22519270.96949 118339568.33649      1464.27749        50.000  
 16 04 02 12 40 49.9000000  0  2G04G23                                          
  21403641.40649 112476893.43049     -8285.41449        49.000  
  22519243.15649 118339422.20749      1458.39849        50.000  
 16 04 02 12 40 50.0000000  0  2G04G23                                          
  21403799.12549 112477722.23849     -8290.38749        49.000  
  22519215.46949 118339276.67649      1452.21949        50.000  
 16 04 02 12 40 50.1000000  0  2G04G23                                          
  21403956.92249 112478551.47749     -8294.51249        49.000  
  22519187.88349 118339131.68849      1447.06249        50.000  
 16 04 02 12 40 50.2000000  0  2G04G23                                          
  21404114.82849 112479381.24649     -8299.93049        49.000  
  22519160.40649 118338987.33649      1440.46949        50.000  
 16 04 02 12 40 50.3000000  0  2G04G23                                          
  21404272.82049 112480211.48449     -8304.74249        49.000  
  22519133.04749 118338843.55549      1434.73449        50.000  
 16 04 02 12 40 50.4000000  0  2G04G23                                          
  21404430.89849 112481042.19949     -8309.60949        49.000  
  22519105.79749 118338700.38749      1428.47749        50.000  
 16 04 02 12 40 50.5000000  0  2G04G23                                          
  21404589.08649 112481873.47749     -8315.22349        49.000  
  22519078.68049 118338557.87149      1421.90649        50.000  
 16 04 02 12 40 50.6000000  0  2G04G23                                          
  21404747.36749 112482705.26249     -8320.32049        49.000  
  22519051.68849 118338415.97749      1415.78549        50.000  
 16 04 02 12 40 50.7000000  0  2G04G23                                          
  21404905.72749 112483537.41849     -8323.89849        49.000  
  22519024.77349 118338274.56649      1411.03549        50.000  
 16 04 02 12 40 50.8000000  0  2G04G23                                          
  21405064.16449 112484370.11349     -8328.93049        49.000  
  22518997.99249 118338133.80149      1404.89149        50.000  
 16 04 02 12 40 50.9000000  0  2G04G23                                          
  21405222.71949 112485203.29749     -8334.16049        49.000  
  22518971.32049 118337993.63749      1398.53149        50.000  
 16 04 02 12 40 51.0000000  0  2G04G23                                          
  21405381.37549 112486037.05949     -8340.06249        49.000  
  22518944.77349 118337854.16849      1391.55949        50.000  
 16 04 02 12 40 51.1000000  0  2G04G23                                          
  21405540.11749 112486871.24649     -8344.41449        49.000  
  22518918.32849 118337715.22349      1386.13349        50.000  
 16 04 02 12 40 51.2000000  0  2G04G23                                          
  21405698.96149 112487706.02049     -8350.12549        49.000  
  22518892.03149 118337576.98049      1379.25849        50.000  
 16 04 02 12 40 51.3000000  0  2G04G23                                          
  21405857.90649 112488541.25849     -8354.84049        49.000  
  22518865.83649 118337439.30949      1373.53549        50.000  
 16 04 02 12 40 51.4000000  0  2G04G23                                          
  21406016.93849 112489377.00849     -8359.92649        49.000  
  22518839.75049 118337302.26249      1367.28549        50.000  
 16 04 02 12 40 51.5000000  0  2G04G23                                          
  21406176.06249 112490213.21949     -8364.43049        49.000  
  22518813.78149 118337165.79749      1361.67649        50.000  
 16 04 02 12 40 51.6000000  0  2G04G23                                          
  21406335.27349 112491049.89149     -8368.89149        49.000  
  22518787.92249 118337029.89149      1356.10249        50.000  
 16 04 02 12 40 51.7000000  0  2G04G23                                          
  21406494.59449 112491887.09449     -8374.21549        49.000  
  22518762.18049 118336894.62549      1349.74649        50.000  
 16 04 02 12 40 51.8000000  0  2G04G23                                          
  21406653.99249 112492724.76249     -8379.05149        49.000  
  22518736.55549 118336759.94549      1343.69949        50.000  
 16 04 02 12 40 51.9000000  0  2G04G23                                          
  21406813.48449 112493562.92249     -8383.88349        49.000  
  22518711.03949 118336625.85549      1337.81249        50.000  
 16 04 02 12 40 52.0000000  0  2G04G23                                          
  21406973.07049 112494401.56649     -8388.80149        49.000  
  22518685.64149 118336492.36749      1331.73849        50.000  
 16 04 02 12 40 52.1000000  0  2G04G23                                          
  21407132.74249 112495240.62549     -8392.75449        49.000  
  22518660.33649 118336359.41049      1326.68049        50.000  
 16 04 02 12 40 52.2000000  0  2G04G23                                          
  21407292.50849 112496080.18049     -8397.76649        49.000  
  22518635.15649 118336227.05149      1320.58649        50.000  
 16 04 02 12 40 52.3000000  0  2G04G23                                          
  21407452.37549 112496920.28149     -8403.39849        49.000  
  22518610.09449 118336095.34449      1313.94949        50.000  
 16 04 02 12 40 52.4000000  0  2G04G23                                          
  21407612.34449 112497760.89549     -8408.65649        49.000  
  22518585.15649 118335964.28149      1307.33649        50.000  
 16 04 02 12 40 52.5000000  0  2G04G23                                          
  21407772.40649 112498602.03949     -8413.80549        49.000  
  22518560.33649 118335833.84049      1301.19549        50.000  
 16 04 02 12 40 52.6000000  0  2G04G23                                          
  21407932.55549 112499443.63349     -8418.24249        49.000  
  22518535.62549 118335703.95749      1295.88749        50.000  
 16 04 02 12 40 52.7000000  0  2G04G23                                          
  21408092.79749 112500285.68049     -8422.84449        49.000  
  22518511.02349 118335574.66449      1289.83649        50.000  
 16 04 02 12 40 52.8000000  0  2G04G23                                          
  21408253.12549 112501128.25049     -8428.00849        49.000  
  22518486.53149 118335445.97749      1283.66049        50.000  
 16 04 02 12 40 52.9000000  0  2G04G23                                          
  21408413.56249 112501971.33249     -8433.14849        49.000  
  22518462.15649 118335317.91849      1277.47349        50.000  
 16 04 02 12 40 53.0000000  0  2G04G23                                          
  21408574.08649 112502814.92649     -8438.50449        49.000  
  22518437.90649 118335190.49649      1270.93049        50.000  
 16 04 02 12 40 53.1000000  0  2G04G23                                          
  21408734.71149 112503658.98449     -8442.96949        49.000  
  22518413.76649 118335063.63349      1265.53549        50.000  
 16 04 02 12 40 53.2000000  0  2G04G23                                          
  21408895.41449 112504503.52349     -8447.66449        49.000  
  22518389.73449 118334937.37149      1259.65649        50.000  
 16 04 02 12 40 53.3000000  0  2G04G23                                          
  21409056.21949 112505348.53149     -8452.38349        49.000  
  22518365.82049 118334811.69149      1253.77049        50.000  
 16 04 02 12 40 53.4000000  0  2G04G23                                          
  21409217.14149 112506194.12549     -8458.21549        49.000  
  22518342.03149 118334686.69949      1246.86749        50.000  
 16 04 02 12 40 53.5000000  0  2G04G23                                          
  21409378.14849 112507040.21149     -8463.44549        49.000  
  22518318.36749 118334562.31649      1240.49249        50.000  
 16 04 02 12 40 53.6000000  0  2G04G23                                          
  21409539.24249 112507886.79749     -8468.36349        49.000  
  22518294.82049 118334438.53949      1234.56249        50.000  
 16 04 02 12 40 53.7000000  0  2G04G23                                          
  21409700.43049 112508733.83649     -8472.80949        49.000  
  22518271.36749 118334315.32849      1228.94949        50.000  
 16 04 02 12 40 53.8000000  0  2G04G23                                          
  21409861.71949 112509581.42249     -8478.21549        49.000  
  22518248.04749 118334192.78149      1222.31649        50.000  
 16 04 02 12 40 53.9000000  0  2G04G23                                          
  21410023.10949 112510429.52349     -8483.51249        49.000  
  22518224.84449 118334070.85949      1215.87549        50.000  
 16 04 02 12 40 54.0000000  0  2G04G23                                          
  21410184.60949 112511278.18449     -8489.13349        49.000  
  22518201.78149 118333949.60249      1209.30549        50.000  
 16 04 02 12 40 54.1000000  0  2G04G23                                          
  21410346.18049 112512127.27049     -8493.38749        49.000  
  22518178.81249 118333828.89149      1203.82849        50.000  
 16 04 02 12 40 54.2000000  0  2G04G23                                          
  21410507.85249 112512976.80949     -8497.66049        49.000  
  22518155.93849 118333708.72749      1198.70749        50.000  
 16 04 02 12 40 54.3000000  0  2G04G23                                          
  21410669.60249 112513826.84449     -8502.69549        49.000  
  22518133.19549 118333589.19149      1192.30149        50.000  
 16 04 02 12 40 54.4000000  0  2G04G23                                          
  21410831.46149 112514677.39149     -8507.73849        49.000  
  22518110.55549 118333470.26249      1186.30949        50.000  
 16 04 02 12 40 54.5000000  0  2G04G23                                          
  21410993.39849 112515528.40649     -8512.68049        49.000  
  22518088.03949 118333351.92249      1180.21549        50.000  
 16 04 02 12 40 54.6000000  0  2G04G23                                          
  21411155.43849 112516379.92649     -8517.50849        49.000  
  22518065.63349 118333234.19549      1174.19949        50.000  
 16 04 02 12 40 54.7000000  0  2G04G23                                          
  21411317.56249 112517231.87149     -8521.57049        49.000  
  22518043.32849 118333117.00449      1168.98449        50.000  
 16 04 02 12 40 54.8000000  0  2G04G23                                          
  21411479.76649 112518084.32049     -8526.71949        49.000  
  22518021.14849 118333000.43849      1162.68449        50.000  
 16 04 02 12 40 54.9000000  0  2G04G23                                          
  21411642.08649 112518937.30949     -8532.13749        49.000  
  22517999.08649 118332884.50449      1156.26249        50.000  
 16 04 02 12 40 55.0000000  0  2G04G23                                          
  21411804.50049 112519790.78949     -8537.34449        49.000  
  22517977.14849 118332769.18849      1149.84849        50.000  
 16 04 02 12 40 55.1000000  0  2G04G23                                          
  21411967.01649 112520644.79749     -8542.36749        49.000  
  22517955.32049 118332654.50449      1143.85549        50.000  
 16 04 02 12 40 55.2000000  0  2G04G23                                          
  21412129.60949 112521499.25849     -8547.12549        49.000  
  22517933.61749 118332540.39149      1137.85549        50.000  
 16 04 02 12 40 55.3000000  0  2G04G23                                          
  21412292.30549 112522354.22749     -8551.98049        49.000  
  22517912.01649 118332426.89149      1131.94149        50.000  
 16 04 02 12 40 55.4000000  0  2G04G23                                          
  21412455.09449 112523209.69149     -8557.04349        49.000  
  22517890.53949 118332314.00049      1125.71549        50.000  
 16 04 02 12 40 55.5000000  0  2G04G23                                          
  21412617.97749 112524065.66449     -8562.23449        49.000  
  22517869.18049 118332201.72749      1119.47349        50.000  
 16 04 02 12 40 55.6000000  0  2G04G23                                          
  21412780.95349 112524922.10249     -8566.59849        49.000  
  22517847.92249 118332090.03549      1114.06649        50.000  
 16 04 02 12 40 55.7000000  0  2G04G23                                          
  21412944.01649 112525779.02749     -8571.64849        49.000  
  22517826.78149 118331978.94149      1107.82049        50.000  
 16 04 02 12 40 55.8000000  0  2G04G23                                          
  21413107.18049 112526636.44149     -8576.60949        49.000  
  22517805.75849 118331868.45349      1101.70749        50.000  
 16 04 02 12 40 55.9000000  0  2G04G23                                          
  21413270.44549 112527494.40249     -8581.85249        49.000  
  22517784.85249 118331758.61349      1095.39849        50.000  
 16 04 02 12 40 56.0000000  0  2G04G23                                          
  21413433.80549 112528352.87149     -8587.12549        49.000  
  22517764.07049 118331649.40249      1088.79349        50.000  
 16 04 02 12 40 56.1000000  0  2G04G23                                          
  21413597.24249 112529211.75849     -8591.12549        49.000  
  22517743.39149 118331540.70749      1084.02749        50.000  
 16 04 02 12 40 56.2000000  0  2G04G23                                          
  21413760.77349 112530071.13749     -8596.08249        49.000  
  22517722.82049 118331432.62549      1077.71549        50.000  
 16 04 02 12 40 56.3000000  0  2G04G23                                          
  21413924.40649 112530931.03149     -8601.24649        49.000  
  22517702.37549 118331325.18449      1071.32049        50.000  
 16 04 02 12 40 56.4000000  0  2G04G23                                          
  21414088.13349 112531791.42649     -8606.20349        49.000  
  22517682.04749 118331218.32849      1065.44549        50.000  
 16 04 02 12 40 56.5000000  0  2G04G23                                          
  21414251.95349 112532652.31249     -8611.33649        49.000  
  22517661.83649 118331112.10249      1059.19549        50.000  
 16 04 02 12 40 56.6000000  0  2G04G23                                          
  21414415.86749 112533513.67249     -8615.94949        49.000  
  22517641.74249 118331006.44149      1053.50049        50.000  
 16 04 02 12 40 56.7000000  0  2G04G23                                          
  21414579.87549 112534375.52349     -8620.88749        49.000  
  22517621.75049 118330901.39149      1047.43849        50.000  
 16 04 02 12 40 56.8000000  0  2G04G23                                          
  21414743.96949 112535237.85549     -8625.65649        49.000  
  22517601.86749 118330796.94149      1041.46949        50.000  
 16 04 02 12 40 56.9000000  0  2G04G23                                          
  21414908.15649 112536100.69549     -8630.56649        49.000  
  22517582.10949 118330693.09849      1035.53949        50.000  
 16 04 02 12 40 57.0000000  0  2G04G23                                          
  21415072.43849 112536964.00849     -8635.46149        49.000  
  22517562.46949 118330589.85549      1029.32449        50.000  
 16 04 02 12 40 57.1000000  0  2G04G23                                          
  21415236.82049 112537827.82849     -8640.51649        49.000  
  22517542.93849 118330487.22349      1023.21149        50.000  
 16 04 02 12 40 57.2000000  0  2G04G23                                          
  21415401.29749 112538692.14849     -8645.73849        49.000  
  22517523.52349 118330385.19949      1016.87549        50.000  
 16 04 02 12 40 57.3000000  0  2G04G23                                          
  21415565.86749 112539556.95349     -8650.32849        49.000  
  22517504.22749 118330283.77049      1011.30549        50.000  
 16 04 02 12 40 57.4000000  0  2G04G23                                          
  21415730.51649 112540422.23049     -8655.20749        49.000  
  22517485.03949 118330182.93849      1005.12949        50.000  
 16 04 02 12 40 57.5000000  0  2G04G23                                          
  21415895.27349 112541288.06649     -8660.69949        49.000  
  22517465.97749 118330082.76649       998.54349        50.000  
 16 04 02 12 40 57.6000000  0  2G04G23                                          
  21416060.13349 112542154.41849     -8665.78549        49.000  
  22517447.03149 118329983.23049       992.37549        50.000  
 16 04 02 12 40 57.7000000  0  2G04G23                                          
  21416225.06249 112543021.15249     -8669.64849        49.000  
  22517428.18049 118329884.18849       987.39849        50.000  
 16 04 02 12 40 57.8000000  0  2G04G23                                          
  21416390.08649 112543888.37949     -8674.34849        49.000  
  22517409.45349 118329785.74249       981.68049        50.000  
 16 04 02 12 40 57.9000000  0  2G04G23                                          
  21416555.21149 112544756.10249     -8679.60549        49.000  
  22517390.83649 118329687.91449       975.10949        50.000  
 16 04 02 12 40 58.0000000  0  2G04G23                                          
  21416720.43849 112545624.38349     -8685.27349        49.000  
  22517372.35949 118329590.75449       968.41049        50.000  
 16 04 02 12 40 58.1000000  0  2G04G23                                          
  21416885.75849 112546493.14149     -8690.12149        49.000  
  22517353.97749 118329494.18049       962.46149        50.000  
 16 04 02 12 40 58.2000000  0  2G04G23                                          
  21417051.17249 112547362.38749     -8694.87149        49.000  
  22517335.71149 118329398.21149       956.52749        50.000  
 16 04 02 12 40 58.3000000  0  2G04G23                                          
  21417216.67249 112548232.10549     -8699.46549        49.000  
  22517317.56249 118329302.82849       950.77349        50.000  
 16 04 02 12 40 58.4000000  0  2G04G23                                          
  21417382.28149 112549102.41049     -8705.44549        49.000  
  22517299.53949 118329208.13749       943.71949        50.000  
 16 04 02 12 40 58.5000000  0  2G04G23                                          
  21417547.97749 112549973.13349     -8709.73449        49.000  
  22517281.62549 118329113.98449       938.21549        50.000  
 16 04 02 12 40 58.6000000  0  2G04G23                                          
  21417713.76649 112550844.37549     -8714.73449        49.000  
  22517263.83649 118329020.45749       932.15649        50.000  
 16 04 02 12 40 58.7000000  0  2G04G23                                          
  21417879.64849 112551716.10549     -8719.58649        49.000  
  22517246.14849 118328927.52749       926.28549        50.000  
 16 04 02 12 40 58.8000000  0  2G04G23                                          
  21418045.61749 112552588.27349     -8724.03949        49.000  
  22517228.57049 118328835.15249       920.63749        50.000  
 16 04 02 12 40 58.9000000  0  2G04G23                                          
  21418211.69549 112553460.99249     -8729.48849        49.000  
  22517211.11749 118328743.44549       914.03149        50.000  
 16 04 02 12 40 59.0000000  0  2G04G23                                          
  21418377.85949 112554334.24649     -8735.06649        49.000  
  22517193.78949 118328652.37949       907.41849        50.000  
 16 04 02 12 40 59.1000000  0  2G04G23                                          
  21418544.10949 112555207.89549     -8738.95749        49.000  
  22517176.55549 118328561.82849       902.31249        50.000  
 16 04 02 12 40 59.2000000  0  2G04G23                                          
  21418710.46949 112556082.07449     -8743.91049        49.000  
  22517159.45349 118328471.93049       896.21149        50.000  
 16 04 02 12 40 59.3000000  0  2G04G23                                          
  21418876.89849 112556956.68049     -8748.34849        49.000  
  22517142.44549 118328382.54749       890.70349        50.000  
 16 04 02 12 40 59.4000000  0  2G04G23                                          
  21419043.42249 112557831.78149     -8753.19949        49.000  
  22517125.56249 118328293.78149       884.77349        50.000  
 16 04 02 12 40 59.5000000  0  2G04G23                                          
  21419210.03949 112558707.38349     -8758.41449        49.000  
  22517108.78149 118328205.62549       878.48049        50.000  
 16 04 02 12 40 59.6000000  0  2G04G23                                          
  21419376.76649 112559583.54349     -8763.98049        49.000  
  22517092.14149 118328118.14849       871.62949        50.000  
 16 04 02 12 40 59.7000000  0  2G04G23                                          
  21419543.57849 112560460.14549     -8768.57849        49.000  
  22517075.60249 118328031.22349       865.93049        50.000  
 16 04 02 12 40 59.8000000  0  2G04G23                                          
  21419710.48449 112561337.25449     -8773.43849        49.000  
  22517059.18049 118327944.93049       859.85949        50.000  
 16 04 02 12 40 59.9000000  0  2G04G23                                          
  21419877.48449 112562214.85549     -8778.27349        49.000  
  22517042.87549 118327859.21949       854.05549        50.000  
 16 04 02 12 41  0.0000000  0  2G04G23                                          
  21420044.58649 112563092.93049     -8783.13749        49.000  
  22517026.67249 118327774.12149       848.04349        50.000  
 16 04 02 12 41  0.1000000  0  2G04G23                                          
  21420211.76649 112563971.47349     -8787.63749        49.000  
  22517010.58649 118327689.57849       842.46549        50.000  
 16 04 02 12 41  0.2000000  0  2G04G23                                          
  21420379.04749 112564850.51249     -8792.82049        49.000  
  22516994.61749 118327605.66049       836.01649        50.000  
 16 04 02 12 41  0.3000000  0  2G04G23                                          
  21420546.41449 112565730.06249     -8797.81649        49.000  
  22516978.77349 118327522.36349       829.97349        50.000  
 16 04 02 12 41  0.4000000  0  2G04G23                                          
  21420713.88349 112566610.09049     -8802.55549        49.000  
  22516963.03149 118327439.64849       824.12949        50.000  
 16 04 02 12 41  0.5000000  0  2G04G23                                          
  21420881.42249 112567490.53149     -8806.84849        49.000  
  22516947.39149 118327357.48049       818.37149        50.000  
 16 04 02 12 41  0.6000000  0  2G04G23                                          
  21421049.07849 112568371.55549     -8812.58649        49.000  
  22516931.88349 118327275.98049       811.91449        50.000  
 16 04 02 12 41  0.7000000  0  2G04G23                                          
  21421216.81249 112569253.01649     -8816.92649        49.000  
  22516916.48449 118327195.05949       806.14549        50.000  
 16 04 02 12 41  0.8000000  0  2G04G23                                          
  21421384.64849 112570134.98449     -8821.92649        49.000  
  22516901.20349 118327114.73849       800.13749        50.000  
 16 04 02 12 41  0.9000000  0  2G04G23                                          
  21421552.57849 112571017.45349     -8826.91049        49.000  
  22516886.03149 118327035.03549       794.16849        50.000  
 16 04 02 12 41  1.0000000  0  2G04G23                                          
  21421720.60249 112571900.39849     -8831.98849        49.000  
  22516870.98449 118326955.92649       787.78949        50.000  
 16 04 02 12 41  1.1000000  0  2G04G23                                          
  21421888.71149 112572783.84449     -8836.69549        49.000  
  22516856.04749 118326877.42649       782.01649        50.000  
 16 04 02 12 41  1.2000000  0  2G04G23                                          
  21422056.91449 112573667.74249     -8841.40249        49.000  
  22516841.21149 118326799.49649       776.14149        50.000  
 16 04 02 12 41  1.3000000  0  2G04G23                                          
  21422225.19549 112574552.09049     -8845.60549        49.000  
  22516826.49249 118326722.12549       770.82449        50.000  
 16 04 02 12 41  1.4000000  0  2G04G23                                          
  21422393.56249 112575436.89149     -8850.14849        49.000  
  22516811.88349 118326645.32849       765.09449        50.000  
 16 04 02 12 41  1.5000000  0  2G04G23                                          
  21422562.04749 112576322.26649     -8856.13749        49.000  
  22516797.39849 118326569.21949       757.97349        50.000  
 16 04 02 12 41  1.6000000  0  2G04G23                                          
  21422730.61749 112577208.08649     -8860.69549        49.000  
  22516783.02349 118326493.65249       752.51249        50.000  
 16 04 02 12 41  1.7000000  0  2G04G23                                          
  21422899.26649 112578094.35949     -8865.14149        49.000  
  22516768.75849 118326418.67649       746.68849        50.000  
 16 04 02 12 41  1.8000000  0  2G04G23                                          
  21423068.00849 112578981.11349     -8869.83649        49.000  
  22516754.60249 118326344.27749       740.83249        50.000  
 16 04 02 12 41  1.9000000  0  2G04G23                                          
  21423236.84449 112579868.35949     -8874.68049        49.000  
  22516740.56249 118326270.49249       734.87149        50.000  
 16 04 02 12 41  2.0000000  0  2G04G23                                          
  21423405.78949 112580756.12949     -8880.08649        49.000  
  22516726.64149 118326197.33649       728.39849        50.000  
 16 04 02 12 41  2.1000000  0  2G04G23                                          
  21423574.82049 112581644.41849     -8885.30149        49.000  
  22516712.84449 118326124.82049       721.96149        50.000  
 16 04 02 12 41  2.2000000  0  2G04G23                                          
  21423743.95349 112582533.20349     -8890.28549        49.000  
  22516699.16449 118326052.91049       715.87149        50.000  
 16 04 02 12 41  2.3000000  0  2G04G23                                          
  21423913.17249 112583422.48449     -8895.15249        49.000  
  22516685.59449 118325981.61349       709.88749        50.000  
 16 04 02 12 41  2.4000000  0  2G04G23                                          
  21424082.48449 112584312.22749     -8899.61749        49.000  
  22516672.13349 118325910.88349       704.34049        50.000  
 16 04 02 12 41  2.5000000  0  2G04G23                                          
  21424251.88349 112585202.43049     -8904.32849        49.000  
  22516658.78149 118325840.73849       698.30949        50.000  
 16 04 02 12 41  2.6000000  0  2G04G23                                          
  21424421.38349 112586093.14149     -8909.32849        49.000  
  22516645.55549 118325771.21149       692.22349        50.000  
 16 04 02 12 41  2.7000000  0  2G04G23                                          
  21424590.96949 112586984.34849     -8914.39149        49.000  
  22516632.44549 118325702.28549       686.07049        50.000  
 16 04 02 12 41  2.8000000  0  2G04G23                                          
  21424760.64149 112587876.00849     -8919.04349        49.000  
  22516619.43849 118325633.93849       680.33249        50.000  
 16 04 02 12 41  2.9000000  0  2G04G23                                          
  21424930.42249 112588768.21949     -8924.44149        49.000  
  22516606.55549 118325566.25849       673.62949        50.000  
 16 04 02 12 41  3.0000000  0  2G04G23                                          
  21425100.30549 112589660.93449     -8929.54349        49.000  
  22516593.79749 118325499.18049       667.55949        50.000  
 16 04 02 12 41  3.1000000  0  2G04G23                                          
  21425270.28149 112590554.12549     -8934.38749        49.000  
  22516581.14849 118325432.70749       661.46149        50.000  
 16 04 02 12 41  3.2000000  0  2G04G23                                          
  21425440.34449 112591447.80949     -8939.20349        49.000  
  22516568.60949 118325366.82449       655.77749        50.000  
 16 04 02 12 41  3.3000000  0  2G04G23                                          
  21425610.48449 112592341.91849     -8943.33249        49.000  
  22516556.18049 118325301.48849       650.39149        50.000  
 16 04 02 12 41  3.4000000  0  2G04G23                                          
  21425780.71949 112593236.53149     -8948.55549        49.000  
  22516543.86749 118325236.78949       643.82849        50.000  
 16 04 02 12 41  3.5000000  0  2G04G23                                          
  21425951.04749 112594131.58249     -8952.75449        49.000  
  22516531.65649 118325172.61749       638.71549        50.000  
 16 04 02 12 41  3.6000000  0  2G04G23                                          
  21426121.47749 112595027.18849     -8958.23049        49.000  
  22516519.57049 118325109.12149       631.98849        50.000  
 16 04 02 12 41  3.7000000  0  2G04G23                                          
  21426291.98449 112595923.22749     -8962.65249        49.000  
  22516507.59449 118325046.18449       626.31649        50.000  
 16 04 02 12 41  3.8000000  0  2G04G23                                          
  21426462.59449 112596819.82049     -8968.34449        49.000  
  22516495.75849 118324983.90649       619.57849        50.000  
 16 04 02 12 41  3.9000000  0  2G04G23                                          
  21426633.29749 112597716.87149     -8972.97349        49.000  
  22516484.01649 118324922.18849       614.02349        50.000  
 16 04 02 12 41  4.0000000  0  2G04G23                                          
  21426804.08649 112598614.37149     -8977.22749        49.000  
  22516472.38349 118324861.05549       608.53949        50.000  
 16 04 02 12 41  4.1000000  0  2G04G23                                          
  21426974.96149 112599512.31649     -8981.70349        49.000  
  22516460.85949 118324800.47349       602.76649        50.000  
 16 04 02 12 41  4.2000000  0  2G04G23                                          
  21427145.92249 112600410.73849     -8986.43849        49.000  
  22516449.43849 118324740.47749       596.93849        50.000  
 16 04 02 12 41  4.3000000  0  2G04G23                                          
  21427316.99249 112601309.71549     -8992.05549        49.000  
  22516438.14849 118324681.14549       590.13749        50.000  
 16 04 02 12 41  4.4000000  0  2G04G23                                          
  21427488.14849 112602209.13749     -8996.52049        49.000  
  22516426.96949 118324622.38749       584.55149        50.000  
 16 04 02 12 41  4.5000000  0  2G04G23                                          
  21427659.39849 112603109.04349     -9001.41049        49.000  
  22516415.89849 118324564.21549       578.65249        50.000  
 16 04 02 12 41  4.6000000  0  2G04G23                                          
  21427830.75049 112604009.48049     -9006.69949        49.000  
  22516404.96149 118324506.70749       571.96549        50.000  
 16 04 02 12 41  4.7000000  0  2G04G23                                          
  21428002.19549 112604910.44549     -9011.97349        49.000  
  22516394.14149 118324449.82849       565.72749        50.000  
 16 04 02 12 41  4.8000000  0  2G04G23                                          
  21428173.71949 112605811.82049     -9016.12949        49.000  
  22516383.41449 118324393.46949       560.43849        50.000  
 16 04 02 12 41  4.9000000  0  2G04G23                                          
  21428345.34449 112606713.68849     -9020.97349        49.000  
  22516372.80549 118324337.72749       554.28149        50.000  
 16 04 02 12 41  5.0000000  0  2G04G23                                          
  21428517.06249 112607616.04749     -9025.92649        49.000  
  22516362.30549 118324282.58649       548.23849        50.000  
 16 04 02 12 41  5.1000000  0  2G04G23                                          
  21428688.86749 112608518.89849     -9030.85949        49.000  
  22516351.93049 118324228.04349       542.35549        50.000  
 16 04 02 12 41  5.2000000  0  2G04G23                                          
  21428860.76649 112609422.25449     -9035.97349        49.000  
  22516341.66449 118324174.12949       536.04349        50.000  
 16 04 02 12 41  5.3000000  0  2G04G23                                          
  21429032.76649 112610326.12149     -9041.08649        49.000  
  22516331.52349 118324120.84449       529.65649        50.000  
 16 04 02 12 41  5.4000000  0  2G04G23                                          
  21429204.85249 112611230.47349     -9045.82449        49.000  
  22516321.50049 118324068.15249       523.80149        50.000  
 16 04 02 12 41  5.5000000  0  2G04G23                                          
  21429377.03949 112612135.30949     -9050.62149        49.000  
  22516311.58649 118324016.05549       517.97749        50.000  
 16 04 02 12 41  5.6000000  0  2G04G23                                          
  21429549.30549 112613040.60549     -9055.33649        49.000  
  22516301.78149 118323964.54349       512.00049        50.000  
 16 04 02 12 41  5.7000000  0  2G04G23                                          
  21429721.68049 112613946.42649     -9060.55149        49.000  
  22516292.10249 118323913.67249       505.59449        50.000  
 16 04 02 12 41  5.8000000  0  2G04G23                                          
  21429894.14149 112614852.71149     -9065.23049        49.000  
  22516282.53149 118323863.36749       499.94149        50.000  
 16 04 02 12 41  5.9000000  0  2G04G23                                          
  21430066.69549 112615759.50049     -9070.17649        49.000  
  22516273.07849 118323813.69549       493.68049        50.000  
 16 04 02 12 41  6.0000000  0  2G04G23                                          
  21430239.34449 112616666.73449     -9074.67249        49.000  
  22516263.71949 118323764.57049       488.18449        50.000  
 16 04 02 12 41  6.1000000  0  2G04G23                                          
  21430412.08649 112617574.50449     -9079.98849        49.000  
  22516254.50049 118323716.10949       481.56249        50.000  
 16 04 02 12 41  6.2000000  0  2G04G23                                          
  21430584.92249 112618482.75449     -9084.72349        49.000  
  22516245.38349 118323668.23049       475.76649        50.000  
 16 04 02 12 41  6.3000000  0  2G04G23                                          
  21430757.84449 112619391.46149     -9089.38349        49.000  
  22516236.38349 118323620.93449       469.88749        50.000  
 16 04 02 12 41  6.4000000  0  2G04G23                                          
  21430930.87549 112620300.73449     -9095.12149        49.000  
  22516227.50849 118323574.29749       463.23449        50.000  
 16 04 02 12 41  6.5000000  0  2G04G23                                          
  21431103.98449 112621210.43849     -9099.43849        49.000  
  22516218.74249 118323528.23449       457.52349        50.000  
 16 04 02 12 41  6.6000000  0  2G04G23                                          
  21431277.19549 112622120.64149     -9104.29349        49.000  
  22516210.08649 118323482.76249       451.60549        50.000  
 16 04 02 12 41  6.7000000  0  2G04G23                                          
  21431450.49249 112623031.34449     -9109.35549        49.000  
  22516201.55549 118323437.92249       445.34849        50.000  
 16 04 02 12 41  6.8000000  0  2G04G23                                          
  21431623.89149 112623942.53949     -9114.30149        49.000  
  22516193.13349 118323393.68449       439.32449        50.000  
 16 04 02 12 41  6.9000000  0  2G04G23                                          
  21431797.37549 112624854.22749     -9119.33249        49.000  
  22516184.82849 118323350.05549       433.15249        50.000  
 16 04 02 12 41  7.0000000  0  2G04G23                                          
  21431970.95349 112625766.37949     -9123.84049        49.000  
  22516176.64149 118323307.00849       427.45749        50.000  
 16 04 02 12 41  7.1000000  0  2G04G23                                          
  21432144.61749 112626678.98449     -9128.45349        49.000  
  22516168.55549 118323264.52049       421.60549        50.000  
 16 04 02 12 41  7.2000000  0  2G04G23                                          
  21432318.39849 112627592.15649     -9133.95749        49.000  
  22516160.60249 118323222.71949       415.04749        50.000  
 16 04 02 12 41  7.3000000  0  2G04G23                                          
  21432492.25049 112628505.77749     -9138.39149        49.000  
  22516152.75849 118323181.47749       409.47349        50.000  
 16 04 02 12 41  7.4000000  0  2G04G23                                          
  21432666.18849 112629419.82849     -9142.88349        49.000  
  22516145.00849 118323140.78949       403.64849        50.000  
 16 04 02 12 41  7.5000000  0  2G04G23                                          
  21432840.22749 112630334.40649     -9147.99649        49.000  
  22516137.39149 118323100.73849       397.49249        50.000  
 16 04 02 12 41  7.6000000  0  2G04G23                                          
  21433014.35949 112631249.50449     -9153.34449        49.000  
  22516129.88349 118323061.32449       390.91049        50.000  
 16 04 02 12 41  7.7000000  0  2G04G23                                          
  21433188.57849 112632165.03549     -9157.47749        49.000  
  22516122.49249 118323022.45349       385.70349        50.000  
 16 04 02 12 41  7.8000000  0  2G04G23                                          
  21433362.89849 112633081.05949     -9162.44949        49.000  
  22516115.21149 118322984.19149       379.64149        50.000  
 16 04 02 12 41  7.9000000  0  2G04G23                                          
  21433537.31249 112633997.60949     -9167.71949        49.000  
  22516108.05549 118322946.57849       373.21949        50.000  
 16 04 02 12 41  8.0000000  0  2G04G23                                          
  21433711.81249 112634914.61749     -9172.36349        49.000  
  22516101.00049 118322909.52749       367.49649        50.000  
 16 04 02 12 41  8.1000000  0  2G04G23                                          
  21433886.39849 112635832.05949     -9176.75449        49.000  
  22516094.05549 118322873.04349       361.78149        50.000  
 16 04 02 12 41  8.2000000  0  2G04G23                                          
  21434061.08649 112636750.05549     -9182.33649        49.000  
  22516087.24249 118322837.21549       355.07849        50.000  
 16 04 02 12 41  8.3000000  0  2G04G23                                          
  21434235.86749 112637668.56649     -9187.48849        49.000  
  22516080.53949 118322802.01249       348.91449        50.000  
 16 04 02 12 41  8.4000000  0  2G04G23                                          
  21434410.74249 112638587.54749     -9192.37149        49.000  
  22516073.96149 118322767.40649       342.80949        50.000  
 16 04 02 12 41  8.5000000  0  2G04G23                                          
  21434585.71949 112639507.06649     -9197.50849        49.000  
  22516067.49249 118322733.44949       336.51249        50.000  
 16 04 02 12 41  8.6000000  0  2G04G23                                          
  21434760.77349 112640426.96949     -9201.35549        49.000  
  22516061.13349 118322700.00449       331.35949        50.000  
 16 04 02 12 41  8.7000000  0  2G04G23                                          
  21434935.93049 112641347.41849     -9206.69149        49.000  
  22516054.89149 118322667.21149       324.91449        50.000  
 16 04 02 12 41  8.8000000  0  2G04G23                                          
  21435111.18049 112642268.37549     -9211.84849        49.000  
  22516048.76649 118322635.03549       318.59049        50.000  
 16 04 02 12 41  8.9000000  0  2G04G23                                          
  21435286.53149 112643189.85249     -9217.09049        49.000  
  22516042.76649 118322603.49649       312.16449        50.000  
 16 04 02 12 41  9.0000000  0  2G04G23                                          
  21435461.96949 112644111.77049     -9221.47349        49.000  
  22516036.86749 118322572.51649       306.74249        50.000  
 16 04 02 12 41  9.1000000  0  2G04G23                                          
  21435637.48449 112645034.13349     -9225.84449        49.000  
  22516031.07849 118322542.10549       301.15249        50.000  
 16 04 02 12 41  9.2000000  0  2G04G23                                          
  21435813.09449 112645956.94949     -9230.31249        49.000  
  22516025.40649 118322512.25449       295.50449        50.000  
 16 04 02 12 41  9.3000000  0  2G04G23                                          
  21435988.78949 112646880.21949     -9234.80149        49.000  
  22516019.82849 118322482.97749       289.82849        50.000  
 16 04 02 12 41  9.4000000  0  2G04G23                                          
  21436164.58649 112647804.02049     -9240.20349        49.000  
  22516014.38349 118322454.33649       283.36749        50.000  
 16 04 02 12 41  9.5000000  0  2G04G23                                          
  21436340.47749 112648728.32049     -9245.35249        49.000  
  22516009.05549 118322426.32049       277.04349        50.000  
 16 04 02 12 41  9.6000000  0  2G04G23                                          
  21436516.45349 112649653.06649     -9249.77349        49.000  
  22516003.83649 118322398.86749       271.45749        50.000  
 16 04 02 12 41  9.7000000  0  2G04G23                                          
  21436692.52349 112650578.30949     -9254.75049        49.000  
  22515998.72749 118322372.01249       265.53549        50.000  
 16 04 02 12 41  9.8000000  0  2G04G23                                          
  21436868.68849 112651504.09449     -9260.35549        49.000  
  22515993.74249 118322345.83649       258.46149        50.000  
 16 04 02 12 41  9.9000000  0  2G04G23                                          
  21437044.95349 112652430.36749     -9265.23049        49.000  
  22515988.87549 118322320.25049       252.69549        50.000  
 16 04 02 12 41 10.0000000  0  2G04G23                                          
  21437221.28949 112653357.02749     -9268.94949        49.000  
  22515984.10949 118322295.17249       247.63749        50.000  
 16 04 02 12 41 10.1000000  0  2G04G23                                          
  21437397.73449 112654284.23449     -9274.29349        49.000  
  22515979.46149 118322270.75849       241.15649        50.000  
 16 04 02 12 41 10.2000000  0  2G04G23                                          
  21437574.25849 112655211.92649     -9279.20349        49.000  
  22515974.93049 118322246.94949       235.02749        50.000  
 16 04 02 12 41 10.3000000  0  2G04G23                                          
  21437750.87549 112656140.05949     -9283.68449        49.000  
  22515970.50849 118322223.68049       229.62549        50.000  
 16 04 02 12 41 10.4000000  0  2G04G23                                          
  21437927.59449 112657068.68449     -9288.48449        49.000  
  22515966.19549 118322201.04349       223.31649        50.000  
 16 04 02 12 41 10.5000000  0  2G04G23                                          
  21438104.40649 112657997.82449     -9293.57849        49.000  
  22515962.00849 118322179.02049       217.32049        50.000  
 16 04 02 12 41 10.6000000  0  2G04G23                                          
  21438281.29749 112658927.39149     -9297.96549        49.000  
  22515957.91449 118322157.54349       211.71549        50.000  
 16 04 02 12 41 10.7000000  0  2G04G23                                          
  21438458.28949 112659857.48849     -9303.24249        49.000  
  22515953.95349 118322136.71549       205.24649        50.000  
 16 04 02 12 41 10.8000000  0  2G04G23                                          
  21438635.37549 112660788.07049     -9308.19149        49.000  
  22515950.10249 118322116.48449       199.19149        50.000  
 16 04 02 12 41 10.9000000  0  2G04G23                                          
  21438812.54749 112661719.12149     -9312.80549        49.000  
  22515946.35949 118322096.84049       193.41049        50.000  
 16 04 02 12 41 11.0000000  0  2G04G23                                          
  21438989.82049 112662650.68449     -9317.99249        49.000  
  22515942.74249 118322077.83249       187.03949        50.000  
 16 04 02 12 41 11.1000000  0  2G04G23                                          
  21439167.17249 112663582.67649     -9322.21549        49.000  
  22515939.22749 118322059.35549       181.65649        50.000  
 16 04 02 12 41 11.2000000  0  2G04G23                                          
  21439344.63349 112664515.22349     -9327.80549        49.000  
  22515935.84449 118322041.55549       174.98049        50.000  
 16 04 02 12 41 11.3000000  0  2G04G23                                          
  21439522.18049 112665448.23449     -9332.47749        49.000  
  22515932.56249 118322024.34449       169.07049        50.000  
 16 04 02 12 41 11.4000000  0  2G04G23                                          
  21439699.82049 112666381.73449     -9337.42649        49.000  
  22515929.40649 118322007.72749       162.99649        50.000  
 16 04 02 12 41 11.5000000  0  2G04G23                                          
  21439877.54749 112667315.70349     -9341.88749        49.000  
  22515926.35249 118321991.69949       157.34849        50.000  
 16 04 02 12 41 11.6000000  0  2G04G23                                          
  21440055.35949 112668250.10549     -9346.42249        49.000  
  22515923.40649 118321976.22349       151.60549        50.000  
 16 04 02 12 41 11.7000000  0  2G04G23                                          
  21440233.27349 112669185.05549     -9351.80949        49.000  
  22515920.59449 118321961.41449       145.09849        50.000  
 16 04 02 12 41 11.8000000  0  2G04G23                                          
  21440411.26649 112670120.45749     -9356.49649        49.000  
  22515917.87549 118321947.16449       139.32449        50.000  
 16 04 02 12 41 11.9000000  0  2G04G23                                          
  21440589.35249 112671056.33249     -9360.86349        49.000  
  22515915.28149 118321933.51649       133.54349        50.000  
 16 04 02 12 41 12.0000000  0  2G04G23                                          
  21440767.54749 112671992.72749     -9366.25849        49.000  
  22515912.80549 118321920.49249       127.23449        50.000  
 16 04 02 12 41 12.1000000  0  2G04G23                                          
  21440945.82849 112672929.62949     -9371.59449        49.000  
  22515910.44549 118321908.09449       120.70349        50.000  
 16 04 02 12 41 12.2000000  0  2G04G23                                          
  21441124.20349 112673866.99249     -9376.05949        49.000  
  22515908.18849 118321896.27349       114.97349        50.000  
 16 04 02 12 41 12.3000000  0  2G04G23                                          
  21441302.67249 112674804.81649     -9380.55549        49.000  
  22515906.05549 118321885.04349       109.23049        50.000  
 16 04 02 12 41 12.4000000  0  2G04G23                                          
  21441481.22749 112675743.12949     -9385.58249        49.000  
  22515904.03149 118321874.39849       103.17649        50.000  
 16 04 02 12 41 12.5000000  0  2G04G23                                          
  21441659.87549 112676681.94949     -9390.46949        49.000  
  22515902.13349 118321864.39549        96.98049        50.000  
 16 04 02 12 41 12.6000000  0  2G04G23                                          
  21441838.61749 112677621.26249     -9395.29349        49.000  
  22515900.33649 118321854.98449        91.11349        50.000  
 16 04 02 12 41 12.7000000  0  2G04G23                                          
  21442017.44549 112678560.98849     -9399.60249        49.000  
  22515898.64849 118321846.11349        85.69149        50.000  
 16 04 02 12 41 12.8000000  0  2G04G23                                          
  21442196.37549 112679501.27349     -9405.30149        49.000  
  22515897.09449 118321837.93049        78.68849        50.000  
 16 04 02 12 41 12.9000000  0  2G04G23                                          
  21442375.40649 112680442.08249     -9410.62549        49.000  
  22515895.65649 118321830.36349        72.40649        50.000  
 16 04 02 12 41 13.0000000  0  2G04G23                                          
  21442554.51649 112681383.33249     -9414.86349        49.000  
  22515894.32849 118321823.37549        66.80549        50.000  
 16 04 02 12 41 13.1000000  0  2G04G23                                          
  21442733.71149 112682324.99249     -9418.65249        49.000  
  22515893.09449 118321816.90249        61.87549        50.000  
 16 04 02 12 41 13.2000000  0  2G04G23                                          
  21442913.00049 112683267.18849     -9424.09049        49.000  
  22515891.98449 118321811.07849        55.39849        50.000  
 16 04 02 12 41 13.3000000  0  2G04G23                                          
  21443092.38349 112684209.85249     -9429.07449        49.000  
  22515890.99249 118321805.84849        49.24649        50.000  
 16 04 02 12 41 13.4000000  0  2G04G23                                          
  21443271.86749 112685153.03549     -9434.21549        49.000  
  22515890.11749 118321801.25849        42.72749        50.000  
 16 04 02 12 41 13.5000000  0  2G04G23                                          
  21443451.43849 112686096.66449     -9438.59449        49.000  
  22515889.35249 118321797.22749        37.16849        50.000  
 16 04 02 12 41 13.6000000  0  2G04G23                                          
  21443631.10249 112687040.83649     -9443.94549        49.000  
  22515888.71149 118321793.84449        30.92249        50.000  
 16 04 02 12 41 13.7000000  0  2G04G23                                          
  21443810.84449 112687985.37549     -9447.67249        49.000  
  22515888.16449 118321790.96549        25.67249        50.000  
 16 04 02 12 41 13.8000000  0  2G04G23                                          
  21443990.70349 112688930.49249     -9453.46549        49.000  
  22515887.74249 118321788.76249        18.95349        50.000  
 16 04 02 12 41 13.9000000  0  2G04G23                                          
  21444170.64849 112689876.12949     -9458.70349        49.000  
  22515887.44549 118321787.20749        12.48449        50.000  
 16 04 02 12 41 14.0000000  0  2G04G23                                          
  21444350.67249 112690822.19549     -9462.89849        49.000  
  22515887.25049 118321786.19549         7.03549        50.000  
 16 04 02 12 41 14.1000000  0  2G04G23                                          
  21444530.78949 112691768.69549     -9467.24649        49.000  
  22515887.16449 118321785.73449         1.55949        50.000  
 16 04 02 12 41 14.2000000  0  2G04G23                                          
  21444711.00049 112692715.71949     -9472.41849        49.000  
  22515887.19549 118321785.91449        -4.73449        50.000  
 16 04 02 12 41 14.3000000  0  2G04G23                                          
  21444891.30549 112693663.24249     -9477.60949        49.000  
  22515887.34449 118321786.71149       -11.18849        50.000  
 16 04 02 12 41 14.4000000  0  2G04G23                                          
  21445071.71149 112694611.23849     -9482.44949        49.000  
  22515887.60949 118321788.09849       -17.16849        50.000  
 16 04 02 12 41 14.5000000  0  2G04G23                                          
  21445252.21149 112695559.75849     -9487.46949        49.000  
  22515887.99249 118321790.12549       -23.27049        50.000  
 16 04 02 12 41 14.6000000  0  2G04G23                                          
  21445432.78149 112696508.66449     -9491.46149        49.000  
  22515888.47749 118321792.65649       -28.43849        50.000  
 16 04 02 12 41 14.7000000  0  2G04G23                                          
  21445613.46149 112697458.12949     -9496.95349        49.000  
  22515889.08649 118321795.86349       -35.11349        50.000  
 16 04 02 12 41 14.8000000  0  2G04G23                                          
  21445794.22749 112698408.04749     -9501.46949        49.000  
  22515889.80549 118321799.64149       -40.85949        50.000  
 16 04 02 12 41 14.9000000  0  2G04G23                                          
  21445975.08649 112699358.46149     -9506.35249        49.000  
  22515890.64149 118321804.04349       -46.96149        50.000  
 16 04 02 12 41 15.0000000  0  2G04G23                                          
  21446156.03949 112700309.34849     -9511.16449        49.000  
  22515891.58649 118321809.01649       -52.84449        50.000  
 16 04 02 12 41 15.1000000  0  2G04G23                                          
  21446337.07049 112701260.70349     -9515.67649        49.000  
  22515892.64849 118321814.58649       -58.56649        50.000  
 16 04 02 12 41 15.2000000  0  2G04G23                                          
  21446518.20349 112702212.52349     -9520.38349        49.000  
  22515893.82049 118321820.73449       -64.48049        50.000  
 16 04 02 12 41 15.3000000  0  2G04G23                                          
  21446699.41449 112703164.82049     -9525.14549        49.000  
  22515895.10249 118321827.47749       -70.33649        50.000  
 16 04 02 12 41 15.4000000  0  2G04G23                                          
  21446880.73449 112704117.64149     -9530.50449        49.000  
  22515896.50849 118321834.85949       -76.86349        50.000  
 16 04 02 12 41 15.5000000  0  2G04G23                                          
  21447062.14149 112705070.92249     -9535.17249        49.000  
  22515898.02349 118321842.82849       -82.84849        50.000  
 16 04 02 12 41 15.6000000  0  2G04G23                                          
  21447243.63349 112706024.71549     -9540.11349        49.000  
  22515899.65649 118321851.41849       -88.82049        50.000  
 16 04 02 12 41 15.7000000  0  2G04G23                                          
  21447425.21949 112706978.95349     -9544.69949        49.000  
  22515901.39849 118321860.57049       -94.62949        50.000  
 16 04 02 12 41 15.8000000  0  2G04G23                                          
  21447606.89849 112707933.67249     -9549.32049        49.000  
  22515903.25849 118321870.33249      -100.43449        50.000  
 16 04 02 12 41 15.9000000  0  2G04G23                                          
  21447788.66449 112708888.84049     -9554.14849        49.000  
  22515905.21949 118321880.64849      -106.56649        50.000  
 16 04 02 12 41 16.0000000  0  2G04G23                                          
  21447970.51649 112709844.51249     -9558.81649        49.000  
  22515907.30549 118321891.58249      -112.19549        50.000  
 16 04 02 12 41 16.1000000  0  2G04G23                                          
  21448152.44549 112710800.57449     -9562.95749        49.000  
  22515909.48449 118321903.03949      -117.60249        50.000  
 16 04 02 12 41 16.2000000  0  2G04G23                                          
  21448334.48449 112711757.14549     -9567.76249        49.000  
  22515911.78149 118321915.11749      -123.59449        50.000  
 16 04 02 12 41 16.3000000  0  2G04G23                                          
  21448516.60949 112712714.23449     -9573.24649        49.000  
  22515914.19549 118321927.83249      -130.24249        50.000  
 16 04 02 12 41 16.4000000  0  2G04G23                                          
  21448698.82849 112713671.81249     -9578.16449        49.000  
  22515916.72749 118321941.14849      -136.30549        50.000  
 16 04 02 12 41 16.5000000  0  2G04G23                                          
  21448881.15649 112714629.94549     -9583.72749        49.000  
  22515919.39149 118321955.13749      -143.00449        50.000  
 16 04 02 12 41 16.6000000  0  2G04G23                                          
  21449063.57049 112715588.54349     -9588.50049        49.000  
  22515922.16449 118321969.71949      -149.04349        50.000  
 16 04 02 12 41 16.7000000  0  2G04G23                                          
  21449246.07049 112716547.55549     -9592.28149        49.000  
  22515925.03949 118321984.82849      -154.03549        50.000  
 16 04 02 12 41 16.8000000  0  2G04G23                                          
  21449428.65649 112717507.05949     -9597.23049        49.000  
  22515928.03149 118322000.52749      -159.99649        50.000  
 16 04 02 12 41 16.9000000  0  2G04G23                                          
  21449611.33649 112718467.05149     -9602.14849        49.000  
  22515931.14149 118322016.85549      -166.17249        50.000  
 16 04 02 12 41 17.0000000  0  2G04G23                                          
  21449794.10249 112719427.49649     -9606.74249        49.000  
  22515934.35249 118322033.75049      -171.93049        50.000  
 16 04 02 12 41 17.1000000  0  2G04G23                                          
  21449976.96149 112720388.43449     -9611.71949        49.000  
  22515937.68849 118322051.26249      -178.28549        50.000  
 16 04 02 12 41 17.2000000  0  2G04G23                                          
  21450159.92249 112721349.91449     -9617.12949        49.000  
  22515941.14849 118322069.42249      -184.76649        50.000  
 16 04 02 12 41 17.3000000  0  2G04G23                                          
  21450342.97749 112722311.87949     -9621.98049        49.000  
  22515944.71949 118322088.19549      -190.80149        50.000  
 16 04 02 12 41 17.4000000  0  2G04G23                                          
  21450526.11749 112723274.25049     -9625.85249        49.000  
  22515948.39149 118322107.48449      -195.86349        50.000  
 16 04 02 12 41 17.5000000  0  2G04G23                                          
  21450709.33649 112724237.06649     -9630.34049        49.000  
  22515952.16449 118322127.33249      -201.48049        50.000  
 16 04 02 12 41 17.6000000  0  2G04G23                                          
  21450892.65649 112725200.42649     -9635.74649        49.000  
  22515956.07049 118322147.85549      -208.16849        50.000  
 16 04 02 12 41 17.7000000  0  2G04G23                                          
  21451076.07049 112726164.27349     -9640.85249        49.000  
  22515960.09449 118322168.98449      -214.43049        50.000  
 16 04 02 12 41 17.8000000  0  2G04G23                                          
  21451259.57849 112727128.61349     -9645.79349        49.000  
  22515964.22749 118322190.70349      -220.38749        50.000  
 16 04 02 12 41 17.9000000  0  2G04G23                                          
  21451443.18849 112728093.47749     -9651.22749        49.000  
  22515968.48449 118322213.07449      -227.05149        50.000  
 16 04 02 12 41 18.0000000  0  2G04G23                                          
  21451626.89149 112729058.81649     -9655.64149        49.000  
  22515972.85949 118322236.05549      -232.75849        50.000  
 16 04 02 12 41 18.1000000  0  2G04G23                                          
  21451810.66449 112730024.55149     -9659.55549        49.000  
  22515977.32049 118322259.53149      -237.68849        50.000  
 16 04 02 12 41 18.2000000  0  2G04G23                                          
  21451994.53949 112730990.82049     -9665.11749        49.000  
  22515981.92249 118322283.67249      -244.66049        50.000  
 16 04 02 12 41 18.3000000  0  2G04G23                                          
  21452178.50849 112731957.60249     -9670.19149        49.000  
  22515986.63349 118322308.43049      -250.82449        50.000  
 16 04 02 12 41 18.4000000  0  2G04G23                                          
  21452362.57849 112732924.87949     -9675.03549        49.000  
  22515991.46149 118322333.82849      -257.03149        50.000  
 16 04 02 12 41 18.5000000  0  2G04G23                                          
  21452546.73449 112733892.63349     -9679.80149        49.000  
  22515996.39849 118322359.78149      -262.70749        50.000  
 16 04 02 12 41 18.6000000  0  2G04G23                                          
  21452730.99249 112734860.86349     -9684.57449        49.000  
  22516001.46149 118322386.36349      -268.80549        50.000  
 16 04 02 12 41 18.7000000  0  2G04G23                                          
  21452915.32849 112735829.56649     -9689.38749        49.000  
  22516006.62549 118322413.52049      -274.63349        50.000  
 16 04 02 12 41 18.8000000  0  2G04G23                                          
  21453099.75849 112736798.75449     -9694.13749        49.000  
  22516011.91449 118322441.28149      -280.67649        50.000  
 16 04 02 12 41 18.9000000  0  2G04G23                                          
  21453284.26649 112737768.35249     -9698.12949        49.000  
  22516017.29749 118322469.58249      -285.93449        50.000  
 16 04 02 12 41 19.0000000  0  2G04G23                                          
  21453468.87549 112738738.46149     -9703.30949        49.000  
  22516022.80549 118322498.49249      -292.21949        50.000  
 16 04 02 12 41 19.1000000  0  2G04G23                                          
  21453653.57849 112739709.08249     -9708.52049        49.000  
  22516028.43049 118322528.04349      -298.51649        50.000  
 16 04 02 12 41 19.2000000  0  2G04G23                                          
  21453838.36749 112740680.16449     -9713.06649        49.000  
  22516034.16449 118322558.18449      -304.38349        50.000  
 16 04 02 12 41 19.3000000  0  2G04G23                                          
  21454023.24249 112741651.68849     -9717.35549        49.000  
  22516040.00849 118322588.87949      -309.87549        50.000  
 16 04 02 12 41 19.4000000  0  2G04G23                                          
  21454208.21149 112742623.69549     -9722.30149        49.000  
  22516045.96949 118322620.16449      -315.88349        50.000  
 16 04 02 12 41 19.5000000  0  2G04G23                                          
  21454393.27349 112743596.22349     -9727.53549        49.000  
  22516052.04749 118322652.10249      -322.43849        50.000  
 16 04 02 12 41 19.6000000  0  2G04G23                                          
  21454578.42249 112744569.19949     -9732.19149        49.000  
  22516058.22749 118322684.60549      -328.24649        50.000  
 16 04 02 12 41 19.7000000  0  2G04G23                                          
  21454763.67249 112745542.66849     -9736.99249        49.000  
  22516064.53149 118322717.71949      -334.17249        50.000  
 16 04 02 12 41 19.8000000  0  2G04G23                                          
  21454949.00049 112746516.62149     -9741.73849        49.000  
  22516070.93849 118322751.43049      -340.05949        50.000  
 16 04 02 12 41 19.9000000  0  2G04G23                                          
  21455134.42249 112747491.02349     -9746.17249        49.000  
  22516077.46149 118322785.71549      -345.67649        50.000  
 16 04 02 12 41 20.0000000  0  2G04G23                                          
  21455319.94549 112748465.93849     -9751.42249        49.000  
  22516084.10949 118322820.63349      -352.22749        50.000  
 16 04 02 12 41 20.1000000  0  2G04G23                                          
  21455505.55549 112749441.32449     -9756.10949        49.000  
  22516090.86749 118322856.13749      -358.00849        50.000  
 16 04 02 12 41 20.2000000  0  2G04G23                                          
  21455691.25849 112750417.17249     -9760.75849        49.000  
  22516097.73449 118322892.21949      -363.88349        50.000  
 16 04 02 12 41 20.3000000  0  2G04G23                                          
  21455877.04749 112751393.51249     -9765.66049        49.000  
  22516104.71949 118322928.91449      -370.00849        50.000  
 16 04 02 12 41 20.4000000  0  2G04G23                                          
  21456062.93049 112752370.35549     -9770.70749        49.000  
  22516111.81249 118322966.23849      -376.28549        50.000  
 16 04 02 12 41 20.5000000  0  2G04G23                                          
  21456248.91449 112753347.68449     -9775.65649        49.000  
  22516119.03149 118323004.15649      -382.34849        50.000  
 16 04 02 12 41 20.6000000  0  2G04G23                                          
  21456434.97749 112754325.44949     -9779.92249        49.000  
  22516126.35249 118323042.64149      -387.86749        50.000  
 16 04 02 12 41 20.7000000  0  2G04G23                                          
  21456621.14149 112755303.75449     -9785.38349        49.000  
  22516133.79749 118323081.76649      -394.49249        50.000  
 16 04 02 12 41 20.8000000  0  2G04G23                                          
  21456807.38349 112756282.49649     -9789.83649        49.000  
  22516141.35249 118323121.46549      -400.07849        50.000  
 16 04 02 12 41 20.9000000  0  2G04G23                                          
  21456993.72749 112757261.71149     -9794.37549        49.000  
  22516149.02349 118323161.75049      -405.77349        50.000  
 16 04 02 12 41 21.0000000  0  2G04G23                                          
  21457180.15649 112758241.41049     -9799.25849        49.000  
  22516156.79749 118323202.64549      -412.00449        50.000  
 16 04 02 12 41 21.1000000  0  2G04G23                                          
  21457366.67249 112759221.55949     -9803.72749        49.000  
  22516164.68849 118323244.09849      -417.53549        50.000  
 16 04 02 12 41 21.2000000  0  2G04G23                                          
  21457553.28149 112760202.20349     -9808.80549        49.000  
  22516172.69549 118323286.16449      -423.84849        50.000  
 16 04 02 12 41 21.3000000  0  2G04G23                                          
  21457739.99249 112761183.36749     -9813.97349        49.000  
  22516180.82849 118323328.88349      -430.27349        50.000  
 16 04 02 12 41 21.4000000  0  2G04G23                                          
  21457926.78149 112762164.96149     -9818.28949        49.000  
  22516189.05549 118323372.14149      -435.70749        50.000  
 16 04 02 12 41 21.5000000  0  2G04G23                                          
  21458113.66449 112763147.05949     -9823.25449        49.000  
  22516197.41449 118323416.02749      -441.96149        50.000  
 16 04 02 12 41 21.6000000  0  2G04G23                                          
  21458300.63349 112764129.59049     -9827.52049        49.000  
  22516205.86749 118323460.46549      -447.43449        50.000  
 16 04 02 12 41 21.7000000  0  2G04G23                                          
  21458487.71149 112765112.69949     -9833.25449        49.000  
  22516214.45349 118323505.59049      -454.25849        50.000  
 16 04 02 12 41 21.8000000  0  2G04G23                                          
  21458674.86749 112766096.20749     -9837.41449        49.000  
  22516223.14149 118323551.23449      -459.55949        50.000  
 16 04 02 12 41 21.9000000  0  2G04G23                                          
  21458862.12549 112767080.25849     -9842.76249        49.000  
  22516231.95349 118323597.55549      -466.21549        50.000  
 16 04 02 12 41 22.0000000  0  2G04G23                                          
  21459049.46949 112768064.73049     -9847.02049        49.000  
  22516240.87549 118323644.41449      -471.61349        50.000  
 16 04 02 12 41 22.1000000  0  2G04G23                                          
  21459236.89849 112769049.66049     -9851.41449        49.000  
  22516249.89849 118323691.84849      -477.35949        50.000  
 16 04 02 12 41 22.2000000  0  2G04G23                                          
  21459424.41449 112770035.12149     -9856.74649        49.000  
  22516259.03949 118323739.91849      -483.64549        50.000  
 16 04 02 12 41 22.3000000  0  2G04G23                                          
  21459612.02349 112771021.00449     -9861.10949        49.000  
  22516268.29749 118323788.54749      -489.27349        50.000  
 16 04 02 12 41 22.4000000  0  2G04G23                                          
  21459799.71949 112772007.35249     -9865.62149        49.000  
  22516277.66449 118323837.75049      -494.95749        50.000  
 16 04 02 12 41 22.5000000  0  2G04G23                                          
  21459987.50849 112772994.21549     -9871.07049        49.000  
  22516287.14849 118323887.59449      -501.69949        50.000  
 16 04 02 12 41 22.6000000  0  2G04G23                                          
  21460175.40649 112773981.61749     -9876.41049        49.000  
  22516296.75849 118323938.09849      -508.24649        50.000  
 16 04 02 12 41 22.7000000  0  2G04G23                                          
  21460363.39149 112774969.46149     -9880.84049        49.000  
  22516306.46949 118323989.15249      -513.74649        50.000  
 16 04 02 12 41 22.8000000  0  2G04G23                                          
  21460551.45349 112775957.78149     -9885.43449        49.000  
  22516316.29749 118324040.80549      -519.48049        50.000  
 16 04 02 12 41 22.9000000  0  2G04G23                                          
  21460739.60949 112776946.55549     -9889.99649        49.000  
  22516326.24249 118324093.04749      -525.42649        50.000  
 16 04 02 12 41 23.0000000  0  2G04G23                                          
  21460927.87549 112777935.86349     -9895.55549        49.000  
  22516336.29749 118324145.93049      -532.12949        50.000  
 16 04 02 12 41 23.1000000  0  2G04G23                                          
  21461116.21949 112778925.64149     -9900.16049        49.000  
  22516346.46949 118324199.39549      -537.76649        50.000  
 16 04 02 12 41 23.2000000  0  2G04G23                                          
  21461304.65649 112779915.88349     -9904.65649        49.000  
  22516356.75849 118324253.46549      -543.60249        50.000  
 16 04 02 12 41 23.3000000  0  2G04G23                                          
  21461493.18849 112780906.62549     -9909.62949        49.000  
  22516367.16449 118324308.14149      -549.76249        50.000  
 16 04 02 12 41 23.4000000  0  2G04G23                                          
  21461681.80549 112781897.79749     -9913.91849        49.000  
  22516377.68049 118324363.36749      -555.21149        50.000  
 16 04 02 12 41 23.5000000  0  2G04G23                                          
  21461870.52349 112782889.50849     -9919.39849        49.000  
  22516388.31249 118324419.25449      -561.93449        50.000  
 16 04 02 12 41 23.6000000  0  2G04G23                                          
  21462059.33649 112783881.71949     -9924.37949        49.000  
  22516399.06249 118324475.76249      -568.10949        50.000  
 16 04 02 12 41 23.7000000  0  2G04G23                                          
  21462248.23449 112784874.37549     -9928.89849        49.000  
  22516409.92249 118324532.82449      -573.70349        50.000  
 16 04 02 12 41 23.8000000  0  2G04G23                                          
  21462437.22749 112785867.55549     -9934.12949        49.000  
  22516420.90649 118324590.54349      -580.32049        50.000  
 16 04 02 12 41 23.9000000  0  2G04G23                                          
  21462626.31249 112786861.21549     -9938.99249        49.000  
  22516432.00049 118324648.85949      -586.35249        50.000  
 16 04 02 12 41 24.0000000  0  2G04G23                                          
  21462815.48449 112787855.30149     -9943.21149        49.000  
  22516443.20349 118324707.72349      -591.73849        50.000  
 16 04 02 12 41 24.1000000  0  2G04G23                                          
  21463004.75049 112788849.90249     -9948.10249        49.000  
  22516454.52349 118324767.21549      -597.82849        50.000  
 16 04 02 12 41 24.2000000  0  2G04G23                                          
  21463194.10249 112789844.94549     -9952.66849        49.000  
  22516465.95349 118324827.27349      -603.57449        50.000  
 16 04 02 12 41 24.3000000  0  2G04G23                                          
  21463383.53149 112790840.40249     -9956.70349        49.000  
  22516477.48449 118324887.86749      -608.83249        50.000  
 16 04 02 12 41 24.4000000  0  2G04G23                                          
  21463573.05549 112791836.38349     -9962.12949        49.000  
  22516489.13349 118324949.09849      -615.40649        50.000  
 16 04 02 12 41 24.5000000  0  2G04G23                                          
  21463762.67249 112792832.82049     -9966.77049        49.000  
  22516500.89849 118325010.90249      -621.13749        50.000  
 16 04 02 12 41 24.6000000  0  2G04G23                                          
  21463952.37549 112793829.71149     -9971.13749        49.000  
  22516512.77349 118325073.30949      -627.07849        50.000  
 16 04 02 12 41 24.7000000  0  2G04G23                                          
  21464142.16449 112794827.09449     -9975.96949        49.000  
  22516524.75849 118325136.28949      -632.84849        50.000  
 16 04 02 12 41 24.8000000  0  2G04G23                                          
  21464332.06249 112795825.02049     -9981.68449        49.000  
  22516536.86749 118325199.95349      -639.85249        50.000  
 16 04 02 12 41 24.9000000  0  2G04G23                                          
  21464522.05549 112796823.41049     -9986.23849        49.000  
  22516549.09449 118325264.19949      -645.50449        50.000  
 16 04 02 12 41 25.0000000  0  2G04G23                                          
  21464712.12549 112797822.22349     -9990.37149        49.000  
  22516561.42249 118325328.97749      -650.70749        50.000  
 16 04 02 12 41 25.1000000  0  2G04G23                                          
  21464902.26649 112798821.44949     -9994.42249        49.000  
  22516573.85249 118325394.30949      -656.27049        50.000  
 16 04 02 12 41 25.2000000  0  2G04G23                                          
  21465092.51649 112799821.16849     -9999.27049        49.000  
  22516586.39849 118325460.24649      -662.23449        50.000  
 16 04 02 12 41 25.3000000  0  2G04G23                                          
  21465282.85949 112800821.45349    -10005.38749        49.000  
  22516599.07849 118325526.86749      -669.55549        50.000  
 16 04 02 12 41 25.4000000  0  2G04G23                                          
  21465473.31249 112801822.27349    -10010.64549        49.000  
  22516611.88349 118325594.13749      -675.81249        50.000  
 16 04 02 12 41 25.5000000  0  2G04G23                                          
  21465663.83649 112802823.46549    -10014.33649        49.000  
  22516624.78149 118325661.91049      -680.88349        50.000  
 16 04 02 12 41 25.6000000  0  2G04G23                                          
  21465854.45349 112803825.20349    -10019.63749        49.000  
  22516637.79749 118325730.33649      -687.23449        50.000  
 16 04 02 12 41 25.7000000  0  2G04G23                                          
  21466045.16449 112804827.40649    -10024.42249        49.000  
  22516650.93849 118325799.36349      -693.46149        50.000  
 16 04 02 12 41 25.8000000  0  2G04G23                                          
  21466235.97749 112805830.09849    -10029.09049        49.000  
  22516664.18049 118325868.99249      -699.27349        50.000  
 16 04 02 12 41 25.9000000  0  2G04G23                                          
  21466426.87549 112806833.25849    -10033.88749        49.000  
  22516677.54749 118325939.21549      -705.29349        50.000  
 16 04 02 12 41 26.0000000  0  2G04G23                                          
  21466617.85949 112807836.89149    -10038.61749        49.000  
  22516691.02349 118326010.02749      -711.15649        50.000  
 16 04 02 12 41 26.1000000  0  2G04G23                                          
  21466808.93049 112808841.00849    -10043.54749        49.000  
  22516704.60949 118326081.44149      -717.41449        50.000  
 16 04 02 12 41 26.2000000  0  2G04G23                                          
  21467000.10949 112809845.62549    -10048.54349        49.000  
  22516718.31249 118326153.48049      -723.50449        50.000  
 16 04 02 12 41 26.3000000  0  2G04G23                                          
  21467191.36749 112810850.73049    -10053.22749        49.000  
  22516732.13349 118326226.12149      -729.39549        50.000  
 16 04 02 12 41 26.4000000  0  2G04G23                                          
  21467382.71949 112811856.28549    -10057.97349        49.000  
  22516746.07049 118326299.34449      -735.41049        50.000  
 16 04 02 12 41 26.5000000  0  2G04G23                                          
  21467574.15649 112812862.29349    -10062.30949        49.000  
  22516760.10949 118326373.12949      -740.87949        50.000  
 16 04 02 12 41 26.6000000  0  2G04G23                                          
  21467765.68049 112813868.76649    -10066.87149        49.000  
  22516774.25849 118326447.49649      -746.62149        50.000  
 16 04 02 12 41 26.7000000  0  2G04G23                                          
  21467957.28949 112814875.70749    -10071.55549        49.000  
  22516788.52349 118326522.47349      -752.63749        50.000  
 16 04 02 12 41 26.8000000  0  2G04G23                                          
  21468149.00849 112815883.16849    -10076.84449        49.000  
  22516802.91449 118326598.07449      -759.05949        50.000  
 16 04 02 12 41 26.9000000  0  2G04G23                                          
  21468340.80549 112816891.06249    -10081.28549        49.000  
  22516817.40649 118326674.22749      -764.64549        50.000  
 16 04 02 12 41 27.0000000  0  2G04G23                                          
  21468532.68849 112817899.45749    -10086.15249        49.000  
  22516832.02349 118326751.01649      -770.84049        50.000  
 16 04 02 12 41 27.1000000  0  2G04G23                                          
  21468724.68049 112818908.35249    -10091.37549        49.000  
  22516846.75049 118326828.40249      -777.16449        50.000  
 16 04 02 12 41 27.2000000  0  2G04G23                                          
  21468916.75049 112819917.70349    -10095.93049        49.000  
  22516861.58649 118326906.38349      -782.95349        50.000  
 16 04 02 12 41 27.3000000  0  2G04G23                                          
  21469108.92249 112820927.58649    -10101.21949        49.000  
  22516876.55549 118326985.02049      -789.53949        50.000  
 16 04 02 12 41 27.4000000  0  2G04G23                                          
  21469301.20349 112821938.01649    -10106.60549        49.000  
  22516891.64149 118327064.31649      -796.06249        50.000  
 16 04 02 12 41 27.5000000  0  2G04G23                                          
  21469493.56249 112822948.87549    -10110.85949        49.000  
  22516906.83649 118327144.16449      -801.50849        50.000  
 16 04 02 12 41 27.6000000  0  2G04G23                                          
  21469686.00849 112823960.15249    -10114.98449        49.000  
  22516922.14149 118327224.55549      -806.98449        50.000  
 16 04 02 12 41 27.7000000  0  2G04G23                                          
  21469878.53949 112824971.92249    -10119.92249        49.000  
  22516937.55549 118327305.55549      -812.91449        50.000  
 16 04 02 12 41 27.8000000  0  2G04G23                                          
  21470071.18049 112825984.21949    -10125.17649        49.000  
  22516953.09449 118327387.18849      -819.26649        50.000  
 16 04 02 12 41 27.9000000  0  2G04G23                                          
  21470263.89849 112826996.96149    -10129.85549        49.000  
  22516968.74249 118327469.42249      -825.51649        50.000  
 16 04 02 12 41 28.0000000  0  2G04G23                                          
  21470456.71949 112828010.22349    -10134.79349        49.000  
  22516984.50849 118327552.26649      -831.37949        50.000  
 16 04 02 12 41 28.1000000  0  2G04G23                                          
  21470649.60949 112829023.87549    -10138.85549        49.000  
  22517000.37549 118327635.63349      -836.71949        50.000  
 16 04 02 12 41 28.2000000  0  2G04G23                                          
  21470842.60249 112830038.05949    -10144.15649        49.000  
  22517016.35949 118327719.65649      -843.24649        50.000  
 16 04 02 12 41 28.3000000  0  2G04G23                                          
  21471035.68049 112831052.69949    -10148.67649        49.000  
  22517032.46149 118327804.26249      -849.13749        50.000  
 16 04 02 12 41 28.4000000  0  2G04G23                                          
  21471228.83649 112832067.76249    -10152.80549        49.000  
  22517048.65649 118327889.38749      -854.18049        50.000  
 16 04 02 12 41 28.5000000  0  2G04G23                                          
  21471422.10249 112833083.37549    -10158.46549        49.000  
  22517064.99249 118327975.20749      -861.27749        50.000  
 16 04 02 12 41 28.6000000  0  2G04G23                                          
  21471615.45349 112834099.41849    -10162.64549        49.000  
  22517081.43049 118328061.57449      -866.56649        50.000  
 16 04 02 12 41 28.7000000  0  2G04G23                                          
  21471808.89149 112835115.94549    -10167.65649        49.000  
  22517097.97749 118328148.54349      -872.87549        50.000  
 16 04 02 12 41 28.8000000  0  2G04G23                                          
  21472002.42249 112836132.96549    -10172.33649        49.000  
  22517114.64149 118328236.12549      -878.67249        50.000  
 16 04 02 12 41 28.9000000  0  2G04G23                                          
  21472196.03149 112837150.39149    -10176.55149        49.000  
  22517131.41449 118328324.24249      -884.20349        50.000  
 16 04 02 12 41 29.0000000  0  2G04G23                                          
  21472389.74249 112838168.35249    -10181.85549        49.000  
  22517148.30549 118328412.99649      -890.66849        50.000  
 16 04 02 12 41 29.1000000  0  2G04G23                                          
  21472583.55549 112839186.84049    -10187.41849        49.000  
  22517165.32049 118328502.41449      -897.57049        50.000  
 16 04 02 12 41 29.2000000  0  2G04G23                                          
  21472777.46949 112840205.85949    -10192.49249        49.000  
  22517182.46149 118328592.48449      -903.70349        50.000  
 16 04 02 12 41 29.3000000  0  2G04G23                                          
  21472971.46949 112841225.31649    -10196.87549        49.000  
  22517199.71149 118328683.10549      -909.32849        50.000  
 16 04 02 12 41 29.4000000  0  2G04G23                                          
  21473165.54749 112842245.21949    -10201.27349        49.000  
  22517217.05549 118328774.30149      -914.96949        50.000  
 16 04 02 12 41 29.5000000  0  2G04G23                                          
  21473359.72749 112843265.63749    -10206.48449        49.000  
  22517234.53149 118328866.13349      -921.35249        50.000  
 16 04 02 12 41 29.6000000  0  2G04G23                                          
  21473554.00049 112844286.54349    -10211.40249        49.000  
  22517252.12549 118328958.57049      -927.37149        50.000  
 16 04 02 12 41 29.7000000  0  2G04G23                                          
  21473748.35249 112845307.86349    -10215.49249        49.000  
  22517269.82049 118329051.56249      -933.12149        50.000  
 16 04 02 12 41 29.8000000  0  2G04G23                                          
  21473942.81249 112846329.78149    -10221.43449        49.000  
  22517287.64849 118329145.23849      -939.86349        50.000  
 16 04 02 12 41 29.9000000  0  2G04G23                                          
  21474137.36749 112847352.14849    -10225.89849        49.000  
  22517305.58649 118329239.51249      -945.62949        50.000  
 16 04 02 12 41 30.0000000  0  2G04G23                                          
  21474331.99249 112848374.92249    -10229.94149        49.000  
  22517323.62549 118329334.30949      -950.93849        50.000  
 16 04 02 12 41 30.1000000  0  2G04G23                                          
  21474526.70349 112849398.13349    -10234.17649        49.000  
  22517341.76649 118329429.66049      -956.38749        50.000  
 16 04 02 12 41 30.2000000  0  2G04G23                                          
  21474721.50849 112850421.82449    -10239.13749        49.000  
  22517360.02349 118329525.60549      -962.50849        50.000  
 16 04 02 12 41 30.3000000  0  2G04G23                                          
  21474916.40649 112851446.02749    -10244.24249        49.000  
  22517378.40649 118329622.20349      -968.96549        50.000  
 16 04 02 12 41 30.4000000  0  2G04G23                                          
  21475111.39149 112852470.69949    -10249.03949        49.000  
  22517396.89849 118329719.37549      -974.81249        50.000  
 16 04 02 12 41 30.5000000  0  2G04G23                                          
  21475306.46149 112853495.78949    -10253.14149        49.000  
  22517415.49249 118329817.09449      -980.18049        50.000  
 16 04 02 12 41 30.6000000  0  2G04G23                                          
  21475501.63349 112854521.40649    -10258.54749        49.000  
  22517434.21949 118329915.46549      -986.85949        50.000  
 16 04 02 12 41 30.7000000  0  2G04G23                                          
  21475696.89849 112855547.55549    -10263.77749        49.000  
  22517453.05549 118330014.48449      -993.24649        50.000  
 16 04 02 12 41 30.8000000  0  2G04G23                                          
  21475892.24249 112856574.09849    -10267.67649        49.000  
  22517472.00049 118330114.02049      -998.34049        50.000  
 16 04 02 12 41 30.9000000  0  2G04G23                                          
  21476087.68049 112857601.10949    -10272.30549        49.000  
  22517491.05549 118330214.14849     -1004.29349        50.000  
 16 04 02 12 41 31.0000000  0  2G04G23                                          
  21476283.22749 112858628.71149    -10278.33249        49.000  
  22517510.24249 118330314.98849     -1011.52049        50.000  
 16 04 02 12 41 31.1000000  0  2G04G23                                          
  21476478.85949 112859656.75849    -10282.85249        49.000  
  22517529.53949 118330416.39149     -1017.21149        50.000  
 16 04 02 12 41 31.2000000  0  2G04G23                                          
  21476674.55549 112860685.17249    -10286.25849        49.000  
  22517548.93849 118330518.29349     -1021.95749        50.000  
 16 04 02 12 41 31.3000000  0  2G04G23                                          
  21476870.36749 112861714.15249    -10292.00849        49.000  
  22517568.46149 118330620.87149     -1028.82049        50.000  
 16 04 02 12 41 31.4000000  0  2G04G23                                          
  21477066.26649 112862743.58249    -10296.51249        49.000  
  22517588.08649 118330724.02749     -1034.50849        50.000  
 16 04 02 12 41 31.5000000  0  2G04G23                                          
  21477262.25049 112863773.47749    -10301.17249        49.000  
  22517607.82849 118330827.76649     -1040.39849        50.000  
 16 04 02 12 41 31.6000000  0  2G04G23                                          
  21477458.32049 112864803.84449    -10305.77049        49.000  
  22517627.68849 118330932.10949     -1046.32449        50.000  
 16 04 02 12 41 31.7000000  0  2G04G23                                          
  21477654.47749 112865834.67249    -10310.53549        49.000  
  22517647.64849 118331037.01249     -1052.14149        50.000  
 16 04 02 12 41 31.8000000  0  2G04G23                                          
  21477850.72749 112866865.96949    -10315.20749        49.000  
  22517667.73449 118331142.53149     -1058.23049        50.000  
 16 04 02 12 41 31.9000000  0  2G04G23                                          
  21478047.07849 112867897.78949    -10320.50449        49.000  
  22517687.93049 118331248.68849     -1064.63349        50.000  
 16 04 02 12 41 32.0000000  0  2G04G23                                          
  21478243.51649 112868930.08649    -10325.25049        49.000  
  22517708.24249 118331355.43849     -1070.63349        50.000  
 16 04 02 12 41 32.1000000  0  2G04G23                                          
  21478440.03949 112869962.82449    -10329.75849        49.000  
  22517728.66449 118331462.75449     -1076.21149        50.000  
 16 04 02 12 41 32.2000000  0  2G04G23                                          
  21478636.67249 112870996.12149    -10335.08649        49.000  
  22517749.22749 118331570.76249     -1082.90249        50.000  
 16 04 02 12 41 32.3000000  0  2G04G23                                          
  21478833.37549 112872029.80949    -10339.25449        49.000  
  22517769.87549 118331679.27349     -1088.35949        50.000  
 16 04 02 12 41 32.4000000  0  2G04G23                                          
  21479030.18049 112873064.00849    -10344.12149        49.000  
  22517790.64849 118331788.42249     -1094.50849        50.000  
 16 04 02 12 41 32.5000000  0  2G04G23                                          
  21479227.07049 112874098.64849    -10348.55149        49.000  
  22517811.52349 118331898.12549     -1100.00849        50.000  
 16 04 02 12 41 32.6000000  0  2G04G23                                          
  21479424.04749 112875133.77049    -10353.48849        49.000  
  22517832.50849 118332008.42649     -1106.07049        50.000  
 16 04 02 12 41 32.7000000  0  2G04G23                                          
  21479621.10949 112876169.35549    -10358.03949        49.000  
  22517853.60949 118332119.32849     -1111.91849        50.000  
 16 04 02 12 41 32.8000000  0  2G04G23                                          
  21479818.26649 112877205.41049    -10362.78949        49.000  
  22517874.82049 118332230.82049     -1117.83649        50.000  
 16 04 02 12 41 32.9000000  0  2G04G23                                          
  21480015.51649 112878241.94949    -10367.59449        49.000  
  22517896.15649 118332342.92649     -1124.13349        50.000  
 16 04 02 12 41 33.0000000  0  2G04G23                                          
  21480212.84449 112879278.91449    -10371.82049        49.000  
  22517917.59449 118332455.55949     -1129.31249        50.000  
 16 04 02 12 41 33.1000000  0  2G04G23                                          
  21480410.26649 112880316.38749    -10376.82049        49.000  
  22517939.14849 118332568.84049     -1135.66449        50.000  
 16 04 02 12 41 33.2000000  0  2G04G23                                          
  21480607.78949 112881354.34449    -10381.99649        49.000  
  22517960.81249 118332682.72349     -1142.07049        50.000  
 16 04 02 12 41 33.3000000  0  2G04G23                                          
  21480805.39849 112882392.81649    -10387.18849        49.000  
  22517982.60949 118332797.23849     -1148.49249        50.000  
 16 04 02 12 41 33.4000000  0  2G04G23                                          
  21481003.10949 112883431.78549    -10392.03149        49.000  
  22518004.51649 118332912.37549     -1154.41049        50.000  
 16 04 02 12 41 33.5000000  0  2G04G23                                          
  21481200.89849 112884471.18449    -10396.30549        49.000  
  22518026.53149 118333028.07049     -1160.03549        50.000  
 16 04 02 12 41 33.6000000  0  2G04G23                                          
  21481398.78149 112885511.02749    -10400.74249        49.000  
  22518048.65649 118333144.33249     -1165.77049        50.000  
 16 04 02 12 41 33.7000000  0  2G04G23                                          
  21481596.74249 112886551.31249    -10404.89549        49.000  
  22518070.89149 118333261.14549     -1170.86349        50.000  
 16 04 02 12 41 33.8000000  0  2G04G23                                          
  21481794.78149 112887592.01649    -10409.15249        49.000  
  22518093.21949 118333378.50849     -1176.40649        50.000  
 16 04 02 12 41 33.9000000  0  2G04G23                                          
  21481992.92249 112888633.24249    -10414.36749        49.000  
  22518115.68049 118333496.52349     -1183.00449        50.000  
 16 04 02 12 41 34.0000000  0  2G04G23                                          
  21482191.14149 112889674.90249    -10419.00449        49.000  
  22518138.24249 118333615.08249     -1188.69149        50.000  
 16 04 02 12 41 34.1000000  0  2G04G23                                          
  21482389.46149 112890717.08249    -10424.07049        49.000  
  22518160.92249 118333734.30549     -1195.29349        50.000  
 16 04 02 12 41 34.2000000  0  2G04G23                                          
  21482587.87549 112891759.77749    -10429.27349        49.000  
  22518183.72749 118333854.12949     -1201.45349        50.000  
 16 04 02 12 41 34.3000000  0  2G04G23                                          
  21482786.38349 112892802.91449    -10433.62549        49.000  
  22518206.64849 118333974.55149     -1207.20349        50.000  
 16 04 02 12 41 34.4000000  0  2G04G23                                          
  21482984.96149 112893846.47349    -10437.83249        49.000  
  22518229.65649 118334095.50049     -1212.41849        50.000  
 16 04 02 12 41 34.5000000  0  2G04G23                                          
  21483183.64149 112894890.52049    -10442.59449        49.000  
  22518252.78949 118334217.06249     -1218.38349        50.000  
 16 04 02 12 41 34.6000000  0  2G04G23                                          
  21483382.39149 112895934.97749    -10446.85249        49.000  
  22518276.03149 118334339.17249     -1224.08649        50.000  
 16 04 02 12 41 34.7000000  0  2G04G23                                          
  21483581.23449 112896979.92249    -10451.66449        49.000  
  22518299.38349 118334461.89149     -1230.20349        50.000  
 16 04 02 12 41 34.8000000  0  2G04G23                                          
  21483780.17249 112898025.34449    -10456.40649        49.000  
  22518322.85249 118334585.18849     -1236.04749        50.000  
 16 04 02 12 41 34.9000000  0  2G04G23                                          
  21483979.20349 112899071.23449    -10461.23449        49.000  
  22518346.42249 118334709.08249     -1242.05949        50.000  
 16 04 02 12 41 35.0000000  0  2G04G23                                          
  21484178.32849 112900117.62549    -10466.25049        49.000  
  22518370.12549 118334833.60249     -1248.27049        50.000  
 16 04 02 12 41 35.1000000  0  2G04G23                                          
  21484377.53949 112901164.48049    -10470.99249        49.000  
  22518393.93849 118334958.73449     -1254.50849        50.000  
 16 04 02 12 41 35.2000000  0  2G04G23                                          
  21484576.84449 112902211.84849    -10475.93849        49.000  
  22518417.86749 118335084.47749     -1260.58649        50.000  
 16 04 02 12 41 35.3000000  0  2G04G23                                          
  21484776.25049 112903259.73049    -10481.12149        49.000  
  22518441.91449 118335210.85549     -1266.87949        50.000  
 16 04 02 12 41 35.4000000  0  2G04G23                                          
  21484975.74249 112904308.05949    -10485.60549        49.000  
  22518466.07049 118335337.80149     -1272.54349        50.000  
 16 04 02 12 41 35.5000000  0  2G04G23                                          
  21485175.31249 112905356.82049    -10489.88749        49.000  
  22518490.33649 118335465.32449     -1278.32049        50.000  
 16 04 02 12 41 35.6000000  0  2G04G23                                          
  21485374.99249 112906406.09449    -10494.82449        49.000  
  22518514.71949 118335593.46549     -1284.36749        50.000  
 16 04 02 12 41 35.7000000  0  2G04G23                                          
  21485574.75049 112907455.82449    -10499.49249        49.000  
  22518539.21949 118335722.19149     -1290.28549        50.000  
 16 04 02 12 41 35.8000000  0  2G04G23                                          
  21485774.59449 112908506.03949    -10504.53949        49.000  
  22518563.82849 118335851.52349     -1296.54349        50.000  
 16 04 02 12 41 35.9000000  0  2G04G23                                          
  21485974.53949 112909556.75049    -10509.29349        49.000  
  22518588.56249 118335981.47749     -1302.48049        50.000  
 16 04 02 12 41 36.0000000  0  2G04G23                                          
  21486174.57049 112910607.91049    -10513.78949        49.000  
  22518613.39149 118336111.99249     -1308.13749        50.000  
 16 04 02 12 41 36.1000000  0  2G04G23                                          
  21486374.68049 112911659.52049    -10518.52049        49.000  
  22518638.33649 118336243.10249     -1314.31249        50.000  
 16 04 02 12 41 36.2000000  0  2G04G23                                          
  21486574.89149 112912711.61749    -10523.18849        49.000  
  22518663.39849 118336374.80949     -1320.11349        50.000  
 16 04 02 12 41 36.3000000  0  2G04G23                                          
  21486775.18849 112913764.17249    -10527.80949        49.000  
  22518688.57049 118336507.08249     -1325.78149        50.000  
 16 04 02 12 41 36.4000000  0  2G04G23                                          
  21486975.57049 112914817.18849    -10532.39549        49.000  
  22518713.85949 118336639.96949     -1331.90249        50.000  
 16 04 02 12 41 36.5000000  0  2G04G23                                          
  21487176.04749 112915870.70749    -10537.43449        49.000  
  22518739.26649 118336773.45349     -1337.85949        50.000  
 16 04 02 12 41 36.6000000  0  2G04G23                                          
  21487376.61749 112916924.69149    -10542.07849        49.000  
  22518764.78149 118336907.55149     -1343.89849        50.000  
 16 04 02 12 41 36.7000000  0  2G04G23                                          
  21487577.27349 112917979.15649    -10546.85549        49.000  
  22518790.41449 118337042.25049     -1350.08249        50.000  
 16 04 02 12 41 36.8000000  0  2G04G23                                          
  21487778.03149 112919034.14549    -10552.22349        49.000  
  22518816.16449 118337177.57849     -1356.51249        50.000  
 16 04 02 12 41 36.9000000  0  2G04G23                                          
  21487978.88349 112920089.60549    -10557.10549        49.000  
  22518842.03949 118337313.52349     -1362.71949        50.000  
 16 04 02 12 41 37.0000000  0  2G04G23                                          
  21488179.82049 112921145.52749    -10561.41849        49.000  
  22518868.01649 118337450.03549     -1368.13749        50.000  
 16 04 02 12 41 37.1000000  0  2G04G23                                          
  21488380.83649 112922201.88349    -10565.70749        49.000  
  22518894.10249 118337587.10949     -1373.66049        50.000  
 16 04 02 12 41 37.2000000  0  2G04G23                                          
  21488581.94549 112923258.69549    -10570.17649        49.000  
  22518920.29749 118337724.77749     -1379.50449        50.000  
 16 04 02 12 41 37.3000000  0  2G04G23                                          
  21488783.14849 112924316.05549    -10575.84849        49.000  
  22518946.61749 118337863.09849     -1386.42649        50.000  
 16 04 02 12 41 37.4000000  0  2G04G23                                          
  21488984.45349 112925373.87549    -10580.45349        49.000  
  22518973.05549 118338002.00849     -1392.12949        50.000  
 16 04 02 12 41 37.5000000  0  2G04G23                                          
  21489185.82849 112926432.14149    -10584.93449        49.000  
  22518999.59449 118338141.48849     -1397.84849        50.000  
 16 04 02 12 41 37.6000000  0  2G04G23                                          
  21489387.30549 112927490.90649    -10589.88749        49.000  
  22519026.25849 118338281.60549     -1404.27049        50.000  
 16 04 02 12 41 37.7000000  0  2G04G23                                          
  21489588.87549 112928550.16049    -10594.76249        49.000  
  22519053.03149 118338422.30549     -1410.13349        50.000  
 16 04 02 12 41 37.8000000  0  2G04G23                                          
  21489790.53149 112929609.84849    -10599.09849        49.000  
  22519079.91449 118338563.58649     -1415.82849        50.000  
 16 04 02 12 41 37.9000000  0  2G04G23                                          
  21489992.27349 112930670.03549    -10604.12949        49.000  
  22519106.92249 118338705.48449     -1422.11749        50.000  
 16 04 02 12 41 38.0000000  0  2G04G23                                          
  21490194.11749 112931730.70349    -10608.92649        49.000  
  22519134.03149 118338847.98049     -1427.91049        50.000  
 16 04 02 12 41 38.1000000  0  2G04G23                                          
  21490396.03949 112932791.81249    -10613.43449        49.000  
  22519161.25849 118338991.05149     -1433.89849        50.000  
 16 04 02 12 41 38.2000000  0  2G04G23                                          
  21490598.07049 112933853.46549    -10618.72749        49.000  
  22519188.60949 118339134.77749     -1440.33649        50.000  
 16 04 02 12 41 38.3000000  0  2G04G23                                          
  21490800.17249 112934915.52749    -10623.03149        49.000  
  22519216.06249 118339279.05149     -1445.84849        50.000  
 16 04 02 12 41 38.4000000  0  2G04G23                                          
  21491002.39149 112935978.16449    -10628.67649        49.000  
  22519243.64849 118339424.01249     -1452.73849        50.000  
 16 04 02 12 41 38.5000000  0  2G04G23                                          
  21491204.68049 112937041.19549    -10632.48049        49.000  
  22519271.33649 118339569.50849     -1457.85949        50.000  
 16 04 02 12 41 38.6000000  0  2G04G23                                          
  21491407.05549 112938104.70349    -10637.46549        49.000  
  22519299.12549 118339715.58249     -1463.95749        50.000  
 16 04 02 12 41 38.7000000  0  2G04G23                                          
  21491609.53149 112939168.74649    -10642.67249        49.000  
  22519327.05549 118339862.32849     -1470.55949        50.000  
 16 04 02 12 41 38.8000000  0  2G04G23                                          
  21491812.10249 112940233.23449    -10647.19949        49.000  
  22519355.08649 118340009.64149     -1476.26249        50.000  
 16 04 02 12 41 38.9000000  0  2G04G23                                          
  21492014.75049 112941298.19149    -10651.93049        49.000  
  22519383.22749 118340157.53949     -1482.08249        50.000  
 16 04 02 12 41 39.0000000  0  2G04G23                                          
  21492217.48449 112942363.57849    -10656.13349        49.000  
  22519411.48449 118340306.00449     -1487.76649        50.000  
 16 04 02 12 41 39.1000000  0  2G04G23                                          
  21492420.32049 112943429.45749    -10660.89849        49.000  
  22519439.85249 118340455.07849     -1493.69549        50.000  
 16 04 02 12 41 39.2000000  0  2G04G23                                          
  21492623.24249 112944495.82849    -10665.88349        49.000  
  22519468.33649 118340604.77049     -1499.91449        50.000  
 16 04 02 12 41 39.3000000  0  2G04G23                                          
  21492826.25049 112945562.66849    -10670.62949        49.000  
  22519496.93049 118340755.05149     -1505.75049        50.000  
 16 04 02 12 41 39.4000000  0  2G04G23                                          
  21493029.35249 112946629.94549    -10674.93049        49.000  
  22519525.63349 118340905.89549     -1511.40249        50.000  
 16 04 02 12 41 39.5000000  0  2G04G23                                          
  21493232.53149 112947697.68449    -10679.64549        49.000  
  22519554.45349 118341057.33249     -1517.39149        50.000  
 16 04 02 12 41 39.6000000  0  2G04G23                                          
  21493435.80549 112948765.90649    -10684.43449        49.000  
  22519583.38349 118341209.37549     -1523.47749        50.000  
 16 04 02 12 41 39.7000000  0  2G04G23                                          
  21493639.18049 112949834.63349    -10689.53549        49.000  
  22519612.43849 118341362.04349     -1529.85549        50.000  
 16 04 02 12 41 39.8000000  0  2G04G23                                          
  21493842.63349 112950903.79349    -10693.89549        49.000  
  22519641.59449 118341515.26649     -1535.41049        50.000  
 16 04 02 12 41 39.9000000  0  2G04G23                                          
  21494046.18049 112951973.44549    -10698.62149        49.000  
  22519670.86749 118341669.09849     -1541.32049        50.000  
 16 04 02 12 41 40.0000000  0  2G04G23                                          
  21494249.82849 112953043.60249    -10703.85549        49.000  
  22519700.26649 118341823.57049     -1547.76249        50.000  
 16 04 02 12 41 40.1000000  0  2G04G23                                          
  21494453.55549 112954114.20749    -10708.41449        49.000  
  22519729.76649 118341978.61349     -1553.54349        50.000  
 16 04 02 12 41 40.2000000  0  2G04G23                                          
  21494657.37549 112955185.29349    -10713.29749        49.000  
  22519759.38349 118342134.26649     -1559.72749        50.000  
 16 04 02 12 41 40.3000000  0  2G04G23                                          
  21494861.28149 112956256.82049    -10717.30149        49.000  
  22519789.10949 118342290.47749     -1564.89149        50.000  
 16 04 02 12 41 40.4000000  0  2G04G23                                          
  21495065.27349 112957328.80149    -10721.87149        49.000  
  22519818.94549 118342447.27349     -1570.81649        50.000  
 16 04 02 12 41 40.5000000  0  2G04G23                                          
  21495269.36749 112958401.30549    -10727.28549        49.000  
  22519848.90649 118342604.70349     -1577.27749        50.000  
 16 04 02 12 41 40.6000000  0  2G04G23                                          
  21495473.54749 112959474.28949    -10732.31649        49.000  
  22519878.98449 118342762.75849     -1583.78549        50.000  
 16 04 02 12 41 40.7000000  0  2G04G23                                          
  21495677.81249 112960547.69549    -10736.37149        49.000  
  22519909.16449 118342921.35249     -1589.02749        50.000  
 16 04 02 12 41 40.8000000  0  2G04G23                                          
  21495882.16449 112961621.59849    -10741.12949        49.000  
  22519939.46149 118343080.55949     -1595.05549        50.000  
 16 04 02 12 41 40.9000000  0  2G04G23                                          
  21496086.60949 112962695.94949    -10745.71549        49.000  
  22519969.86749 118343240.34049     -1600.75449        50.000  
 16 04 02 12 41 41.0000000  0  2G04G23                                          
  21496291.12549 112963770.68049    -10749.38749        49.000  
  22520000.36749 118343400.63349     -1605.76649        50.000  
 16 04 02 12 41 41.1000000  0  2G04G23                                          
  21496495.73449 112964845.91849    -10754.59449        49.000  
  22520030.99249 118343561.55549     -1612.38349        50.000  
 16 04 02 12 41 41.2000000  0  2G04G23                                          
  21496700.45349 112965921.69149    -10760.11749        49.000  
  22520061.74249 118343723.13349     -1618.90649        50.000  
 16 04 02 12 41 41.3000000  0  2G04G23                                          
  21496905.25049 112966997.91049    -10764.53149        49.000  
  22520092.59449 118343885.28149     -1624.62549        50.000  
 16 04 02 12 41 41.4000000  0  2G04G23                                          
  21497110.13349 112968074.57449    -10768.86749        49.000  
  22520123.55549 118344048.00449     -1630.22349        50.000  
 16 04 02 12 41 41.5000000  0  2G04G23                                          
  21497315.11749 112969151.77749    -10774.30149        49.000  
  22520154.64849 118344211.38749     -1636.94549        50.000  
 16 04 02 12 41 41.6000000  0  2G04G23                                          
  21497520.19549 112970229.45349    -10779.13349        49.000  
  22520185.85249 118344375.36349     -1642.89849        50.000  
 16 04 02 12 41 41.7000000  0  2G04G23                                          
  21497725.35949 112971307.62549    -10783.88749        49.000  
  22520217.18049 118344539.97349     -1649.07049        50.000  
 16 04 02 12 41 41.8000000  0  2G04G23                                          
  21497930.61749 112972386.25049    -10788.45749        49.000  
  22520248.60949 118344705.15649     -1654.85249        50.000  
 16 04 02 12 41 41.9000000  0  2G04G23                                          
  21498135.96149 112973465.35549    -10793.44549        49.000  
  22520280.15649 118344870.93449     -1661.03149        50.000  
 16 04 02 12 41 42.0000000  0  2G04G23                                          
  21498341.39849 112974544.91449    -10797.82449        49.000  
  22520311.82049 118345037.30149     -1666.67649        50.000  
 16 04 02 12 41 42.1000000  0  2G04G23                                          
  21498546.91449 112975624.91049    -10802.16049        49.000  
  22520343.58649 118345204.22349     -1672.25849        50.000  
 16 04 02 12 41 42.2000000  0  2G04G23                                          
  21498752.52349 112976705.40249    -10806.99649        49.000  
  22520375.46949 118345371.76649     -1678.37149        50.000  
 16 04 02 12 41 42.3000000  0  2G04G23                                          
  21498958.22749 112977786.38349    -10812.23049        49.000  
  22520407.46949 118345539.93049     -1684.84849        50.000  
 16 04 02 12 41 42.4000000  0  2G04G23                                          
  21499164.01649 112978867.82849    -10816.83649        49.000  
  22520439.57849 118345708.67249     -1690.57449        50.000  
 16 04 02 12 41 42.5000000  0  2G04G23                                          
  21499369.89849 112979949.75049    -10821.50449        49.000  
  22520471.81249 118345878.02749     -1696.60249        50.000  
 16 04 02 12 41 42.6000000  0  2G04G23                                          
  21499575.87549 112981032.15249    -10826.28949        49.000  
  22520504.14849 118346047.97749     -1702.58249        50.000  
 16 04 02 12 41 42.7000000  0  2G04G23                                          
  21499781.93049 112982114.99649    -10830.65649        49.000  
  22520536.60249 118346218.50849     -1708.24649        50.000  
 16 04 02 12 41 42.8000000  0  2G04G23                                          
  21499988.07849 112983198.29349    -10835.17249        49.000  
  22520569.16449 118346389.60949     -1713.98449        50.000  
 16 04 02 12 41 42.9000000  0  2G04G23                                          
  21500194.32849 112984282.13749    -10840.64549        49.000  
  22520601.85249 118346561.37549     -1720.68849        50.000  
 16 04 02 12 41 43.0000000  0  2G04G23                                          
  21500400.65649 112985366.40249    -10845.00049        49.000  
  22520634.64149 118346733.70349     -1726.37949        50.000  
 16 04 02 12 41 43.1000000  0  2G04G23                                          
  21500607.07049 112986451.13349    -10849.53549        49.000  
  22520667.54749 118346906.60949     -1732.10949        50.000  
 16 04 02 12 41 43.2000000  0  2G04G23                                          
  21500813.57049 112987536.30149    -10853.88349        49.000  
  22520700.55549 118347080.07849     -1737.68049        50.000  
 16 04 02 12 41 43.3000000  0  2G04G23                                          
  21501020.17249 112988621.97749    -10858.93449        49.000  
  22520733.68849 118347254.18449     -1743.93849        50.000  
 16 04 02 12 41 43.4000000  0  2G04G23                                          
  21501226.85249 112989708.10249    -10863.50849        49.000  
  22520766.93049 118347428.86749     -1749.87949        50.000  
 16 04 02 12 41 43.5000000  0  2G04G23                                          
  21501433.63349 112990794.72349    -10868.41049        49.000  
  22520800.28949 118347604.17249     -1756.09049        50.000  
 16 04 02 12 41 43.6000000  0  2G04G23                                          
  21501640.50049 112991881.82849    -10873.44549        49.000  
  22520833.75849 118347780.07849     -1762.27749        50.000  
 16 04 02 12 41 43.7000000  0  2G04G23                                          
  21501847.46149 112992969.40649    -10877.91849        49.000  
  22520867.35249 118347956.58249     -1767.94549        50.000  
 16 04 02 12 41 43.8000000  0  2G04G23                                          
  21502054.50849 112994057.46149    -10882.81649        49.000  
  22520901.05549 118348133.69149     -1774.15249        50.000  
 16 04 02 12 41 43.9000000  0  2G04G23                                          
  21502261.64849 112995146.00849    -10887.80549        49.000  
  22520934.87549 118348311.41849     -1780.43849        50.000  
 16 04 02 12 41 44.0000000  0  2G04G23                                          
  21502468.87549 112996234.99249    -10892.08249        49.000  
  22520968.79749 118348489.71149     -1785.97749        50.000  
 16 04 02 12 41 44.1000000  0  2G04G23                                          
  21502676.18849 112997324.41049    -10896.39549        49.000  
  22521002.82849 118348668.55549     -1791.44549        50.000  
 16 04 02 12 41 44.2000000  0  2G04G23                                          
  21502883.58649 112998414.32449    -10901.27749        49.000  
  22521036.98449 118348848.03549     -1797.78149        50.000  
 16 04 02 12 41 44.3000000  0  2G04G23                                          
  21503091.08649 112999504.73449    -10906.37149        49.000  
  22521071.25849 118349028.12549     -1804.04349        50.000  
 16 04 02 12 41 44.4000000  0  2G04G23                                          
  21503298.68049 113000595.65249    -10911.51649        49.000  
  22521105.64849 118349208.85249     -1810.32849        50.000  
 16 04 02 12 41 44.5000000  0  2G04G23                                          
  21503506.35949 113001686.98449    -10915.72749        49.000  
  22521140.14149 118349390.11349     -1815.80949        50.000  
 16 04 02 12 41 44.6000000  0  2G04G23                                          
  21503714.13349 113002778.82849    -10920.81249        49.000  
  22521174.75849 118349572.01649     -1822.24649        50.000  
 16 04 02 12 41 44.7000000  0  2G04G23                                          
  21503921.98449 113003871.09849    -10924.77749        49.000  
  22521209.48449 118349754.48049     -1827.52749        50.000  
 16 04 02 12 41 44.8000000  0  2G04G23                                          
  21504129.91449 113004963.80149    -10929.27049        49.000  
  22521244.30549 118349937.48049     -1833.21549        50.000  
 16 04 02 12 41 44.9000000  0  2G04G23                                          
  21504337.95349 113006057.05549    -10934.70349        49.000  
  22521279.26649 118350121.17649     -1839.92649        50.000  
 16 04 02 12 41 45.0000000  0  2G04G23                                          
  21504546.06249 113007150.69949    -10938.50449        49.000  
  22521314.31249 118350305.37549     -1844.86749        50.000  
 16 04 02 12 41 45.1000000  0  2G04G23                                          
  21504754.28149 113008244.86749    -10944.03949        49.000  
  22521349.49249 118350490.22749     -1851.76649        50.000  
 16 04 02 12 41 45.2000000  0  2G04G23                                          
  21504962.58649 113009339.51649    -10948.76649        49.000  
  22521384.78949 118350675.69949     -1857.78149        50.000  
 16 04 02 12 41 45.3000000  0  2G04G23                                          
  21505170.97749 113010434.61349    -10953.18849        49.000  
  22521420.18849 118350861.72749     -1863.31249        50.000  
 16 04 02 12 41 45.4000000  0  2G04G23                                          
  21505379.44549 113011530.14149    -10957.38749        49.000  
  22521455.69549 118351048.31649     -1868.78949        50.000  
 16 04 02 12 41 45.5000000  0  2G04G23                                          
  21505588.01649 113012626.16849    -10962.48449        49.000  
  22521491.32049 118351235.52749     -1875.11749        50.000  
 16 04 02 12 41 45.6000000  0  2G04G23                                          
  21505796.67249 113013722.66849    -10967.36749        49.000  
  22521527.06249 118351423.34849     -1881.23849        50.000  
 16 04 02 12 41 45.7000000  0  2G04G23                                          
  21506005.43849 113014819.71149    -10972.90249        49.000  
  22521562.93049 118351611.82849     -1888.05149        50.000  
 16 04 02 12 41 45.8000000  0  2G04G23                                          
  21506214.28149 113015917.19549    -10977.11749        49.000  
  22521598.90649 118351800.87549     -1893.55949        50.000  
 16 04 02 12 41 45.9000000  0  2G04G23                                          
  21506423.21149 113017015.13749    -10981.65649        49.000  
  22521634.99249 118351990.52049     -1899.55949        50.000  
 16 04 02 12 41 46.0000000  0  2G04G23                                          
  21506632.24249 113018113.57849    -10986.61749        49.000  
  22521671.19549 118352180.77749     -1905.58649        50.000  
 16 04 02 12 41 46.1000000  0  2G04G23                                          
  21506841.35249 113019212.45749    -10990.95749        49.000  
  22521707.50849 118352371.60249     -1911.28149        50.000  
 16 04 02 12 41 46.2000000  0  2G04G23                                          
  21507050.54749 113020311.80149    -10995.68449        49.000  
  22521743.93849 118352563.00849     -1917.16449        50.000  
 16 04 02 12 41 46.3000000  0  2G04G23                                          
  21507259.84449 113021411.63749    -11000.59049        49.000  
  22521780.47749 118352755.04349     -1923.41849        50.000  
 16 04 02 12 41 46.4000000  0  2G04G23                                          
  21507469.21949 113022511.92649    -11005.20749        49.000  
  22521817.12549 118352947.65249     -1929.23849        50.000  
 16 04 02 12 41 46.5000000  0  2G04G23                                          
  21507678.69549 113023612.71149    -11010.13349        49.000  
  22521853.89849 118353140.87949     -1935.27349        50.000  
 16 04 02 12 41 46.6000000  0  2G04G23                                          
  21507888.25049 113024713.94949    -11014.81649        49.000  
  22521890.78149 118353334.69949     -1941.43049        50.000  
 16 04 02 12 41 46.7000000  0  2G04G23                                          
  21508097.91449 113025815.73849    -11020.04749        49.000  
  22521927.78949 118353529.18049     -1947.79749        50.000  
 16 04 02 12 41 46.8000000  0  2G04G23                                          
  21508307.66449 113026917.98449    -11024.71549        49.000  
  22521964.90649 118353724.25849     -1953.84449        50.000  
 16 04 02 12 41 46.9000000  0  2G04G23                                          
  21508517.49249 113028020.66049    -11029.04349        49.000  
  22522002.13349 118353919.87949     -1959.29749        50.000  
 16 04 02 12 41 47.0000000  0  2G04G23                                          
  21508727.41449 113029123.79749    -11033.45749        49.000  
  22522039.46949 118354116.09049     -1965.01649        50.000  
 16 04 02 12 41 47.1000000  0  2G04G23                                          
  21508937.42249 113030227.40649    -11038.22749        49.000  
  22522076.92249 118354312.91049     -1971.15249        50.000  
 16 04 02 12 41 47.2000000  0  2G04G23                                          
  21509147.52349 113031331.44549    -11042.41049        49.000  
  22522114.48449 118354510.27749     -1976.54349        50.000  
 16 04 02 12 41 47.3000000  0  2G04G23                                          
  21509357.70349 113032435.96149    -11047.35949        49.000  
  22522152.15649 118354708.24249     -1982.65649        50.000  
 16 04 02 12 41 47.4000000  0  2G04G23                                          
  21509567.96949 113033540.92249    -11051.78149        49.000  
  22522189.93049 118354906.79749     -1988.55549        50.000  
 16 04 02 12 41 47.5000000  0  2G04G23                                          
  21509778.32849 113034646.36749    -11056.74649        49.000  
  22522227.82849 118355105.94149     -1994.54749        50.000  
 16 04 02 12 41 47.6000000  0  2G04G23                                          
  21509988.78149 113035752.30149    -11061.62149        49.000  
  22522265.84449 118355305.71949     -2000.78149        50.000  
 16 04 02 12 41 47.7000000  0  2G04G23                                          
  21510199.32049 113036858.70349    -11066.45349        49.000  
  22522303.96949 118355506.07049     -2006.81249        50.000  
 16 04 02 12 41 47.8000000  0  2G04G23                                          
  21510409.95349 113037965.58249    -11071.23049        49.000  
  22522342.21949 118355707.04749     -2012.99249        50.000  
 16 04 02 12 41 47.9000000  0  2G04G23                                          
  21510620.68049 113039072.96949    -11076.05149        49.000  
  22522380.57849 118355908.64149     -2018.79749        50.000  
 16 04 02 12 41 48.0000000  0  2G04G23                                          
  21510831.48449 113040180.76649    -11080.24649        49.000  
  22522419.04749 118356110.78149     -2024.48849        50.000  
 16 04 02 12 41 48.1000000  0  2G04G23                                          
  21511042.38349 113041289.02349    -11084.86749        49.000  
  22522457.62549 118356313.51249     -2030.37949        50.000  
 16 04 02 12 41 48.2000000  0  2G04G23                                          
  21511253.37549 113042397.77749    -11089.77749        49.000  
  22522496.32049 118356516.85549     -2036.53949        50.000  
 16 04 02 12 41 48.3000000  0  2G04G23                                          
  21511464.46149 113043507.03949    -11095.00849        49.000  
  22522535.13349 118356720.82849     -2042.95349        50.000  
 16 04 02 12 41 48.4000000  0  2G04G23                                          
  21511675.63349 113044616.78949    -11099.72749        49.000  
  22522574.07049 118356925.41849     -2049.00049        50.000  
 16 04 02 12 41 48.5000000  0  2G04G23                                          
  21511886.91449 113045727.07849    -11105.10949        49.000  
  22522613.13349 118357130.69549     -2055.78549        50.000  
 16 04 02 12 41 48.6000000  0  2G04G23                                          
  21512098.27349 113046837.75049    -11109.03149        49.000  
  22522652.28949 118357336.45749     -2060.83249        50.000  
 16 04 02 12 41 48.7000000  0  2G04G23                                          
  21512309.71149 113047948.85549    -11113.04349        49.000  
  22522691.55549 118357542.78149     -2066.03549        50.000  
 16 04 02 12 41 48.8000000  0  2G04G23                                          
  21512521.24249 113049060.46549    -11118.23049        49.000  
  22522730.93849 118357749.75449     -2072.57849        50.000  
 16 04 02 12 41 48.9000000  0  2G04G23                                          
  21512732.85249 113050172.50049    -11122.57049        49.000  
  22522770.43049 118357957.26649     -2078.23449        50.000  
 16 04 02 12 41 49.0000000  0  2G04G23                                          
  21512944.56249 113051285.04349    -11127.68449        49.000  
  22522810.03149 118358165.41449     -2084.51649        50.000  
 16 04 02 12 41 49.1000000  0  2G04G23                                          
  21513156.35249 113052398.00449    -11132.00049        49.000  
  22522849.75049 118358374.09849     -2089.89549        50.000  
 16 04 02 12 41 49.2000000  0  2G04G23                                          
  21513368.23449 113053511.44149    -11136.76649        49.000  
  22522889.57849 118358583.39849     -2096.14849        50.000  
 16 04 02 12 41 49.3000000  0  2G04G23                                          
  21513580.21149 113054625.39849    -11141.69149        49.000  
  22522929.52349 118358793.34049     -2102.42649        50.000  
 16 04 02 12 41 49.4000000  0  2G04G23                                          
  21513792.25849 113055739.77049    -11146.00449        49.000  
  22522969.57849 118359003.82449     -2107.94149        50.000  
 16 04 02 12 41 49.5000000  0  2G04G23                                          
  21514004.41449 113056854.66049    -11151.13349        49.000  
  22523009.75849 118359214.95749     -2114.39149        50.000  
 16 04 02 12 41 49.6000000  0  2G04G23                                          
  21514216.66449 113057970.02349    -11155.89149        49.000  
  22523050.03949 118359426.68049     -2120.30949        50.000  
 16 04 02 12 41 49.7000000  0  2G04G23                                          
  21514428.99249 113059085.81249    -11160.15649        49.000  
  22523090.43849 118359638.96149     -2125.96949        50.000  
 16 04 02 12 41 49.8000000  0  2G04G23                                          
  21514641.42249 113060202.12949    -11165.38349        49.000  
  22523130.96149 118359851.90249     -2132.46549        50.000  
 16 04 02 12 41 49.9000000  0  2G04G23                                          
  21514853.92249 113061318.84049    -11169.41849        49.000  
  22523171.57849 118360065.34849     -2137.53549        50.000  
 16 04 02 12 41 50.0000000  0  2G04G23                                          
  21515066.52349 113062436.05149    -11174.34049        49.000  
  22523212.31249 118360279.43449     -2143.84049        50.000  
 16 04 02 12 41 50.1000000  0  2G04G23                                          
  21515279.21149 113063553.75049    -11179.13349        49.000  
  22523253.17249 118360494.13349     -2149.92249        50.000  
 16 04 02 12 41 50.2000000  0  2G04G23                                          
  21515491.97749 113064671.84449    -11183.09449        49.000  
  22523294.13349 118360709.35949     -2155.29349        50.000  
 16 04 02 12 41 50.3000000  0  2G04G23                                          
  21515704.84449 113065790.46549    -11188.35249        49.000  
  22523335.21149 118360925.23049     -2161.64549        50.000  
 16 04 02 12 41 50.4000000  0  2G04G23                                          
  21515917.79749 113066909.54749    -11193.14849        49.000  
  22523376.40649 118361141.69549     -2167.75449        50.000  
 16 04 02 12 41 50.5000000  0  2G04G23                                          
  21516130.84449 113068029.12949    -11198.16449        49.000  
  22523417.71149 118361358.77349     -2173.89149        50.000  
 16 04 02 12 41 50.6000000  0  2G04G23                                          
  21516343.98449 113069149.17649    -11202.65249        49.000  
  22523459.13349 118361576.46149     -2179.80149        50.000  
 16 04 02 12 41 50.7000000  0  2G04G23                                          
  21516557.20349 113070269.65649    -11207.14849        49.000  
  22523500.66449 118361794.70349     -2185.58249        50.000  
 16 04 02 12 41 50.8000000  0  2G04G23                                          
  21516770.51649 113071390.60549    -11211.70349        49.000  
  22523542.31249 118362013.54749     -2191.43849        50.000  
 16 04 02 12 41 50.9000000  0  2G04G23                                          
  21516983.92249 113072512.06249    -11216.89849        49.000  
  22523584.07049 118362233.00449     -2197.73049        50.000  
 16 04 02 12 41 51.0000000  0  2G04G23                                          
  21517197.41449 113073633.96949    -11221.31649        49.000  
  22523625.94549 118362453.05949     -2203.47749        50.000  
 16 04 02 12 41 51.1000000  0  2G04G23                                          
  21517410.97749 113074756.27049    -11225.34449        49.000  
  22523667.92249 118362673.62949     -2208.81249        50.000  
 16 04 02 12 41 51.2000000  0  2G04G23                                          
  21517624.64149 113075879.06649    -11230.21549        49.000  
  22523710.00849 118362894.83249     -2215.10249        50.000  
 16 04 02 12 41 51.3000000  0  2G04G23                                          
  21517838.39849 113077002.36349    -11235.15649        49.000  
  22523752.21949 118363116.63349     -2221.00449        50.000  
 16 04 02 12 41 51.4000000  0  2G04G23                                          
  21518052.24249 113078126.11349    -11239.78549        49.000  
  22523794.54749 118363339.05549     -2227.22749        50.000  
 16 04 02 12 41 51.5000000  0  2G04G23                                          
  21518266.16449 113079250.30149    -11244.03949        49.000  
  22523836.97749 118363562.00849     -2232.43049        50.000  
 16 04 02 12 41 51.6000000  0  2G04G23                                          
  21518480.18049 113080374.95749    -11248.92249        49.000  
  22523879.51649 118363785.56649     -2238.65249        50.000  
 16 04 02 12 41 51.7000000  0  2G04G23                                          
  21518694.30549 113081500.16449    -11254.42249        49.000  
  22523922.18849 118364009.81649     -2245.44949        50.000  
 16 04 02 12 41 51.8000000  0  2G04G23                                          
  21518908.50049 113082625.79349    -11258.53949        49.000  
  22523964.96149 118364234.60949     -2250.94949        50.000  
 16 04 02 12 41 51.9000000  0  2G04G23                                          
  21519122.78949 113083751.87549    -11263.19149        49.000  
  22524007.84449 118364459.96949     -2256.78949        50.000  
 16 04 02 12 41 52.0000000  0  2G04G23                                          
  21519337.17249 113084878.46149    -11267.99249        49.000  
  22524050.85249 118364685.99249     -2263.17249        50.000  
 16 04 02 12 41 52.1000000  0  2G04G23                                          
  21519551.64849 113086005.51249    -11272.68849        49.000  
  22524093.96149 118364912.53949     -2268.59849        50.000  
 16 04 02 12 41 52.2000000  0  2G04G23                                          
  21519766.19549 113087132.98849    -11276.96549        49.000  
  22524137.19549 118365139.73849     -2274.81649        50.000  
 16 04 02 12 41 52.3000000  0  2G04G23                                          
  21519980.83649 113088260.95749    -11281.82849        49.000  
  22524180.53149 118365367.46949     -2280.21149        50.000  
 16 04 02 12 41 52.4000000  0  2G04G23                                          
  21520195.57849 113089389.41049    -11286.80949        49.000  
  22524223.99249 118365595.85549     -2286.90249        50.000  
 16 04 02 12 41 52.5000000  0  2G04G23                                          
  21520410.39849 113090518.32449    -11291.39849        49.000  
  22524267.56249 118365824.82049     -2292.57049        50.000  
 16 04 02 12 41 52.6000000  0  2G04G23                                          
  21520625.30549 113091647.66049    -11295.66849        49.000  
  22524311.24249 118366054.35249     -2298.33649        50.000  
 16 04 02 12 41 52.7000000  0  2G04G23                                          
  21520840.31249 113092777.51649    -11300.79349        49.000  
  22524355.03949 118366284.50049     -2304.57449        50.000  
 16 04 02 12 41 52.8000000  0  2G04G23                                          
  21521055.40649 113093907.85949    -11305.70749        49.000  
  22524398.96149 118366515.28149     -2310.97749        50.000  
 16 04 02 12 41 52.9000000  0  2G04G23                                          
  21521270.59449 113095038.68449    -11310.52049        49.000  
  22524442.99249 118366746.66849     -2316.82049        50.000  
 16 04 02 12 41 53.0000000  0  2G04G23                                          
  21521485.86749 113096169.93049    -11314.78149        49.000  
  22524487.13349 118366978.61349     -2322.50849        50.000  
 16 04 02 12 41 53.1000000  0  2G04G23                                          
  21521701.22749 113097301.66449    -11319.48049        49.000  
  22524531.38349 118367211.15649     -2328.41449        50.000  
 16 04 02 12 41 53.2000000  0  2G04G23                                          
  21521916.68849 113098433.88349    -11324.37149        49.000  
  22524575.75049 118367444.32449     -2334.70349        50.000  
 16 04 02 12 41 53.3000000  0  2G04G23                                          
  21522132.22749 113099566.55549    -11328.98849        49.000  
  22524620.23449 118367678.06249     -2340.50049        50.000  
 16 04 02 12 41 53.4000000  0  2G04G23                                          
  21522347.85249 113100699.69149    -11333.62949        49.000  
  22524664.82849 118367912.41449     -2346.46949        50.000  
 16 04 02 12 41 53.5000000  0  2G04G23                                          
  21522563.57049 113101833.28949    -11338.10549        49.000  
  22524709.53149 118368147.34049     -2352.12149        50.000  
 16 04 02 12 41 53.6000000  0  2G04G23                                          
  21522779.37549 113102967.35949    -11342.95749        49.000  
  22524754.35949 118368382.86749     -2358.41449        50.000  
 16 04 02 12 41 53.7000000  0  2G04G23                                          
  21522995.28149 113104101.93849    -11347.99649        49.000  
  22524799.29749 118368619.02349     -2364.55149        50.000  
 16 04 02 12 41 53.8000000  0  2G04G23                                          
  21523211.26649 113105236.94149    -11352.17249        49.000  
  22524844.33649 118368855.73849     -2369.96949        50.000  
 16 04 02 12 41 53.9000000  0  2G04G23                                          
  21523427.33649 113106372.39849    -11356.78149        49.000  
  22524889.49249 118369093.04349     -2375.93449        50.000  
 16 04 02 12 41 54.0000000  0  2G04G23                                          
  21523643.49249 113107508.30949    -11361.34049        49.000  
  22524934.76649 118369330.91449     -2381.70749        50.000  
 16 04 02 12 41 54.1000000  0  2G04G23                                          
  21523859.73449 113108644.68049    -11365.99649        49.000  
  22524980.14149 118369569.39149     -2387.80949        50.000  
 16 04 02 12 41 54.2000000  0  2G04G23                                          
  21524076.07049 113109781.53549    -11370.69949        49.000  
  22525025.63349 118369808.46949     -2393.81249        50.000  
 16 04 02 12 41 54.3000000  0  2G04G23                                          
  21524292.48449 113110918.79749    -11374.84849        49.000  
  22525071.23449 118370048.07449     -2399.07449        50.000  
 16 04 02 12 41 54.4000000  0  2G04G23                                          
  21524508.99249 113112056.55549    -11379.67649        49.000  
  22525116.94549 118370288.32049     -2405.39849        50.000  
 16 04 02 12 41 54.5000000  0  2G04G23                                          
  21524725.58649 113113194.74649    -11384.23049        49.000  
  22525162.76649 118370529.11749     -2411.06649        50.000  
 16 04 02 12 41 54.6000000  0  2G04G23                                          
  21524942.27349 113114333.46149    -11389.59849        49.000  
  22525208.71949 118370770.56649     -2417.69949        50.000  
 16 04 02 12 41 54.7000000  0  2G04G23                                          
  21525159.04749 113115472.62949    -11393.94549        49.000  
  22525254.77349 118371012.60249     -2423.38349        50.000  
 16 04 02 12 41 54.8000000  0  2G04G23                                          
  21525375.90649 113116612.25049    -11398.52749        49.000  
  22525300.93849 118371255.21549     -2429.12949        50.000  
 16 04 02 12 41 54.9000000  0  2G04G23                                          
  21525592.85949 113117752.35949    -11403.22749        49.000  
  22525347.22749 118371498.44149     -2435.21149        50.000  
 16 04 02 12 41 55.0000000  0  2G04G23                                          
  21525809.90649 113118892.93449    -11408.11749        49.000  
  22525393.62549 118371742.27749     -2441.55149        50.000  
 16 04 02 12 41 55.1000000  0  2G04G23                                          
  21526027.03949 113120033.96149    -11412.50849        49.000  
  22525440.13349 118371986.66449     -2446.95349        50.000  
 16 04 02 12 41 55.2000000  0  2G04G23                                          
  21526244.25849 113121175.46149    -11417.26249        49.000  
  22525486.75849 118372231.66849     -2452.95349        50.000  
 16 04 02 12 41 55.3000000  0  2G04G23                                          
  21526461.57849 113122317.45749    -11422.30949        49.000  
  22525533.50049 118372477.30549     -2459.60949        50.000  
 16 04 02 12 41 55.4000000  0  2G04G23                                          
  21526678.96949 113123459.87549    -11426.44949        49.000  
  22525580.35249 118372723.48449     -2464.87549        50.000  
 16 04 02 12 41 55.5000000  0  2G04G23                                          
  21526896.44549 113124602.72349    -11430.63349        49.000  
  22525627.29749 118372970.21149     -2470.18849        50.000  
 16 04 02 12 41 55.6000000  0  2G04G23                                          
  21527114.00849 113125746.00849    -11435.11749        49.000  
  22525674.35949 118373217.52349     -2476.12949        50.000  
 16 04 02 12 41 55.7000000  0  2G04G23                                          
  21527331.67249 113126889.82049    -11440.41449        49.000  
  22525721.53949 118373465.47749     -2482.57849        50.000  
 16 04 02 12 41 55.8000000  0  2G04G23                                          
  21527549.43049 113128034.14549    -11445.74249        49.000  
  22525768.85249 118373714.08649     -2489.41449        50.000  
 16 04 02 12 41 55.9000000  0  2G04G23                                          
  21527767.28149 113129178.95349    -11450.12149        49.000  
  22525816.27349 118373963.30149     -2495.12949        50.000  
 16 04 02 12 41 56.0000000  0  2G04G23                                          
  21527985.21149 113130324.18449    -11454.64849        49.000  
  22525863.80549 118374213.07049     -2501.05549        50.000  
 16 04 02 12 41 56.1000000  0  2G04G23                                          
  21528203.25049 113131469.98849    -11460.25449        49.000  
  22525911.46949 118374463.52049     -2507.59049        50.000  
 16 04 02 12 41 56.2000000  0  2G04G23                                          
  21528421.35949 113132616.15649    -11463.88749        49.000  
  22525959.21949 118374714.47349     -2512.47749        50.000  
 16 04 02 12 41 56.3000000  0  2G04G23                                          
  21528639.55549 113133762.79349    -11468.60249        49.000  
  22526007.08649 118374966.03549     -2518.77749        50.000  
 16 04 02 12 41 56.4000000  0  2G04G23                                          
  21528857.85949 113134909.97349    -11473.87949        49.000  
  22526055.07849 118375218.25049     -2525.13749        50.000  
 16 04 02 12 41 56.5000000  0  2G04G23                                          
  21529076.24249 113136057.57049    -11478.35949        49.000  
  22526103.18049 118375471.01649     -2530.85949        50.000  
 16 04 02 12 41 56.6000000  0  2G04G23                                          
  21529294.70349 113137205.59449    -11482.39849        49.000  
  22526151.39149 118375724.35949     -2536.34449        50.000  
 16 04 02 12 41 56.7000000  0  2G04G23                                          
  21529513.25049 113138354.07049    -11486.90249        49.000  
  22526199.70349 118375978.25849     -2541.98049        50.000  
 16 04 02 12 41 56.8000000  0  2G04G23                                          
  21529731.89849 113139503.05549    -11492.04749        49.000  
  22526248.14849 118376232.79749     -2548.39149        50.000  
 16 04 02 12 41 56.9000000  0  2G04G23                                          
  21529950.62549 113140652.49249    -11496.62149        49.000  
  22526296.69549 118376487.93049     -2554.38349        50.000  
 16 04 02 12 41 57.0000000  0  2G04G23                                          
  21530169.45349 113141802.43849    -11501.88749        49.000  
  22526345.36749 118376743.68849     -2560.90249        50.000  
 16 04 02 12 41 57.1000000  0  2G04G23                                          
  21530388.37549 113142952.85949    -11506.43849        49.000  
  22526394.14849 118377000.06249     -2566.87149        50.000  
 16 04 02 12 41 57.2000000  0  2G04G23                                          
  21530607.38349 113144103.73849    -11510.94149        49.000  
  22526443.04749 118377257.01249     -2572.45349        50.000  
 16 04 02 12 41 57.3000000  0  2G04G23                                          
  21530826.47749 113145255.08249    -11515.64849        49.000  
  22526492.05549 118377514.55949     -2578.46549        50.000  
 16 04 02 12 41 57.4000000  0  2G04G23                                          
  21531045.66449 113146406.93049    -11520.61749        49.000  
  22526541.18849 118377772.73449     -2584.76649        50.000  
 16 04 02 12 41 57.5000000  0  2G04G23                                          
  21531264.93049 113147559.20349    -11524.94149        49.000  
  22526590.42249 118378031.46549     -2590.37949        50.000  
 16 04 02 12 41 57.6000000  0  2G04G23                                          
  21531484.28949 113148711.94549    -11529.59049        49.000  
  22526639.77349 118378290.79749     -2596.34049        50.000  
 16 04 02 12 41 57.7000000  0  2G04G23                                          
  21531703.73449 113149865.16449    -11534.27349        49.000  
  22526689.23449 118378550.73049     -2602.09849        50.000  
 16 04 02 12 41 57.8000000  0  2G04G23                                          
  21531923.26649 113151018.76249    -11538.29349        49.000  
  22526738.80549 118378811.18449     -2607.65649        50.000  
 16 04 02 12 41 57.9000000  0  2G04G23                                          
  21532142.88349 113152172.87949    -11543.41049        49.000  
  22526788.48449 118379072.27049     -2613.94149        50.000  
 16 04 02 12 41 58.0000000  0  2G04G23                                          
  21532362.59449 113153327.50849    -11548.40649        49.000  
  22526838.28949 118379334.00449     -2620.21149        50.000  
 16 04 02 12 41 58.1000000  0  2G04G23                                          
  21532582.38349 113154482.50449    -11552.16849        49.000  
  22526888.19549 118379596.23449     -2625.29349        50.000  
 16 04 02 12 41 58.2000000  0  2G04G23                                          
  21532802.25849 113155637.94149    -11556.47749        49.000  
  22526938.20349 118379859.03149     -2630.91849        50.000  
 16 04 02 12 41 58.3000000  0  2G04G23                                          
  21533022.22749 113156793.85949    -11561.23449        49.000  
  22526988.32849 118380122.44549     -2637.02349        50.000  
 16 04 02 12 41 58.4000000  0  2G04G23                                          
  21533242.28149 113157950.28549    -11566.48849        49.000  
  22527038.57049 118380386.48849     -2643.45749        50.000  
 16 04 02 12 41 58.5000000  0  2G04G23                                          
  21533462.43049 113159107.14849    -11570.95749        49.000  
  22527088.93049 118380651.10549     -2649.37149        50.000  
 16 04 02 12 41 58.6000000  0  2G04G23                                          
  21533682.66449 113160264.49249    -11575.69949        49.000  
  22527139.39849 118380916.32849     -2655.37549        50.000  
 16 04 02 12 41 58.7000000  0  2G04G23                                          
  21533902.98449 113161422.28549    -11580.12549        49.000  
  22527189.97749 118381182.12149     -2660.86349        50.000  
 16 04 02 12 41 58.8000000  0  2G04G23                                          
  21534123.38349 113162580.51649    -11584.48849        49.000  
  22527240.66449 118381448.49649     -2666.83249        50.000  
 16 04 02 12 41 58.9000000  0  2G04G23                                          
  21534343.87549 113163739.22749    -11589.23449        49.000  
  22527291.46949 118381715.47349     -2672.77349        50.000  
 16 04 02 12 41 59.0000000  0  2G04G23                                          
  21534564.46949 113164898.43449    -11594.28949        49.000  
  22527342.39149 118381983.07049     -2679.03149        50.000  
 16 04 02 12 41 59.1000000  0  2G04G23                                          
  21534785.14149 113166058.06249    -11598.60549        49.000  
  22527393.42249 118382251.23049     -2684.65649        50.000  
 16 04 02 12 41 59.2000000  0  2G04G23                                          
  21535005.89849 113167218.18849    -11603.34049        49.000  
  22527444.56249 118382520.00449     -2690.75449        50.000  
 16 04 02 12 41 59.3000000  0  2G04G23                                          
  21535226.74249 113168378.72349    -11607.40649        49.000  
  22527495.81249 118382789.32449     -2696.14849        50.000  
 16 04 02 12 41 59.4000000  0  2G04G23                                          
  21535447.68849 113169539.77349    -11612.75049        49.000  
  22527547.18849 118383059.28149     -2702.63749        50.000  
 16 04 02 12 41 59.5000000  0  2G04G23                                          
  21535668.71149 113170701.27349    -11617.14849        49.000  
  22527598.67249 118383329.83249     -2708.51249        50.000  
 16 04 02 12 41 59.6000000  0  2G04G23                                          
  21535889.82049 113171863.23449    -11621.87149        49.000  
  22527650.26649 118383600.95349     -2714.36349        50.000  
 16 04 02 12 41 59.7000000  0  2G04G23                                          
  21536111.01649 113173025.62549    -11626.28149        49.000  
  22527701.96149 118383872.64149     -2719.99249        50.000  
 16 04 02 12 41 59.8000000  0  2G04G23                                          
  21536332.30549 113174188.47749    -11630.59449        49.000  
  22527753.78149 118384144.92649     -2725.70749        50.000  
 16 04 02 12 41 59.9000000  0  2G04G23                                          
  21536553.68049 113175351.82849    -11635.69949        49.000  
  22527805.71149 118384417.84849     -2732.25049        50.000  
 16 04 02 12 42  0.0000000  0  2G04G23                                          
  21536775.14849 113176515.66849    -11640.52049        49.000  
  22527857.76649 118384691.35949     -2738.16449        50.000  
 16 04 02 12 42  0.1000000  0  2G04G23                                          
  21536996.71149 113177679.98049    -11645.41849        49.000  
  22527909.93049 118384965.49649     -2744.59449        50.000  
 16 04 02 12 42  0.2000000  0  2G04G23                                          
  21537218.36749 113178844.80149    -11650.49249        49.000  
  22527962.21949 118385240.25849     -2750.82049        50.000  
 16 04 02 12 42  0.3000000  0  2G04G23                                          
  21537440.10949 113180010.07049    -11654.97749        49.000  
  22528014.61749 118385515.60949     -2756.60949        50.000  
 16 04 02 12 42  0.4000000  0  2G04G23                                          
  21537661.94549 113181175.77749    -11659.41049        49.000  
  22528067.11749 118385791.52049     -2762.32849        50.000  
 16 04 02 12 42  0.5000000  0  2G04G23                                          
  21537883.85949 113182341.94949    -11663.89149        49.000  
  22528119.73449 118386068.02349     -2768.07049        50.000  
 16 04 02 12 42  0.6000000  0  2G04G23                                          
  21538105.86749 113183508.59849    -11668.64149        49.000  
  22528172.46949 118386345.12549     -2773.85549        50.000  
 16 04 02 12 42  0.7000000  0  2G04G23                                          
  21538327.94549 113184675.64549    -11672.60549        49.000  
  22528225.30549 118386622.77349     -2779.32049        50.000  
 16 04 02 12 42  0.8000000  0  2G04G23                                          
  21538550.11749 113185843.14149    -11677.11749        49.000  
  22528278.24249 118386900.99649     -2785.23449        50.000  
 16 04 02 12 42  0.9000000  0  2G04G23                                          
  21538772.38349 113187011.18049    -11682.64549        49.000  
  22528331.31249 118387179.88749     -2791.97749        50.000  
 16 04 02 12 42  1.0000000  0  2G04G23                                          
  21538994.74249 113188179.65649    -11687.00849        49.000  
  22528384.49249 118387459.35249     -2797.69549        50.000  
 16 04 02 12 42  1.1000000  0  2G04G23                                          
  21539217.18849 113189348.62549    -11691.90249        49.000  
  22528437.78949 118387739.43049     -2803.76249        50.000  
 16 04 02 12 42  1.2000000  0  2G04G23                                          
  21539439.71949 113190518.02349    -11696.23049        49.000  
  22528491.19549 118388020.06249     -2809.34849        50.000  
 16 04 02 12 42  1.3000000  0  2G04G23                                          
  21539662.32849 113191687.84849    -11700.41849        49.000  
  22528544.70349 118388301.27049     -2815.07449        50.000  
 16 04 02 12 42  1.4000000  0  2G04G23                                          
  21539885.03149 113192858.17649    -11705.31649        49.000  
  22528598.33649 118388583.09449     -2821.08649        50.000  
 16 04 02 12 42  1.5000000  0  2G04G23                                          
  21540107.82049 113194028.94149    -11709.80149        49.000  
  22528652.07849 118388865.49249     -2827.00449        50.000  
 16 04 02 12 42  1.6000000  0  2G04G23                                          
  21540330.70349 113195200.22349    -11715.07849        49.000  
  22528705.93849 118389148.53149     -2833.46949        50.000  
 16 04 02 12 42  1.7000000  0  2G04G23                                          
  21540553.68049 113196371.95749    -11719.71949        49.000  
  22528759.90649 118389432.15649     -2839.37949        50.000  
 16 04 02 12 42  1.8000000  0  2G04G23                                          
  21540776.73449 113197544.13749    -11723.97349        49.000  
  22528813.99249 118389716.35549     -2844.94949        50.000  
 16 04 02 12 42  1.9000000  0  2G04G23                                          
  21540999.88349 113198716.78149    -11728.59449        49.000  
  22528868.18849 118390001.15649     -2850.91849        50.000  
 16 04 02 12 42  2.0000000  0  2G04G23                                          
  21541223.12549 113199889.92249    -11733.71949        49.000  
  22528922.50049 118390286.57449     -2857.27049        50.000  
 16 04 02 12 42  2.1000000  0  2G04G23                                          
  21541446.44549 113201063.46949    -11737.62949        49.000  
  22528976.92249 118390572.53549     -2862.51249        50.000  
 16 04 02 12 42  2.2000000  0  2G04G23                                          
  21541669.85249 113202237.47749    -11742.09849        49.000  
  22529031.44549 118390859.07849     -2868.24649        50.000  
 16 04 02 12 42  2.3000000  0  2G04G23                                          
  21541893.32849 113203411.88349    -11746.30549        49.000  
  22529086.07849 118391146.16049     -2873.79749        50.000  
