     2.10           OBSERVATION DATA    G (GPS)             RINEX VERSION / TYPE
Convert v1.8.0                          09-Jun-2016 14:46   PGM / RUN BY / DATE 
Signal Strength values S1,S2 are in dBHz                    COMMENT             
                                                            MARKER NAME         
                                                            MARKER NUMBER       
                                                            OBSERVER / AGENCY   
                    NovAtel GPSCard                         REC # / TYPE / VERS 
                                                            ANT # / TYPE        
0.0000        0.0000        0.0000                          APPROX POSITION XYZ 
        0.0000        0.0000        0.0000                  ANTENNA: DELTA H/E/N
     1     0                                                WAVELENGTH FACT L1/2
     1     0     3   G04   G05   G21                        WAVELENGTH FACT L1/2
                                                            COMMENT             
                                                            COMMENT             
                                                            COMMENT             
                                                            COMMENT             
                                                            COMMENT             
                                                            COMMENT             
     4    C1    L1    D1    S1                              # / TYPES OF OBSERV 
     0.100                                                  INTERVAL            
  2016    04    02    14    30    37.2000000    GPS         TIME OF FIRST OBS   
  2016    04    02    14    32     1.9000000    GPS         TIME OF LAST OBS    
Leap Seconds Unknown                                        COMMENT             
                                                            END OF HEADER       
 16 04 02 14 30 37.2000000  0  1G21                                             
  22512912.32049 118306152.40659     -2058.61749        50.000  
 16 04 02 14 30 37.3000000  0  2G05G21                                          
  21940049.69549 115295738.42659     -5007.66849        50.000  
  22512951.53949 118306358.50449     -2062.73449        50.000  
 16 04 02 14 30 37.4000000  0  2G05G21                                          
  21940145.05549 115296239.53149     -5013.97749        50.000  
  22512990.82849 118306564.98449     -2066.78549        50.000  
 16 04 02 14 30 37.5000000  0  2G05G21                                          
  21940240.53149 115296741.18849     -5019.53949        50.000  
  22513030.18849 118306771.82449     -2070.32449        50.000  
 16 04 02 14 30 37.6000000  0  2G05G21                                          
  21940336.10249 115297243.41849     -5025.25449        50.000  
  22513069.62549 118306979.02749     -2074.08249        50.000  
 16 04 02 14 30 37.7000000  0  2G05G21                                          
  21940431.77349 115297746.25849     -5031.24249        50.000  
  22513109.12549 118307186.60949     -2077.69149        50.000  
 16 04 02 14 30 37.8000000  0  2G05G21                                          
  21940527.57049 115298249.70349     -5037.39849        50.000  
  22513148.69549 118307394.61749     -2082.08249        50.000  
 16 04 02 14 30 37.9000000  0  2G05G21                                          
  21940623.49249 115298753.78149     -5043.81249        50.000  
  22513188.35249 118307603.02749     -2086.22749        50.000  
 16 04 02 14 30 38.0000000  0  2G05G21                                          
  21940719.53949 115299258.50849     -5050.16449        50.000  
  22513228.09449 118307811.86349     -2090.38749        50.000  
 16 04 02 14 30 38.1000000  0  2G05G21                                          
  21940815.68049 115299763.74649     -5055.51649        50.000  
  22513267.89149 118308021.02049     -2093.55549        50.000  
 16 04 02 14 30 38.2000000  0  2G05G21                                          
  21940911.94549 115300269.62549     -5061.80549        49.000  
  22513307.78149 118308230.61349     -2097.92249        50.000  
 16 04 02 14 30 38.3000000  0  2G05G21                                          
  21941008.33649 115300776.10949     -5067.98449        49.000  
  22513347.73449 118308440.59849     -2101.93049        50.000  
 16 04 02 14 30 38.4000000  0  2G05G21                                          
  21941104.82849 115301283.18049     -5073.68449        50.000  
  22513387.76649 118308650.93849     -2105.26249        50.000  
 16 04 02 14 30 38.5000000  0  2G05G21                                          
  21941201.43849 115301790.82049     -5079.41449        50.000  
  22513427.86749 118308861.65649     -2109.09049        50.000  
 16 04 02 14 30 38.6000000  0  2G05G21                                          
  21941298.15649 115302299.09849     -5085.56249        50.000  
  22513468.05549 118309072.83249     -2113.61749        50.000  
 16 04 02 14 30 38.7000000  0  2G05G21                                          
  21941394.98449 115302807.96149     -5091.61349        50.000  
  22513508.29749 118309284.33249     -2117.25449        50.000  
 16 04 02 14 30 38.8000000  0  2G05G21                                          
  21941491.94549 115303317.47749     -5098.18049        49.000  
  22513548.63349 118309496.28949     -2121.54349        50.000  
 16 04 02 14 30 38.9000000  0  2G05G21                                          
  21941589.00049 115303827.51649     -5103.43449        49.000  
  22513589.03149 118309708.59049     -2125.03949        50.000  
 16 04 02 14 30 39.0000000  0  2G05G21                                          
  21941686.17249 115304338.18049     -5109.37949        49.000  
  22513629.50849 118309921.25449     -2128.53949        50.000  
 16 04 02 14 30 39.1000000  0  2G05G21                                          
  21941783.46949 115304849.46949     -5116.09449        49.000  
  22513670.06249 118310134.38749     -2133.42249        50.000  
 16 04 02 14 30 39.2000000  0  2G05G21                                          
  21941880.88349 115305361.39149     -5122.07449        50.000  
  22513710.68849 118310347.89549     -2137.04349        50.000  
 16 04 02 14 30 39.3000000  0  2G05G21                                          
  21941978.39149 115305873.87549     -5127.65249        50.000  
  22513751.39149 118310561.79749     -2140.80949        50.000  
 16 04 02 14 30 39.4000000  0  2G05G21                                          
  21942076.02349 115306386.94149     -5133.49649        50.000  
  22513792.16449 118310776.05949     -2144.59049        50.000  
 16 04 02 14 30 39.5000000  0  2G05G21                                          
  21942173.78149 115306900.61749     -5139.73849        50.000  
  22513833.00849 118310990.71549     -2148.67649        50.000  
 16 04 02 14 30 39.6000000  0  2G05G21                                          
  21942271.64149 115307414.91049     -5145.74249        50.000  
  22513873.92249 118311205.77749     -2152.58649        50.000  
 16 04 02 14 30 39.7000000  0  2G05G21                                          
  21942369.62549 115307929.78549     -5151.83249        50.000  
  22513914.92249 118311421.21949     -2156.61349        50.000  
 16 04 02 14 30 39.8000000  0  2G05G21                                          
  21942467.73449 115308445.35949     -5158.74249        50.000  
  22513956.00849 118311637.14549     -2161.33649        50.000  
 16 04 02 14 30 39.9000000  0  2G05G21                                          
  21942565.94549 115308961.45349     -5163.96149        50.000  
  22513997.15649 118311853.37149     -2164.35549        50.000  
 16 04 02 14 30 40.0000000  0  2G05G21                                          
  21942664.26649 115309478.13349     -5169.62149        50.000  
  22514038.36749 118312069.98449     -2167.91049        50.000  
 16 04 02 14 30 40.1000000  0  2G05G21                                          
  21942762.70349 115309995.43049     -5176.09849        50.000  
  22514079.67249 118312287.02049     -2172.44549        50.000  
 16 04 02 14 30 40.2000000  0  2G05G21                                          
  21942861.26649 115310513.37949     -5182.44949        50.000  
  22514121.06249 118312504.47749     -2176.64549        50.000  
 16 04 02 14 30 40.3000000  0  2G05G21                                          
  21942959.93049 115311031.86349     -5187.77049        50.000  
  22514162.50849 118312722.26249     -2179.78549        50.000  
 16 04 02 14 30 40.4000000  0  2G05G21                                          
  21943058.69549 115311550.87549     -5192.80949        50.000  
  22514204.00849 118312940.38749     -2183.02049        50.000  
 16 04 02 14 30 40.5000000  0  2G05G21                                          
  21943157.60249 115312070.58649     -5199.85949        50.000  
  22514245.60249 118313158.96549     -2187.61749        50.000  
 16 04 02 14 30 40.6000000  0  2G05G21                                          
  21943256.60949 115312590.85549     -5205.71949        50.000  
  22514287.27349 118313377.93049     -2191.60949        50.000  
 16 04 02 14 30 40.7000000  0  2G05G21                                          
  21943355.71149 115313111.66449     -5210.94549        50.000  
  22514329.00049 118313597.20749     -2194.75849        50.000  
 16 04 02 14 30 40.8000000  0  2G05G21                                          
  21943454.93849 115313633.10949     -5217.28949        50.000  
  22514370.80549 118313816.91849     -2199.02049        50.000  
 16 04 02 14 30 40.9000000  0  2G05G21                                          
  21943554.28149 115314155.14549     -5223.16449        50.000  
  22514412.68849 118314036.98849     -2202.68049        50.000  
 16 04 02 14 30 41.0000000  0  2G05G21                                          
  21943653.74249 115314677.79749     -5229.60249        50.000  
  22514454.63349 118314257.48849     -2206.98449        50.000  
 16 04 02 14 30 41.1000000  0  2G05G21                                          
  21943753.30549 115315201.02749     -5235.33649        50.000  
  22514496.66449 118314478.35549     -2210.76649        50.000  
 16 04 02 14 30 41.2000000  0  2G05G21                                          
  21943852.98449 115315724.83249     -5240.68449        50.000  
  22514538.75849 118314699.58249     -2214.03149        50.000  
 16 04 02 14 30 41.3000000  0  2G05G21                                          
  21943952.77349 115316249.21949     -5246.71149        50.000  
  22514580.92249 118314921.18849     -2218.01249        50.000  
 16 04 02 14 30 41.4000000  0  2G05G21                                          
  21944052.68849 115316774.25049     -5253.26649        50.000  
  22514623.16449 118315143.21949     -2222.28549        50.000  
 16 04 02 14 30 41.5000000  0  2G05G21                                          
  21944152.70349 115317299.86749     -5259.26649        50.000  
  22514665.49249 118315365.64149     -2226.39149        50.000  
 16 04 02 14 30 41.6000000  0  2G05G21                                          
  21944252.84449 115317826.08249     -5265.12149        50.000  
  22514707.89149 118315588.44549     -2230.11349        50.000  
 16 04 02 14 30 41.7000000  0  2G05G21                                          
  21944353.09449 115318352.88349     -5270.77349        50.000  
  22514750.35949 118315811.62549     -2233.68849        50.000  
 16 04 02 14 30 41.8000000  0  2G05G21                                          
  21944453.45349 115318880.27749     -5276.91049        50.000  
  22514792.89849 118316035.18049     -2237.53949        50.000  
 16 04 02 14 30 41.9000000  0  2G05G21                                          
  21944553.93049 115319408.26649     -5282.80149        50.000  
  22514835.51649 118316259.12949     -2241.42649        50.000  
 16 04 02 14 30 42.0000000  0  2G05G21                                          
  21944654.51649 115319936.84849     -5288.78149        50.000  
  22514878.20349 118316483.48049     -2245.44949        50.000  
 16 04 02 14 30 42.1000000  0  2G05G21                                          
  21944755.21949 115320466.01249     -5294.57449        50.000  
  22514920.96949 118316708.18849     -2249.11749        50.000  
 16 04 02 14 30 42.2000000  0  2G05G21                                          
  21944856.03949 115320995.83249     -5301.35949        50.000  
  22514963.80549 118316933.32449     -2253.50849        50.000  
 16 04 02 14 30 42.3000000  0  2G05G21                                          
  21944956.96949 115321526.21549     -5306.83249        50.000  
  22515006.71949 118317158.84049     -2257.05949        50.000  
 16 04 02 14 30 42.4000000  0  2G05G21                                          
  21945058.01649 115322057.19949     -5312.98449        50.000  
  22515049.71149 118317384.75049     -2261.19549        50.000  
 16 04 02 14 30 42.5000000  0  2G05G21                                          
  21945159.17249 115322588.77049     -5318.54749        50.000  
  22515092.76649 118317611.02749     -2264.80149        50.000  
 16 04 02 14 30 42.6000000  0  2G05G21                                          
  21945260.44549 115323120.95749     -5324.98049        50.000  
  22515135.90649 118317837.70749     -2268.97749        50.000  
 16 04 02 14 30 42.7000000  0  2G05G21                                          
  21945361.84449 115323653.80549     -5331.44949        50.000  
  22515179.12549 118318064.85949     -2273.43049        50.000  
 16 04 02 14 30 42.8000000  0  2G05G21                                          
  21945463.33649 115324187.14149     -5336.39549        50.000  
  22515222.41449 118318292.28549     -2276.37149        50.000  
 16 04 02 14 30 42.9000000  0  2G05G21                                          
  21945564.95349 115324721.15649     -5342.92249        50.000  
  22515265.77349 118318520.17249     -2280.86349        50.000  
 16 04 02 14 30 43.0000000  0  2G05G21                                          
  21945666.68849 115325255.76249     -5349.02349        50.000  
  22515309.20349 118318748.43849     -2284.74249        50.000  
 16 04 02 14 30 43.1000000  0  2G05G21                                          
  21945768.50849 115325790.91449     -5354.30549        50.000  
  22515352.71149 118318977.04349     -2287.96949        50.000  
 16 04 02 14 30 43.2000000  0  2G05G21                                          
  21945870.45349 115326326.64549     -5360.19949        50.000  
  22515396.29749 118319206.03149     -2291.74649        50.000  
 16 04 02 14 30 43.3000000  0  2G05G21                                          
  21945972.53149 115326863.04749     -5366.98849        50.000  
  22515439.95349 118319435.46149     -2296.33649        50.000  
 16 04 02 14 30 43.4000000  0  2G05G21                                          
  21946074.71149 115327400.01649     -5372.60949        50.000  
  22515483.69549 118319665.27049     -2299.96549        50.000  
 16 04 02 14 30 43.5000000  0  3G05G04G21                                       
  21946177.01649 115327937.57049     -5378.45349        50.000  
  23661742.73449 124343296.94159    -11195.77349        49.000  
  22515527.49249 118319895.44949     -2303.84849        50.000  
 16 04 02 14 30 43.6000000  0  3G05G04G21                                       
  21946279.42249 115328475.68849     -5384.00049        50.000  
  23661955.79749 124344416.59449    -11197.60949        49.000  
  22515571.37549 118320125.98049     -2307.19949        50.000  
 16 04 02 14 30 43.7000000  0  3G05G04G21                                       
  21946381.93049 115329014.41849     -5390.19549        50.000  
  23662168.93849 124345536.48849    -11200.28949        49.000  
  22515615.32049 118320356.92649     -2311.43849        50.000  
 16 04 02 14 30 43.8000000  0  3G05G04G21                                       
  21946484.56249 115329553.75449     -5396.14149        50.000  
  23662382.09449 124346656.63749    -11202.64849        49.000  
  22515659.34449 118320588.25849     -2315.23049        50.000  
 16 04 02 14 30 43.9000000  0  3G05G04G21                                       
  21946587.30549 115330093.66049     -5402.05549        50.000  
  23662595.28149 124347776.99249    -11204.93049        49.000  
  22515703.43849 118320819.95749     -2318.97749        50.000  
 16 04 02 14 30 44.0000000  0  3G05G04G21                                       
  21946690.14849 115330634.12949     -5407.38349        50.000  
  23662808.51649 124348897.55549    -11206.76249        49.000  
  22515747.59449 118321052.00449     -2322.33249        50.000  
 16 04 02 14 30 44.1000000  0  3G05G04G21                                       
  21946793.10949 115331175.18449     -5413.32049        50.000  
  23663021.80549 124350018.33649    -11209.01649        49.000  
  22515791.82849 118321284.43449     -2326.11749        50.000  
 16 04 02 14 30 44.2000000  0  3G05G04G21                                       
  21946896.17249 115331716.75449     -5418.46949        50.000  
  23663235.10949 124351139.27049    -11210.55549        49.000  
  22515836.12549 118321517.16449     -2329.11749        50.000  
 16 04 02 14 30 44.3000000  0  3G05G04G21                                       
  21946999.35249 115332258.98449     -5425.09049        50.000  
  23663448.46949 124352260.52349    -11213.61749        49.000  
  22515880.50049 118321750.35549     -2333.80149        50.000  
 16 04 02 14 30 44.4000000  0  3G05G04G21                                       
  21947102.64149 115332801.76249     -5430.74649        50.000  
  23663661.86749 124353381.94949    -11215.59849        49.000  
  22515924.93849 118321983.88349     -2337.21549        50.000  
 16 04 02 14 30 44.5000000  0  3G05G04G21                                       
  21947206.04749 115333345.12549     -5436.59849        50.000  
  23663875.32049 124354503.60949    -11217.89549        49.000  
  22515969.45349 118322217.79749     -2341.07449        50.000  
 16 04 02 14 30 44.6000000  0  3G05G04G21                                       
  21947309.56249 115333889.10249     -5442.75049        50.000  
  23664088.81249 124355625.52049    -11220.47749        49.000  
  22516014.03149 118322452.10549     -2345.18849        50.000  
 16 04 02 14 30 44.7000000  0  3G05G04G21                                       
  21947413.20349 115334433.72749     -5449.08649        50.000  
  23664302.35249 124356747.72349    -11223.23449        49.000  
  22516058.70349 118322686.85949     -2349.41449        50.000  
 16 04 02 14 30 44.8000000  0  3G05G04G21                                       
  21947516.94549 115334978.90649     -5454.69549        50.000  
  23664515.93849 124357870.12149    -11225.27049        49.000  
  22516103.43849 118322921.95349     -2352.98849        50.000  
 16 04 02 14 30 44.9000000  0  3G05G04G21                                       
  21947620.81249 115335524.73449     -5461.07849        50.000  
  23664729.57049 124358992.79749    -11227.91849        49.000  
  22516148.25849 118323157.48849     -2357.16449        50.000  
 16 04 02 14 30 45.0000000  0  3G05G04G21                                       
  21947724.78949 115336071.12949     -5467.02049        50.000  
  23664943.25049 124360115.69149    -11230.36749        49.000  
  22516193.14149 118323393.37949     -2361.02049        50.000  
 16 04 02 14 30 45.1000000  0  3G05G04G21                                       
  21947828.86749 115336618.08249     -5472.31249        50.000  
  23665156.97749 124361238.78949    -11232.09449        49.000  
  22516238.10249 118323629.63349     -2364.34849        50.000  
 16 04 02 14 30 45.2000000  0  3G05G04G21                                       
  21947933.05549 115337165.59849     -5477.91449        50.000  
  23665370.73449 124362362.08249    -11234.03149        49.000  
  22516283.12549 118323866.23449     -2367.87149        50.000  
 16 04 02 14 30 45.3000000  0  3G05G04G21                                       
  21948037.35949 115337713.71149     -5483.85549        50.000  
  23665584.56249 124363485.60549    -11236.31249        49.000  
  22516328.21949 118324103.21549     -2371.60249        50.000  
 16 04 02 14 30 45.4000000  0  3G05G04G21                                       
  21948141.78149 115338262.47349     -5490.77049        50.000  
  23665798.41449 124364609.43449    -11239.74649        49.000  
  22516373.40649 118324340.65649     -2376.54749        50.000  
 16 04 02 14 30 45.5000000  0  3G05G04G21                                       
  21948246.32049 115338811.83249     -5496.73049        50.000  
  23666012.32849 124365733.50049    -11242.08249        49.000  
  22516418.66449 118324578.47749     -2380.37949        50.000  
 16 04 02 14 30 45.6000000  0  3G05G04G21                                       
  21948350.96949 115339361.74249     -5501.94549        50.000  
  23666226.26649 124366857.74649    -11243.58249        49.000  
  22516463.98449 118324816.64149     -2383.44949        50.000  
 16 04 02 14 30 45.7000000  0  3G05G04G21                                       
  21948455.71949 115339912.25449     -5508.23049        50.000  
  23666440.24249 124367982.23849    -11246.50449        49.000  
  22516509.38349 118325055.18849     -2387.71549        50.000  
 16 04 02 14 30 45.8000000  0  3G05G04G21                                       
  21948560.60249 115340463.43449     -5514.71149        50.000  
  23666654.28149 124369107.03949    -11249.22349        49.000  
  22516554.85949 118325294.21549     -2392.11349        50.000  
 16 04 02 14 30 45.9000000  0  3G05G04G21                                       
  21948665.60249 115341015.21149     -5520.83649        50.000  
  23666868.36749 124370232.09049    -11251.94949        49.000  
  22516600.42249 118325533.62149     -2396.16849        50.000  
 16 04 02 14 30 46.0000000  0  3G05G04G21                                       
  21948770.70349 115341567.54349     -5526.20349        50.000  
  23667082.50049 124371357.32849    -11253.50049        49.000  
  22516646.04749 118325773.38349     -2399.42649        50.000  
 16 04 02 14 30 46.1000000  0  3G05G04G21                                       
  21948875.92249 115342120.45749     -5531.99249        50.000  
  23667296.67249 124372482.78949    -11255.86349        49.000  
  22516691.73449 118326013.50449     -2403.13349        50.000  
 16 04 02 14 30 46.2000000  0  3G05G04G21                                       
  21948981.25049 115342673.95749     -5537.80949        50.000  
  23667510.88349 124373608.47349    -11258.11349        49.000  
  22516737.50849 118326254.02349     -2406.98449        50.000  
 16 04 02 14 30 46.3000000  0  3G05G04G21                                       
  21949086.70349 115343228.06649     -5543.80949        50.000  
  23667725.14849 124374734.41049    -11260.35249        49.000  
  22516783.35249 118326494.92649     -2410.80549        50.000  
 16 04 02 14 30 46.4000000  0  3G05G04G21                                       
  21949192.25049 115343782.71549     -5549.57049        49.000  
  23667939.43849 124375860.52749    -11262.68449        49.000  
  22516829.25849 118326736.16449     -2414.49249        50.000  
 16 04 02 14 30 46.5000000  0  3G05G04G21                                       
  21949297.91449 115344337.98849     -5555.59049        49.000  
  23668153.80549 124376986.90249    -11264.94149        49.000  
  22516875.24249 118326977.82049     -2418.36349        50.000  
 16 04 02 14 30 46.6000000  0  3G05G04G21                                       
  21949403.68049 115344893.81249     -5561.17249        49.000  
  23668368.18849 124378113.49249    -11267.24249        49.000  
  22516921.29749 118327219.82849     -2422.06649        50.000  
 16 04 02 14 30 46.7000000  0  3G05G04G21                                       
  21949509.57049 115345450.28149     -5567.53949        49.000  
  23668582.59449 124379240.34849    -11269.79349        49.000  
  22516967.43049 118327462.26649     -2426.24649        50.000  
 16 04 02 14 30 46.8000000  0  3G05G04G21                                       
  21949615.57049 115346007.32049     -5573.28949        49.000  
  23668797.06249 124380367.40649    -11271.93049        49.000  
  22517013.62549 118327705.06649     -2430.06649        50.000  
 16 04 02 14 30 46.9000000  0  3G05G04G21                                       
  21949721.68049 115346564.96149     -5579.34849        49.000  
  23669011.58649 124381494.73049    -11274.58649        49.000  
  22517059.90649 118327948.26649     -2434.04349        50.000  
 16 04 02 14 30 47.0000000  0  3G05G04G21                                       
  21949827.92249 115347123.28149     -5586.23449        49.000  
  23669226.16449 124382622.35249    -11277.59449        49.000  
  22517106.28149 118328191.92249     -2438.64849        50.000  
 16 04 02 14 30 47.1000000  0  3G05G04G21                                       
  21949934.28149 115347682.14149     -5591.62549        49.000  
  23669440.76649 124383750.17249    -11279.57849        49.000  
  22517152.71149 118328435.92649     -2442.08249        50.000  
 16 04 02 14 30 47.2000000  0  3G05G04G21                                       
  21950040.74249 115348241.59449     -5597.26649        50.000  
  23669655.42249 124384878.21949    -11281.54349        49.000  
  22517199.22749 118328680.32049     -2445.72749        50.000  
 16 04 02 14 30 47.3000000  0  3G05G04G21                                       
  21950147.30549 115348801.59449     -5602.75849        50.000  
  23669870.10949 124386006.45349    -11283.50449        49.000  
  22517245.78949 118328925.04349     -2449.00849        50.000  
 16 04 02 14 30 47.4000000  0  3G05G04G21                                       
  21950253.98449 115349362.17649     -5608.69949        49.000  
  23670084.84449 124387134.91049    -11285.77349        49.000  
  22517292.43849 118329170.14149     -2452.92249        50.000  
 16 04 02 14 30 47.5000000  0  3G05G04G21                                       
  21950360.76649 115349923.34049     -5614.51649        49.000  
  23670299.60249 124388263.58649    -11287.96549        49.000  
  22517339.14849 118329415.60949     -2456.62949        50.000  
 16 04 02 14 30 47.6000000  0  3G05G04G21                                       
  21950467.66449 115350485.10949     -5620.65249        50.000  
  23670514.43049 124389392.52049    -11290.51649        49.000  
  22517385.94549 118329661.48849     -2460.76249        50.000  
 16 04 02 14 30 47.7000000  0  3G05G04G21                                       
  21950574.68049 115351047.44549     -5626.25049        50.000  
  23670729.30549 124390521.64849    -11292.84449        49.000  
  22517432.79749 118329907.72349     -2464.40249        50.000  
 16 04 02 14 30 47.8000000  0  3G05G04G21                                       
  21950681.81249 115351610.39149     -5632.21149        49.000  
  23670944.21949 124391651.03949    -11295.05549        49.000  
  22517479.72749 118330154.35549     -2468.13349        50.000  
 16 04 02 14 30 47.9000000  0  3G05G04G21                                       
  21950789.04749 115352173.92249     -5638.30949        49.000  
  23671159.16449 124392780.64549    -11297.47749        49.000  
  22517526.73449 118330401.36349     -2472.19149        50.000  
 16 04 02 14 30 48.0000000  0  3G05G04G21                                       
  21950896.39149 115352737.99649     -5643.58249        50.000  
  23671374.15649 124393910.44149    -11299.02049        49.000  
  22517573.78949 118330648.71549     -2475.31249        50.000  
 16 04 02 14 30 48.1000000  0  3G05G04G21                                       
  21951003.83649 115353302.61349     -5649.09449        49.000  
  23671589.18849 124395040.42249    -11301.22749        49.000  
  22517620.92249 118330896.40249     -2478.84849        50.000  
 16 04 02 14 30 48.2000000  0  3G05G04G21                                       
  21951111.39849 115353867.85249     -5655.24249        49.000  
  23671804.26649 124396170.66049    -11303.74249        49.000  
  22517668.14149 118331144.49649     -2482.89149        50.000  
 16 04 02 14 30 48.3000000  0  3G05G04G21                                       
  21951219.07849 115354433.69949     -5661.45749        49.000  
  23672019.40649 124397301.15249    -11306.35949        49.000  
  22517715.43049 118331393.00449     -2487.12149        50.000  
 16 04 02 14 30 48.4000000  0  3G05G04G21                                       
  21951326.87549 115355000.17249     -5667.87149        49.000  
  23672234.57849 124398431.90649    -11308.96149        49.000  
  22517762.78149 118331641.91449     -2491.26249        50.000  
 16 04 02 14 30 48.5000000  0  3G05G04G21                                       
  21951434.78949 115355567.24649     -5673.94549        49.000  
  23672449.78949 124399562.90249    -11311.54349        49.000  
  22517810.22749 118331891.23449     -2495.48449        50.000  
 16 04 02 14 30 48.6000000  0  3G05G04G21                                       
  21951542.81249 115356134.93849     -5679.94149        49.000  
  23672665.06249 124400694.16449    -11313.96149        49.000  
  22517857.74249 118332140.95349     -2499.23449        50.000  
 16 04 02 14 30 48.7000000  0  3G05G04G21                                       
  21951650.95349 115356703.20349     -5685.47749        50.000  
  23672880.39849 124401825.63749    -11316.03149        49.000  
  22517905.33649 118332391.04749     -2502.84449        50.000  
 16 04 02 14 30 48.8000000  0  3G05G04G21                                       
  21951759.19549 115357272.03549     -5691.23449        50.000  
  23673095.75049 124402957.31649    -11318.04749        49.000  
  22517953.00049 118332641.49649     -2506.45749        50.000  
 16 04 02 14 30 48.9000000  0  3G05G04G21                                       
  21951867.54749 115357841.43849     -5696.68449        50.000  
  23673311.14849 124404089.21149    -11320.04749        49.000  
  22518000.72749 118332892.30949     -2509.93049        50.000  
 16 04 02 14 30 49.0000000  0  3G05G04G21                                       
  21951976.01649 115358411.42249     -5702.75849        50.000  
  23673526.57849 124405221.31249    -11322.48049        49.000  
  22518048.52349 118333143.49649     -2513.86749        50.000  
 16 04 02 14 30 49.1000000  0  3G05G04G21                                       
  21952084.60249 115358982.04349     -5709.08249        50.000  
  23673742.06249 124406353.70749    -11325.21949        49.000  
  22518096.40649 118333395.11749     -2518.11749        50.000  
 16 04 02 14 30 49.2000000  0  3G05G04G21                                       
  21952193.29749 115359553.23449     -5714.85249        50.000  
  23673957.58649 124407486.29349    -11327.32449        49.000  
  22518144.35249 118333647.09849     -2521.84049        50.000  
 16 04 02 14 30 49.3000000  0  3G05G04G21                                       
  21952302.11749 115360125.05949     -5721.32049        50.000  
  23674173.16449 124408619.18049    -11330.28949        49.000  
  22518192.38349 118333899.50449     -2526.15249        50.000  
 16 04 02 14 30 49.4000000  0  3G05G04G21                                       
  21952411.03949 115360697.45349     -5726.88749        50.000  
  23674388.78149 124409752.27049    -11332.19149        49.000  
  22518240.48449 118334152.27749     -2529.75449        50.000  
 16 04 02 14 30 49.5000000  0  3G05G04G21                                       
  21952520.07049 115361270.42649     -5732.44949        50.000  
  23674604.46949 124410885.57449    -11334.15649        49.000  
  22518288.65649 118334405.42249     -2533.20749        50.000  
 16 04 02 14 30 49.6000000  0  3G05G04G21                                       
  21952629.21949 115361844.00449     -5738.60949        50.000  
  23674820.18049 124412019.12549    -11336.73049        49.000  
  22518336.91449 118334658.96949     -2537.38749        50.000  
 16 04 02 14 30 49.7000000  0  3G05G04G21                                       
  21952738.46949 115362418.10549     -5743.99649        50.000  
  23675035.92249 124413152.84449    -11338.47349        49.000  
  22518385.21949 118334912.82849     -2540.68049        50.000  
 16 04 02 14 30 49.8000000  0  3G05G04G21                                       
  21952847.84449 115362992.87149     -5750.53949        50.000  
  23675251.71949 124414286.85949    -11341.44149        49.000  
  22518433.61749 118335167.13749     -2545.05149        50.000  
 16 04 02 14 30 49.9000000  0  3G05G04G21                                       
  21952957.32049 115363568.20349     -5756.14549        50.000  
  23675467.54749 124415421.09049    -11343.41849        49.000  
  22518482.08649 118335421.81249     -2548.63749        50.000  
 16 04 02 14 30 50.0000000  0  3G05G04G21                                       
  21953066.90649 115364144.05549     -5761.32449        49.000  
  23675683.40649 124416555.48049    -11345.03149        49.000  
  22518530.61749 118335676.80149     -2551.69149        50.000  
 16 04 02 14 30 50.1000000  0  3G05G04G21                                       
  21953176.59449 115364720.46949     -5766.96949        50.000  
  23675899.31249 124417690.07049    -11347.18049        49.000  
  22518579.21149 118335932.16049     -2555.45749        50.000  
 16 04 02 14 30 50.2000000  0  3G05G04G21                                       
  21953286.39849 115365297.53149     -5773.28949        50.000  
  23676115.27349 124418824.94949    -11349.66849        49.000  
  22518627.88349 118336187.93449     -2559.56249        50.000  
 16 04 02 14 30 50.3000000  0  3G05G04G21                                       
  21953396.30549 115365875.11749     -5778.79349        49.000  
  23676331.25849 124419960.00049    -11352.00849        49.000  
  22518676.61749 118336444.03949     -2563.14149        50.000  
 16 04 02 14 30 50.4000000  0  3G05G04G21                                       
  21953506.34449 115366453.38749     -5785.46149        50.000  
  23676547.31249 124421095.35549    -11354.71949        49.000  
  22518725.44549 118336700.61349     -2567.62149        50.000  
 16 04 02 14 30 50.5000000  0  3G05G04G21                                       
  21953616.49249 115367032.19949     -5791.05149        50.000  
  23676763.39849 124422230.92249    -11356.84449        49.000  
  22518774.33649 118336957.53549     -2571.23049        50.000  
 16 04 02 14 30 50.6000000  0  3G05G04G21                                       
  21953726.75049 115367611.59449     -5796.76249        50.000  
  23676979.52349 124423366.69549    -11359.02749        49.000  
  22518823.29749 118337214.82849     -2574.78949        50.000  
 16 04 02 14 30 50.7000000  0  3G05G04G21                                       
  21953837.12549 115368191.60549     -5803.17649        50.000  
  23677195.71149 124424502.73049    -11361.82849        49.000  
  22518872.33649 118337472.53549     -2579.24249        50.000  
 16 04 02 14 30 50.8000000  0  3G05G04G21                                       
  21953947.61749 115368772.24249     -5809.25049        50.000  
  23677411.93849 124425639.02349    -11364.16449        49.000  
  22518921.45349 118337730.64849     -2583.13349        50.000  
 16 04 02 14 30 50.9000000  0  3G05G04G21                                       
  21954058.21949 115369353.44149     -5815.03949        50.000  
  23677628.21149 124426775.52349    -11366.31249        49.000  
  22518970.64149 118337989.13349     -2586.86749        50.000  
 16 04 02 14 30 51.0000000  0  3G05G04G21                                       
  21954168.93049 115369935.21949     -5820.71549        50.000  
  23677844.51649 124427912.23849    -11368.50049        49.000  
  22519019.89149 118338247.96549     -2590.39849        50.000  
 16 04 02 14 30 51.1000000  0  3G05G04G21                                       
  21954279.75049 115370517.53549     -5826.08249        50.000  
  23678060.85249 124429049.14849    -11370.37549        49.000  
  22519069.21149 118338507.16449     -2593.93849        50.000  
 16 04 02 14 30 51.2000000  0  3G05G04G21                                       
  21954390.68049 115371100.48849     -5832.35949        50.000  
  23678277.25049 124430186.33649    -11373.07449        49.000  
  22519118.60949 118338766.76249     -2597.88749        50.000  
 16 04 02 14 30 51.3000000  0  3G05G04G21                                       
  21954501.71949 115371683.99249     -5837.91049        50.000  
  23678493.69549 124431323.69949    -11374.77049        49.000  
  22519168.07849 118339026.73049     -2601.47749        50.000  
 16 04 02 14 30 51.4000000  0  3G05G04G21                                       
  21954612.85949 115372268.06249     -5843.73049        50.000  
  23678710.17249 124432461.28549    -11377.38349        49.000  
  22519217.61749 118339287.05149     -2605.34049        50.000  
 16 04 02 14 30 51.5000000  0  3G05G04G21                                       
  21954724.13349 115372852.78549     -5850.05549        50.000  
  23678926.68849 124433599.14149    -11379.74249        49.000  
  22519267.23449 118339547.80149     -2609.38749        50.000  
 16 04 02 14 30 51.6000000  0  3G05G04G21                                       
  21954835.51649 115373438.11749     -5856.43049        50.000  
  23679143.26649 124434737.27049    -11382.75449        49.000  
  22519316.94549 118339808.96949     -2613.89549        50.000  
 16 04 02 14 30 51.7000000  0  3G05G04G21                                       
  21954947.02349 115374024.05549     -5862.43049        50.000  
  23679359.89149 124435875.63749    -11384.98449        49.000  
  22519366.71949 118340070.53949     -2617.70349        50.000  
 16 04 02 14 30 51.8000000  0  3G05G04G21                                       
  21955058.64149 115374610.57449     -5868.16049        50.000  
  23679576.56249 124437014.23049    -11387.19949        49.000  
  22519416.56249 118340332.47749     -2621.41849        50.000  
 16 04 02 14 30 51.9000000  0  3G05G04G21                                       
  21955170.35949 115375197.67249     -5873.90649        50.000  
  23679793.27349 124438153.04749    -11389.51649        49.000  
  22519466.48449 118340594.80149     -2625.19149        50.000  
 16 04 02 14 30 52.0000000  0  3G05G04G21                                       
  21955282.18849 115375785.32849     -5879.35249        49.000  
  23680010.02349 124439292.05949    -11391.27749        49.000  
  22519516.46949 118340857.46949     -2628.49249        50.000  
 16 04 02 14 30 52.1000000  0  3G05G04G21                                       
  21955394.12549 115376373.58649     -5885.46549        50.000  
  23680226.82849 124440431.29749    -11393.66849        49.000  
  22519566.52349 118341120.52749     -2632.49249        50.000  
 16 04 02 14 30 52.2000000  0  3G05G04G21                                       
  21955506.17249 115376962.39849     -5890.95749        50.000  
  23680443.66449 124441570.76249    -11395.68849        49.000  
  22519616.64849 118341383.94149     -2635.95349        50.000  
 16 04 02 14 30 52.3000000  0  3G05G04G21                                       
  21955618.32049 115377551.76249     -5896.46549        50.000  
  23680660.51649 124442710.39149    -11397.68049        49.000  
  22519666.83649 118341647.69549     -2639.48049        50.000  
 16 04 02 14 30 52.4000000  0  3G05G04G21                                       
  21955730.60249 115378141.77749     -5902.85949        50.000  
  23680877.43849 124443850.32449    -11400.37149        49.000  
  22519717.11749 118341911.89549     -2643.82449        50.000  
 16 04 02 14 30 52.5000000  0  3G05G04G21                                       
  21955842.98449 115378732.35249     -5908.64849        50.000  
  23681094.39849 124444990.46149    -11402.51649        49.000  
  22519767.46149 118342176.44949     -2647.47749        50.000  
 16 04 02 14 30 52.6000000  0  3G05G04G21                                       
  21955955.46949 115379323.47749     -5914.24649        50.000  
  23681311.39149 124446130.78949    -11404.86749        49.000  
  22519817.87549 118342441.35549     -2651.18449        50.000  
 16 04 02 14 30 52.7000000  0  3G05G04G21                                       
  21956068.09449 115379915.28949     -5920.88749        50.000  
  23681528.44549 124447271.43049    -11407.53949        49.000  
  22519868.37549 118342706.73449     -2655.59449        50.000  
 16 04 02 14 30 52.8000000  0  3G05G04G21                                       
  21956180.80549 115380507.59049     -5926.09049        50.000  
  23681745.53149 124448412.21149    -11409.27049        49.000  
  22519918.92249 118342972.39549     -2658.71949        50.000  
 16 04 02 14 30 52.9000000  0  3G05G04G21                                       
  21956293.64149 115381100.54349     -5932.34049        50.000  
  23681962.66449 124449553.29349    -11411.86349        49.000  
  22519969.56249 118343238.51649     -2663.03949        50.000  
 16 04 02 14 30 53.0000000  0  3G05G04G21                                       
  21956406.58649 115381694.09449     -5938.45349        50.000  
  23682179.85249 124450694.59849    -11414.35949        49.000  
  22520020.27349 118343505.00849     -2667.01649        50.000  
 16 04 02 14 30 53.1000000  0  3G05G04G21                                       
  21956519.64849 115382288.21149     -5944.19149        50.000  
  23682397.07049 124451836.12149    -11416.56249        49.000  
  22520071.05549 118343771.86349     -2670.59449        50.000  
 16 04 02 14 30 53.2000000  0  3G05G04G21                                       
  21956632.81249 115382882.90249     -5949.73849        50.000  
  23682614.33649 124452977.85549    -11418.53949        49.000  
  22520121.90649 118344039.10549     -2674.25049        50.000  
 16 04 02 14 30 53.3000000  0  3G05G04G21                                       
  21956746.09449 115383478.21949     -5956.23849        50.000  
  23682831.66449 124454119.85949    -11421.46149        49.000  
  22520172.83649 118344306.75449     -2678.63349        50.000  
 16 04 02 14 30 53.4000000  0  3G05G04G21                                       
  21956859.49249 115384074.13749     -5961.96949        50.000  
  23683049.03149 124455262.10249    -11423.59849        49.000  
  22520223.84449 118344574.79749     -2682.30549        50.000  
 16 04 02 14 30 53.5000000  0  3G05G04G21                                       
  21956973.00049 115384670.60249     -5967.52049        50.000  
  23683266.41449 124456404.53549    -11425.50449        49.000  
  22520274.92249 118344843.18849     -2685.76649        50.000  
 16 04 02 14 30 53.6000000  0  3G05G04G21                                       
  21957086.60249 115385267.60249     -5972.80949        50.000  
  23683483.84449 124457547.14549    -11427.37149        49.000  
  22520326.06249 118345111.90649     -2689.11749        50.000  
 16 04 02 14 30 53.7000000  0  3G05G04G21                                       
  21957200.32049 115385865.23049     -5979.02049        50.000  
  23683701.32849 124458690.00849    -11429.78149        49.000  
  22520377.28149 118345381.05149     -2693.30149        50.000  
 16 04 02 14 30 53.8000000  0  3G05G04G21                                       
  21957314.16449 115386463.48049     -5985.55949        50.000  
  23683918.86749 124459833.16849    -11432.98849        49.000  
  22520428.57849 118345650.60549     -2697.72749        50.000  
 16 04 02 14 30 53.9000000  0  3G05G04G21                                       
  21957428.11749 115387062.34049     -5991.55949        50.000  
  23684136.44549 124460976.54749    -11435.25849        49.000  
  22520479.95349 118345920.56249     -2701.63749        50.000  
 16 04 02 14 30 54.0000000  0  3G05G04G21                                       
  21957542.18049 115387661.73849     -5996.75849        50.000  
  23684354.05549 124462120.11749    -11436.77749        49.000  
  22520531.39149 118346190.85949     -2704.73849        50.000  
 16 04 02 14 30 54.1000000  0  3G05G04G21                                       
  21957656.35249 115388261.66449     -6002.03149        50.000  
  23684571.70349 124463263.85549    -11438.62949        49.000  
  22520582.88349 118346461.47749     -2708.10949        50.000  
 16 04 02 14 30 54.2000000  0  3G05G04G21                                       
  21957770.64149 115388862.25049     -6008.64549        50.000  
  23684789.40649 124464407.89549    -11441.48849        49.000  
  22520634.46949 118346732.54349     -2712.52749        50.000  
 16 04 02 14 30 54.3000000  0  3G05G04G21                                       
  21957885.03149 115389463.39149     -6014.27749        50.000  
  23685007.14849 124465552.12949    -11443.66449        49.000  
  22520686.11749 118347003.96149     -2716.11349        50.000  
 16 04 02 14 30 54.4000000  0  3G05G04G21                                       
  21957999.53149 115390065.09449     -6019.77749        50.000  
  23685224.93049 124466696.56649    -11445.43449        49.000  
  22520737.83649 118347275.73449     -2719.55949        50.000  
 16 04 02 14 30 54.5000000  0  3G05G04G21                                       
  21958114.14849 115390667.39149     -6025.98449        50.000  
  23685442.75849 124467841.23449    -11448.12949        49.000  
  22520789.62549 118347547.89549     -2723.64849        50.000  
 16 04 02 14 30 54.6000000  0  3G05G04G21                                       
  21958228.87549 115391270.28949     -6032.03149        50.000  
  23685660.63349 124468986.15649    -11450.59049        49.000  
  22520841.49249 118347820.46549     -2727.67649        50.000  
 16 04 02 14 30 54.7000000  0  3G05G04G21                                       
  21958343.72749 115391873.79349     -6037.99649        50.000  
  23685878.53149 124470131.31649    -11452.98449        49.000  
  22520893.43849 118348093.42649     -2731.71149        50.000  
 16 04 02 14 30 54.8000000  0  3G05G04G21                                       
  21958458.68849 115392477.93049     -6044.34849        50.000  
  23686096.50049 124471276.75049    -11455.71149        49.000  
  22520945.46149 118348366.80949     -2735.79749        50.000  
 16 04 02 14 30 54.9000000  0  3G05G04G21                                       
  21958573.75849 115393082.63749     -6049.93849        50.000  
  23686314.50049 124472422.39549    -11457.80949        49.000  
  22520997.56249 118348640.57449     -2739.57849        50.000  
 16 04 02 14 30 55.0000000  0  3G05G04G21                                       
  21958688.93049 115393687.85949     -6054.96549        50.000  
  23686532.53949 124473568.20349    -11459.04349        49.000  
  22521049.71149 118348914.63349     -2742.44549        50.000  
 16 04 02 14 30 55.1000000  0  3G05G04G21                                       
  21958804.21949 115394293.75049     -6061.85949        50.000  
  23686750.62549 124474714.31649    -11462.55149        49.000  
  22521101.95349 118349189.15249     -2747.24649        50.000  
 16 04 02 14 30 55.2000000  0  3G05G04G21                                       
  21958919.63349 115394900.24649     -6067.85549        50.000  
  23686968.77349 124475860.68049    -11464.87549        49.000  
  22521154.27349 118349464.09049     -2751.37149        50.000  
 16 04 02 14 30 55.3000000  0  3G05G04G21                                       
  21959035.14849 115395507.29749     -6073.45349        50.000  
  23687186.96149 124477007.22749    -11466.96949        49.000  
  22521206.64849 118349739.35249     -2754.64549        50.000  
 16 04 02 14 30 55.4000000  0  3G05G04G21                                       
  21959150.78949 115396114.96949     -6079.61749        50.000  
  23687405.18849 124478154.03949    -11469.43049        49.000  
  22521259.11749 118350015.05149     -2758.87149        50.000  
 16 04 02 14 30 55.5000000  0  3G05G04G21                                       
  21959266.53949 115396723.30949     -6086.30549        50.000  
  23687623.48449 124479301.16849    -11472.51649        49.000  
  22521311.66449 118350291.20749     -2763.46549        50.000  
 16 04 02 14 30 55.6000000  0  3G05G04G21                                       
  21959382.39149 115397332.09849     -6090.78949        50.000  
  23687841.78949 124480448.38349    -11473.41849        49.000  
  22521364.26649 118350567.61349     -2766.01649        50.000  
 16 04 02 14 30 55.7000000  0  3G05G04G21                                       
  21959498.37549 115397941.56249     -6097.51649        50.000  
  23688060.17249 124481595.91849    -11476.57849        49.000  
  22521416.95349 118350844.48049     -2770.59049        50.000  
 16 04 02 14 30 55.8000000  0  3G05G04G21                                       
  21959614.46949 115398551.63749     -6103.85549        50.000  
  23688278.58649 124482743.69549    -11479.31649        49.000  
  22521469.71949 118351121.76249     -2774.98449        50.000  
 16 04 02 14 30 55.9000000  0  3G05G04G21                                       
  21959730.67249 115399162.26649     -6109.12549        50.000  
  23688497.06249 124483891.66849    -11480.92249        49.000  
  22521522.54749 118351399.37949     -2778.14549        50.000  
 16 04 02 14 30 56.0000000  0  3G05G04G21                                       
  21959846.97749 115399773.44549     -6114.65249        50.000  
  23688715.55549 124485039.84049    -11482.83249        49.000  
  22521575.45349 118351677.34849     -2781.49649        50.000  
 16 04 02 14 30 56.1000000  0  3G05G04G21                                       
  21959963.38349 115400385.17249     -6120.03949        50.000  
  23688934.07049 124486188.20349    -11484.74249        49.000  
  22521628.41449 118351955.66449     -2785.02749        50.000  
 16 04 02 14 30 56.2000000  0  3G05G04G21                                       
  21960079.89149 115400997.43449     -6125.52749        50.000  
  23689152.62549 124487336.74249    -11486.76649        49.000  
  22521681.44549 118352234.31249     -2788.49649        50.000  
 16 04 02 14 30 56.3000000  0  3G05G04G21                                       
  21960196.53149 115401610.37949     -6132.27749        50.000  
  23689371.22749 124488485.59449    -11489.78949        49.000  
  22521734.56249 118352513.43049     -2793.13749        50.000  
 16 04 02 14 30 56.4000000  0  3G05G04G21                                       
  21960313.28149 115402223.89149     -6138.02349        50.000  
  23689589.88349 124489634.66049    -11491.87949        49.000  
  22521787.74249 118352792.91849     -2796.76649        50.000  
 16 04 02 14 30 56.5000000  0  3G05G04G21                                       
  21960430.12549 115402837.93049     -6143.30549        50.000  
  23689808.57049 124490783.89149    -11493.64149        49.000  
  22521840.99249 118353072.71549     -2799.98049        50.000  
 16 04 02 14 30 56.6000000  0  3G05G04G21                                       
  21960547.09449 115403452.59849     -6149.51649        50.000  
  23690027.31249 124491933.38749    -11496.17649        49.000  
  22521894.31249 118353352.94149     -2804.09049        50.000  
 16 04 02 14 30 56.7000000  0  3G05G04G21                                       
  21960664.17249 115404067.88349     -6155.77049        50.000  
  23690246.10949 124493083.16049    -11498.78549        49.000  
  22521947.71949 118353633.58649     -2808.30149        50.000  
 16 04 02 14 30 56.8000000  0  3G05G04G21                                       
  21960781.35249 115404683.69149     -6161.02349        50.000  
  23690464.93849 124494233.09449    -11500.75449        49.000  
  22522001.18049 118353914.55949     -2811.77049        50.000  
 16 04 02 14 30 56.9000000  0  3G05G04G21                                       
  21960898.65649 115405300.14549     -6167.40249        50.000  
  23690683.82049 124495383.30149    -11503.37949        49.000  
  22522054.72749 118354195.95349     -2815.82449        50.000  
 16 04 02 14 30 57.0000000  0  3G05G04G21                                       
  21961016.07849 115405917.17249     -6173.16049        50.000  
  23690902.73449 124496533.72749    -11505.48849        49.000  
  22522108.34449 118354477.73049     -2819.71149        50.000  
 16 04 02 14 30 57.1000000  0  3G05G04G21                                       
  21961133.60249 115406534.77049     -6178.95749        50.000  
  23691121.70349 124497684.36349    -11507.84049        49.000  
  22522162.03149 118354759.85949     -2823.44149        50.000  
 16 04 02 14 30 57.2000000  0  3G05G04G21                                       
  21961251.25049 115407153.00849     -6185.22349        50.000  
  23691340.71149 124498835.28549    -11510.37949        49.000  
  22522215.80549 118355042.43849     -2827.69549        50.000  
 16 04 02 14 30 57.3000000  0  3G05G04G21                                       
  21961369.00049 115407771.77349     -6190.64149        50.000  
  23691559.75049 124499986.37149    -11512.23049        49.000  
  22522269.64149 118355325.32449     -2830.99649        50.000  
 16 04 02 14 30 57.4000000  0  3G05G04G21                                       
  21961486.85949 115408391.13349     -6196.41049        50.000  
  23691778.83649 124501137.69949    -11514.46149        49.000  
  22522323.53949 118355608.62549     -2834.85249        50.000  
 16 04 02 14 30 57.5000000  0  3G05G04G21                                       
  21961604.84449 115409011.10549     -6202.62949        50.000  
  23691997.99249 124502289.27749    -11517.18049        49.000  
  22522377.52349 118355892.30549     -2838.87549        50.000  
 16 04 02 14 30 57.6000000  0  3G05G04G21                                       
  21961722.93849 115409631.69549     -6208.74649        50.000  
  23692217.17249 124503441.10249    -11519.44149        49.000  
  22522431.57849 118356176.41049     -2842.98049        50.000  
 16 04 02 14 30 57.7000000  0  3G05G04G21                                       
  21961841.14149 115410252.84049     -6214.37549        50.000  
  23692436.39149 124504593.14549    -11521.62149        49.000  
  22522485.71149 118356460.86749     -2846.52349        50.000  
 16 04 02 14 30 57.8000000  0  3G05G04G21                                       
  21961959.44549 115410874.54749     -6219.87549        50.000  
  23692655.65649 124505745.37949    -11523.54749        49.000  
  22522539.91449 118356745.69149     -2850.10949        50.000  
 16 04 02 14 30 57.9000000  0  3G05G04G21                                       
  21962077.87549 115411496.89549     -6226.45749        50.000  
  23692874.98449 124506897.89149    -11526.42249        49.000  
  22522594.18849 118357030.92649     -2854.40249        50.000  
 16 04 02 14 30 58.0000000  0  3G05G04G21                                       
  21962196.40649 115412119.78149     -6231.89149        50.000  
  23693094.33649 124508050.59049    -11528.33249        49.000  
  22522648.53949 118357316.51649     -2857.94949        50.000  
 16 04 02 14 30 58.1000000  0  3G05G04G21                                       
  21962315.06249 115412743.31649     -6238.32049        50.000  
  23693313.74249 124509203.57449    -11531.14149        49.000  
  22522702.96149 118357602.53949     -2862.30949        50.000  
 16 04 02 14 30 58.2000000  0  3G05G04G21                                       
  21962433.82049 115413367.38749     -6243.56249        50.000  
  23693533.18049 124510356.74249    -11533.01649        49.000  
  22522757.46149 118357888.90649     -2865.65249        50.000  
 16 04 02 14 30 58.3000000  0  3G05G04G21                                       
  21962552.68849 115413992.02749     -6249.22749        50.000  
  23693752.64149 124511510.12149    -11534.96149        49.000  
  22522812.02349 118358175.63349     -2869.20749        50.000  
 16 04 02 14 30 58.4000000  0  3G05G04G21                                       
  21962671.64849 115414617.17649     -6254.07449        50.000  
  23693972.14849 124512663.62949    -11536.17649        49.000  
  22522866.63349 118358462.66049     -2871.95749        50.000  
 16 04 02 14 30 58.5000000  0  3G05G04G21                                       
  21962790.73449 115415242.99249     -6261.02049        50.000  
  23694191.71149 124513817.46949    -11539.62949        49.000  
  22522921.34449 118358750.15249     -2876.87149        50.000  
 16 04 02 14 30 58.6000000  0  3G05G04G21                                       
  21962909.93849 115415869.41849     -6267.31649        50.000  
  23694411.32849 124514971.55149    -11542.19149        49.000  
  22522976.12549 118359038.05549     -2881.05949        50.000  
 16 04 02 14 30 58.7000000  0  3G05G04G21                                       
  21963029.25049 115416496.38749     -6272.44149        50.000  
  23694630.97749 124516125.82049    -11543.80149        49.000  
  22523030.96949 118359326.28549     -2884.18849        50.000  
 16 04 02 14 30 58.8000000  0  3G05G04G21                                       
  21963148.67249 115417123.94949     -6278.58249        50.000  
  23694850.66449 124517280.32049    -11546.43049        49.000  
  22523085.89849 118359614.91849     -2888.30149        50.000  
 16 04 02 14 30 58.9000000  0  3G05G04G21                                       
  21963268.18849 115417752.03549     -6283.57049        50.000  
  23695070.39149 124518434.98449    -11547.68049        49.000  
  22523140.88349 118359903.86349     -2891.19149        50.000  
 16 04 02 14 30 59.0000000  0  3G05G04G21                                       
  21963387.82049 115418380.69149     -6289.55549        50.000  
  23695290.15649 124519589.86349    -11550.13349        49.000  
  22523195.94549 118360193.17649     -2895.10249        50.000  
 16 04 02 14 30 59.1000000  0  3G05G04G21                                       
  21963507.57049 115419009.98849     -6295.82849        50.000  
  23695509.98449 124520745.01649    -11552.75049        49.000  
  22523251.07849 118360482.92249     -2899.40649        50.000  
 16 04 02 14 30 59.2000000  0  3G05G04G21                                       
  21963627.43049 115419639.87149     -6301.92649        50.000  
  23695729.85249 124521900.40249    -11555.39849        49.000  
  22523306.28949 118360773.05149     -2903.53149        50.000  
 16 04 02 14 30 59.3000000  0  3G05G04G21                                       
  21963747.41449 115420270.36349     -6307.82449        50.000  
  23695949.77349 124523056.03549    -11557.53149        49.000  
  22523361.57849 118361063.58649     -2907.25449        50.000  
 16 04 02 14 30 59.4000000  0  3G05G04G21                                       
  21963867.48449 115420901.34849     -6312.76249        50.000  
  23696169.71149 124524211.81249    -11559.12149        49.000  
  22523416.91449 118361354.41449     -2910.22349        50.000  
 16 04 02 14 30 59.5000000  0  3G05G04G21                                       
  21963987.68849 115421533.06249     -6319.92249        50.000  
  23696389.71149 124525367.95349    -11562.59449        49.000  
  22523472.35949 118361645.77049     -2915.43849        50.000  
 16 04 02 14 30 59.6000000  0  3G05G04G21                                       
  21964108.00049 115422165.29349     -6325.27749        50.000  
  23696609.74249 124526524.25449    -11564.26649        49.000  
  22523527.86749 118361937.43449     -2918.64849        50.000  
 16 04 02 14 30 59.7000000  0  3G05G04G21                                       
  21964228.41449 115422798.03949     -6330.23049        50.000  
  23696829.81249 124527680.71549    -11565.78549        49.000  
  22523583.42249 118362229.41049     -2921.63349        50.000  
 16 04 02 14 30 59.8000000  0  3G05G04G21                                       
  21964348.93849 115423431.37549     -6336.00849        50.000  
  23697049.92249 124528837.39149    -11567.87549        49.000  
  22523639.05549 118362521.76649     -2925.29349        50.000  
 16 04 02 14 30 59.9000000  0  3G05G04G21                                       
  21964469.57049 115424065.29349     -6341.97749        50.000  
  23697270.07049 124529994.29349    -11570.30949        49.000  
  22523694.76649 118362814.50849     -2929.32449        50.000  
 16 04 02 14 31  0.0000000  0  3G05G04G21                                       
  21964590.32049 115424699.85949     -6348.47749        50.000  
  23697490.28149 124531151.49649    -11573.04349        49.000  
  22523750.55549 118363107.68049     -2933.60949        50.000  
 16 04 02 14 31  0.1000000  0  3G05G04G21                                       
  21964711.18049 115425334.96549     -6354.19149        50.000  
  23697710.53149 124532308.87949    -11575.37149        49.000  
  22523806.41449 118363401.20749     -2937.38749        50.000  
 16 04 02 14 31  0.2000000  0  3G05G04G21                                       
  21964832.14849 115425970.64849     -6359.71149        50.000  
  23697930.81249 124533466.46949    -11577.00049        49.000  
  22523862.34449 118363695.09449     -2940.80149        50.000  
 16 04 02 14 31  0.3000000  0  3G05G04G21                                       
  21964953.22749 115426606.91449     -6365.42649        50.000  
  23698151.13349 124534624.29349    -11579.35949        49.000  
  22523918.34449 118363989.36749     -2944.61349        50.000  
 16 04 02 14 31  0.4000000  0  3G05G04G21                                       
  21965074.41449 115427243.77349     -6371.59849        50.000  
  23698371.50049 124535782.34449    -11581.88349        49.000  
  22523974.41449 118364284.02749     -2948.60949        50.000  
 16 04 02 14 31  0.5000000  0  3G05G04G21                                       
  21965195.71949 115427881.24249     -6377.54349        50.000  
  23698591.92249 124536940.65249    -11584.27349        49.000  
  22524030.56249 118364579.10249     -2952.66449        50.000  
 16 04 02 14 31  0.6000000  0  3G05G04G21                                       
  21965317.13349 115428519.24249     -6382.87949        50.000  
  23698812.37549 124538099.14149    -11586.14549        49.000  
  22524086.77349 118364874.49649     -2955.90649        50.000  
 16 04 02 14 31  0.7000000  0  3G05G04G21                                       
  21965438.65649 115429157.86749     -6389.01249        50.000  
  23699032.87549 124539257.87949    -11588.63349        49.000  
  22524143.07049 118365170.30549     -2960.01649        50.000  
 16 04 02 14 31  0.8000000  0  3G05G04G21                                       
  21965560.29749 115429797.09049     -6395.18849        50.000  
  23699253.42249 124540416.85949    -11591.09849        49.000  
  22524199.43849 118365466.52049     -2964.10549        50.000  
 16 04 02 14 31  0.9000000  0  3G05G04G21                                       
  21965682.05549 115430436.93849     -6401.37549        50.000  
  23699474.00849 124541576.10949    -11593.74649        49.000  
  22524255.88349 118365763.15249     -2968.39549        50.000  
 16 04 02 14 31  1.0000000  0  3G05G04G21                                       
  21965803.92249 115431077.32449     -6406.78149        50.000  
  23699694.64149 124542735.54349    -11595.59849        49.000  
  22524312.39149 118366060.11749     -2971.64149        50.000  
 16 04 02 14 31  1.1000000  0  3G05G04G21                                       
  21965925.89149 115431718.31649     -6412.78149        50.000  
  23699915.31249 124543895.21549    -11597.95749        49.000  
  22524368.97749 118366357.48849     -2975.72349        50.000  
 16 04 02 14 31  1.2000000  0  3G05G04G21                                       
  21966047.96949 115432359.83249     -6417.97749        50.000  
  23700136.02349 124545055.05949    -11599.47749        49.000  
  22524425.61749 118366655.16849     -2978.65249        50.000  
 16 04 02 14 31  1.3000000  0  3G05G04G21                                       
  21966170.16449 115433001.95349     -6424.15249        50.000  
  23700356.78149 124546215.14149    -11602.25449        49.000  
  22524482.34449 118366953.26649     -2983.01649        50.000  
 16 04 02 14 31  1.4000000  0  3G05G04G21                                       
  21966292.46149 115433644.64849     -6429.78949        50.000  
  23700577.57849 124547375.45349    -11604.27049        49.000  
  22524539.14149 118367251.73449     -2986.62549        50.000  
 16 04 02 14 31  1.5000000  0  3G05G04G21                                       
  21966414.86749 115434287.93049     -6435.64149        50.000  
  23700798.43049 124548535.98049    -11606.51649        49.000  
  22524596.00849 118367550.57049     -2990.23849        50.000  
 16 04 02 14 31  1.6000000  0  3G05G04G21                                       
  21966537.39849 115434931.82049     -6441.81649        50.000  
  23701019.31249 124549696.75849    -11609.10249        49.000  
  22524652.95349 118367849.82049     -2994.48849        50.000  
 16 04 02 14 31  1.7000000  0  3G05G04G21                                       
  21966660.04749 115435576.31649     -6447.88349        50.000  
  23701240.25049 124550857.78549    -11611.64149        49.000  
  22524709.97749 118368149.47349     -2998.52749        50.000  
 16 04 02 14 31  1.8000000  0  3G05G04G21                                       
  21966782.79749 115436221.39549     -6453.76249        50.000  
  23701461.22749 124552019.03949    -11613.82049        49.000  
  22524767.07849 118368449.50449     -3002.36349        50.000  
 16 04 02 14 31  1.9000000  0  3G05G04G21                                       
  21966905.66449 115436867.03549     -6459.27749        50.000  
  23701682.25049 124553180.48449    -11615.68449        49.000  
  22524824.23449 118368749.89549     -3005.83249        50.000  
 16 04 02 14 31  2.0000000  0  3G05G04G21                                       
  21967028.63349 115437513.25449     -6465.02349        50.000  
  23701903.31249 124554342.16849    -11618.09449        49.000  
  22524881.46949 118369050.66449     -3009.64849        50.000  
 16 04 02 14 31  2.1000000  0  3G05G04G21                                       
  21967151.70349 115438160.01649     -6470.29349        50.000  
  23702124.40649 124555504.02049    -11619.57049        49.000  
  22524938.76649 118369351.76649     -3012.73849        50.000  
 16 04 02 14 31  2.2000000  0  3G05G04G21                                       
  21967274.89149 115438807.36349     -6476.35549        50.000  
  23702345.54749 124556666.10549    -11622.04749        49.000  
  22524996.13349 118369653.25849     -3016.78949        50.000  
 16 04 02 14 31  2.3000000  0  3G05G04G21                                       
  21967398.19549 115439455.32449     -6482.45349        50.000  
  23702566.72749 124557828.43849    -11624.56249        49.000  
  22525053.58649 118369955.15249     -3020.82849        50.000  
 16 04 02 14 31  2.4000000  0  3G05G04G21                                       
  21967521.60249 115440103.83649     -6487.87549        50.000  
  23702787.95349 124558990.97349    -11626.33649        49.000  
  22525111.10249 118370257.40249     -3024.35249        50.000  
 16 04 02 14 31  2.5000000  0  3G05G04G21                                       
  21967645.10949 115440752.87949     -6493.47749        50.000  
  23703009.21949 124560153.68049    -11628.48449        49.000  
  22525168.68049 118370559.96949     -3027.77749        50.000  
 16 04 02 14 31  2.6000000  0  3G05G04G21                                       
  21967768.74249 115441402.55949     -6499.57449        50.000  
  23703230.52349 124561316.65649    -11630.92649        49.000  
  22525226.34449 118370862.98449     -3031.97349        50.000  
 16 04 02 14 31  2.7000000  0  3G05G04G21                                       
  21967892.49249 115442052.87149     -6506.07049        50.000  
  23703451.88349 124562479.91449    -11633.85249        49.000  
  22525284.07849 118371166.41849     -3036.39549        50.000  
 16 04 02 14 31  2.8000000  0  3G05G04G21                                       
  21968016.35949 115442703.80149     -6512.31249        50.000  
  23703673.29749 124563643.43049    -11636.46149        49.000  
  22525341.90649 118371470.27349     -3040.64149        50.000  
 16 04 02 14 31  2.9000000  0  3G05G04G21                                       
  21968140.32849 115443355.25049     -6517.46549        50.000  
  23703894.74249 124564807.10549    -11638.17649        49.000  
  22525399.78949 118371774.44149     -3043.72349        50.000  
 16 04 02 14 31  3.0000000  0  3G05G04G21                                       
  21968264.42249 115444007.34049     -6523.76649        50.000  
  23704116.23449 124565971.05549    -11640.79349        49.000  
  22525457.75049 118372079.05149     -3048.12949        50.000  
 16 04 02 14 31  3.1000000  0  3G05G04G21                                       
  21968388.62549 115444660.01249     -6529.49649        50.000  
  23704337.77349 124567135.24649    -11643.02349        49.000  
  22525515.78149 118372384.02749     -3051.69949        50.000  
 16 04 02 14 31  3.2000000  0  3G05G04G21                                       
  21968512.92249 115445313.19149     -6534.65249        50.000  
  23704559.33649 124568299.57049    -11644.47349        49.000  
  22525573.88349 118372689.32849     -3054.89549        50.000  
 16 04 02 14 31  3.3000000  0  3G05G04G21                                       
  21968637.32049 115445966.91449     -6539.87149        50.000  
  23704780.93849 124569464.08649    -11646.30549        49.000  
  22525632.03949 118372994.95749     -3058.11749        50.000  
 16 04 02 14 31  3.4000000  0  3G05G04G21                                       
  21968761.85949 115446621.35249     -6547.23049        50.000  
  23705002.60949 124570628.95349    -11650.01649        49.000  
  22525690.29749 118373301.09049     -3063.30149        50.000  
 16 04 02 14 31  3.5000000  0  3G05G04G21                                       
  21968886.49249 115447276.31249     -6552.60549        50.000  
  23705224.29749 124571793.98049    -11651.62549        49.000  
  22525748.60949 118373607.55949     -3066.78549        50.000  
 16 04 02 14 31  3.6000000  0  3G05G04G21                                       
  21969011.24249 115447931.84449     -6558.05149        50.000  
  23705446.03949 124572959.23049    -11653.57849        49.000  
  22525807.00049 118373914.39549     -3070.20349        50.000  
 16 04 02 14 31  3.7000000  0  3G05G04G21                                       
  21969136.09449 115448587.98049     -6564.25849        50.000  
  23705667.82049 124574124.71949    -11656.12149        49.000  
  22525865.46149 118374221.61749     -3074.28149        50.000  
 16 04 02 14 31  3.8000000  0  3G05G04G21                                       
  21969261.06249 115449244.69149     -6570.16849        49.000  
  23705889.64849 124575290.42649    -11658.48449        49.000  
  22525924.00049 118374529.22749     -3078.15649        50.000  
 16 04 02 14 31  3.9000000  0  3G05G04G21                                       
  21969386.13349 115449902.00449     -6575.79749        50.000  
  23706111.52349 124576456.37949    -11660.52049        49.000  
  22525982.60949 118374837.23449     -3081.83649        50.000  
 16 04 02 14 31  4.0000000  0  3G05G04G21                                       
  21969511.32049 115450559.85949     -6581.37149        50.000  
  23706333.43049 124577622.51249    -11662.50449        49.000  
  22526041.28949 118375145.57049     -3085.33649        50.000  
 16 04 02 14 31  4.1000000  0  3G05G04G21                                       
  21969636.62549 115451218.31249     -6587.23049        49.000  
  23706555.37549 124578788.88749    -11664.82449        49.000  
  22526100.03949 118375454.31649     -3089.21949        50.000  
 16 04 02 14 31  4.2000000  0  3G05G04G21                                       
  21969762.03149 115451877.34049     -6593.07849        49.000  
  23706777.37549 124579955.47349    -11667.03549        49.000  
  22526158.85949 118375763.42249     -3092.95749        50.000  
 16 04 02 14 31  4.3000000  0  3G05G04G21                                       
  21969887.53949 115452536.91049     -6598.50849        49.000  
  23706999.39849 124581122.25449    -11668.85549        49.000  
  22526217.75049 118376072.87949     -3096.47749        50.000  
 16 04 02 14 31  4.4000000  0  3G05G04G21                                       
  21970013.15649 115453197.01649     -6603.83649        50.000  
  23707221.46149 124582289.20349    -11670.68049        49.000  
  22526276.69549 118376382.65649     -3099.73849        50.000  
 16 04 02 14 31  4.5000000  0  3G05G04G21                                       
  21970138.89849 115453857.77349     -6610.48449        50.000  
  23707443.57849 124583456.44549    -11673.82049        49.000  
  22526335.73449 118376692.89549     -3104.35249        50.000  
 16 04 02 14 31  4.6000000  0  3G05G04G21                                       
  21970264.74249 115454519.10949     -6616.14149        49.000  
  23707665.74249 124584623.91049    -11675.71149        49.000  
  22526394.83649 118377003.50449     -3108.00049        50.000  
 16 04 02 14 31  4.7000000  0  3G05G04G21                                       
  21970390.69549 115455180.96149     -6621.49649        49.000  
  23707887.93049 124585791.52349    -11677.59849        49.000  
  22526454.00049 118377314.41449     -3111.16849        50.000  
 16 04 02 14 31  4.8000000  0  3G05G04G21                                       
  21970516.75049 115455843.39149     -6626.92249        50.000  
  23708110.16449 124586959.36749    -11679.52049        49.000  
  22526513.23449 118377625.71549     -3114.75049        50.000  
 16 04 02 14 31  4.9000000  0  3G05G04G21                                       
  21970642.93049 115456506.47349     -6633.75449        49.000  
  23708332.44549 124588127.50049    -11682.69549        49.000  
  22526572.56249 118377937.46549     -3119.50449        50.000  
 16 04 02 14 31  5.0000000  0  3G05G04G21                                       
  21970769.21949 115457170.10949     -6639.30949        49.000  
  23708554.77349 124589295.82849    -11684.61749        49.000  
  22526631.94549 118378249.57049     -3122.96549        50.000  
 16 04 02 14 31  5.1000000  0  3G05G04G21                                       
  21970895.60949 115457834.31249     -6644.93049        49.000  
  23708777.13349 124590464.35549    -11686.55149        49.000  
  22526691.40649 118378562.03149     -3126.58249        50.000  
 16 04 02 14 31  5.2000000  0  3G05G04G21                                       
  21971022.13349 115458499.17249     -6651.48849        49.000  
  23708999.55549 124591633.19149    -11689.50049        49.000  
  22526750.95349 118378874.94949     -3131.04349        50.000  
 16 04 02 14 31  5.3000000  0  3G05G04G21                                       
  21971148.74249 115459164.51249     -6656.35549        49.000  
  23709222.00849 124592802.15649    -11690.76249        49.000  
  22526810.55549 118379188.14549     -3133.93049        50.000  
 16 04 02 14 31  5.4000000  0  3G05G04G21                                       
  21971275.46149 115459830.45349     -6662.34849        49.000  
  23709444.50049 124593971.35249    -11693.39549        49.000  
  22526870.22749 118379501.74649     -3138.10549        50.000  
 16 04 02 14 31  5.5000000  0  3G05G04G21                                       
  21971402.30549 115460496.99649     -6668.20749        49.000  
  23709667.04749 124595140.79349    -11695.51249        49.000  
  22526929.97749 118379815.73849     -3141.84849        50.000  
 16 04 02 14 31  5.6000000  0  3G05G04G21                                       
  21971529.25049 115461164.09849     -6673.84449        49.000  
  23709889.61749 124596310.43049    -11697.68849        49.000  
  22526989.79749 118380130.09449     -3145.43449        50.000  
 16 04 02 14 31  5.7000000  0  3G05G04G21                                       
  21971656.31249 115461831.80149     -6679.85549        50.000  
  23710112.24249 124597480.32049    -11700.06249        49.000  
  22527049.68849 118380444.84049     -3149.36349        50.000  
 16 04 02 14 31  5.8000000  0  3G05G04G21                                       
  21971783.47749 115462500.07449     -6685.50449        50.000  
  23710334.90649 124598650.41449    -11702.05949        49.000  
  22527109.65649 118380759.96549     -3153.11749        50.000  
 16 04 02 14 31  5.9000000  0  3G05G04G21                                       
  21971910.75849 115463168.90649     -6691.15249        49.000  
  23710557.60949 124599820.71149    -11704.28149        49.000  
  22527169.68849 118381075.43449     -3156.67249        50.000  
 16 04 02 14 31  6.0000000  0  3G05G04G21                                       
  21972038.14149 115463838.31249     -6696.87549        50.000  
  23710780.35249 124600991.22349    -11706.33649        49.000  
  22527229.78949 118381391.28149     -3160.37549        50.000  
 16 04 02 14 31  6.1000000  0  3G05G04G21                                       
  21972165.64149 115464508.31249     -6702.98049        50.000  
  23711003.14149 124602161.96149    -11708.57849        49.000  
  22527289.96949 118381707.52049     -3164.32849        50.000  
 16 04 02 14 31  6.2000000  0  3G05G04G21                                       
  21972293.24249 115465178.86749     -6708.42249        50.000  
  23711225.96149 124603332.91849    -11710.85549        49.000  
  22527350.20349 118382024.12149     -3167.91049        50.000  
 16 04 02 14 31  6.3000000  0  3G05G04G21                                       
  21972420.94549 115465849.98049     -6714.10249        50.000  
  23711448.83649 124604504.06249    -11712.84449        49.000  
  22527410.52349 118382341.07049     -3171.59849        50.000  
 16 04 02 14 31  6.4000000  0  3G05G04G21                                       
  21972548.78149 115466521.76649     -6720.82049        50.000  
  23711671.75049 124605675.50849    -11715.78549        49.000  
  22527470.93049 118382658.48049     -3176.10249        50.000  
 16 04 02 14 31  6.5000000  0  3G05G04G21                                       
  21972676.72749 115467194.12949     -6726.60549        50.000  
  23711894.71149 124606847.17649    -11718.05949        49.000  
  22527531.39849 118382976.27749     -3180.06249        50.000  
 16 04 02 14 31  6.6000000  0  3G05G04G21                                       
  21972804.77349 115467867.03949     -6732.04749        50.000  
  23712117.71149 124608019.04749    -11719.90649        49.000  
  22527591.93849 118383294.41849     -3183.37949        50.000  
 16 04 02 14 31  6.7000000  0  3G05G04G21                                       
  21972932.94549 115468540.55949     -6738.08649        50.000  
  23712340.75049 124609191.16049    -11722.23049        49.000  
  22527652.55549 118383612.96149     -3187.37949        50.000  
 16 04 02 14 31  6.8000000  0  3G05G04G21                                       
  21973061.21149 115469214.62549     -6743.60549        50.000  
  23712563.82849 124610363.46549    -11724.41849        49.000  
  22527713.23449 118383931.85949     -3190.93449        50.000  
 16 04 02 14 31  6.9000000  0  3G05G04G21                                       
  21973189.58649 115469889.25449     -6749.02049        50.000  
  23712786.94549 124611535.96949    -11726.02749        49.000  
  22527773.98449 118384251.10949     -3194.28549        50.000  
 16 04 02 14 31  7.0000000  0  3G05G04G21                                       
  21973318.07049 115470564.42249     -6754.48049        50.000  
  23713010.10249 124612708.64849    -11728.02349        49.000  
  22527834.79749 118384570.69549     -3197.75049        50.000  
 16 04 02 14 31  7.1000000  0  3G05G04G21                                       
  21973446.65649 115471240.16849     -6760.36349        50.000  
  23713233.29749 124613881.56249    -11730.38349        49.000  
  22527895.68849 118384890.67249     -3201.73449        50.000  
 16 04 02 14 31  7.2000000  0  3G05G04G21                                       
  21973575.36749 115471916.53549     -6766.59049        50.000  
  23713456.54749 124615054.73049    -11732.99649        49.000  
  22527956.66449 118385211.05549     -3205.81249        50.000  
 16 04 02 14 31  7.3000000  0  3G05G04G21                                       
  21973704.18849 115472593.50449     -6772.58649        50.000  
  23713679.83649 124616228.13349    -11735.24649        49.000  
  22528017.70349 118385531.83649     -3209.77049        50.000  
 16 04 02 14 31  7.4000000  0  3G05G04G21                                       
  21973833.11749 115473271.03549     -6778.36749        50.000  
  23713903.17249 124617401.75849    -11737.65249        49.000  
  22528078.82049 118385852.98449     -3213.57849        50.000  
 16 04 02 14 31  7.5000000  0  3G05G04G21                                       
  21973962.17249 115473949.19149     -6784.54349        50.000  
  23714126.54749 124618575.64149    -11740.12149        49.000  
  22528140.01649 118386174.55949     -3217.73849        50.000  
 16 04 02 14 31  7.6000000  0  3G05G04G21                                       
  21974091.32049 115474627.89149     -6789.88349        50.000  
  23714349.96949 124619749.71149    -11741.94949        49.000  
  22528201.28149 118386496.46949     -3221.03149        50.000  
 16 04 02 14 31  7.7000000  0  3G05G04G21                                       
  21974220.59449 115475307.24249     -6796.44149        50.000  
  23714573.44549 124620924.06249    -11744.81249        49.000  
  22528262.62549 118386818.83249     -3225.59849        50.000  
 16 04 02 14 31  7.8000000  0  3G05G04G21                                       
  21974349.98449 115475987.16449     -6802.18049        50.000  
  23714796.96149 124622098.64549    -11747.20349        49.000  
  22528324.03149 118387141.56649     -3229.27749        50.000  
 16 04 02 14 31  7.9000000  0  3G05G04G21                                       
  21974479.47749 115476667.63349     -6807.50049        50.000  
  23715020.50849 124623273.40249    -11748.71949        49.000  
  22528385.50849 118387464.64549     -3232.75849        50.000  
 16 04 02 14 31  8.0000000  0  3G05G04G21                                       
  21974609.07049 115477348.68849     -6813.30149        50.000  
  23715244.10249 124624448.39149    -11751.08249        49.000  
  22528447.05549 118387788.09849     -3236.48049        50.000  
 16 04 02 14 31  8.1000000  0  3G05G04G21                                       
  21974738.78949 115478030.33649     -6819.39549        50.000  
  23715467.73449 124625623.62149    -11753.59849        49.000  
  22528508.68849 118388111.95749     -3240.57449        50.000  
 16 04 02 14 31  8.2000000  0  3G05G04G21                                       
  21974868.61749 115478712.56649     -6825.26249        50.000  
  23715691.41449 124626799.05549    -11755.78549        49.000  
  22528570.38349 118388436.18849     -3244.33649        50.000  
 16 04 02 14 31  8.3000000  0  3G05G04G21                                       
  21974998.54749 115479395.34849     -6830.59049        50.000  
  23715915.13349 124627974.69949    -11757.46549        49.000  
  22528632.14849 118388760.77349     -3247.59849        50.000  
 16 04 02 14 31  8.4000000  0  3G05G04G21                                       
  21975128.59449 115480078.74249     -6836.88749        50.000  
  23716138.89849 124629150.58649    -11760.22349        49.000  
  22528694.00049 118389085.76649     -3251.96149        50.000  
 16 04 02 14 31  8.5000000  0  3G05G04G21                                       
  21975258.75049 115480762.73849     -6842.83249        50.000  
  23716362.70349 124630326.72749    -11762.59049        49.000  
  22528755.92249 118389411.16449     -3255.91449        50.000  
 16 04 02 14 31  8.6000000  0  3G05G04G21                                       
  21975389.00849 115481447.25049     -6848.03549        50.000  
  23716586.54749 124631503.01649    -11764.16449        49.000  
  22528817.89849 118389736.86749     -3258.99249        50.000  
 16 04 02 14 31  8.7000000  0  3G05G04G21                                       
  21975519.38349 115482132.37549     -6854.10949        50.000  
  23716810.43849 124632679.56249    -11766.63349        49.000  
  22528879.96149 118390062.99649     -3263.18449        50.000  
 16 04 02 14 31  8.8000000  0  3G05G04G21                                       
  21975649.86749 115482818.06649     -6859.71149        50.000  
  23717034.36749 124633856.32849    -11768.69549        49.000  
  22528942.09449 118390389.48449     -3266.72749        50.000  
 16 04 02 14 31  8.9000000  0  3G05G04G21                                       
  21975780.45349 115483504.27049     -6864.77749        50.000  
  23717258.32049 124635033.23849    -11770.35249        49.000  
  22529004.28149 118390716.28549     -3269.90249        50.000  
 16 04 02 14 31  9.0000000  0  3G05G04G21                                       
  21975911.14149 115484191.06649     -6870.64149        50.000  
  23717482.32849 124636210.37949    -11772.50849        49.000  
  22529066.53949 118391043.46949     -3273.68049        50.000  
 16 04 02 14 31  9.1000000  0  3G05G04G21                                       
  21976041.95349 115484878.46549     -6876.77349        50.000  
  23717706.37549 124637387.76249    -11774.96549        49.000  
  22529128.87549 118391371.05549     -3277.76649        50.000  
 16 04 02 14 31  9.2000000  0  3G05G04G21                                       
  21976172.87549 115485566.46949     -6883.00849        50.000  
  23717930.47749 124638565.40249    -11777.67249        49.000  
  22529191.29749 118391699.05549     -3281.94149        50.000  
 16 04 02 14 31  9.3000000  0  3G05G04G21                                       
  21976303.90649 115486255.02749     -6888.44149        50.000  
  23718154.61749 124639743.23049    -11779.44149        49.000  
  22529253.78149 118392027.40649     -3285.45349        50.000  
 16 04 02 14 31  9.4000000  0  3G05G04G21                                       
  21976435.03149 115486944.12949     -6893.97749        50.000  
  23718378.78149 124640921.24649    -11781.44949        49.000  
  22529316.32049 118392356.09049     -3288.89849        50.000  
 16 04 02 14 31  9.5000000  0  3G05G04G21                                       
  21976566.28149 115487633.81249     -6899.41049        50.000  
  23718603.00049 124642099.48849    -11783.27349        49.000  
  22529378.94549 118392685.16449     -3292.35549        50.000  
 16 04 02 14 31  9.6000000  0  3G05G04G21                                       
  21976697.63349 115488324.05949     -6905.32049        50.000  
  23718827.25049 124643277.92649    -11785.57449        49.000  
  22529441.63349 118393014.60249     -3296.20749        50.000  
 16 04 02 14 31  9.7000000  0  3G05G04G21                                       
  21976829.10249 115489014.95349     -6911.90249        50.000  
  23719051.56249 124644456.66849    -11788.78949        49.000  
  22529504.40649 118393344.47349     -3300.81249        50.000  
 16 04 02 14 31  9.8000000  0  3G05G04G21                                       
  21976960.68049 115489706.39849     -6917.22749        50.000  
  23719275.90649 124645635.59449    -11790.42649        49.000  
  22529567.25049 118393674.70749     -3304.13349        50.000  
 16 04 02 14 31  9.9000000  0  3G05G04G21                                       
  21977092.36749 115490398.42249     -6923.07849        50.000  
  23719500.28149 124646814.73849    -11792.64549        49.000  
  22529630.15649 118394005.32049     -3308.01649        50.000  
 16 04 02 14 31 10.0000000  0  3G05G04G21                                       
  21977224.16449 115491091.02749     -6928.77749        50.000  
  23719724.71149 124647994.11349    -11794.89549        49.000  
  22529693.14149 118394336.30949     -3311.76649        50.000  
 16 04 02 14 31 10.1000000  0  3G05G04G21                                       
  21977356.06249 115491784.18449     -6934.27049        50.000  
  23719949.15649 124649173.66049    -11796.68449        49.000  
  22529756.19549 118394667.63749     -3315.13749        50.000  
 16 04 02 14 31 10.2000000  0  3G05G04G21                                       
  21977488.07049 115492477.87549     -6939.74649        50.000  
  23720173.65649 124650353.40249    -11798.57449        49.000  
  22529819.31249 118394999.31649     -3318.70749        50.000  
 16 04 02 14 31 10.3000000  0  3G05G04G21                                       
  21977620.19549 115493172.21149     -6946.10549        50.000  
  23720398.21149 124651533.41849    -11801.19149        49.000  
  22529882.50849 118395331.43049     -3322.94949        50.000  
 16 04 02 14 31 10.4000000  0  3G05G04G21                                       
  21977752.42249 115493867.05949     -6951.37949        50.000  
  23720622.78949 124652713.60949    -11803.25849        49.000  
  22529945.76649 118395663.86349     -3326.42649        50.000  
 16 04 02 14 31 10.5000000  0  3G05G04G21                                       
  21977884.77349 115494562.53549     -6957.68049        50.000  
  23720847.42249 124653894.04749    -11805.79749        49.000  
  22530009.10949 118395996.71149     -3330.49649        50.000  
 16 04 02 14 31 10.6000000  0  3G05G04G21                                       
  21978017.23449 115495258.62549     -6963.77049        50.000  
  23721072.10249 124655074.74249    -11808.22749        49.000  
  22530072.53149 118396329.97749     -3334.67249        50.000  
 16 04 02 14 31 10.7000000  0  3G05G04G21                                       
  21978149.80549 115495955.27349     -6969.36349        50.000  
  23721296.81249 124656255.64849    -11810.25849        49.000  
  22530136.01649 118396663.60549     -3338.28149        50.000  
 16 04 02 14 31 10.8000000  0  3G05G04G21                                       
  21978282.47749 115496652.47349     -6974.77349        50.000  
  23721521.56249 124657436.74649    -11812.09849        49.000  
  22530199.57049 118396997.58249     -3341.59849        50.000  
 16 04 02 14 31 10.9000000  0  3G05G04G21                                       
  21978415.26649 115497350.29749     -6981.13349        50.000  
  23721746.37549 124658618.10949    -11814.88749        49.000  
  22530263.20349 118397331.98449     -3345.99649        50.000  
 16 04 02 14 31 11.0000000  0  3G05G04G21                                       
  21978548.15649 115498048.65649     -6986.39149        50.000  
  23721971.21149 124659799.64549    -11816.55149        49.000  
  22530326.90649 118397666.72349     -3349.23449        50.000  
 16 04 02 14 31 11.1000000  0  3G05G04G21                                       
  21978681.16449 115498747.60549     -6992.22749        50.000  
  23722196.10249 124660981.42649    -11818.96549        49.000  
  22530390.68049 118398001.85249     -3353.21949        50.000  
 16 04 02 14 31 11.2000000  0  3G05G04G21                                       
  21978814.27349 115499447.11749     -6997.73849        50.000  
  23722421.02349 124662163.39149    -11820.62949        49.000  
  22530454.51649 118398337.32849     -3356.52049        50.000  
 16 04 02 14 31 11.3000000  0  3G05G04G21                                       
  21978947.49249 115500147.18049     -7003.51649        50.000  
  23722645.99249 124663345.56249    -11822.96549        49.000  
  22530518.43049 118398673.17249     -3360.39149        50.000  
 16 04 02 14 31 11.4000000  0  3G05G04G21                                       
  21979080.82049 115500847.83649     -7009.37549        50.000  
  23722870.99249 124664527.95349    -11825.12549        49.000  
  22530582.40649 118399009.39849     -3364.15649        50.000  
 16 04 02 14 31 11.5000000  0  3G05G04G21                                       
  21979214.26649 115501549.09049     -7015.44549        50.000  
  23723096.04749 124665710.60549    -11827.84049        49.000  
  22530646.46149 118399346.03549     -3368.40249        50.000  
 16 04 02 14 31 11.6000000  0  3G05G04G21                                       
  21979347.82049 115502250.91449     -7020.99649        50.000  
  23723321.13349 124666893.45749    -11829.64849        49.000  
  22530710.59449 118399683.02049     -3371.73049        50.000  
 16 04 02 14 31 11.7000000  0  3G05G04G21                                       
  21979481.48449 115502953.34049     -7027.30149        50.000  
  23723546.27349 124668076.55549    -11832.43449        49.000  
  22530774.79749 118400020.42649     -3376.16049        50.000  
 16 04 02 14 31 11.8000000  0  3G05G04G21                                       
  21979615.25849 115503656.33649     -7032.68449        50.000  
  23723771.44549 124669259.85949    -11834.13349        49.000  
  22530839.07049 118400358.18449     -3379.41849        50.000  
 16 04 02 14 31 11.9000000  0  3G05G04G21                                       
  21979749.13349 115504359.87149     -7038.15249        50.000  
  23723996.66449 124670443.34049    -11835.91049        49.000  
  22530903.41449 118400696.29749     -3382.96949        50.000  
 16 04 02 14 31 12.0000000  0  3G05G04G21                                       
  21979883.11749 115505063.95749     -7043.71949        50.000  
  23724221.90649 124671627.02749    -11838.08649        49.000  
  22530967.82049 118401034.75449     -3386.51649        50.000  
 16 04 02 14 31 12.1000000  0  3G05G04G21                                       
  21980017.21149 115505768.65249     -7049.74249        50.000  
  23724447.20349 124672810.95349    -11840.44949        49.000  
  22531032.30549 118401373.61349     -3390.50449        50.000  
 16 04 02 14 31 12.2000000  0  3G05G04G21                                       
  21980151.43049 115506473.94949     -7055.83649        50.000  
  23724672.54749 124673995.13749    -11843.02749        49.000  
  22531096.85949 118401712.88749     -3394.63349        50.000  
 16 04 02 14 31 12.3000000  0  3G05G04G21                                       
  21980285.74249 115507179.79749     -7061.32049        50.000  
  23724897.92249 124675179.50449    -11844.91049        49.000  
  22531161.48449 118402052.50049     -3398.04349        50.000  
 16 04 02 14 31 12.4000000  0  3G05G04G21                                       
  21980420.16449 115507886.16849     -7066.53949        50.000  
  23725123.32849 124676364.03549    -11846.51249        49.000  
  22531226.17249 118402392.44949     -3401.34449        50.000  
 16 04 02 14 31 12.5000000  0  3G05G04G21                                       
  21980554.70349 115508593.18049     -7072.85549        50.000  
  23725348.79749 124677548.84049    -11849.18849        49.000  
  22531290.94549 118402732.82449     -3405.58649        50.000  
 16 04 02 14 31 12.6000000  0  3G05G04G21                                       
  21980689.35249 115509300.75049     -7078.75449        50.000  
  23725574.29749 124678733.86749    -11851.60549        49.000  
  22531355.78149 118403073.57449     -3409.61349        50.000  
 16 04 02 14 31 12.7000000  0  3G05G04G21                                       
  21980824.10949 115510008.91849     -7084.54749        50.000  
  23725799.85249 124679919.11749    -11853.71949        49.000  
  22531420.70349 118403414.70749     -3413.27349        50.000  
 16 04 02 14 31 12.8000000  0  3G05G04G21                                       
  21980958.98449 115510717.69549     -7090.66849        50.000  
  23726025.44549 124681104.62149    -11856.23849        49.000  
  22531485.68849 118403756.25449     -3417.43049        50.000  
 16 04 02 14 31 12.9000000  0  3G05G04G21                                       
  21981093.96949 115511427.00449     -7096.02749        50.000  
  23726251.07049 124682290.30149    -11858.05149        49.000  
  22531550.75049 118404098.13749     -3420.91049        50.000  
 16 04 02 14 31 13.0000000  0  3G05G04G21                                       
  21981229.04749 115512136.86349     -7101.44149        50.000  
  23726476.72749 124683476.16849    -11859.84449        49.000  
  22531615.87549 118404440.35249     -3424.03149        50.000  
 16 04 02 14 31 13.1000000  0  3G05G04G21                                       
  21981364.23449 115512847.28949     -7107.05149        50.000  
  23726702.44549 124684662.25049    -11861.93049        49.000  
  22531681.07049 118404782.96149     -3427.87549        50.000  
 16 04 02 14 31 13.2000000  0  3G05G04G21                                       
  21981499.53949 115513558.30949     -7112.83649        50.000  
  23726928.18849 124685848.56249    -11864.04749        49.000  
  22531746.33649 118405125.94149     -3431.57849        50.000  
 16 04 02 14 31 13.3000000  0  3G05G04G21                                       
  21981634.94549 115514269.89849     -7118.75049        50.000  
  23727153.98449 124687035.09849    -11866.51249        49.000  
  22531811.67249 118405469.30949     -3435.58249        50.000  
 16 04 02 14 31 13.4000000  0  3G05G04G21                                       
  21981770.47749 115514982.12549     -7125.19549        50.000  
  23727379.82049 124688221.89549    -11869.21949        49.000  
  22531877.09449 118405813.09849     -3439.90649        50.000  
 16 04 02 14 31 13.5000000  0  3G05G04G21                                       
  21981906.10249 115515694.83649     -7130.04349        50.000  
  23727605.69549 124689408.83649    -11870.67249        49.000  
  22531942.57049 118406157.18449     -3442.81649        50.000  
 16 04 02 14 31 13.6000000  0  3G05G04G21                                       
  21982041.85949 115516408.23849     -7136.81249        50.000  
  23727831.61749 124690596.09449    -11873.73449        49.000  
  22532008.13349 118406501.75049     -3447.52049        50.000  
 16 04 02 14 31 13.7000000  0  3G05G04G21                                       
  21982177.71149 115517122.13749     -7141.88349        50.000  
  23728057.56249 124691783.50049    -11875.44149        49.000  
  22532073.76649 118406846.62949     -3450.79349        50.000  
 16 04 02 14 31 13.8000000  0  3G05G04G21                                       
  21982313.67249 115517836.62549     -7147.68849        50.000  
  23728283.56249 124692971.12949    -11877.56249        49.000  
  22532139.46149 118407191.88349     -3454.45749        50.000  
 16 04 02 14 31 13.9000000  0  3G05G04G21                                       
  21982449.73449 115518551.66049     -7153.16049        50.000  
  23728509.60949 124694158.94949    -11879.36749        49.000  
  22532205.23449 118407537.49249     -3457.98449        50.000  
 16 04 02 14 31 14.0000000  0  3G05G04G21                                       
  21982585.92249 115519267.33249     -7159.48049        50.000  
  23728735.69549 124695347.05949    -11882.22749        49.000  
  22532271.07849 118407883.53949     -3462.31249        50.000  
 16 04 02 14 31 14.1000000  0  3G05G04G21                                       
  21982722.21149 115519983.50449     -7164.53949        50.000  
  23728961.82049 124696535.30149    -11883.61749        49.000  
  22532336.98449 118408229.87949     -3465.32449        50.000  
 16 04 02 14 31 14.2000000  0  3G05G04G21                                       
  21982858.61749 115520700.30549     -7170.80149        50.000  
  23729187.98449 124697723.80549    -11886.18049        49.000  
  22532402.97749 118408576.65249     -3469.59849        50.000  
 16 04 02 14 31 14.3000000  0  3G05G04G21                                       
  21982995.12549 115521417.64849     -7176.23049        50.000  
  23729414.18049 124698912.51249    -11888.25449        49.000  
  22532469.03149 118408923.77349     -3473.15649        50.000  
 16 04 02 14 31 14.4000000  0  3G05G04G21                                       
  21983131.74249 115522135.54749     -7181.83649        50.000  
  23729640.42249 124700101.40249    -11890.17649        49.000  
  22532535.15649 118409271.23849     -3476.61749        50.000  
 16 04 02 14 31 14.5000000  0  3G05G04G21                                       
  21983268.46949 115522854.06249     -7187.98449        50.000  
  23729866.71149 124701290.55949    -11892.71149        49.000  
  22532601.35949 118409619.12949     -3480.82049        50.000  
 16 04 02 14 31 14.6000000  0  3G05G04G21                                       
  21983405.29749 115523573.11349     -7193.42649        50.000  
  23730093.03149 124702479.89149    -11894.62949        49.000  
  22532667.62549 118409967.35549     -3484.26249        50.000  
 16 04 02 14 31 14.7000000  0  3G05G04G21                                       
  21983542.25849 115524292.80549     -7199.72749        50.000  
  23730319.40649 124703669.49649    -11897.37549        49.000  
  22532733.97749 118410316.01649     -3488.51649        50.000  
 16 04 02 14 31 14.8000000  0  3G05G04G21                                       
  21983679.32049 115525013.07449     -7205.55549        50.000  
  23730545.82849 124704859.34049    -11899.62549        49.000  
  22532800.39849 118410665.07049     -3492.45349        50.000  
 16 04 02 14 31 14.9000000  0  3G05G04G21                                       
  21983816.48449 115525733.90249     -7211.12949        50.000  
  23730772.28149 124706049.36349    -11901.53949        49.000  
  22532866.88349 118411014.46149     -3495.96949        50.000  
 16 04 02 14 31 15.0000000  0  3G05G04G21                                       
  21983953.77349 115526455.32849     -7216.95749        50.000  
  23730998.78149 124707239.64149    -11903.77749        49.000  
  22532933.45349 118411364.27349     -3499.85949        50.000  
 16 04 02 14 31 15.1000000  0  3G05G04G21                                       
  21984091.15649 115527177.30149     -7222.62549        50.000  
  23731225.32849 124708430.09849    -11905.82049        49.000  
  22533000.07849 118411714.41449     -3503.40649        50.000  
 16 04 02 14 31 15.2000000  0  3G05G04G21                                       
  21984228.65649 115527899.86349     -7228.50449        50.000  
  23731451.90649 124709620.79749    -11908.20349        49.000  
  22533066.78949 118412064.96549     -3507.38749        50.000  
 16 04 02 14 31 15.3000000  0  3G05G04G21                                       
  21984366.26649 115528622.98849     -7234.04749        50.000  
  23731678.53149 124710811.69549    -11910.15649        49.000  
  22533133.56249 118412415.85949     -3510.92649        50.000  
 16 04 02 14 31 15.4000000  0  3G05G04G21                                       
  21984503.98449 115529346.71549     -7240.21549        50.000  
  23731905.19549 124712002.83649    -11912.75449        49.000  
  22533200.41449 118412767.16849     -3515.10549        50.000  
 16 04 02 14 31 15.5000000  0  3G05G04G21                                       
  21984641.81249 115530071.03549     -7246.01649        50.000  
  23732131.90649 124713194.20749    -11914.79349        49.000  
  22533267.34449 118413118.86749     -3518.92249        50.000  
 16 04 02 14 31 15.6000000  0  3G05G04G21                                       
  21984779.74249 115530795.85249     -7251.08649        50.000  
  23732358.64149 124714385.72749    -11916.40249        49.000  
  22533334.32049 118413470.86349     -3521.89149        50.000  
 16 04 02 14 31 15.7000000  0  3G05G04G21                                       
  21984917.77349 115531521.22349     -7256.46949        50.000  
  23732585.42249 124715577.43049    -11918.21549        49.000  
  22533401.37549 118413823.21549     -3525.35249        50.000  
 16 04 02 14 31 15.8000000  0  3G05G04G21                                       
  21985055.92249 115532247.20349     -7262.59449        50.000  
  23732812.24249 124716769.39149    -11920.83649        49.000  
  22533468.50049 118414175.97349     -3529.50049        50.000  
 16 04 02 14 31 15.9000000  0  3G05G04G21                                       
  21985194.18049 115532973.76649     -7268.51249        50.000  
  23733039.10949 124717961.58249    -11923.11349        49.000  
  22533535.70349 118414529.12149     -3533.41049        50.000  
 16 04 02 14 31 16.0000000  0  3G05G04G21                                       
  21985332.56249 115533700.95749     -7274.68449        50.000  
  23733266.02349 124719154.03549    -11925.61749        49.000  
  22533602.98449 118414882.69949     -3537.66449        50.000  
 16 04 02 14 31 16.1000000  0  3G05G04G21                                       
  21985471.03149 115534428.65249     -7279.93049        50.000  
  23733492.98449 124720346.64549    -11927.39849        49.000  
  22533670.32849 118415236.57449     -3540.78149        50.000  
 16 04 02 14 31 16.2000000  0  3G05G04G21                                       
  21985609.61749 115535156.92649     -7285.61349        50.000  
  23733719.96949 124721539.46949    -11929.50849        49.000  
  22533737.74249 118415590.84449     -3544.63749        50.000  
 16 04 02 14 31 16.3000000  0  3G05G04G21                                       
  21985748.32049 115535885.81649     -7291.82049        50.000  
  23733947.01649 124722732.55549    -11932.14549        49.000  
  22533805.23449 118415945.51649     -3548.71549        50.000  
 16 04 02 14 31 16.4000000  0  3G05G04G21                                       
  21985887.12549 115536615.21549     -7296.78549        50.000  
  23734174.07849 124723925.77349    -11933.41849        49.000  
  22533872.78949 118416300.50449     -3551.80149        50.000  
 16 04 02 14 31 16.5000000  0  3G05G04G21                                       
  21986026.03949 115537345.18449     -7302.41049        50.000  
  23734401.18049 124725119.21949    -11935.31649        49.000  
  22533940.40649 118416655.84849     -3555.20349        50.000  
 16 04 02 14 31 16.6000000  0  3G05G04G21                                       
  21986165.05549 115538075.68849     -7307.69949        50.000  
  23734628.32049 124726312.84849    -11937.34849        49.000  
  22534008.09449 118417011.55149     -3558.75449        50.000  
 16 04 02 14 31 16.7000000  0  3G05G04G21                                       
  21986304.19549 115538806.87149     -7314.67249        50.000  
  23734855.52349 124727506.79349    -11940.71949        49.000  
  22534075.86749 118417367.73049     -3563.67649        50.000  
 16 04 02 14 31 16.8000000  0  3G05G04G21                                       
  21986443.43049 115539538.56649     -7319.86349        50.000  
  23735082.75849 124728700.88349    -11942.14149        49.000  
  22534143.70349 118417724.21549     -3566.81249        50.000  
 16 04 02 14 31 16.9000000  0  3G05G04G21                                       
  21986582.78149 115540270.85249     -7325.84849        50.000  
  23735310.03949 124729895.21149    -11944.67249        49.000  
  22534211.61749 118418081.09049     -3570.79749        50.000  
 16 04 02 14 31 17.0000000  0  3G05G04G21                                       
  21986722.24249 115541003.71549     -7331.27049        50.000  
  23735537.35249 124731089.76249    -11946.49249        49.000  
  22534279.59449 118418438.34849     -3574.29349        50.000  
 16 04 02 14 31 17.1000000  0  3G05G04G21                                       
  21986861.80549 115541737.12549     -7336.98849        50.000  
  23735764.70349 124732284.48849    -11948.60249        49.000  
  22534347.64849 118418795.94949     -3578.02349        50.000  
 16 04 02 14 31 17.2000000  0  3G05G04G21                                       
  21987001.48449 115542471.17249     -7343.22749        50.000  
  23735992.10949 124733479.51249    -11951.43449        49.000  
  22534415.77349 118419154.00849     -3582.46149        50.000  
 16 04 02 14 31 17.3000000  0  3G05G04G21                                       
  21987141.28149 115543205.78149     -7348.76649        50.000  
  23736219.55549 124734674.73049    -11953.18849        49.000  
  22534483.97749 118419512.40249     -3585.75049        50.000  
 16 04 02 14 31 17.4000000  0  3G05G04G21                                       
  21987281.16449 115543940.85249     -7353.42249        50.000  
  23736447.01649 124735870.05549    -11954.43449        49.000  
  22534552.22749 118419871.07449     -3588.56649        50.000  
 16 04 02 14 31 17.5000000  0  3G05G04G21                                       
  21987421.17249 115544676.57849     -7360.17649        50.000  
  23736674.53949 124737065.67249    -11957.53949        49.000  
  22534620.57049 118420230.19949     -3593.27049        50.000  
 16 04 02 14 31 17.6000000  0  3G05G04G21                                       
  21987561.28149 115545412.87549     -7365.60949        50.000  
  23736902.09449 124738261.50449    -11959.31249        49.000  
  22534688.97749 118420589.70349     -3596.77349        50.000  
 16 04 02 14 31 17.7000000  0  3G05G04G21                                       
  21987701.50849 115546149.77049     -7371.94549        50.000  
  23737129.69549 124739457.57449    -11962.11749        49.000  
  22534757.46949 118420949.59049     -3600.99649        50.000  
 16 04 02 14 31 17.8000000  0  3G05G04G21                                       
  21987841.84449 115546887.26649     -7377.89149        50.000  
  23737357.35249 124740653.89849    -11964.48849        49.000  
  22534826.03149 118421309.90649     -3605.12949        50.000  
 16 04 02 14 31 17.9000000  0  3G05G04G21                                       
  21987982.29749 115547625.31649     -7383.44549        50.000  
  23737585.03949 124741850.39549    -11966.41449        49.000  
  22534894.65649 118421670.55549     -3608.53949        50.000  
 16 04 02 14 31 18.0000000  0  3G05G04G21                                       
  21988122.84449 115548363.89849     -7388.53149        50.000  
  23737812.76649 124743047.10249    -11967.96949        49.000  
  22534963.35949 118422031.54749     -3611.69549        50.000  
 16 04 02 14 31 18.1000000  0  3G05G04G21                                       
  21988263.50849 115549103.08649     -7394.62949        50.000  
  23738040.53149 124744244.02749    -11970.45349        49.000  
  22535032.12549 118422392.94549     -3615.91849        50.000  
 16 04 02 14 31 18.2000000  0  3G05G04G21                                       
  21988404.28149 115549842.87149     -7400.79349        50.000  
  23738268.35249 124745441.19949    -11973.03149        49.000  
  22535100.97749 118422754.73049     -3619.87949        50.000  
 16 04 02 14 31 18.3000000  0  3G05G04G21                                       
  21988545.15649 115550583.15249     -7405.46949        50.000  
  23738496.18849 124746638.51249    -11974.06649        49.000  
  22535169.88349 118423116.83649     -3622.77049        50.000  
 16 04 02 14 31 18.4000000  0  3G05G04G21                                       
  21988686.13349 115551323.98849     -7411.04749        50.000  
  23738724.06249 124747836.01249    -11975.97749        49.000  
  22535238.85249 118423479.28149     -3626.23449        50.000  
 16 04 02 14 31 18.5000000  0  3G05G04G21                                       
  21988827.21949 115552065.43049     -7417.32849        50.000  
  23738951.99249 124749033.77749    -11978.94549        49.000  
  22535307.90649 118423842.14149     -3630.55149        50.000  
 16 04 02 14 31 18.6000000  0  3G05G04G21                                       
  21988968.43049 115552807.48849     -7423.61349        50.000  
  23739179.96949 124750231.78949    -11981.66049        49.000  
  22535377.03149 118424205.41849     -3634.95749        50.000  
 16 04 02 14 31 18.7000000  0  3G05G04G21                                       
  21989109.76649 115553550.18449     -7429.85949        50.000  
  23739408.00049 124751430.08249    -11984.17649        49.000  
  22535446.24249 118424569.12549     -3639.06249        50.000  
 16 04 02 14 31 18.8000000  0  3G05G04G21                                       
  21989251.18849 115554293.37949     -7434.82449        50.000  
  23739636.05549 124752628.52049    -11985.60949        49.000  
  22535515.51649 118424933.14549     -3642.12149        50.000  
 16 04 02 14 31 18.9000000  0  3G05G04G21                                       
  21989392.71949 115555037.10949     -7439.98449        50.000  
  23739864.14849 124753827.12549    -11987.01249        49.000  
  22535584.85249 118425297.49649     -3645.29349        50.000  
 16 04 02 14 31 19.0000000  0  3G05G04G21                                       
  21989534.36749 115555781.46949     -7446.55549        50.000  
  23740092.28949 124755026.02049    -11990.26249        49.000  
  22535654.26649 118425662.28149     -3649.90249        50.000  
 16 04 02 14 31 19.1000000  0  3G05G04G21                                       
  21989676.12549 115556526.41049     -7452.22349        50.000  
  23740320.47749 124756225.12149    -11992.14549        49.000  
  22535723.75049 118426027.44949     -3653.51649        50.000  
 16 04 02 14 31 19.2000000  0  3G05G04G21                                       
  21989817.98449 115557271.88349     -7457.56249        50.000  
  23740548.69549 124757424.40649    -11994.02349        49.000  
  22535793.30549 118426392.94949     -3656.90649        50.000  
 16 04 02 14 31 19.3000000  0  3G05G04G21                                       
  21989959.95349 115558017.91049     -7463.10249        50.000  
  23740776.95349 124758623.89149    -11996.12549        49.000  
  22535862.92249 118426758.81249     -3660.56249        50.000  
 16 04 02 14 31 19.4000000  0  3G05G04G21                                       
  21990102.03149 115558764.54749     -7469.09049        50.000  
  23741005.25849 124759823.61349    -11998.38749        49.000  
  22535932.62549 118427125.07849     -3664.54749        50.000  
 16 04 02 14 31 19.5000000  0  3G05G04G21                                       
  21990244.23449 115559511.80549     -7475.50049        50.000  
  23741233.60249 124761023.60549    -12001.15249        49.000  
  22536002.40649 118427491.77049     -3668.93049        50.000  
 16 04 02 14 31 19.6000000  0  3G05G04G21                                       
  21990386.53149 115560259.57849     -7480.77349        50.000  
  23741461.98449 124762223.75449    -12002.82849        49.000  
  22536072.24249 118427858.77049     -3672.14549        50.000  
 16 04 02 14 31 19.7000000  0  3G05G04G21                                       
  21990528.94549 115561007.93849     -7486.36749        50.000  
  23741690.40649 124763424.12949    -12004.84049        49.000  
  22536142.15649 118428226.17249     -3675.84849        50.000  
 16 04 02 14 31 19.8000000  0  3G05G04G21                                       
  21990671.46149 115561756.87949     -7492.46949        50.000  
  23741918.87549 124764624.74249    -12007.58249        49.000  
  22536212.14149 118428593.96149     -3680.05549        50.000  
 16 04 02 14 31 19.9000000  0  3G05G04G21                                       
  21990814.09449 115562506.42249     -7498.21549        50.000  
  23742147.39149 124765825.58649    -12009.63349        49.000  
  22536282.20349 118428962.14149     -3683.77749        50.000  
 16 04 02 14 31 20.0000000  0  3G05G04G21                                       
  21990956.83649 115563256.53949     -7503.96549        50.000  
  23742375.94549 124767026.64149    -12011.71149        49.000  
  22536352.34449 118429330.68849     -3687.35249        50.000  
 16 04 02 14 31 20.1000000  0  3G05G04G21                                       
  21991099.68849 115564007.20749     -7509.55149        50.000  
  23742604.53949 124768227.90249    -12013.84449        49.000  
  22536422.54749 118429699.60949     -3691.14149        50.000  
 16 04 02 14 31 20.2000000  0  3G05G04G21                                       
  21991242.64149 115564758.46149     -7515.25849        50.000  
  23742833.17249 124769429.37949    -12015.77049        49.000  
  22536492.82049 118430068.91449     -3694.80949        50.000  
 16 04 02 14 31 20.3000000  0  3G05G04G21                                       
  21991385.70349 115565510.27049     -7520.98449        50.000  
  23743061.85249 124770631.07449    -12018.18049        49.000  
  22536563.16449 118430438.57849     -3698.66849        50.000  
 16 04 02 14 31 20.4000000  0  3G05G04G21                                       
  21991528.88349 115566262.65649     -7526.60549        50.000  
  23743290.57049 124771832.96949    -12020.08649        49.000  
  22536633.57849 118430808.61349     -3702.19549        50.000  
 16 04 02 14 31 20.5000000  0  3G05G04G21                                       
  21991672.14849 115567015.55149     -7531.76649        50.000  
  23743519.30549 124773035.02049    -12021.69949        49.000  
  22536704.05549 118431178.96549     -3705.37149        50.000  
 16 04 02 14 31 20.6000000  0  3G05G04G21                                       
  21991815.53949 115567769.04749     -7537.64149        50.000  
  23743748.09449 124774237.30949    -12023.93049        49.000  
  22536774.60949 118431549.71549     -3709.28149        50.000  
 16 04 02 14 31 20.7000000  0  3G05G04G21                                       
  21991959.03949 115568523.14149     -7543.80549        50.000  
  23743976.93049 124775439.84049    -12026.42249        49.000  
  22536845.24249 118431920.86749     -3713.46149        50.000  
 16 04 02 14 31 20.8000000  0  3G05G04G21                                       
  21992102.65649 115569277.85549     -7550.23849        50.000  
  23744205.81249 124776642.63749    -12029.48849        49.000  
  22536915.94549 118432292.44549     -3718.00049        50.000  
 16 04 02 14 31 20.9000000  0  3G05G04G21                                       
  21992246.39149 115570033.19549     -7556.59849        50.000  
  23744434.75849 124777845.71549    -12032.36349        49.000  
  22536986.73449 118432664.45749     -3722.41449        50.000  
 16 04 02 14 31 21.0000000  0  3G05G04G21                                       
  21992390.24249 115570789.12949     -7562.26249        50.000  
  23744663.73449 124779049.01249    -12034.24249        49.000  
  22537057.60249 118433036.85249     -3725.95349        50.000  
 16 04 02 14 31 21.1000000  0  3G05G04G21                                       
  21992534.18049 115571545.55549     -7567.11749        50.000  
  23744892.74249 124780252.44149    -12035.65649        49.000  
  22537128.52349 118433409.54349     -3728.88749        50.000  
 16 04 02 14 31 21.2000000  0  3G05G04G21                                       
  21992678.24249 115572302.61749     -7573.21149        50.000  
  23745121.79749 124781456.16049    -12038.08649        49.000  
  22537199.53949 118433782.68449     -3733.07449        50.000  
 16 04 02 14 31 21.3000000  0  3G05G04G21                                       
  21992822.40649 115573060.20349     -7578.83649        50.000  
  23745350.89849 124782660.03949    -12040.15649        49.000  
  22537270.60249 118434156.14149     -3736.63349        50.000  
 16 04 02 14 31 21.4000000  0  3G05G04G21                                       
  21992966.68849 115573818.39149     -7584.40649        50.000  
  23745580.03149 124783864.17249    -12042.19949        49.000  
  22537341.75049 118434530.01649     -3740.34049        50.000  
 16 04 02 14 31 21.5000000  0  3G05G04G21                                       
  21993111.07049 115574577.12949     -7590.25849        50.000  
  23745809.20349 124785068.47749    -12044.46949        49.000  
  22537412.96149 118434904.21949     -3744.15249        50.000  
 16 04 02 14 31 21.6000000  0  3G05G04G21                                       
  21993255.56249 115575336.46149     -7596.21549        50.000  
  23746038.43049 124786273.03949    -12046.91049        49.000  
  22537484.25049 118435278.84049     -3748.10249        50.000  
 16 04 02 14 31 21.7000000  0  3G05G04G21                                       
  21993400.17249 115576096.36349     -7601.94949        50.000  
  23746267.68849 124787477.79749    -12048.92649        49.000  
  22537555.60249 118435653.81649     -3751.76249        50.000  
 16 04 02 14 31 21.8000000  0  3G05G04G21                                       
  21993544.89149 115576856.87149     -7607.91049        50.000  
  23746496.99249 124788682.81249    -12051.39549        49.000  
  22537627.03949 118436029.22749     -3756.05149        50.000  
 16 04 02 14 31 21.9000000  0  3G05G04G21                                       
  21993689.71949 115577617.94149     -7613.50849        50.000  
  23746726.33649 124789888.01649    -12053.19149        49.000  
  22537698.53949 118436404.97349     -3759.39549        50.000  
 16 04 02 14 31 22.0000000  0  3G05G04G21                                       
  21993834.64149 115578379.52049     -7618.63349        50.000  
  23746955.71949 124791093.39549    -12054.93449        49.000  
  22537770.10949 118436781.05549     -3762.78949        50.000  
 16 04 02 14 31 22.1000000  0  3G05G04G21                                       
  21993979.68049 115579141.70749     -7624.60949        50.000  
  23747185.13349 124792299.01649    -12057.17649        49.000  
  22537841.75049 118437157.53149     -3766.68049        50.000  
 16 04 02 14 31 22.2000000  0  3G05G04G21                                       
  21994124.81249 115579904.40649     -7629.70349        50.000  
  23747414.58649 124793504.78949    -12058.75049        49.000  
  22537913.44549 118437534.32049     -3769.63349        50.000  
 16 04 02 14 31 22.3000000  0  3G05G04G21                                       
  21994270.06249 115580667.67249     -7635.44149        50.000  
  23747644.07049 124794710.76649    -12060.92649        49.000  
  22537985.21949 118437911.49249     -3773.61349        50.000  
 16 04 02 14 31 22.4000000  0  3G05G04G21                                       
  21994415.42249 115581431.57049     -7642.01249        50.000  
  23747873.61749 124795917.03149    -12064.08249        49.000  
  22538057.07049 118438289.09449     -3778.14549        50.000  
 16 04 02 14 31 22.5000000  0  3G05G04G21                                       
  21994560.90649 115582196.04749     -7647.59049        50.000  
  23748103.20349 124797123.51249    -12065.93449        49.000  
  22538129.00049 118438667.07849     -3781.69949        50.000  
 16 04 02 14 31 22.6000000  0  3G05G04G21                                       
  21994706.49249 115582961.10549     -7653.45749        50.000  
  23748332.82849 124798330.19949    -12068.12549        49.000  
  22538201.00049 118439045.44149     -3785.56249        50.000  
 16 04 02 14 31 22.7000000  0  3G05G04G21                                       
  21994852.17249 115583726.67649     -7658.55949        50.000  
  23748562.48449 124799537.05549    -12069.80149        49.000  
  22538273.06249 118439424.12549     -3788.71949        50.000  
 16 04 02 14 31 22.8000000  0  3G05G04G21                                       
  21994997.96949 115584492.83249     -7664.32849        50.000  
  23748792.18049 124800744.14849    -12071.98849        49.000  
  22538345.19549 118439803.20349     -3792.53949        50.000  
 16 04 02 14 31 22.9000000  0  3G05G04G21                                       
  21995143.86749 115585259.54349     -7669.86349        50.000  
  23749021.93049 124801951.42649    -12073.91849        49.000  
  22538417.39849 118440182.63349     -3796.19949        50.000  
 16 04 02 14 31 23.0000000  0  3G05G04G21                                       
  21995289.88349 115586026.85949     -7676.03149        50.000  
  23749251.71949 124803158.95349    -12076.58649        49.000  
  22538489.68049 118440562.46549     -3800.31649        50.000  
 16 04 02 14 31 23.1000000  0  3G05G04G21                                       
  21995436.00849 115586794.75849     -7681.73849        50.000  
  23749481.54749 124804366.71549    -12078.72749        49.000  
  22538562.03149 118440942.69149     -3804.12949        50.000  
 16 04 02 14 31 23.2000000  0  3G05G04G21                                       
  21995582.23449 115587563.18449     -7687.09049        50.000  
  23749711.40649 124805574.62549    -12080.53149        49.000  
  22538634.45349 118441323.24249     -3807.60549        50.000  
 16 04 02 14 31 23.3000000  0  3G05G04G21                                       
  21995728.57049 115588332.20349     -7692.82049        50.000  
  23749941.31249 124806782.78949    -12082.59049        49.000  
  22538706.94549 118441704.19949     -3811.27749        50.000  
 16 04 02 14 31 23.4000000  0  3G05G04G21                                       
  21995875.02349 115589101.81249     -7698.96149        50.000  
  23750171.26649 124807991.17649    -12085.01249        49.000  
  22538779.50849 118442085.52749     -3815.20349        50.000  
 16 04 02 14 31 23.5000000  0  3G05G04G21                                       
  21996021.58649 115589872.00049     -7704.73449        50.000  
  23750401.25849 124809199.78549    -12087.27049        49.000  
  22538852.14849 118442467.25449     -3819.16049        50.000  
 16 04 02 14 31 23.6000000  0  3G05G04G21                                       
  21996168.24249 115590642.71149     -7709.86749        50.000  
  23750631.28949 124810408.57449    -12089.00049        49.000  
  22538924.85949 118442849.31249     -3822.53949        50.000  
 16 04 02 14 31 23.7000000  0  3G05G04G21                                       
  21996315.02349 115591414.04349     -7716.23049        50.000  
  23750861.35949 124811617.62149    -12091.72349        49.000  
  22538997.64149 118443231.78549     -3826.70749        50.000  
 16 04 02 14 31 23.8000000  0  3G05G04G21                                       
  21996461.91449 115592185.95749     -7722.03949        50.000  
  23751091.47749 124812826.87549    -12093.91049        49.000  
  22539070.49249 118443614.64149     -3830.58649        50.000  
 16 04 02 14 31 23.9000000  0  3G05G04G21                                       
  21996608.90649 115592958.43849     -7727.61349        50.000  
  23751321.62549 124814036.35949    -12095.96949        49.000  
  22539143.42249 118443997.87149     -3834.16849        50.000  
 16 04 02 14 31 24.0000000  0  3G05G04G21                                       
  21996756.01649 115593731.49649     -7733.55949        50.000  
  23751551.82049 124815246.05149    -12098.40249        49.000  
  22539216.42249 118444381.49249     -3838.35549        50.000  
 16 04 02 14 31 24.1000000  0  3G05G04G21                                       
  21996903.24249 115594505.18049     -7739.66049        50.000  
  23751782.07849 124816456.00449    -12100.76249        49.000  
  22539289.50049 118444765.52349     -3842.25849        50.000  
 16 04 02 14 31 24.2000000  0  3G05G04G21                                       
  21997050.57049 115595279.39549     -7745.12149        50.000  
  23752012.35949 124817666.14549    -12102.78149        49.000  
  22539362.64849 118445149.89849     -3845.85949        50.000  
 16 04 02 14 31 24.3000000  0  3G05G04G21                                       
  21997198.01649 115596054.20749     -7750.94149        50.000  
  23752242.68849 124818876.51649    -12104.94549        49.000  
  22539435.86749 118445534.66449     -3849.59849        50.000  
 16 04 02 14 31 24.4000000  0  3G05G04G21                                       
  21997345.55549 115596829.53549     -7756.17649        50.000  
  23752473.04749 124820087.05949    -12106.63349        49.000  
  22539509.14849 118445919.78149     -3853.08649        50.000  
 16 04 02 14 31 24.5000000  0  3G05G04G21                                       
  21997493.21949 115597605.51649     -7762.53549        50.000  
  23752703.46949 124821297.88349    -12109.38349        49.000  
  22539582.51649 118446305.32049     -3857.26649        50.000  
 16 04 02 14 31 24.6000000  0  3G05G04G21                                       
  21997640.97749 115598381.97749     -7767.41849        50.000  
  23752933.89849 124822508.82849    -12110.64549        49.000  
  22539655.93849 118446691.15649     -3860.31249        50.000  
 16 04 02 14 31 24.7000000  0  3G05G04G21                                       
  21997788.85949 115599159.08249     -7773.73449        50.000  
  23753164.39149 124823720.07049    -12113.40649        49.000  
  22539729.44549 118447077.43449     -3864.61749        50.000  
 16 04 02 14 31 24.8000000  0  3G05G04G21                                       
  21997936.82849 115599936.69949     -7779.10549        50.000  
  23753394.91449 124824931.46949    -12115.31249        49.000  
  22539803.01649 118447464.03549     -3868.00849        50.000  
 16 04 02 14 31 24.9000000  0  3G05G04G21                                       
  21998084.91449 115600714.89549     -7784.56249        50.000  
  23753625.46949 124826143.07449    -12116.98849        49.000  
  22539876.64849 118447851.00849     -3871.42649        50.000  
 16 04 02 14 31 25.0000000  0  3G05G04G21                                       
  21998233.10249 115601493.62949     -7790.21549        50.000  
  23753856.06249 124827354.87149    -12119.19149        49.000  
  22539950.35249 118448238.33649     -3875.20749        50.000  
 16 04 02 14 31 25.1000000  0  3G05G04G21                                       
  21998381.40649 115602272.94549     -7796.05149        50.000  
  23754086.69549 124828566.89149    -12121.46549        49.000  
  22540024.13349 118448626.04349     -3879.04349        50.000  
 16 04 02 14 31 25.2000000  0  3G05G04G21                                       
  21998529.82049 115603052.89149     -7802.24249        50.000  
  23754317.39149 124829779.18449    -12124.08649        49.000  
  22540097.99249 118449014.18449     -3883.33649        50.000  
 16 04 02 14 31 25.3000000  0  3G05G04G21                                       
  21998678.35249 115603833.43049     -7808.33249        50.000  
  23754548.12549 124830991.70749    -12126.63749        49.000  
  22540171.93049 118449402.71949     -3887.38349        50.000  
 16 04 02 14 31 25.4000000  0  3G05G04G21                                       
  21998827.00049 115604614.59049     -7814.58649        50.000  
  23754778.91449 124832204.50049    -12129.21149        49.000  
  22540245.94549 118449791.68849     -3891.72349        50.000  
 16 04 02 14 31 25.5000000  0  3G05G04G21                                       
  21998975.74249 115605396.24649     -7819.46949        50.000  
  23755009.73449 124833417.43449    -12130.49649        49.000  
  22540320.02349 118450180.94549     -3894.61349        50.000  
 16 04 02 14 31 25.6000000  0  3G05G04G21                                       
  21999124.60949 115606178.51649     -7825.53949        50.000  
  23755240.59449 124834630.61349    -12132.96549        49.000  
  22540394.18049 118450570.61749     -3898.60549        50.000  
 16 04 02 14 31 25.7000000  0  3G05G04G21                                       
  21999273.57049 115606961.34849     -7831.19149        50.000  
  23755471.49249 124835844.01249    -12135.13349        49.000  
  22540468.39849 118450960.67649     -3902.50449        50.000  
 16 04 02 14 31 25.8000000  0  3G05G04G21                                       
  21999422.64149 115607744.68049     -7836.09049        50.000  
  23755702.41449 124837057.53549    -12136.40649        49.000  
  22540542.68049 118451351.02349     -3905.34449        50.000  
 16 04 02 14 31 25.9000000  0  3G05G04G21                                       
  21999571.82049 115608528.63349     -7842.18849        50.000  
  23755933.39149 124838271.33649    -12139.08649        49.000  
  22540617.03949 118451741.79749     -3909.56249        50.000  
 16 04 02 14 31 26.0000000  0  3G05G04G21                                       
  21999721.10949 115609313.17649     -7848.24649        50.000  
  23756164.41449 124839485.36349    -12141.30949        49.000  
  22540691.48449 118452132.96949     -3913.64149        50.000  
 16 04 02 14 31 26.1000000  0  3G05G04G21                                       
  21999870.50849 115610098.27049     -7853.85249        50.000  
  23756395.47749 124840699.58249    -12143.45349        49.000  
  22540765.98449 118452524.48049     -3917.15249        50.000  
 16 04 02 14 31 26.2000000  0  3G05G04G21                                       
  22000020.01649 115610883.93449     -7859.54349        50.000  
  23756626.57849 124841914.02349    -12145.58249        49.000  
  22540840.56249 118452916.38749     -3920.89849        50.000  
 16 04 02 14 31 26.3000000  0  3G05G04G21                                       
  22000169.62549 115611670.16049     -7865.01649        50.000  
  23756857.71949 124843128.66449    -12147.48449        49.000  
  22540915.20349 118453308.65649     -3924.50849        50.000  
 16 04 02 14 31 26.4000000  0  3G05G04G21                                       
  22000319.34449 115612456.90249     -7870.07049        50.000  
  23757088.89149 124844343.45749    -12148.92649        49.000  
  22540989.91449 118453701.23449     -3927.55949        50.000  
 16 04 02 14 31 26.5000000  0  3G05G04G21                                       
  22000469.16449 115613244.24649     -7876.19149        50.000  
  23757320.10249 124845558.50049    -12151.58249        49.000  
  22541064.69549 118454094.23049     -3931.79349        50.000  
 16 04 02 14 31 26.6000000  0  3G05G04G21                                       
  22000619.10249 115614032.15649     -7882.01649        50.000  
  23757551.35949 124846773.75849    -12153.91849        49.000  
  22541139.55549 118454487.58649     -3935.63349        50.000  
 16 04 02 14 31 26.7000000  0  3G05G04G21                                       
  22000769.15649 115614820.69149     -7887.97349        50.000  
  23757782.66449 124847989.27349    -12156.12149        49.000  
  22541214.49249 118454881.37549     -3939.69949        50.000  
 16 04 02 14 31 26.8000000  0  3G05G04G21                                       
  22000919.30549 115615609.74249     -7893.33649        50.000  
  23758013.99249 124849204.94549    -12158.05949        49.000  
  22541289.48449 118455275.48049     -3943.06249        50.000  
 16 04 02 14 31 26.9000000  0  3G05G04G21                                       
  22001069.58649 115616399.43049     -7899.63349        50.000  
  23758245.39149 124850420.90249    -12160.65249        49.000  
  22541364.56249 118455670.03149     -3947.33249        50.000  
 16 04 02 14 31 27.0000000  0  3G05G04G21                                       
  22001219.96149 115617189.68449     -7905.60949        50.000  
  23758476.82049 124851637.07449    -12163.22749        49.000  
  22541439.71949 118456064.95749     -3951.44549        50.000  
 16 04 02 14 31 27.1000000  0  3G05G04G21                                       
  22001370.46149 115617980.55949     -7911.46549        50.000  
  23758708.29749 124852853.49649    -12165.32849        49.000  
  22541514.94549 118456460.29349     -3955.17249        50.000  
 16 04 02 14 31 27.2000000  0  3G05G04G21                                       
  22001521.04749 115618771.90249     -7916.30949        50.000  
  23758939.79749 124854070.03949    -12166.68049        49.000  
  22541590.22749 118456855.91449     -3958.13749        50.000  
 16 04 02 14 31 27.3000000  0  3G05G04G21                                       
  22001671.74249 115619563.82049     -7921.89849        50.000  
  23759171.32849 124855286.79749    -12168.59049        49.000  
  22541665.58649 118457251.91049     -3961.74649        50.000  
 16 04 02 14 31 27.4000000  0  3G05G04G21                                       
  22001822.56249 115620356.35549     -7928.16849        50.000  
  23759402.92249 124856503.81249    -12171.38349        49.000  
  22541741.01649 118457648.33649     -3966.18049        50.000  
 16 04 02 14 31 27.5000000  0  3G05G04G21                                       
  22001973.47749 115621149.42249     -7933.53949        50.000  
  23759634.55549 124857721.00449    -12173.18849        49.000  
  22541816.51649 118458045.09449     -3969.62949        50.000  
 16 04 02 14 31 27.6000000  0  3G05G04G21                                       
  22002124.50049 115621943.06249     -7939.19949        50.000  
  23759866.21949 124858938.41849    -12175.23849        49.000  
  22541892.08649 118458442.22349     -3973.14849        50.000  
 16 04 02 14 31 27.7000000  0  3G05G04G21                                       
  22002275.64149 115622737.29349     -7945.14849        50.000  
  23760097.93049 124860156.05149    -12177.57849        49.000  
  22541967.73449 118458839.75049     -3977.23049        50.000  
 16 04 02 14 31 27.8000000  0  3G05G04G21                                       
  22002426.88349 115623532.08649     -7950.83249        50.000  
  23760329.68049 124861373.89549    -12179.73849        49.000  
  22542043.44549 118459237.64149     -3981.01249        50.000  
 16 04 02 14 31 27.9000000  0  3G05G04G21                                       
  22002578.23449 115624327.44149     -7956.51249        50.000  
  23760561.47749 124862591.95749    -12181.97349        49.000  
  22542119.23449 118459635.90649     -3984.70749        50.000  
 16 04 02 14 31 28.0000000  0  3G05G04G21                                       
  22002729.70349 115625123.41449     -7962.50849        50.000  
  23760793.31249 124863810.25449    -12184.02349        49.000  
  22542195.10249 118460034.58249     -3988.53149        50.000  
 16 04 02 14 31 28.1000000  0  3G05G04G21                                       
  22002881.25849 115625919.83249     -7966.97749        50.000  
  23761025.16449 124865028.66049    -12185.22749        49.000  
  22542271.01649 118460433.52349     -3991.22349        50.000  
 16 04 02 14 31 28.2000000  0  3G05G04G21                                       
  22003032.93049 115626716.86749     -7973.08249        50.000  
  23761257.07049 124866247.31649    -12187.58649        49.000  
  22542347.01649 118460832.87549     -3995.39149        50.000  
 16 04 02 14 31 28.3000000  0  3G05G04G21                                       
  22003184.71149 115627514.48049     -7978.87549        50.000  
  23761489.01649 124867466.19149    -12189.90649        49.000  
  22542423.07849 118461232.61349     -3999.19549        50.000  
 16 04 02 14 31 28.4000000  0  3G05G04G21                                       
  22003336.60949 115628312.68449     -7984.86349        50.000  
  23761721.00849 124868685.31249    -12192.25849        49.000  
  22542499.22749 118461632.75049     -4003.23049        50.000  
 16 04 02 14 31 28.5000000  0  3G05G04G21                                       
  22003488.60249 115629111.43849     -7990.32049        50.000  
  23761953.03149 124869904.60949    -12194.03149        49.000  
  22542575.43849 118462033.23449     -4006.73849        50.000  
 16 04 02 14 31 28.6000000  0  3G05G04G21                                       
  22003640.71149 115629910.77749     -7996.28549        50.000  
  23762185.10249 124871124.14849    -12196.66449        49.000  
  22542651.71949 118462434.10549     -4010.68449        50.000  
 16 04 02 14 31 28.7000000  0  3G05G04G21                                       
  22003792.92249 115630710.66449     -8001.69149        50.000  
  23762417.20349 124872343.87549    -12198.43849        49.000  
  22542728.07849 118462835.35249     -4014.38749        50.000  
 16 04 02 14 31 28.8000000  0  3G05G04G21                                       
  22003945.25049 115631511.12949     -8007.36749        50.000  
  23762649.35249 124873563.82849    -12200.59049        49.000  
  22542804.50049 118463236.96549     -4018.02749        50.000  
 16 04 02 14 31 28.9000000  0  3G05G04G21                                       
  22004097.68049 115632312.16449     -8013.22749        50.000  
  23762881.53949 124874783.98049    -12202.82449        49.000  
  22542880.99249 118463638.95349     -4021.93849        50.000  
 16 04 02 14 31 29.0000000  0  3G05G04G21                                       
  22004250.22749 115633113.78549     -8018.99649        50.000  
  23763113.77349 124876004.37549    -12205.16849        49.000  
  22542957.57049 118464041.33649     -4025.84849        50.000  
 16 04 02 14 31 29.1000000  0  3G05G04G21                                       
  22004402.87549 115633915.98449     -8024.83649        50.000  
  23763346.04749 124877224.96549    -12207.14149        49.000  
  22543034.21149 118464444.07449     -4029.41449        50.000  
 16 04 02 14 31 29.2000000  0  3G05G04G21                                       
  22004555.63349 115634718.71549     -8030.03549        50.000  
  23763578.35249 124878445.77049    -12209.12549        49.000  
  22543110.92249 118464847.20349     -4033.11349        50.000  
 16 04 02 14 31 29.3000000  0  3G05G04G21                                       
  22004708.48449 115635521.97349     -8035.19149        50.000  
  23763810.69549 124879666.70349    -12210.31649        49.000  
  22543187.68849 118465250.61349     -4035.78949        50.000  
 16 04 02 14 31 29.4000000  0  3G05G04G21                                       
  22004861.46149 115636325.86749     -8041.89149        50.000  
  23764043.09449 124880887.94949    -12213.81249        49.000  
  22543264.54749 118465654.49649     -4040.89149        50.000  
 16 04 02 14 31 29.5000000  0  3G05G04G21                                       
  22005014.54749 115637130.34849     -8047.68049        50.000  
  23764275.52349 124882109.40249    -12215.83649        49.000  
  22543341.47749 118466058.77049     -4044.66049        50.000  
 16 04 02 14 31 29.6000000  0  3G05G04G21                                       
  22005167.73449 115637935.35949     -8052.92649        50.000  
  23764507.99249 124883331.02049    -12217.35249        49.000  
  22543418.46949 118466463.33249     -4047.60949        50.000  
 16 04 02 14 31 29.7000000  0  3G05G04G21                                       
  22005321.03149 115638740.92649     -8058.44949        50.000  
  23764740.50049 124884552.86749    -12219.63749        49.000  
  22543495.53149 118466868.31649     -4051.84049        50.000  
 16 04 02 14 31 29.8000000  0  3G05G04G21                                       
  22005474.44549 115639547.11349     -8064.53549        50.000  
  23764973.05549 124885774.95349    -12221.89849        49.000  
  22543572.67249 118467273.68049     -4055.32849        50.000  
 16 04 02 14 31 29.9000000  0  3G05G04G21                                       
  22005627.96149 115640353.83249     -8070.34049        50.000  
  23765205.64849 124886997.22749    -12224.12949        49.000  
  22543649.88349 118467679.41449     -4059.35249        50.000  
 16 04 02 14 31 30.0000000  0  3G05G04G21                                       
  22005781.58649 115641161.13349     -8075.72749        50.000  
  23765438.28149 124888219.70749    -12225.82049        49.000  
  22543727.16449 118468085.51649     -4062.72749        50.000  
 16 04 02 14 31 30.1000000  0  3G05G04G21                                       
  22005935.31249 115641968.99249     -8081.50049        50.000  
  23765670.95349 124889442.42249    -12228.29349        49.000  
  22543804.50849 118468491.99649     -4066.77349        50.000  
 16 04 02 14 31 30.2000000  0  3G05G04G21                                       
  22006089.14849 115642777.40649     -8086.91849        50.000  
  23765903.66449 124890665.30949    -12229.98449        49.000  
  22543881.93049 118468898.82849     -4070.15649        50.000  
 16 04 02 14 31 30.3000000  0  3G05G04G21                                       
  22006243.09449 115643586.42649     -8092.94949        50.000  
  23766136.42249 124891888.45749    -12232.58649        49.000  
  22543959.43049 118469306.07849     -4074.36349        50.000  
 16 04 02 14 31 30.4000000  0  3G05G04G21                                       
  22006397.16449 115644396.05149     -8099.08249        50.000  
  23766369.22749 124893111.85249    -12235.11349        49.000  
  22544037.00049 118469713.73049     -4078.55549        50.000  
 16 04 02 14 31 30.5000000  0  3G05G04G21                                       
  22006551.32849 115645206.19549     -8104.35949        50.000  
  23766602.06249 124894335.39849    -12236.85249        49.000  
  22544114.64149 118470121.71149     -4081.82849        50.000  
 16 04 02 14 31 30.6000000  0  3G05G04G21                                       
  22006705.60249 115646016.91849     -8109.91049        50.000  
  23766834.93849 124895559.16849    -12238.77349        49.000  
  22544192.34449 118470530.07449     -4085.52349        50.000  
 16 04 02 14 31 30.7000000  0  3G05G04G21                                       
  22006860.00049 115646828.27349     -8116.38349        50.000  
  23767067.86749 124896783.21949    -12241.70349        49.000  
  22544270.14149 118470938.86749     -4089.98849        50.000  
 16 04 02 14 31 30.8000000  0  3G05G04G21                                       
  22007014.50849 115647640.20749     -8122.22349        50.000  
  23767300.83649 124898007.48049    -12243.90249        49.000  
  22544348.00049 118471348.05149     -4093.85549        50.000  
 16 04 02 14 31 30.9000000  0  3G05G04G21                                       
  22007169.10949 115648452.65649     -8127.48449        50.000  
  23767533.84449 124899231.91449    -12245.59849        49.000  
  22544425.93049 118471757.55549     -4097.09049        50.000  
 16 04 02 14 31 31.0000000  0  3G05G04G21                                       
  22007323.82849 115649265.71549     -8133.35949        50.000  
  23767766.89149 124900456.59849    -12247.89549        49.000  
  22544503.93049 118472167.48049     -4101.09449        50.000  
 16 04 02 14 31 31.1000000  0  3G05G04G21                                       
  22007478.66449 115650079.35549     -8139.38749        50.000  
  23767999.98449 124901681.50449    -12250.44549        49.000  
  22544582.01649 118472577.78949     -4105.13349        50.000  
 16 04 02 14 31 31.2000000  0  3G05G04G21                                       
  22007633.60249 115650893.57049     -8144.96549        50.000  
  23768233.11749 124902906.62949    -12252.46149        49.000  
  22544660.16449 118472988.47749     -4108.80949        50.000  
 16 04 02 14 31 31.3000000  0  3G05G04G21                                       
  22007788.65649 115651708.37949     -8151.01649        50.000  
  23768466.29749 124904131.99249    -12254.85949        49.000  
  22544738.39149 118473399.56649     -4112.97749        50.000  
 16 04 02 14 31 31.4000000  0  3G05G04G21                                       
  22007943.80549 115652523.70349     -8155.97749        50.000  
  23768699.50849 124905357.51249    -12256.31249        49.000  
  22544816.68049 118473810.97749     -4116.03149        50.000  
 16 04 02 14 31 31.5000000  0  3G05G04G21                                       
  22008099.07049 115653339.64549     -8162.37549        50.000  
  23768932.76649 124906583.28549    -12259.16049        49.000  
  22544895.05549 118474222.80149     -4120.44949        50.000  
 16 04 02 14 31 31.6000000  0  3G05G04G21                                       
  22008254.45349 115654156.16849     -8168.03149        50.000  
  23769166.07049 124907809.30149    -12261.28149        49.000  
  22544973.49249 118474635.02349     -4124.14549        50.000  
 16 04 02 14 31 31.7000000  0  3G05G04G21                                       
  22008409.92249 115654973.18049     -8172.82849        50.000  
  23769399.39149 124909035.42249    -12262.22749        49.000  
  22545051.99249 118475047.53149     -4126.85549        50.000  
 16 04 02 14 31 31.8000000  0  3G05G04G21                                       
  22008565.49249 115655790.72749     -8178.19549        50.000  
  23769632.75049 124910261.74249    -12264.35549        49.000  
  22545130.55549 118475460.39149     -4130.46149        50.000  
 16 04 02 14 31 31.9000000  0  3G05G04G21                                       
  22008721.18849 115656608.90249     -8184.49649        50.000  
  23769866.15649 124911488.33249    -12267.05949        49.000  
  22545209.20349 118475873.68049     -4134.77349        50.000  
 16 04 02 14 31 32.0000000  0  3G05G04G21                                       
  22008877.00049 115657427.69549     -8190.85549        50.000  
  23770099.61749 124912715.16849    -12269.73849        49.000  
  22545287.93049 118476287.38349     -4139.09449        50.000  
 16 04 02 14 31 32.1000000  0  3G05G04G21                                       
  22009032.91449 115658247.03949     -8196.30549        50.000  
  23770333.11749 124913942.20749    -12271.51649        49.000  
  22545366.71949 118476701.44949     -4142.52349        50.000  
 16 04 02 14 31 32.2000000  0  3G05G04G21                                       
  22009188.93049 115659066.91049     -8201.53949        50.000  
  23770566.64849 124915169.43049    -12273.37949        49.000  
  22545445.58649 118477115.86349     -4146.16049        50.000  
 16 04 02 14 31 32.3000000  0  3G05G04G21                                       
  22009345.05549 115659887.36349     -8207.28549        50.000  
  23770800.21949 124916396.85549    -12275.43849        49.000  
  22545524.51649 118477530.64149     -4149.70349        50.000  
 16 04 02 14 31 32.4000000  0  3G05G04G21                                       
  22009501.29749 115660708.43049     -8213.48849        50.000  
  23771033.84449 124917624.54349    -12278.07049        49.000  
  22545603.53149 118477945.84849     -4154.05149        50.000  
 16 04 02 14 31 32.5000000  0  3G05G04G21                                       
  22009657.64849 115661530.08249     -8219.41049        50.000  
  23771267.51649 124918852.47349    -12280.51649        49.000  
  22545682.61749 118478361.45349     -4158.03549        50.000  
 16 04 02 14 31 32.6000000  0  3G05G04G21                                       
  22009814.10249 115662352.21549     -8223.99649        50.000  
  23771501.20349 124920080.52049    -12281.51649        49.000  
  22545761.75849 118478777.34449     -4160.79749        50.000  
 16 04 02 14 31 32.7000000  0  3G05G04G21                                       
  22009970.66449 115663174.97749     -8230.37549        50.000  
  23771734.93849 124921308.82849    -12284.36349        49.000  
  22545840.97749 118479193.65649     -4165.07049        50.000  
 16 04 02 14 31 32.8000000  0  3G05G04G21                                       
  22010127.33649 115663998.31649     -8236.33249        50.000  
  23771968.72749 124922537.37149    -12286.74649        49.000  
  22545920.27349 118479610.36749     -4169.11749        50.000  
 16 04 02 14 31 32.9000000  0  3G05G04G21                                       
  22010284.12549 115664822.24249     -8242.15249        50.000  
  23772202.54749 124923766.12549    -12288.80549        49.000  
  22545999.64849 118480027.46549     -4172.99649        50.000  
 16 04 02 14 31 33.0000000  0  3G05G04G21                                       
  22010441.00849 115665646.66849     -8246.94549        50.000  
  23772436.39849 124924995.04349    -12290.23449        49.000  
  22546079.07849 118480444.87149     -4175.94149        50.000  
 16 04 02 14 31 33.1000000  0  3G05G04G21                                       
  22010598.01649 115666471.69549     -8252.91849        50.000  
  23772670.29749 124926224.19549    -12292.43449        49.000  
  22546158.57849 118480862.67249     -4179.72749        50.000  
 16 04 02 14 31 33.2000000  0  3G05G04G21                                       
  22010755.10949 115667297.22749     -8258.11349        50.000  
  23772904.22749 124927453.50049    -12294.27749        49.000  
  22546238.14849 118481280.80549     -4183.27049        50.000  
 16 04 02 14 31 33.3000000  0  3G05G04G21                                       
  22010912.32049 115668123.39149     -8264.37149        50.000  
  23773138.21149 124928683.07849    -12296.83649        49.000  
  22546317.79749 118481699.35949     -4187.42249        50.000  
 16 04 02 14 31 33.4000000  0  3G05G04G21                                       
  22011069.64849 115668950.18049     -8271.11749        50.000  
  23773372.24249 124929912.92249    -12300.09849        49.000  
  22546397.52349 118482118.34449     -4192.16449        50.000  
 16 04 02 14 31 33.5000000  0  3G05G04G21                                       
  22011227.10949 115669777.62149     -8277.40249        50.000  
  23773606.32849 124931143.05549    -12302.64149        49.000  
  22546477.34449 118482537.80149     -4196.62549        50.000  
 16 04 02 14 31 33.6000000  0  3G05G04G21                                       
  22011384.64849 115670605.51249     -8281.81249        50.000  
  23773840.43049 124932373.28949    -12303.59449        49.000  
  22546557.21149 118482957.50449     -4199.03949        50.000  
 16 04 02 14 31 33.7000000  0  3G05G04G21                                       
  22011542.29749 115671433.93449     -8286.79749        50.000  
  23774074.57049 124933603.69549    -12305.07049        49.000  
  22546637.14849 118483377.55149     -4202.17249        50.000  
 16 04 02 14 31 33.8000000  0  3G05G04G21                                       
  22011700.07049 115672263.01249     -8293.65249        50.000  
  23774308.76649 124934834.40649    -12308.35549        49.000  
  22546717.16449 118483798.05949     -4207.15249        50.000  
 16 04 02 14 31 33.9000000  0  3G05G04G21                                       
  22011857.94549 115673092.66849     -8299.43449        50.000  
  23774543.00049 124936065.32449    -12310.38349        49.000  
  22546797.25849 118484218.94549     -4210.84049        50.000  
 16 04 02 14 31 34.0000000  0  3G05G04G21                                       
  22012015.93049 115673922.87549     -8305.02749        50.000  
  23774777.27349 124937296.44949    -12312.43849        49.000  
  22546877.41449 118484640.19149     -4214.46949        50.000  
 16 04 02 14 31 34.1000000  0  3G05G04G21                                       
  22012174.02349 115674753.63349     -8310.42649        50.000  
  23775011.59449 124938527.77349    -12314.41849        49.000  
  22546957.64849 118485061.80149     -4218.02049        50.000  
 16 04 02 14 31 34.2000000  0  3G05G04G21                                       
  22012332.22749 115675585.01249     -8316.67249        50.000  
  23775245.95349 124939759.34049    -12316.96149        49.000  
  22547037.95349 118485483.82849     -4222.24249        50.000  
 16 04 02 14 31 34.3000000  0  3G05G04G21                                       
  22012490.53949 115676416.91049     -8321.71549        50.000  
  23775480.35249 124940991.09849    -12318.64849        49.000  
  22547118.32849 118485906.19149     -4225.47749        50.000  
 16 04 02 14 31 34.4000000  0  3G05G04G21                                       
  22012648.95349 115677249.39149     -8327.71149        50.000  
  23775714.78949 124942223.05949    -12320.85549        49.000  
  22547198.77349 118486328.94149     -4229.50049        50.000  
 16 04 02 14 31 34.5000000  0  3G05G04G21                                       
  22012807.47749 115678082.44549     -8333.25849        50.000  
  23775949.26649 124943455.24649    -12322.93049        49.000  
  22547279.29749 118486752.06249     -4233.02049        50.000  
 16 04 02 14 31 34.6000000  0  3G05G04G21                                       
  22012966.10949 115678916.06649     -8339.10249        50.000  
  23776183.78149 124944687.63749    -12325.18049        49.000  
  22547359.88349 118487175.57449     -4237.06249        50.000  
 16 04 02 14 31 34.7000000  0  3G05G04G21                                       
  22013124.85949 115679750.28949     -8345.10949        50.000  
  23776418.35249 124945920.28949    -12327.59449        49.000  
  22547440.54749 118487599.47749     -4240.98449        50.000  
 16 04 02 14 31 34.8000000  0  3G05G04G21                                       
  22013283.71949 115680585.07449     -8350.73049        50.000  
  23776652.95349 124947153.12949    -12329.76249        49.000  
  22547521.28949 118488023.75849     -4244.85249        50.000  
 16 04 02 14 31 34.9000000  0  3G05G04G21                                       
  22013442.67249 115681420.40249     -8355.98049        50.000  
  23776887.58649 124948386.15649    -12331.41049        49.000  
  22547602.09449 118488448.38349     -4248.01249        50.000  
 16 04 02 14 31 35.0000000  0  3G05G04G21                                       
  22013601.74249 115682256.31249     -8361.79749        50.000  
  23777122.26649 124949619.41449    -12333.65249        49.000  
  22547682.96949 118488873.39549     -4251.91849        50.000  
 16 04 02 14 31 35.1000000  0  3G05G04G21                                       
  22013760.92249 115683092.82049     -8368.05549        50.000  
  23777356.99249 124950852.91449    -12336.37149        49.000  
  22547763.92249 118489298.82449     -4256.37149        50.000  
 16 04 02 14 31 35.2000000  0  3G05G04G21                                       
  22013920.21949 115683929.92249     -8373.76649        50.000  
  23777591.76649 124952086.64549    -12338.38349        49.000  
  22547844.95349 118489724.64149     -4260.10949        50.000  
 16 04 02 14 31 35.3000000  0  3G05G04G21                                       
  22014079.61749 115684767.54349     -8379.22749        50.000  
  23777826.57049 124953320.54349    -12340.32049        49.000  
  22547926.04749 118490150.78949     -4263.59049        50.000  
 16 04 02 14 31 35.4000000  0  3G05G04G21                                       
  22014239.12549 115685605.76649     -8384.99649        50.000  
  23778061.42249 124954554.69149    -12342.51649        49.000  
  22548007.21949 118490577.34449     -4267.35249        50.000  
 16 04 02 14 31 35.5000000  0  3G05G04G21                                       
  22014398.73449 115686444.53149     -8390.51249        50.000  
  23778296.29749 124955789.01249    -12344.38349        49.000  
  22548088.46149 118491004.25849     -4271.10549        50.000  
 16 04 02 14 31 35.6000000  0  3G05G04G21                                       
  22014558.45349 115687283.82449     -8395.74249        50.000  
  23778531.21949 124957023.52349    -12346.34449        49.000  
  22548169.75849 118491431.49249     -4274.35549        50.000  
 16 04 02 14 31 35.7000000  0  3G05G04G21                                       
  22014718.28149 115688123.75449     -8401.96949        50.000  
  23778766.18849 124958258.30549    -12348.79349        49.000  
  22548251.14149 118491859.18049     -4278.59049        50.000  
 16 04 02 14 31 35.8000000  0  3G05G04G21                                       
  22014878.21149 115688964.21149     -8407.54749        50.000  
  23779001.18849 124959493.25849    -12350.93049        49.000  
  22548332.59449 118492287.19949     -4282.31249        50.000  
 16 04 02 14 31 35.9000000  0  3G05G04G21                                       
  22015038.26649 115689805.28149     -8413.40249        50.000  
  23779236.25049 124960728.45749    -12353.06649        49.000  
  22548414.12549 118492715.63349     -4286.14549        50.000  
 16 04 02 14 31 36.0000000  0  3G05G04G21                                       
  22015198.41449 115690646.88349     -8418.89149        50.000  
  23779471.33649 124961963.83649    -12355.11749        49.000  
  22548495.71149 118493144.41449     -4289.85249        50.000  
 16 04 02 14 31 36.1000000  0  3G05G04G21                                       
  22015358.68849 115691489.09849     -8424.87949        50.000  
  23779706.46949 124963199.48049    -12357.47749        49.000  
  22548577.39149 118493573.61749     -4293.85249        50.000  
 16 04 02 14 31 36.2000000  0  3G05G04G21                                       
  22015519.05549 115692331.82049     -8430.17649        50.000  
  23779941.63349 124964435.27049    -12359.27349        49.000  
  22548659.11749 118494003.12549     -4297.19949        50.000  
 16 04 02 14 31 36.3000000  0  3G05G04G21                                       
  22015679.53149 115693175.16049     -8436.07049        50.000  
  23780176.84449 124965671.31249    -12361.54749        49.000  
  22548740.93049 118494433.05549     -4301.14849        50.000  
 16 04 02 14 31 36.4000000  0  3G05G04G21                                       
  22015840.11749 115694019.02749     -8441.47349        50.000  
  23780412.09449 124966907.54349    -12363.49249        49.000  
  22548822.81249 118494863.33249     -4304.69549        50.000  
 16 04 02 14 31 36.5000000  0  3G05G04G21                                       
  22016000.82049 115694863.55149     -8448.01249        50.000  
  23780647.39849 124968144.07049    -12366.30949        49.000  
  22548904.78149 118495294.07449     -4309.30549        50.000  
 16 04 02 14 31 36.6000000  0  3G05G04G21                                       
  22016161.62549 115695708.58649     -8453.34049        50.000  
  23780882.72749 124969380.73849    -12368.07449        49.000  
  22548986.80549 118495725.12149     -4312.59449        50.000  
 16 04 02 14 31 36.7000000  0  3G05G04G21                                       
  22016322.54749 115696554.22749     -8459.30949        50.000  
  23781118.10249 124970617.66849    -12370.58249        49.000  
  22549068.90649 118496156.59049     -4316.69549        50.000  
 16 04 02 14 31 36.8000000  0  3G05G04G21                                       
  22016483.57849 115697400.44949     -8465.02049        50.000  
  23781353.52349 124971854.80949    -12372.58249        49.000  
  22549151.09449 118496588.44149     -4320.42249        50.000  
 16 04 02 14 31 36.9000000  0  3G05G04G21                                       
  22016644.71949 115698247.23849     -8470.79349        50.000  
  23781588.99249 124973092.16449    -12374.79349        49.000  
  22549233.33649 118497020.66049     -4324.14149        50.000  
 16 04 02 14 31 37.0000000  0  3G05G04G21                                       
  22016805.96149 115699094.57449     -8476.09049        50.000  
  23781824.49249 124974329.72749    -12376.61349        49.000  
  22549315.66449 118497453.27049     -4327.80549        50.000  
 16 04 02 14 31 37.1000000  0  3G05G04G21                                       
  22016967.31249 115699942.47349     -8481.69549        50.000  
  23782060.02349 124975567.48449    -12378.66849        49.000  
  22549398.05549 118497886.21549     -4331.39549        50.000  
 16 04 02 14 31 37.2000000  0  3G05G04G21                                       
  22017128.78149 115700790.97749     -8487.75449        50.000  
  23782295.60949 124976805.48449    -12381.12549        49.000  
  22549480.51649 118498319.57449     -4335.46149        50.000  
 16 04 02 14 31 37.3000000  0  3G05G04G21                                       
  22017290.34449 115701640.00049     -8493.20349        50.000  
  23782531.22749 124978043.66049    -12383.15649        49.000  
  22549563.04749 118498753.27749     -4339.08649        50.000  
 16 04 02 14 31 37.4000000  0  3G05G04G21                                       
  22017452.03149 115702489.67649     -8499.46949        50.000  
  23782766.89849 124979282.11749    -12385.64549        49.000  
  22549645.66449 118499187.43049     -4343.43049        50.000  
 16 04 02 14 31 37.5000000  0  3G05G04G21                                       
  22017613.80549 115703339.81249     -8504.10549        50.000  
  23783002.58649 124980520.68449    -12386.84849        49.000  
  22549728.33649 118499621.84849     -4346.15249        50.000  
 16 04 02 14 31 37.6000000  0  3G05G04G21                                       
  22017775.69549 115704190.54749     -8510.04349        50.000  
  23783238.32849 124981759.50049    -12389.15249        49.000  
  22549811.07849 118500056.68049     -4350.19149        50.000  
 16 04 02 14 31 37.7000000  0  3G05G04G21                                       
  22017937.69549 115705041.86349     -8516.02749        50.000  
  23783474.10249 124982998.52349    -12391.54749        49.000  
  22549893.89849 118500491.88749     -4354.16049        50.000  
 16 04 02 14 31 37.8000000  0  3G05G04G21                                       
  22018099.79749 115705893.72749     -8521.41449        50.000  
  23783709.92249 124984237.76649    -12393.45349        49.000  
  22549976.78149 118500927.46149     -4357.55149        50.000  
 16 04 02 14 31 37.9000000  0  3G05G04G21                                       
  22018262.00049 115706746.12149     -8526.71149        50.000  
  23783945.77349 124985477.15649    -12395.10949        49.000  
  22550059.73449 118501363.37549     -4361.02349        50.000  
 16 04 02 14 31 38.0000000  0  3G05G04G21                                       
  22018424.32849 115707599.12549     -8532.96149        50.000  
  23784181.67249 124986716.80949    -12397.84849        49.000  
  22550142.76649 118501799.69549     -4365.07849        50.000  
 16 04 02 14 31 38.1000000  0  3G05G04G21                                       
  22018586.76649 115708452.75849     -8539.18449        50.000  
  23784417.61749 124987956.73449    -12400.46949        49.000  
  22550225.88349 118502236.46549     -4369.71149        50.000  
 16 04 02 14 31 38.2000000  0  3G05G04G21                                       
  22018749.31249 115709306.94149     -8544.97349        50.000  
  23784653.60949 124989196.86349    -12402.72749        49.000  
  22550309.06249 118502673.59049     -4373.51649        50.000  
 16 04 02 14 31 38.3000000  0  3G05G04G21                                       
  22018911.96949 115710161.71149     -8550.46549        50.000  
  23784889.64149 124990437.21549    -12404.62549        49.000  
  22550392.32049 118503111.10549     -4377.09049        50.000  
 16 04 02 14 31 38.4000000  0  3G05G04G21                                       
  22019074.72749 115711017.00849     -8555.73449        50.000  
  23785125.69549 124991677.72749    -12406.33649        49.000  
  22550475.64149 118503548.95749     -4380.39549        50.000  
 16 04 02 14 31 38.5000000  0  3G05G04G21                                       
  22019237.60249 115711872.92249     -8561.94149        50.000  
  23785361.80549 124992918.50849    -12409.05549        49.000  
  22550559.03949 118503987.23049     -4384.69549        50.000  
 16 04 02 14 31 38.6000000  0  3G05G04G21                                       
  22019400.57849 115712729.34449     -8566.75449        50.000  
  23785597.94549 124994159.44549    -12410.23449        49.000  
  22550642.50049 118504425.82849     -4387.64849        50.000  
 16 04 02 14 31 38.7000000  0  3G05G04G21                                       
  22019563.64149 115713586.25049     -8571.79749        50.000  
  23785834.11749 124995400.50449    -12411.66849        49.000  
  22550726.01649 118504864.70349     -4390.64849        50.000  
 16 04 02 14 31 38.8000000  0  3G05G04G21                                       
  22019726.82849 115714443.78949     -8578.13349        50.000  
  23786070.33649 124996641.83649    -12414.45349        49.000  
  22550809.61749 118505304.02349     -4394.95749        50.000  
 16 04 02 14 31 38.9000000  0  3G05G04G21                                       
  22019890.11749 115715301.89849     -8584.16049        50.000  
  23786306.60249 124997883.39849    -12417.11749        49.000  
  22550893.28949 118505743.73449     -4399.26249        50.000  
 16 04 02 14 31 39.0000000  0  3G05G04G21                                       
  22020053.52349 115716160.60549     -8589.86749        50.000  
  23786542.90649 124999125.18849    -12419.00849        49.000  
  22550977.03949 118506183.84449     -4402.93449        50.000  
 16 04 02 14 31 39.1000000  0  3G05G04G21                                       
  22020217.03949 115717019.84049     -8595.28149        50.000  
  23786779.24249 125000367.14549    -12420.89849        49.000  
  22551060.85249 118506624.28549     -4406.39149        50.000  
 16 04 02 14 31 39.2000000  0  3G05G04G21                                       
  22020380.64849 115717879.60949     -8600.35549        50.000  
  23787015.60949 125001609.29749    -12422.55149        49.000  
  22551144.73449 118507065.08249     -4409.70349        50.000  
 16 04 02 14 31 39.3000000  0  3G05G04G21                                       
  22020544.37549 115718740.00849     -8606.64549        50.000  
  23787252.03949 125002851.71149    -12425.25449        49.000  
  22551228.69549 118507506.30949     -4414.05149        50.000  
 16 04 02 14 31 39.4000000  0  3G05G04G21                                       
  22020708.21149 115719600.95749     -8612.25849        50.000  
  23787488.50049 125004094.31649    -12427.18449        49.000  
  22551312.72749 118507947.89149     -4417.77049        50.000  
 16 04 02 14 31 39.5000000  0  3G05G04G21                                       
  22020872.15649 115720462.50849     -8618.35949        50.000  
  23787725.00849 125005337.16849    -12429.80549        49.000  
  22551396.83649 118508389.87949     -4421.87149        50.000  
 16 04 02 14 31 39.6000000  0  3G05G04G21                                       
  22021036.21949 115721324.64849     -8624.28949        50.000  
  23787961.56249 125006580.26649    -12432.21149        49.000  
  22551481.01649 118508832.27349     -4425.97349        50.000  
 16 04 02 14 31 39.7000000  0  3G05G04G21                                       
  22021200.38349 115722187.35249     -8630.03549        50.000  
  23788198.15649 125007823.55149    -12434.23049        49.000  
  22551565.27349 118509275.03149     -4429.69549        50.000  
 16 04 02 14 31 39.8000000  0  3G05G04G21                                       
  22021364.64149 115723050.52349     -8634.33249        50.000  
  23788434.76649 125009066.96949    -12435.07449        49.000  
  22551649.57849 118509718.07849     -4432.14149        50.000  
 16 04 02 14 31 39.9000000  0  3G05G04G21                                       
  22021529.00849 115723914.30149     -8640.50849        50.000  
  23788671.43049 125010310.62149    -12437.73449        49.000  
  22551733.96149 118510161.52349     -4436.38349        50.000  
 16 04 02 14 31 40.0000000  0  3G05G04G21                                       
  22021693.48449 115724778.63349     -8646.10549        50.000  
  23788908.12549 125011554.47349    -12439.60249        49.000  
  22551818.42249 118510605.33249     -4439.96149        50.000  
 16 04 02 14 31 40.1000000  0  3G05G04G21                                       
  22021858.07049 115725643.50849     -8651.58249        50.000  
  23789144.85949 125012798.50849    -12441.60549        49.000  
  22551902.94549 118511049.51249     -4443.63749        50.000  
 16 04 02 14 31 40.2000000  0  3G05G04G21                                       
  22022022.75849 115726508.95349     -8657.19949        50.000  
  23789381.63349 125014042.76249    -12443.62949        49.000  
  22551987.53949 118511494.05549     -4447.39149        50.000  
 16 04 02 14 31 40.3000000  0  3G05G04G21                                       
  22022187.56249 115727374.96949     -8663.01249        50.000  
  23789618.45349 125015287.24649    -12446.06249        49.000  
  22552072.20349 118511938.97749     -4451.11749        50.000  
 16 04 02 14 31 40.4000000  0  3G05G04G21                                       
  22022352.47749 115728241.59049     -8669.11349        50.000  
  23789855.31249 125016531.94949    -12448.32049        49.000  
  22552156.94549 118512384.31649     -4455.31249        50.000  
 16 04 02 14 31 40.5000000  0  3G05G04G21                                       
  22022517.50049 115729108.78549     -8674.85549        50.000  
  23790092.21949 125017776.89849    -12450.69549        49.000  
  22552241.76649 118512830.03949     -4459.15649        50.000  
 16 04 02 14 31 40.6000000  0  3G05G04G21                                       
  22022682.62549 115729976.52749     -8680.36749        50.000  
  23790329.15649 125019022.02049    -12452.64549        49.000  
  22552326.64849 118513276.11349     -4462.84049        50.000  
 16 04 02 14 31 40.7000000  0  3G05G04G21                                       
  22022847.85949 115730844.82449     -8685.68849        50.000  
  23790566.14149 125020267.34449    -12454.32849        49.000  
  22552411.60249 118513722.56249     -4466.27749        50.000  
 16 04 02 14 31 40.8000000  0  3G05G04G21                                       
  22023013.21149 115731713.74249     -8691.96149        50.000  
  23790803.17249 125021512.93849    -12457.13349        49.000  
  22552496.64149 118514169.43049     -4470.65249        50.000  
 16 04 02 14 31 40.9000000  0  3G05G04G21                                       
  22023178.65649 115732583.16849     -8696.96549        50.000  
  23791040.22749 125022758.67649    -12458.50049        49.000  
  22552581.73449 118514616.61349     -4473.64549        50.000  
 16 04 02 14 31 41.0000000  0  3G05G04G21                                       
  22023344.21149 115733453.16849     -8702.67649        50.000  
  23791277.32849 125024004.64149    -12460.62149        49.000  
  22552666.90649 118515064.18049     -4477.48849        50.000  
 16 04 02 14 31 41.1000000  0  3G05G04G21                                       
  22023509.86749 115734323.71949     -8708.35949        50.000  
  23791514.46149 125025250.78549    -12462.70749        49.000  
  22552752.14149 118515512.11749     -4481.41449        50.000  
 16 04 02 14 31 41.2000000  0  3G05G04G21                                       
  22023675.64849 115735194.88749     -8714.39549        50.000  
  23791751.64849 125026497.20749    -12465.35249        49.000  
  22552837.45349 118515960.45749     -4485.37949        50.000  
 16 04 02 14 31 41.3000000  0  3G05G04G21                                       
  22023841.52349 115736066.55549     -8719.59049        50.000  
  23791988.86749 125027743.76649    -12466.91449        49.000  
  22552922.83649 118516409.13349     -4488.69549        50.000  
 16 04 02 14 31 41.4000000  0  3G05G04G21                                       
  22024007.51649 115736938.85549     -8725.81249        50.000  
  23792226.13349 125028990.61749    -12469.67649        49.000  
  22553008.29749 118516858.23449     -4493.03149        50.000  
 16 04 02 14 31 41.5000000  0  3G05G04G21                                       
  22024173.60949 115737811.68449     -8731.13749        50.000  
  23792463.43849 125030237.62149    -12471.23449        49.000  
  22553093.82849 118517307.68049     -4496.43049        50.000  
 16 04 02 14 31 41.6000000  0  3G05G04G21                                       
  22024339.80549 115738685.07049     -8736.66449        50.000  
  23792700.76649 125031484.82449    -12473.28949        49.000  
  22553179.41449 118517757.47349     -4499.84449        50.000  
 16 04 02 14 31 41.7000000  0  3G05G04G21                                       
  22024506.11749 115739559.03149     -8742.37549        50.000  
  23792938.14849 125032732.25449    -12475.48849        49.000  
  22553265.08649 118518207.67649     -4503.89149        50.000  
 16 04 02 14 31 41.8000000  0  3G05G04G21                                       
  22024672.52349 115740433.51649     -8747.62549        50.000  
  23793175.56249 125033979.85549    -12477.14149        49.000  
  22553350.82049 118518658.20349     -4507.16049        50.000  
 16 04 02 14 31 41.9000000  0  3G05G04G21                                       
  22024839.05549 115741308.63349     -8754.04349        50.000  
  23793413.02349 125035227.72349    -12480.02349        49.000  
  22553436.63349 118519109.16049     -4511.70349        50.000  
 16 04 02 14 31 42.0000000  0  3G05G04G21                                       
  22025005.68849 115742184.27349     -8759.19949        50.000  
  23793650.52349 125036475.76649    -12481.59049        49.000  
  22553522.51649 118519560.45749     -4514.98849        50.000  
 16 04 02 14 31 42.1000000  0  3G05G04G21                                       
  22025172.42249 115743060.49249     -8764.92649        50.000  
  23793888.05549 125037724.02749    -12483.76649        49.000  
  22553608.46949 118520012.15249     -4518.81649        50.000  
 16 04 02 14 31 42.2000000  0  3G05G04G21                                       
  22025339.26649 115743937.26649     -8770.48049        50.000  
  23794125.63349 125038972.48449    -12485.65249        49.000  
  22553694.49249 118520464.19549     -4522.28549        50.000  
 16 04 02 14 31 42.3000000  0  3G05G04G21                                       
  22025506.21149 115744814.59449     -8776.05949        50.000  
  23794363.25049 125040221.15249    -12487.71549        49.000  
  22553780.58649 118520916.60549     -4525.99649        50.000  
 16 04 02 14 31 42.4000000  0  3G05G04G21                                       
  22025673.27349 115745692.50849     -8781.90649        50.000  
  23794600.89849 125041470.02749    -12489.82049        49.000  
  22553866.75049 118521369.41049     -4529.84849        50.000  
 16 04 02 14 31 42.5000000  0  3G05G04G21                                       
  22025840.43049 115746570.93049     -8787.01649        50.000  
  23794838.58649 125042719.07849    -12491.63349        49.000  
  22553952.97749 118521822.53549     -4533.19949        50.000  
 16 04 02 14 31 42.6000000  0  3G05G04G21                                       
  22026007.69549 115747449.93049     -8792.89549        50.000  
  23795076.31249 125043968.33649    -12493.87149        49.000  
  22554039.28149 118522276.04749     -4537.12149        50.000  
 16 04 02 14 31 42.7000000  0  3G05G04G21                                       
  22026175.08649 115748329.55949     -8799.14149        50.000  
  23795314.09449 125045217.87949    -12496.57849        49.000  
  22554125.66449 118522729.99649     -4541.39549        50.000  
 16 04 02 14 31 42.8000000  0  3G05G04G21                                       
  22026342.58649 115749209.74249     -8804.73049        50.000  
  23795551.90649 125046467.59849    -12498.48449        49.000  
  22554212.11749 118523184.30949     -4545.03949        50.000  
 16 04 02 14 31 42.9000000  0  3G05G04G21                                       
  22026510.18049 115750090.46949     -8809.94149        50.000  
  23795789.76649 125047717.53149    -12500.32849        49.000  
  22554298.64149 118523638.98049     -4548.53549        50.000  
 16 04 02 14 31 43.0000000  0  3G05G04G21                                       
  22026677.88349 115750971.77049     -8815.79349        50.000  
  23796027.65649 125048967.65649    -12502.35249        49.000  
  22554385.22749 118524094.02749     -4552.42649        50.000  
 16 04 02 14 31 43.1000000  0  3G05G04G21                                       
  22026845.69549 115751853.60549     -8821.16049        50.000  
  23796265.58649 125050217.99649    -12504.49649        49.000  
  22554471.88349 118524549.42249     -4555.88749        50.000  
 16 04 02 14 31 43.2000000  0  3G05G04G21                                       
  22027013.61749 115752736.04749     -8827.09849        50.000  
  23796503.55549 125051468.55549    -12506.69549        49.000  
  22554558.62549 118525005.22749     -4559.94149        50.000  
 16 04 02 14 31 43.3000000  0  3G05G04G21                                       
  22027181.63349 115753618.99249     -8832.21949        50.000  
  23796741.56249 125052719.27049    -12508.38749        49.000  
  22554645.42249 118525461.35549     -4563.19949        50.000  
 16 04 02 14 31 43.4000000  0  3G05G04G21                                       
  22027349.76649 115754502.50849     -8837.78549        50.000  
  23796979.60949 125053970.21549    -12510.29349        49.000  
  22554732.28949 118525917.85549     -4566.73049        50.000  
 16 04 02 14 31 43.5000000  0  3G05G04G21                                       
  22027517.99249 115755386.55149     -8843.09449        50.000  
  23797217.68849 125055221.30549    -12512.19149        49.000  
  22554819.22749 118526374.68849     -4570.22749        50.000  
 16 04 02 14 31 43.6000000  0  3G05G04G21                                       
  22027686.33649 115756271.20349     -8849.44549        50.000  
  23797455.81249 125056472.66449    -12514.84449        49.000  
  22554906.24249 118526831.95749     -4574.61749        50.000  
 16 04 02 14 31 43.7000000  0  3G05G04G21                                       
  22027854.78949 115757156.44149     -8855.01249        50.000  
  23797693.97749 125057724.24649    -12516.80149        49.000  
  22554993.32849 118527289.60249     -4578.27349        50.000  
 16 04 02 14 31 43.8000000  0  3G05G04G21                                       
  22028023.34449 115758042.18449     -8860.34449        50.000  
  23797932.17249 125058975.97749    -12518.45749        49.000  
  22555080.46949 118527747.55949     -4581.52049        50.000  
 16 04 02 14 31 43.9000000  0  3G05G04G21                                       
  22028192.01649 115758928.57049     -8866.71549        50.000  
  23798170.43049 125060228.00049    -12521.43849        49.000  
  22555167.70349 118528205.98049     -4586.10549        50.000  
 16 04 02 14 31 44.0000000  0  3G05G04G21                                       
  22028360.78949 115759815.48049     -8872.02049        50.000  
  23798408.71149 125061480.19149    -12523.15249        49.000  
  22555255.00849 118528664.75049     -4589.66449        50.000  
 16 04 02 14 31 44.1000000  0  3G05G04G21                                       
  22028529.66449 115760702.91849     -8877.13749        50.000  
  23798647.03149 125062732.55149    -12524.63749        49.000  
  22555342.36749 118529123.82849     -4592.68449        50.000  
 16 04 02 14 31 44.2000000  0  3G05G04G21                                       
  22028698.64849 115761590.92249     -8882.76649        50.000  
  23798885.38349 125063985.11349    -12526.64849        49.000  
  22555429.79749 118529583.29749     -4596.41849        50.000  
 16 04 02 14 31 44.3000000  0  3G05G04G21                                       
  22028867.74249 115762479.50449     -8888.62949        50.000  
  23799123.78149 125065237.91849    -12529.18049        49.000  
  22555517.30549 118530043.14849     -4600.42249        50.000  
 16 04 02 14 31 44.4000000  0  3G05G04G21                                       
  22029036.94549 115763368.67649     -8894.80549        50.000  
  23799362.22749 125066490.93849    -12531.62549        49.000  
  22555604.89149 118530503.40249     -4604.69549        50.000  
 16 04 02 14 31 44.5000000  0  3G05G04G21                                       
  22029206.26649 115764258.44949     -8900.54349        50.000  
  23799600.71949 125067744.22749    -12533.97749        49.000  
  22555692.54749 118530964.07449     -4608.63349        50.000  
 16 04 02 14 31 44.6000000  0  3G05G04G21                                       
  22029375.68049 115765148.73449     -8905.60549        50.000  
  23799839.24249 125068997.66049    -12535.52749        49.000  
  22555780.27349 118531425.06249     -4611.80949        50.000  
 16 04 02 14 31 44.7000000  0  3G05G04G21                                       
  22029545.21149 115766039.61749     -8911.55949        50.000  
  23800077.80549 125070251.32849    -12537.80549        49.000  
  22555868.07049 118531886.45349     -4615.81649        50.000  
 16 04 02 14 31 44.8000000  0  3G05G04G21                                       
  22029714.84449 115766931.04749     -8917.12149        50.000  
  23800316.40649 125071505.18449    -12539.82449        49.000  
  22555955.93849 118532348.20349     -4619.46549        50.000  
 16 04 02 14 31 44.9000000  0  3G05G04G21                                       
  22029884.58649 115767823.03949     -8922.69549        50.000  
  23800555.05549 125072759.26249    -12541.96949        49.000  
  22556043.87549 118532810.33249     -4623.12149        50.000  
 16 04 02 14 31 45.0000000  0  3G05G04G21                                       
  22030054.43049 115768715.56649     -8927.98049        50.000  
  23800793.73449 125074013.50049    -12543.56249        49.000  
  22556131.88349 118533272.80149     -4626.52349        50.000  
 16 04 02 14 31 45.1000000  0  3G05G04G21                                       
  22030224.38349 115769608.68449     -8933.96549        50.000  
  23801032.44549 125075267.98049    -12546.05549        49.000  
  22556219.96149 118533735.66049     -4630.55949        50.000  
 16 04 02 14 31 45.2000000  0  3G05G04G21                                       
  22030394.45349 115770502.41449     -8940.19149        50.000  
  23801271.21949 125076522.72749    -12548.71949        49.000  
  22556308.12549 118534198.94949     -4634.84849        50.000  
 16 04 02 14 31 45.3000000  0  3G05G04G21                                       
  22030564.61749 115771396.64849     -8945.09049        50.000  
  23801510.01649 125077777.62149    -12549.99249        49.000  
  22556396.35249 118534662.56649     -4637.99249        50.000  
 16 04 02 14 31 45.4000000  0  3G05G04G21                                       
  22030734.89149 115772291.43449     -8950.55149        50.000  
  23801748.85249 125079032.70349    -12552.00049        49.000  
  22556484.64149 118535126.52349     -4641.45349        50.000  
 16 04 02 14 31 45.5000000  0  3G05G04G21                                       
  22030905.28149 115773186.82049     -8956.58249        50.000  
  23801987.73449 125080288.02749    -12554.34849        49.000  
  22556573.00849 118535590.90649     -4645.65249        50.000  
 16 04 02 14 31 45.6000000  0  3G05G04G21                                       
  22031075.77349 115774082.76649     -8962.33649        50.000  
  23802226.64849 125081543.56249    -12556.62549        49.000  
  22556661.44549 118536055.64849     -4649.47349        50.000  
 16 04 02 14 31 45.7000000  0  3G05G04G21                                       
  22031246.37549 115774979.31249     -8968.39549        50.000  
  23802465.61749 125082799.34449    -12559.11749        49.000  
  22556749.96949 118536520.81649     -4653.71949        50.000  
 16 04 02 14 31 45.8000000  0  3G05G04G21                                       
  22031417.10249 115775876.45349     -8974.17649        50.000  
  23802704.63349 125084055.35949    -12561.10249        49.000  
  22556838.55549 118536986.36749     -4657.34049        50.000  
 16 04 02 14 31 45.9000000  0  3G05G04G21                                       
  22031587.91449 115776774.08249     -8979.15649        50.000  
  23802943.67249 125085311.50449    -12562.67649        49.000  
  22556927.20349 118537452.23049     -4660.60549        50.000  
 16 04 02 14 31 46.0000000  0  3G05G04G21                                       
  22031758.83649 115777672.29349     -8985.09049        50.000  
  23803182.75049 125086567.88349    -12565.20349        49.000  
  22557015.93849 118537918.49649     -4664.76249        50.000  
 16 04 02 14 31 46.1000000  0  3G05G04G21                                       
  22031929.88349 115778571.14149     -8991.42249        50.000  
  23803421.88349 125087824.53149    -12567.80949        49.000  
  22557104.74249 118538385.18049     -4668.95349        50.000  
 16 04 02 14 31 46.2000000  0  3G05G04G21                                       
  22032101.02349 115779470.52049     -8996.59049        50.000  
  23803661.05549 125089081.37549    -12569.60249        49.000  
  22557193.62549 118538852.23049     -4672.41849        50.000  
 16 04 02 14 31 46.3000000  0  3G05G04G21                                       
  22032272.27349 115780370.39849     -9001.45749        50.000  
  23803900.25049 125090338.33649    -12570.64849        49.000  
  22557282.55549 118539319.57449     -4675.23049        50.000  
 16 04 02 14 31 46.4000000  0  3G05G04G21                                       
  22032443.62549 115781270.87549     -9007.40249        50.000  
  23804139.49249 125091595.56249    -12573.27749        49.000  
  22557371.57049 118539787.34449     -4679.45749        50.000  
 16 04 02 14 31 46.5000000  0  3G05G04G21                                       
  22032615.09449 115782171.91449     -9013.28149        50.000  
  23804378.77349 125092852.98049    -12575.53149        49.000  
  22557460.64849 118540255.47349     -4683.37549        50.000  
 16 04 02 14 31 46.6000000  0  3G05G04G21                                       
  22032786.67249 115783073.55949     -9019.32449        50.000  
  23804618.10249 125094110.67249    -12578.10249        49.000  
  22557549.81249 118540724.02349     -4687.53949        50.000  
 16 04 02 14 31 46.7000000  0  3G05G04G21                                       
  22032958.35249 115783975.74249     -9024.70349        50.000  
  23804857.46949 125095368.52049    -12579.82049        49.000  
  22557639.03949 118541192.92249     -4690.97749        50.000  
 16 04 02 14 31 46.8000000  0  3G05G04G21                                       
  22033130.14849 115784878.53549     -9030.80949        50.000  
  23805096.88349 125096626.63749    -12582.32049        49.000  
  22557728.35249 118541662.23849     -4695.20349        50.000  
 16 04 02 14 31 46.9000000  0  3G05G04G21                                       
  22033302.05549 115785781.91849     -9036.78949        50.000  
  23805336.34449 125097884.98049    -12584.78949        49.000  
  22557817.73449 118542131.95749     -4699.32049        50.000  
 16 04 02 14 31 47.0000000  0  3G05G04G21                                       
  22033474.05549 115786685.78149     -9041.45749        50.000  
  23805575.82049 125099143.45749    -12585.94149        49.000  
  22557907.18049 118542601.97349     -4702.08249        50.000  
 16 04 02 14 31 47.1000000  0  3G05G04G21                                       
  22033646.17249 115787590.26649     -9047.35549        50.000  
  23805815.35949 125100402.19549    -12588.23049        49.000  
  22557996.70349 118543072.40249     -4705.97749        50.000  
 16 04 02 14 31 47.2000000  0  3G05G04G21                                       
  22033818.39149 115788495.28149     -9053.02049        50.000  
  23806054.92249 125101661.10549    -12590.35549        49.000  
  22558086.28949 118543543.19149     -4709.73849        50.000  
 16 04 02 14 31 47.3000000  0  3G05G04G21                                       
  22033990.72749 115789400.89549     -9058.87149        50.000  
  23806294.53149 125102920.26249    -12592.55949        49.000  
  22558175.95349 118544014.38349     -4713.73849        50.000  
 16 04 02 14 31 47.4000000  0  3G05G04G21                                       
  22034163.15649 115790307.00849     -9064.10949        50.000  
  23806534.16449 125104179.55949    -12594.35249        49.000  
  22558265.68049 118544485.88349     -4717.07049        50.000  
 16 04 02 14 31 47.5000000  0  3G05G04G21                                       
  22034335.69549 115791213.70349     -9069.79749        50.000  
  23806773.84449 125105439.08649    -12596.56649        49.000  
  22558355.47749 118544957.78949     -4721.05149        50.000  
 16 04 02 14 31 47.6000000  0  3G05G04G21                                       
  22034508.35249 115792121.03149     -9076.02749        50.000  
  23807013.57849 125106698.89549    -12599.32449        49.000  
  22558445.36749 118545430.12549     -4725.37149        50.000  
 16 04 02 14 31 47.7000000  0  3G05G04G21                                       
  22034681.10249 115793028.82849     -9080.65249        50.000  
  23807253.34449 125107958.80949    -12600.23449        49.000  
  22558535.29749 118545902.74649     -4728.02349        50.000  
 16 04 02 14 31 47.8000000  0  3G05G04G21                                       
  22034853.96149 115793937.22349     -9086.63349        50.000  
  23807493.14149 125109218.95749    -12602.50049        49.000  
  22558625.31249 118546375.76649     -4731.98849        50.000  
 16 04 02 14 31 47.9000000  0  3G05G04G21                                       
  22035026.91449 115794846.13749     -9091.85249        50.000  
  23807732.96949 125110479.28149    -12604.34449        49.000  
  22558715.39149 118546849.12149     -4735.48449        50.000  
 16 04 02 14 31 48.0000000  0  3G05G04G21                                       
  22035199.99249 115795755.66049     -9097.93049        50.000  
  23807972.85249 125111739.86349    -12606.84849        49.000  
  22558805.54749 118547322.89849     -4739.59049        50.000  
 16 04 02 14 31 48.1000000  0  3G05G04G21                                       
  22035373.18049 115796665.77349     -9103.93849        50.000  
  23808212.77349 125113000.67649    -12609.16049        49.000  
  22558895.78149 118547797.09049     -4743.81249        50.000  
 16 04 02 14 31 48.2000000  0  3G05G04G21                                       
  22035546.46149 115797576.37149     -9109.00049        50.000  
  23808452.71949 125114261.59849    -12610.64549        49.000  
  22558986.07049 118548271.53949     -4746.64549        50.000  
 16 04 02 14 31 48.3000000  0  3G05G04G21                                       
  22035719.85949 115798487.57449     -9114.68049        50.000  
  23808692.71949 125115522.80149    -12613.00049        49.000  
  22559076.43849 118548746.44549     -4750.85949        50.000  
 16 04 02 14 31 48.4000000  0  3G05G04G21                                       
  22035893.35949 115799399.30949     -9120.23849        50.000  
  23808932.75049 125116784.16849    -12614.91049        49.000  
  22559166.87549 118549221.67249     -4754.32449        50.000  
 16 04 02 14 31 48.5000000  0  3G05G04G21                                       
  22036066.96949 115800311.64149     -9126.02349        50.000  
  23809172.82049 125118045.77049    -12616.91049        49.000  
  22559257.38349 118549697.30949     -4758.09049        50.000  
 16 04 02 14 31 48.6000000  0  3G05G04G21                                       
  22036240.68049 115801224.48049     -9131.43449        50.000  
  23809412.93049 125119307.54349    -12619.19149        49.000  
  22559347.95349 118550173.27749     -4761.70349        50.000  
 16 04 02 14 31 48.7000000  0  3G05G04G21                                       
  22036414.50049 115802137.92249     -9136.99249        50.000  
  23809653.07849 125120569.53549    -12620.82449        49.000  
  22559438.60949 118550649.64849     -4765.35249        50.000  
 16 04 02 14 31 48.8000000  0  3G05G04G21                                       
  22036588.42249 115803051.88349     -9142.40649        50.000  
  23809893.26649 125121831.71549    -12622.94149        49.000  
  22559529.32049 118551126.36349     -4769.08649        50.000  
 16 04 02 14 31 48.9000000  0  3G05G04G21                                       
  22036762.46149 115803966.46949     -9148.71949        50.000  
  23810133.50049 125123094.14849    -12625.68849        49.000  
  22559620.10949 118551603.48849     -4773.35249        50.000  
 16 04 02 14 31 49.0000000  0  3G05G04G21                                       
  22036936.61749 115804881.67249     -9154.93849        50.000  
  23810373.78949 125124356.85949    -12628.29749        49.000  
  22559710.99249 118552081.05949     -4777.73849        50.000  
 16 04 02 14 31 49.1000000  0  3G05G04G21                                       
  22037110.85949 115805797.34049     -9159.44949        50.000  
  23810614.09449 125125619.67249    -12629.32449        49.000  
  22559801.92249 118552558.90649     -4780.44149        50.000  
 16 04 02 14 31 49.2000000  0  3G05G04G21                                       
  22037285.21149 115806713.55149     -9164.68049        50.000  
  23810854.43849 125126882.66449    -12630.82049        49.000  
  22559892.92249 118553037.10549     -4783.67249        50.000  
 16 04 02 14 31 49.3000000  0  3G05G04G21                                       
  22037459.67249 115807630.33649     -9170.62949        50.000  
  23811094.81249 125128145.88349    -12633.32449        49.000  
  22559983.99249 118553515.67649     -4787.66049        50.000  
 16 04 02 14 31 49.4000000  0  3G05G04G21                                       
  22037634.23449 115808547.68849     -9176.18049        50.000  
  23811335.23449 125129409.31649    -12635.25449        49.000  
  22560075.14149 118553994.65249     -4791.43049        50.000  
 16 04 02 14 31 49.5000000  0  3G05G04G21                                       
  22037808.89849 115809465.54749     -9181.32849        50.000  
  23811575.68849 125130672.89549    -12636.90249        49.000  
  22560166.34449 118554473.92249     -4794.60949        50.000  
 16 04 02 14 31 49.6000000  0  3G05G04G21                                       
  22037983.68049 115810384.04749     -9187.81649        50.000  
  23811816.19549 125131936.76649    -12639.96149        49.000  
  22560257.63349 118554953.66449     -4799.38349        50.000  
 16 04 02 14 31 49.7000000  0  3G05G04G21                                       
  22038158.57049 115811303.10249     -9193.48049        50.000  
  23812056.74249 125133200.83249    -12642.03149        49.000  
  22560348.99249 118555433.76249     -4803.03149        50.000  
 16 04 02 14 31 49.8000000  0  3G05G04G21                                       
  22038333.56249 115812222.69949     -9198.87549        50.000  
  23812297.32049 125134465.07449    -12643.80149        49.000  
  22560440.42249 118555914.21149     -4806.57849        50.000  
 16 04 02 14 31 49.9000000  0  3G05G04G21                                       
  22038508.67249 115813142.90249     -9204.85949        50.000  
  23812537.94549 125135729.60249    -12646.37949        49.000  
  22560531.93049 118556395.09449     -4810.71549        50.000  
 16 04 02 14 31 50.0000000  0  3G05G04G21                                       
  22038683.89149 115814063.66049     -9210.46949        50.000  
  23812778.60949 125136994.29349    -12648.33649        49.000  
  22560623.50849 118556876.32049     -4814.32849        50.000  
 16 04 02 14 31 50.1000000  0  3G05G04G21                                       
  22038859.20349 115814984.94949     -9215.57849        50.000  
  23813019.31249 125138259.17649    -12649.84849        49.000  
  22560715.14849 118557357.90649     -4817.71149        50.000  
 16 04 02 14 31 50.2000000  0  3G05G04G21                                       
  22039034.62549 115815906.79349     -9221.21949        50.000  
  23813260.04749 125139524.25449    -12652.02049        49.000  
  22560806.85949 118557839.84849     -4821.35249        50.000  
 16 04 02 14 31 50.3000000  0  3G05G04G21                                       
  22039210.14849 115816829.17249     -9226.33649        50.000  
  23813500.82049 125140789.51649    -12653.44949        49.000  
  22560898.63349 118558322.14549     -4824.66449        50.000  
 16 04 02 14 31 50.4000000  0  3G05G04G21                                       
  22039385.78149 115817752.12949     -9232.44949        50.000  
  23813741.63349 125142054.98849    -12656.07449        49.000  
  22560990.48449 118558804.81649     -4828.79749        50.000  
 16 04 02 14 31 50.5000000  0  3G05G04G21                                       
  22039561.52349 115818675.66049     -9238.08249        50.000  
  23813982.48449 125143320.69549    -12658.10949        49.000  
  22561082.41449 118559287.89549     -4832.69149        50.000  
 16 04 02 14 31 50.6000000  0  3G05G04G21                                       
  22039737.37549 115819599.75849     -9243.87949        50.000  
  23814223.38349 125144586.60249    -12660.35949        49.000  
  22561174.41449 118559771.34049     -4836.44549        50.000  
 16 04 02 14 31 50.7000000  0  3G05G04G21                                       
  22039913.32849 115820524.40249     -9249.16049        50.000  
  23814464.32049 125145852.71949    -12662.19549        49.000  
  22561266.47749 118560255.14549     -4839.90249        50.000  
 16 04 02 14 31 50.8000000  0  3G05G04G21                                       
  22040089.39149 115821449.59849     -9254.71949        50.000  
  23814705.28149 125147119.01249    -12664.20349        49.000  
  22561358.60949 118560739.31249     -4843.60249        50.000  
 16 04 02 14 31 50.9000000  0  3G05G04G21                                       
  22040265.55549 115822375.38349     -9260.78549        50.000  
  23814946.29749 125148385.55149    -12666.75049        49.000  
  22561450.82849 118561223.89149     -4847.87949        50.000  
 16 04 02 14 31 51.0000000  0  3G05G04G21                                       
  22040441.83649 115823301.71949     -9266.05549        50.000  
  23815187.35249 125149652.27349    -12668.41849        49.000  
  22561543.10249 118561708.81249     -4851.00849        50.000  
 16 04 02 14 31 51.1000000  0  3G05G04G21                                       
  22040618.21949 115824228.61749     -9271.66849        50.000  
  23815428.43849 125150919.21149    -12670.43449        49.000  
  22561635.45349 118562194.11749     -4854.82849        50.000  
 16 04 02 14 31 51.2000000  0  3G05G04G21                                       
  22040794.71149 115825156.12149     -9277.89849        50.000  
  23815669.57849 125152186.40649    -12673.21149        49.000  
  22561727.88349 118562679.84449     -4859.27049        50.000  
 16 04 02 14 31 51.3000000  0  3G05G04G21                                       
  22040971.31249 115826084.15649     -9283.05149        50.000  
  23815910.75049 125153453.76649    -12674.59049        49.000  
  22561820.37549 118563165.91449     -4862.52049        50.000  
 16 04 02 14 31 51.4000000  0  3G05G04G21                                       
  22041148.01649 115827012.73849     -9288.62949        50.000  
  23816151.95349 125154721.32049    -12676.75849        49.000  
  22561912.93849 118563652.33249     -4866.12949        50.000  
 16 04 02 14 31 51.5000000  0  3G05G04G21                                       
  22041324.83649 115827941.91449     -9294.54749        50.000  
  23816393.21149 125155989.11749    -12679.15249        49.000  
  22562005.58649 118564139.17649     -4870.32449        50.000  
 16 04 02 14 31 51.6000000  0  3G05G04G21                                       
  22041501.75849 115828871.66849     -9300.44549        50.000  
  23816634.50849 125157257.12949    -12681.46549        49.000  
  22562098.29749 118564626.38749     -4874.19549        50.000  
 16 04 02 14 31 51.7000000  0  3G05G04G21                                       
  22041678.79749 115829802.00849     -9306.22349        50.000  
  23816875.84449 125158525.37549    -12683.60249        49.000  
  22562191.08649 118565114.00849     -4878.07849        50.000  
 16 04 02 14 31 51.8000000  0  3G05G04G21                                       
  22041855.94549 115830732.91449     -9311.94949        50.000  
  23817117.22749 125159793.84049    -12685.87549        49.000  
  22562283.95349 118565602.02049     -4882.11749        50.000  
 16 04 02 14 31 51.9000000  0  3G05G04G21                                       
  22042033.21149 115831664.43049     -9317.99249        50.000  
  23817358.65649 125161062.55549    -12688.35549        49.000  
  22562376.89849 118566090.43049     -4886.14849        50.000  
 16 04 02 14 31 52.0000000  0  3G05G04G21                                       
  22042210.57849 115832596.48449     -9323.35249        50.000  
  23817600.11749 125162331.44549    -12689.99649        49.000  
  22562469.89849 118566579.19549     -4889.59849        50.000  
 16 04 02 14 31 52.1000000  0  3G05G04G21                                       
  22042388.03149 115833529.03549     -9328.18449        50.000  
  23817841.60249 125163600.49249    -12691.50849        49.000  
  22562562.96949 118567068.28149     -4892.70349        50.000  
 16 04 02 14 31 52.2000000  0  3G05G04G21                                       
  22042565.60949 115834462.19949     -9334.48449        50.000  
  23818083.14149 125164869.78949    -12694.23449        49.000  
  22562656.12549 118567557.79349     -4897.03949        50.000  
 16 04 02 14 31 52.3000000  0  3G05G04G21                                       
  22042743.29749 115835395.94949     -9340.24649        50.000  
  23818324.72749 125166139.31649    -12696.35549        49.000  
  22562749.35249 118568047.69549     -4900.89549        50.000  
 16 04 02 14 31 52.4000000  0  3G05G04G21                                       
  22042921.08649 115836330.26249     -9345.96549        50.000  
  23818566.34449 125167409.05149    -12698.49649        49.000  
  22562842.64849 118568537.96549     -4904.63349        50.000  
 16 04 02 14 31 52.5000000  0  3G05G04G21                                       
  22043098.98449 115837265.10949     -9351.30149        50.000  
  23818808.00849 125168678.96549    -12700.22749        49.000  
  22562936.00849 118569028.59449     -4908.15249        50.000  
 16 04 02 14 31 52.6000000  0  3G05G04G21                                       
  22043276.99249 115838200.54349     -9357.21549        50.000  
  23819049.71149 125169949.12149    -12702.75849        49.000  
  22563029.45349 118569519.62549     -4912.35949        50.000  
 16 04 02 14 31 52.7000000  0  3G05G04G21                                       
  22043455.10949 115839136.53949     -9362.77349        50.000  
  23819291.44549 125171219.47749    -12704.70749        49.000  
  22563122.96149 118570011.03149     -4915.99649        50.000  
 16 04 02 14 31 52.8000000  0  3G05G04G21                                       
  22043633.31249 115840073.02349     -9367.61349        50.000  
  23819533.21149 125172489.96149    -12705.92249        49.000  
  22563216.53149 118570502.72349     -4918.85549        50.000  
 16 04 02 14 31 52.9000000  0  3G05G04G21                                       
  22043811.63349 115841010.06249     -9373.01649        50.000  
  23819775.01649 125173760.64849    -12708.04349        49.000  
  22563310.17249 118570994.78949     -4922.44549        50.000  
 16 04 02 14 31 53.0000000  0  3G05G04G21                                       
  22043990.05549 115841947.71549     -9379.27349        50.000  
  23820016.86749 125175031.59049    -12710.65649        49.000  
  22563403.89149 118571487.28549     -4926.91849        50.000  
 16 04 02 14 31 53.1000000  0  3G05G04G21                                       
  22044168.59449 115842885.92649     -9384.94549        50.000  
  23820258.75849 125176302.73449    -12712.58649        49.000  
  22563497.68049 118571980.14549     -4930.54349        50.000  
 16 04 02 14 31 53.2000000  0  3G05G04G21                                       
  22044347.21949 115843824.61349     -9389.64549        50.000  
  23820500.67249 125177574.01649    -12713.89549        49.000  
  22563591.52349 118572473.30149     -4933.45749        50.000  
 16 04 02 14 31 53.3000000  0  3G05G04G21                                       
  22044525.96149 115844763.91049     -9395.69149        50.000  
  23820742.64149 125178845.54749    -12716.53949        49.000  
  22563685.45349 118572966.87949     -4937.69149        50.000  
 16 04 02 14 31 53.4000000  0  3G05G04G21                                       
  22044704.82049 115845703.82849     -9402.00449        50.000  
  23820984.64849 125180117.33249    -12719.02049        49.000  
  22563779.45349 118573460.88349     -4941.96549        50.000  
 16 04 02 14 31 53.5000000  0  3G05G04G21                                       
  22044883.78149 115846644.27049     -9407.28549        50.000  
  23821226.70349 125181389.28949    -12720.77749        49.000  
  22563873.52349 118573955.22749     -4945.40249        50.000  
 16 04 02 14 31 53.6000000  0  3G05G04G21                                       
  22045062.84449 115847585.22749     -9412.21149        50.000  
  23821468.78149 125182661.41849    -12722.34049        49.000  
  22563967.66449 118574449.90649     -4948.50449        50.000  
 16 04 02 14 31 53.7000000  0  3G05G04G21                                       
  22045242.01649 115848526.78549     -9418.46149        50.000  
  23821710.90649 125183933.78149    -12724.95749        49.000  
  22564061.87549 118574944.99649     -4952.94149        50.000  
 16 04 02 14 31 53.8000000  0  3G05G04G21                                       
  22045421.30549 115849468.97749     -9424.75049        50.000  
  23821953.08649 125185206.43449    -12727.63349        49.000  
  22564156.18049 118575440.52749     -4957.30149        50.000  
 16 04 02 14 31 53.9000000  0  3G05G04G21                                       
  22045600.69549 115850411.65649     -9429.58649        50.000  
  23822195.28949 125186479.21549    -12728.97749        49.000  
  22564250.53149 118575936.36749     -4960.25449        50.000  
 16 04 02 14 31 54.0000000  0  3G05G04G21                                       
  22045780.18049 115851354.85949     -9434.89149        50.000  
  23822437.52349 125187752.15249    -12730.61749        49.000  
  22564344.94549 118576432.52749     -4963.59849        50.000  
 16 04 02 14 31 54.1000000  0  3G05G04G21                                       
  22045959.78149 115852298.65649     -9440.84049        50.000  
  23822679.80549 125189025.34449    -12733.12949        49.000  
  22564439.44549 118576929.10949     -4967.81249        50.000  
 16 04 02 14 31 54.2000000  0  3G05G04G21                                       
  22046139.48449 115853243.02049     -9446.38349        50.000  
  23822922.12549 125190298.74649    -12734.92249        49.000  
  22564534.00849 118577426.06649     -4971.32849        50.000  
 16 04 02 14 31 54.3000000  0  3G05G04G21                                       
  22046319.29749 115854187.90649     -9451.66849        50.000  
  23823164.47749 125191572.31649    -12736.97349        49.000  
  22564628.64149 118577923.36749     -4974.98049        50.000  
 16 04 02 14 31 54.4000000  0  3G05G04G21                                       
  22046499.20349 115855133.32049     -9456.74649        50.000  
  23823406.85949 125192846.04349    -12738.26649        49.000  
  22564723.33649 118578420.99249     -4978.03949        50.000  
 16 04 02 14 31 54.5000000  0  3G05G04G21                                       
  22046679.21949 115856079.31649     -9462.81649        50.000  
  23823649.28949 125194120.02349    -12741.05549        49.000  
  22564818.10949 118578919.03149     -4982.34449        50.000  
 16 04 02 14 31 54.6000000  0  3G05G04G21                                       
  22046859.34449 115857025.90249     -9468.55549        50.000  
  23823891.75849 125195394.22349    -12742.96549        49.000  
  22564912.96149 118579417.45749     -4986.13349        50.000  
 16 04 02 14 31 54.7000000  0  3G05G04G21                                       
  22047039.57849 115857973.01649     -9473.93849        50.000  
  23824134.26649 125196668.59849    -12744.90649        49.000  
  22565007.87549 118579916.23849     -4989.68049        50.000  
 16 04 02 14 31 54.8000000  0  3G05G04G21                                       
  22047219.91449 115858920.71549     -9479.80949        50.000  
  23824376.81249 125197943.20749    -12747.30549        49.000  
  22565102.86749 118580415.40649     -4993.65649        50.000  
 16 04 02 14 31 54.9000000  0  3G05G04G21                                       
  22047400.35249 115859868.92649     -9484.85549        50.000  
  23824619.39149 125199217.96949    -12748.72749        49.000  
  22565197.91449 118580914.89849     -4996.84449        50.000  
 16 04 02 14 31 55.0000000  0  3G05G04G21                                       
  22047580.90649 115860817.73449     -9490.75849        50.000  
  23824862.01649 125200492.96949    -12751.12949        49.000  
  22565293.04749 118581414.81249     -5000.97749        50.000  
 16 04 02 14 31 55.1000000  0  3G05G04G21                                       
  22047761.57049 115861767.12149     -9496.59849        50.000  
  23825104.68849 125201768.20749    -12753.39149        49.000  
  22565388.25049 118581915.10949     -5004.89149        50.000  
 16 04 02 14 31 55.2000000  0  3G05G04G21                                       
  22047942.32849 115862717.02749     -9501.82849        50.000  
  23825347.38349 125203043.59849    -12755.10249        49.000  
  22565483.51649 118582415.74249     -5008.23849        50.000  
 16 04 02 14 31 55.3000000  0  3G05G04G21                                       
  22048123.20349 115863667.52749     -9507.75449        50.000  
  23825590.13349 125204319.23849    -12757.58649        49.000  
  22565578.85949 118582916.77749     -5012.31649        50.000  
 16 04 02 14 31 55.4000000  0  3G05G04G21                                       
  22048304.18849 115864618.59449     -9513.32849        50.000  
  23825832.91449 125205595.08249    -12759.36349        49.000  
  22565674.28149 118583418.19949     -5016.03549        50.000  
 16 04 02 14 31 55.5000000  0  3G05G04G21                                       
  22048485.26649 115865570.19149     -9518.95349        50.000  
  23826075.73449 125206871.09849    -12761.66449        49.000  
  22565769.75849 118583919.94949     -5019.69949        50.000  
 16 04 02 14 31 55.6000000  0  3G05G04G21                                       
  22048666.46149 115866522.37549     -9524.64849        50.000  
  23826318.60249 125208147.35949    -12763.79749        49.000  
  22565865.32049 118584422.12149     -5023.61749        50.000  
 16 04 02 14 31 55.7000000  0  3G05G04G21                                       
  22048847.77349 115867475.16449     -9530.63349        50.000  
  23826561.50849 125209423.86349    -12766.21149        49.000  
  22565960.95349 118584924.69949     -5027.62149        50.000  
 16 04 02 14 31 55.8000000  0  3G05G04G21                                       
  22049029.17249 115868428.44149     -9535.58649        50.000  
  23826804.44549 125210700.50049    -12767.53149        49.000  
  22566056.64849 118585427.58649     -5030.78949        50.000  
 16 04 02 14 31 55.9000000  0  3G05G04G21                                       
  22049210.67249 115869382.23849     -9540.73049        50.000  
  23827047.41449 125211977.29749    -12769.10549        49.000  
  22566152.40649 118585930.79749     -5034.03549        50.000  
 16 04 02 14 31 56.0000000  0  3G05G04G21                                       
  22049392.30549 115870336.68849     -9547.37549        50.000  
  23827290.43849 125213254.39849    -12772.14849        49.000  
  22566248.25049 118586434.47749     -5038.72749        50.000  
 16 04 02 14 31 56.1000000  0  3G05G04G21                                       
  22049574.01649 115871291.61349     -9552.01649        50.000  
  23827533.49249 125214531.63349    -12773.40649        49.000  
  22566344.15649 118586938.45349     -5041.56249        50.000  
 16 04 02 14 31 56.2000000  0  3G05G04G21                                       
  22049755.84449 115872247.11749     -9557.67249        50.000  
  23827776.57849 125215809.06649    -12775.43849        49.000  
  22566440.13349 118587442.81649     -5045.43449        50.000  
 16 04 02 14 31 56.3000000  0  3G05G04G21                                       
  22049937.78949 115873203.24649     -9564.14549        50.000  
  23828019.71949 125217086.78949    -12778.35249        49.000  
  22566536.19549 118587947.62549     -5050.03149        50.000  
 16 04 02 14 31 56.4000000  0  3G05G04G21                                       
  22050119.83649 115874159.89149     -9569.30949        50.000  
  23828262.89149 125218364.67249    -12780.07049        49.000  
  22566632.32049 118588452.74649     -5053.34849        50.000  
 16 04 02 14 31 56.5000000  0  3G05G04G21                                       
  22050301.97749 115875117.06649     -9574.43449        50.000  
  23828506.10249 125219642.72349    -12781.59049        49.000  
  22566728.50849 118588958.23449     -5056.65649        50.000  
 16 04 02 14 31 56.6000000  0  3G05G04G21                                       
  22050484.22749 115876074.79349     -9579.92249        50.000  
  23828749.34449 125220920.97349    -12783.48049        49.000  
  22566824.76649 118589464.06649     -5060.14149        50.000  
 16 04 02 14 31 56.7000000  0  3G05G04G21                                       
  22050666.58649 115877033.11749     -9586.14549        50.000  
  23828992.63349 125222199.46549    -12786.19549        49.000  
  22566921.10249 118589970.32449     -5064.54349        50.000  
 16 04 02 14 31 56.8000000  0  3G05G04G21                                       
  22050849.06249 115877992.01649     -9591.75849        50.000  
  23829235.96949 125223478.17649    -12788.07449        49.000  
  22567017.51649 118590476.95349     -5068.24649        50.000  
 16 04 02 14 31 56.9000000  0  3G05G04G21                                       
  22051031.62549 115878951.40649     -9596.94949        50.000  
  23829479.32849 125224757.03149    -12789.97349        49.000  
  22567113.98449 118590983.90649     -5071.70749        50.000  
 16 04 02 14 31 57.0000000  0  3G05G04G21                                       
  22051214.31249 115879911.43449     -9603.00049        50.000  
  23829722.73449 125226036.17249    -12792.47749        49.000  
  22567210.53949 118591491.30549     -5075.84449        50.000  
 16 04 02 14 31 57.1000000  0  3G05G04G21                                       
  22051397.10249 115880871.97749     -9608.28149        50.000  
  23829966.18049 125227315.45749    -12794.09449        49.000  
  22567307.15649 118591999.03149     -5079.22349        50.000  
 16 04 02 14 31 57.2000000  0  3G05G04G21                                       
  22051579.98449 115881833.04749     -9613.44149        50.000  
  23830209.65649 125228594.93049    -12795.73849        49.000  
  22567403.84449 118592507.09849     -5082.46549        50.000  
 16 04 02 14 31 57.3000000  0  3G05G04G21                                       
  22051762.97749 115882794.65649     -9618.70749        50.000  
  23830453.16449 125229874.58249    -12797.42249        49.000  
  22567500.59449 118593015.52349     -5085.93449        50.000  
 16 04 02 14 31 57.4000000  0  3G05G04G21                                       
  22051946.06249 115883756.80949     -9624.17649        50.000  
  23830696.70349 125231154.41849    -12799.39149        49.000  
  22567597.40649 118593524.29749     -5089.58649        50.000  
 16 04 02 14 31 57.5000000  0  3G05G04G21                                       
  22052129.26649 115884719.55949     -9630.39549        50.000  
  23830940.30549 125232434.52049    -12802.23449        49.000  
  22567694.30549 118594033.49249     -5093.91849        50.000  
 16 04 02 14 31 57.6000000  0  3G05G04G21                                       
  22052312.57849 115885682.85249     -9635.65649        50.000  
  23831183.93049 125233714.78549    -12803.82849        49.000  
  22567791.26649 118594543.03949     -5097.41049        50.000  
 16 04 02 14 31 57.7000000  0  3G05G04G21                                       
  22052495.99249 115886646.71549     -9641.36349        50.000  
  23831427.60249 125234995.27049    -12805.98049        49.000  
  22567888.30549 118595052.95749     -5101.04749        50.000  
 16 04 02 14 31 57.8000000  0  3G05G04G21                                       
  22052679.53149 115887611.19149     -9647.59049        50.000  
  23831671.31249 125236276.01249    -12808.62549        49.000  
  22567985.43049 118595563.32449     -5105.56249        50.000  
 16 04 02 14 31 57.9000000  0  3G05G04G21                                       
  22052863.16449 115888576.20749     -9652.94149        50.000  
  23831915.07049 125237556.95749    -12810.60249        49.000  
  22568082.60949 118596074.04349     -5109.24249        50.000  
 16 04 02 14 31 58.0000000  0  3G05G04G21                                       
  22053046.89849 115889541.71949     -9657.84449        50.000  
  23832158.85249 125238838.02749    -12811.76249        49.000  
  22568179.85949 118596585.05549     -5112.03949        50.000  
 16 04 02 14 31 58.1000000  0  3G05G04G21                                       
  22053230.73449 115890507.78149     -9663.19949        50.000  
  23832402.66449 125240119.29749    -12813.64549        49.000  
  22568277.17249 118597096.44149     -5115.69549        50.000  
 16 04 02 14 31 58.2000000  0  3G05G04G21                                       
  22053414.68049 115891474.44149     -9669.37949        50.000  
  23832646.53149 125241400.80949    -12816.38749        49.000  
  22568374.56249 118597608.23849     -5119.82449        50.000  
 16 04 02 14 31 58.3000000  0  3G05G04G21                                       
  22053598.74249 115892441.67649     -9675.23849        50.000  
  23832890.43849 125242682.54349    -12818.58649        49.000  
  22568472.03149 118598120.43449     -5123.87949        50.000  
 16 04 02 14 31 58.4000000  0  3G05G04G21                                       
  22053782.90649 115893409.50049     -9681.06249        50.000  
  23833134.39149 125243964.52049    -12821.00449        49.000  
  22568569.57049 118598633.02049     -5127.89149        50.000  
 16 04 02 14 31 58.5000000  0  3G05G04G21                                       
  22053967.18049 115894377.86349     -9686.21549        50.000  
  23833378.38349 125245246.67649    -12822.35549        49.000  
  22568667.18849 118599145.97349     -5131.16849        50.000  
 16 04 02 14 31 58.6000000  0  3G05G04G21                                       
  22054151.54749 115895346.71149     -9691.22349        50.000  
  23833622.39149 125246528.95349    -12823.96549        49.000  
  22568764.85249 118599659.21549     -5134.28949        50.000  
 16 04 02 14 31 58.7000000  0  3G05G04G21                                       
  22054336.03949 115896316.21549     -9697.78949        50.000  
  23833866.46949 125247811.53549    -12826.91849        49.000  
  22568862.60249 118600172.91449     -5138.91449        50.000  
 16 04 02 14 31 58.8000000  0  3G05G04G21                                       
  22054520.62549 115897286.23049     -9703.03949        50.000  
  23834110.56249 125249094.28949    -12828.70749        49.000  
  22568960.42249 118600686.96149     -5142.39549        50.000  
 16 04 02 14 31 58.9000000  0  3G05G04G21                                       
  22054705.31249 115898256.78549     -9708.33649        50.000  
  23834354.70349 125250377.21549    -12830.48049        49.000  
  22569058.31249 118601201.36749     -5145.94949        50.000  
 16 04 02 14 31 59.0000000  0  3G05G04G21                                       
  22054890.10949 115899227.91049     -9713.95749        50.000  
  23834598.87549 125251660.36349    -12832.71549        49.000  
  22569156.26649 118601716.14149     -5149.62149        50.000  
 16 04 02 14 31 59.1000000  0  3G05G04G21                                       
  22055075.03149 115900199.62949     -9719.77749        50.000  
  23834843.09449 125252943.75049    -12834.79349        49.000  
  22569254.30549 118602231.33649     -5153.72349        50.000  
 16 04 02 14 31 59.2000000  0  3G05G04G21                                       
  22055260.04749 115901171.90649     -9725.74249        50.000  
  23835087.35249 125254227.33649    -12837.20349        49.000  
  22569352.41449 118602746.88349     -5157.58649        50.000  
 16 04 02 14 31 59.3000000  0  3G05G04G21                                       
  22055445.17249 115902144.75449     -9731.18049        50.000  
  23835331.64849 125255511.14149    -12839.19149        49.000  
  22569450.59449 118603262.83249     -5161.44149        50.000  
 16 04 02 14 31 59.4000000  0  3G05G04G21                                       
  22055630.39849 115903118.12549     -9736.44549        50.000  
  23835575.98449 125256795.11349    -12840.92649        49.000  
  22569548.84449 118603779.11349     -5164.62949        50.000  
 16 04 02 14 31 59.5000000  0  3G05G04G21                                       
  22055815.73449 115904092.05549     -9741.94149        50.000  
  23835820.35249 125258079.28949    -12842.70749        49.000  
  22569647.15649 118604295.77349     -5168.32449        50.000  
 16 04 02 14 31 59.6000000  0  3G05G04G21                                       
  22056001.17249 115905066.53549     -9747.68849        50.000  
  23836064.76649 125259363.66849    -12845.02749        49.000  
  22569745.54749 118604812.80549     -5172.30949        50.000  
 16 04 02 14 31 59.7000000  0  3G05G04G21                                       
  22056186.72749 115906041.62949     -9753.61749        50.000  
  23836309.22749 125260648.31249    -12847.50049        49.000  
  22569844.01649 118605330.24249     -5176.36349        50.000  
 16 04 02 14 31 59.8000000  0  3G05G04G21                                       
  22056372.37549 115907017.22749     -9758.77349        50.000  
  23836553.71149 125261933.08649    -12848.99649        49.000  
  22569942.53949 118605848.00849     -5179.65649        50.000  
 16 04 02 14 31 59.9000000  0  3G05G04G21                                       
  22056558.13349 115907993.37549     -9764.05949        50.000  
  23836798.24249 125263218.07049    -12850.74649        49.000  
  22570041.14149 118606366.16049     -5183.27349        50.000  
 16 04 02 14 32  0.0000000  0  3G05G04G21                                       
  22056744.00049 115908970.12549     -9770.32049        50.000  
  23837042.81249 125264503.30149    -12853.53949        49.000  
  22570139.81249 118606884.69949     -5187.34449        50.000  
 16 04 02 14 32  0.1000000  0  3G05G04G21                                       
  22056929.99249 115909947.50849     -9776.74249        50.000  
  23837287.43849 125265788.80149    -12856.19549        49.000  
  22570238.57849 118607403.69949     -5192.03149        50.000  
 16 04 02 14 32  0.2000000  0  3G05G04G21                                       
  22057116.07049 115910925.36749     -9781.34049        50.000  
  23837532.08649 125267074.43449    -12857.43049        49.000  
  22570337.39849 118607922.98849     -5194.77349        50.000  
 16 04 02 14 32  0.3000000  0  3G05G04G21                                       
  22057302.25849 115911903.78149     -9786.69949        50.000  
  23837776.77349 125268360.26249    -12859.17649        49.000  
  22570436.28149 118608442.65249     -5198.28949        50.000  
 16 04 02 14 32  0.4000000  0  3G05G04G21                                       
  22057488.54749 115912882.70749     -9792.01649        50.000  
  23838021.48449 125269646.25449    -12861.08649        49.000  
  22570535.23449 118608962.63749     -5201.81649        50.000  
 16 04 02 14 32  0.5000000  0  3G05G04G21                                       
  22057674.94549 115913862.25849     -9798.25849        50.000  
  23838266.25849 125270932.50849    -12863.66449        49.000  
  22570634.26649 118609483.06249     -5206.21549        50.000  
 16 04 02 14 32  0.6000000  0  3G05G04G21                                       
  22057861.46149 115914842.40249     -9804.43449        50.000  
  23838511.07049 125272219.01249    -12866.24249        49.000  
  22570733.38349 118610003.89849     -5210.35549        50.000  
 16 04 02 14 32  0.7000000  0  3G05G04G21                                       
  22058048.07849 115915823.05949     -9809.55949        50.000  
  23838755.91449 125273505.66449    -12867.96549        49.000  
  22570832.55549 118610525.05949     -5213.74649        50.000  
 16 04 02 14 32  0.8000000  0  3G05G04G21                                       
  22058234.79749 115916804.29349     -9814.96149        50.000  
  23839000.80549 125274792.55549    -12869.71949        49.000  
  22570931.80549 118611046.61749     -5217.30949        50.000  
 16 04 02 14 32  0.9000000  0  3G05G04G21                                       
  22058421.62549 115917786.08649     -9820.80549        50.000  
  23839245.72749 125276079.63349    -12872.25849        49.000  
  22571031.12549 118611568.54349     -5221.37549        50.000  
 16 04 02 14 32  1.0000000  0  3G05G04G21                                       
  22058608.56249 115918768.42249     -9825.94149        50.000  
  23839490.68849 125277366.90249    -12873.55949        49.000  
  22571130.51649 118612090.83649     -5224.64549        50.000  
 16 04 02 14 32  1.1000000  0  3G05G04G21                                       
  22058795.60249 115919751.29749     -9831.51249        50.000  
  23839735.68849 125278654.37549    -12875.76249        49.000  
  22571229.96949 118612613.47749     -5228.44949        50.000  
 16 04 02 14 32  1.2000000  0  3G05G04G21                                       
  22058982.73449 115920734.72349     -9836.92249        50.000  
  23839980.71949 125279942.01649    -12877.43449        49.000  
  22571329.49249 118613136.48049     -5231.86749        50.000  
 16 04 02 14 32  1.3000000  0  3G05G04G21                                       
  22059169.98449 115921718.71549     -9842.54749        50.000  
  23840225.79749 125281229.90649    -12879.77749        49.000  
  22571429.09449 118613659.87149     -5235.58249        50.000  
 16 04 02 14 32  1.4000000  0  3G05G04G21                                       
  22059357.32049 115922703.17649     -9847.41049        50.000  
  23840470.88349 125282517.87549    -12880.98849        49.000  
  22571528.74249 118614183.55549     -5238.83649        50.000  
 16 04 02 14 32  1.5000000  0  3G05G04G21                                       
  22059544.77349 115923688.25449     -9853.66449        50.000  
  23840716.03149 125283806.12549    -12883.81649        49.000  
  22571628.47749 118614707.64549     -5242.94549        50.000  
 16 04 02 14 32  1.6000000  0  3G05G04G21                                       
  22059732.34449 115924673.94149     -9859.57049        50.000  
  23840961.23449 125285094.63749    -12886.09449        49.000  
  22571728.29749 118615232.19149     -5247.23849        50.000  
 16 04 02 14 32  1.7000000  0  3G05G04G21                                       
  22059920.00849 115925660.10949     -9864.49649        50.000  
  23841206.44549 125286383.25049    -12887.44149        49.000  
  22571828.16449 118615757.00049     -5250.15649        50.000  
 16 04 02 14 32  1.8000000  0  3G05G04G21                                       
  22060107.78149 115926646.87149     -9870.30549        50.000  
  23841451.71149 125287672.12149    -12889.71149        49.000  
  22571928.11749 118616282.24649     -5254.21949        50.000  
 16 04 02 14 32  1.9000000  0  3G05G04G21                                       
  22060295.65649 115927634.17249     -9875.92249        50.000  
  23841697.00849 125288961.18049    -12891.75049        49.000  
  22572028.13349 118616807.84049     -5257.95749        50.000  
