     2.10           Observation         G (GPS)             RINEX VERSION / TYPE
novaRinex v2.1 9/07 ARL:UT/GPSTk        20160822 210040 UTC PGM / RUN BY / DATE
                                                            MARKER NAME
                    ARL:UT/GPSTk                            OBSERVER / AGENCY
                    Novatel             OEM4                REC # / TYPE / VERS
                                                            ANT # / TYPE
        0.0000        0.0000        0.0000                  APPROX POSITION XYZ
        0.0000        0.0000        0.0000                  ANTENNA: DELTA H/E/N
     1     1                                                WAVELENGTH FACT L1/2
     4    C1    L1    D1    S1                              # / TYPES OF OBSERV
     0.100                                                  INTERVAL
  2016     4     2    12     0   37.0000000                 TIME OF FIRST OBS
  2016     4     2    13    21    8.6000000                 TIME OF LAST OBS
Created by GPSTK program novaRinex v2.1 9/072016/08/22 21:00COMMENT
    13                                                      # OF SATELLITES
   G01     1     1     1     1                              PRN / # OF OBS
   G03     1     1     1     1                              PRN / # OF OBS
   G04   319   319   319   319                              PRN / # OF OBS
   G09     2     2     2     2                              PRN / # OF OBS
   G11     2     2     2     2                              PRN / # OF OBS
   G12    12    12    12    12                              PRN / # OF OBS
   G13     9     9     9     9                              PRN / # OF OBS
   G15   318   318   318   318                              PRN / # OF OBS
   G16     2     2     2     2                              PRN / # OF OBS
   G19   324   324   324   324                              PRN / # OF OBS
   G20    10    10    10    10                              PRN / # OF OBS
   G24   319   319   319   319                              PRN / # OF OBS
   G29     4     4     4     4                              PRN / # OF OBS
                                                            END OF HEADER
 16  4  2 12  0 37.0000000  0  2G01G11
  22473741.000   118100305.770        4144.871          48.000  
  20733176.648   108953577.660        3708.375          50.000  
 16  4  2 12  0 37.1000000  0  2G11G24
  20733106.102   108953206.934        3705.695          50.000  
  22968761.711   120701656.855       -1342.484          48.000  
 16  4  2 12  0 37.2000000  0  1G24
  22968787.273   120701791.184       -1344.484          48.000  
 16  4  2 12  0 37.3000000  0  1G24
  22968812.883   120701925.758       -1347.488          48.000  
 16  4  2 12  0 37.4000000  0  1G24
  22968838.547   120702060.648       -1350.277          48.000  
 16  4  2 12  0 37.5000000  0  1G24
  22968864.281   120702195.797       -1353.047          48.000  
 16  4  2 12  0 37.6000000  0  1G24
  22968890.055   120702331.258       -1356.477          48.000  
 16  4  2 12  0 37.7000000  0  1G24
  22968915.914   120702467.062       -1359.676          48.000  
 16  4  2 12  0 37.8000000  0  1G24
  22968941.812   120702603.160       -1362.664          48.000  
 16  4  2 12  0 37.9000000  0  1G24
  22968967.766   120702739.594       -1365.961          48.000  
 16  4  2 12  0 38.0000000  0  1G24
  22968993.789   120702876.332       -1368.973          48.000  
 16  4  2 12  0 38.1000000  0  1G24
  22969019.852   120703013.352       -1372.023          48.000  
 16  4  2 12  0 38.2000000  0  1G24
  22969045.984   120703150.684       -1374.730          48.000  
 16  4  2 12  0 38.3000000  0  1G24
  22969072.180   120703288.340       -1378.008          48.000  
 16  4  2 12  0 38.4000000  0  1G24
  22969098.430   120703426.277       -1381.195          48.000  
 16  4  2 12  0 38.5000000  0  1G24
  22969124.773   120703564.605       -1385.281          48.000  
 16  4  2 12  0 38.6000000  0  1G24
  22969151.156   120703703.230       -1387.844          48.000  
 16  4  2 12  0 38.7000000  0  1G24
  22969177.570   120703842.117       -1390.477          48.000  
 16  4  2 12  0 38.8000000  0  1G24
  22969204.070   120703981.355       -1394.012          48.000  
 16  4  2 12  0 38.9000000  0  1G24
  22969230.609   120704120.855       -1396.570          48.000  
 16  4  2 12  0 39.0000000  0  1G24
  22969257.227   120704260.734       -1400.414          48.000  
 16  4  2 12  0 39.1000000  0  1G24
  22969283.922   120704400.941       -1403.758          48.000  
 16  4  2 12  0 39.2000000  0  1G24
  22969310.656   120704541.461       -1407.105          48.000  
 16  4  2 12  0 39.3000000  0  1G24
  22969337.453   120704682.262       -1409.375          48.000  
 16  4  2 12  0 39.4000000  0  1G24
  22969364.305   120704823.359       -1412.633          48.000  
 16  4  2 12  0 39.5000000  0  1G24
  22969391.234   120704964.836       -1416.367          48.000  
 16  4  2 12  0 39.6000000  0  1G24
  22969418.203   120705106.578       -1419.047          48.000  
 16  4  2 12  0 39.7000000  0  1G24
  22969445.234   120705248.574       -1421.566          48.000  
 16  4  2 12  0 39.8000000  0  1G24
  22969472.320   120705390.926       -1425.102          48.000  
 16  4  2 12  0 39.9000000  0  1G24
  22969499.477   120705533.598       -1428.445          48.000  
 16  4  2 12  0 40.0000000  0  1G24
  22969526.695   120705676.617       -1431.805          48.000  
 16  4  2 12  0 40.1000000  0  1G24
  22969553.953   120705819.891       -1434.277          48.000  
 16  4  2 12  0 40.2000000  0  1G24
  22969581.281   120705963.465       -1437.156          48.000  
 16  4  2 12  0 40.3000000  0  1G24
  22969608.656   120706107.316       -1439.809          48.000  
 16  4  2 12  0 40.4000000  0  1G24
  22969636.094   120706251.508       -1443.516          48.000  
 16  4  2 12  0 40.5000000  0  1G24
  22969663.570   120706395.953       -1446.270          48.000  
 16  4  2 12  0 40.6000000  0  1G24
  22969691.133   120706540.789       -1449.809          48.000  
 16  4  2 12  0 40.7000000  0  1G24
  22969718.758   120706685.859       -1452.289          48.000  
 16  4  2 12  0 40.8000000  0  1G24
  22969746.422   120706831.258       -1455.508          48.000  
 16  4  2 12  0 40.9000000  0  1G24
  22969774.172   120706976.988       -1459.344          48.000  
 16  4  2 12  0 41.0000000  0  1G24
  22969801.961   120707123.031       -1461.930          48.000  
 16  4  2 12  0 41.1000000  0  1G24
  22969829.797   120707269.336       -1464.742          48.000  
 16  4  2 12  0 41.2000000  0  1G24
  22969857.703   120707415.977       -1467.938          48.000  
 16  4  2 12  0 41.3000000  0  1G24
  22969885.688   120707562.926       -1471.301          48.000  
 16  4  2 12  0 41.4000000  0  1G24
  22969913.719   120707710.211       -1474.473          48.000  
 16  4  2 12  0 41.5000000  0  1G24
  22969941.789   120707857.789       -1477.375          48.000  
 16  4  2 12  0 41.6000000  0  1G24
  22969969.922   120708005.656       -1480.281          48.000  
 16  4  2 12  0 41.7000000  0  1G24
  22969998.133   120708153.812       -1483.113          48.000  
 16  4  2 12  0 41.8000000  0  1G24
  22970026.391   120708302.324       -1486.594          48.000  
 16  4  2 12  0 41.9000000  0  1G24
  22970054.695   120708451.082       -1489.203          48.000  
 16  4  2 12  0 42.0000000  0  1G24
  22970083.062   120708600.156       -1492.305          48.000  
 16  4  2 12  0 42.1000000  0  1G24
  22970111.516   120708749.578       -1496.039          48.000  
 16  4  2 12  0 42.2000000  0  1G24
  22970140.008   120708899.297       -1498.762          48.000  
 16  4  2 12  0 42.3000000  0  1G24
  22970168.562   120709049.312       -1501.500          48.000  
 16  4  2 12  0 42.4000000  0  1G24
  22970197.156   120709199.578       -1504.180          48.000  
 16  4  2 12  0 42.5000000  0  1G24
  22970225.820   120709350.176       -1507.469          48.000  
 16  4  2 12  0 42.6000000  0  1G24
  22970254.539   120709501.098       -1510.879          48.000  
 16  4  2 12  0 42.7000000  0  1G24
  22970283.312   120709652.363       -1514.477          48.000  
 16  4  2 12  0 42.8000000  0  1G24
  22970312.164   120709803.957       -1517.699          48.000  
 16  4  2 12  0 42.9000000  0  1G24
  22970341.070   120709955.848       -1520.523          48.000  
 16  4  2 12  0 43.0000000  0  1G24
  22970370.023   120710107.996       -1522.992          48.000  
 16  4  2 12  0 43.1000000  0  1G24
  22970399.016   120710260.434       -1525.945          48.000  
 16  4  2 12  0 43.2000000  0  1G24
  22970428.086   120710413.203       -1529.062          48.000  
 16  4  2 12  0 43.3000000  0  1G24
  22970457.211   120710566.285       -1532.430          48.000  
 16  4  2 12  0 43.4000000  0  1G24
  22970486.406   120710719.691       -1535.770          48.000  
 16  4  2 12  0 43.5000000  0  1G24
  22970515.672   120710873.371       -1538.355          48.000  
 16  4  2 12  0 43.6000000  0  1G24
  22970544.961   120711027.316       -1540.836          48.000  
 16  4  2 12  0 43.7000000  0  1G24
  22970574.312   120711181.602       -1544.547          48.000  
 16  4  2 12  0 43.8000000  0  1G24
  22970603.734   120711336.211       -1547.715          48.000  
 16  4  2 12  0 43.9000000  0  1G24
  22970633.234   120711491.156       -1551.363          48.000  
 16  4  2 12  0 44.0000000  0  1G24
  22970662.781   120711646.430       -1554.246          48.000  
 16  4  2 12  0 44.1000000  0  1G24
  22970692.398   120711801.953       -1556.879          48.000  
 16  4  2 12  0 44.2000000  0  1G24
  22970722.055   120711957.812       -1560.215          48.000  
 16  4  2 12  0 44.3000000  0  1G24
  22970751.805   120712114.004       -1563.391          48.000  
 16  4  2 12  0 44.4000000  0  1G24
  22970781.578   120712270.469       -1566.367          48.000  
 16  4  2 12  0 44.5000000  0  1G24
  22970811.414   120712427.234       -1569.211          48.000  
 16  4  2 12  0 44.6000000  0  1G24
  22970841.312   120712584.332       -1572.773          48.000  
 16  4  2 12  0 44.7000000  0  1G24
  22970871.258   120712741.668       -1574.961          48.000  
 16  4  2 12  0 44.8000000  0  1G24
  22970901.266   120712899.340       -1578.414          48.000  
 16  4  2 12  0 44.9000000  0  1G24
  22970931.328   120713057.371       -1581.938          48.000  
 16  4  2 12  0 45.0000000  0  1G24
  22970961.453   120713215.668       -1584.551          48.000  
 16  4  2 12  0 45.1000000  0  1G24
  22970991.609   120713374.242       -1587.430          48.000  
 16  4  2 12  0 45.2000000  0  1G24
  22971021.852   120713533.145       -1590.727          48.000  
 16  4  2 12  0 45.3000000  0  1G24
  22971052.156   120713692.352       -1593.684          48.000  
 16  4  2 12  0 45.4000000  0  1G24
  22971082.508   120713851.852       -1596.652          48.000  
 16  4  2 12  0 45.5000000  0  1G24
  22971112.953   120714011.727       -1600.168          48.000  
 16  4  2 12  0 45.6000000  0  1G24
  22971143.430   120714171.887       -1603.430          48.000  
 16  4  2 12  0 45.7000000  0  1G24
  22971173.961   120714332.367       -1606.523          48.000  
 16  4  2 12  0 45.8000000  0  1G24
  22971204.562   120714493.172       -1609.621          48.000  
 16  4  2 12  0 45.9000000  0  1G24
  22971235.195   120714654.219       -1612.184          48.000  
 16  4  2 12  0 46.0000000  0  1G24
  22971265.914   120714815.617       -1615.660          48.000  
 16  4  2 12  0 46.1000000  0  1G24
  22971296.688   120714977.344       -1618.938          48.000  
 16  4  2 12  0 46.2000000  0  1G24
  22971327.523   120715139.375       -1621.809          48.000  
 16  4  2 12  0 46.3000000  0  1G24
  22971358.398   120715301.648       -1624.266          48.000  
 16  4  2 12  0 46.4000000  0  1G24
  22971389.336   120715464.230       -1627.242          48.000  
 16  4  2 12  0 46.5000000  0  1G24
  22971420.320   120715627.102       -1630.227          48.000  
 16  4  2 12  0 46.6000000  0  1G24
  22971451.375   120715790.301       -1633.543          48.000  
 16  4  2 12  0 46.7000000  0  1G24
  22971482.492   120715953.844       -1637.344          48.000  
 16  4  2 12  0 46.8000000  0  1G24
  22971513.672   120716117.684       -1639.922          48.000  
 16  4  2 12  0 46.9000000  0  1G24
  22971544.891   120716281.816       -1642.848          48.000  
 16  4  2 12  0 47.0000000  0  1G24
  22971576.180   120716446.254       -1645.926          48.000  
 16  4  2 12  0 47.1000000  0  1G24
  22971607.539   120716611.004       -1649.125          48.000  
 16  4  2 12  0 47.2000000  0  1G24
  22971638.945   120716776.051       -1651.918          48.000  
 16  4  2 12  0 47.3000000  0  1G24
  22971670.398   120716941.359       -1654.652          48.000  
 16  4  2 12  0 47.4000000  0  1G24
  22971701.914   120717106.980       -1657.613          48.000  
 16  4  2 12  0 47.5000000  0  1G24
  22971733.469   120717272.891       -1660.824          48.000  
 16  4  2 12  0 47.6000000  0  1G24
  22971765.109   120717439.203       -1664.863          48.000  
 16  4  2 12  0 47.7000000  0  1G24
  22971796.805   120717605.801       -1667.781          48.000  
 16  4  2 12  0 47.8000000  0  1G24
  22971828.562   120717772.660       -1670.246          48.000  
 16  4  2 12  0 47.9000000  0  1G24
  22971860.375   120717939.852       -1673.426          48.000  
 16  4  2 12  0 48.0000000  0  1G24
  22971892.250   120718107.367       -1676.621          48.000  
 16  4  2 12  0 48.1000000  0  1G24
  22971924.164   120718275.113       -1679.051          48.000  
 16  4  2 12  0 48.2000000  0  1G24
  22971956.148   120718443.184       -1682.352          48.000  
 16  4  2 12  0 48.3000000  0  1G24
  22971988.203   120718611.594       -1685.676          48.000  
 16  4  2 12  0 48.4000000  0  1G24
  22972020.297   120718780.238       -1688.133          48.000  
 16  4  2 12  0 48.5000000  0  1G24
  22972052.461   120718949.262       -1691.641          48.000  
 16  4  2 12  0 48.6000000  0  1G24
  22972084.688   120719118.621       -1695.254          48.000  
 16  4  2 12  0 48.7000000  0  1G24
  22972116.961   120719288.234       -1697.863          48.000  
 16  4  2 12  0 48.8000000  0  1G24
  22972149.297   120719458.152       -1700.801          48.000  
 16  4  2 12  0 48.9000000  0  1G24
  22972181.688   120719628.371       -1703.887          48.000  
 16  4  2 12  0 49.0000000  0  1G24
  22972214.148   120719798.957       -1707.453          48.000  
 16  4  2 12  0 49.1000000  0  1G24
  22972246.664   120719969.773       -1709.676          48.000  
 16  4  2 12  0 49.2000000  0  1G24
  22972279.227   120720140.859       -1712.297          48.000  
 16  4  2 12  0 49.3000000  0  1G24
  22972311.852   120720312.355       -1716.695          48.000  
 16  4  2 12  0 49.4000000  0  1G24
  22972344.539   120720484.121       -1719.398          48.000  
 16  4  2 12  0 49.5000000  0  1G24
  22972377.273   120720656.156       -1721.844          48.000  
 16  4  2 12  0 49.6000000  0  1G24
  22972410.062   120720828.496       -1724.980          48.000  
 16  4  2 12  0 49.7000000  0  1G24
  22972442.914   120721001.156       -1728.375          48.000  
 16  4  2 12  0 49.8000000  0  1G24
  22972475.828   120721174.102       -1731.160          48.000  
 16  4  2 12  0 49.9000000  0  1G24
  22972508.789   120721347.352       -1734.094          48.000  
 16  4  2 12  0 50.0000000  0  1G24
  22972541.812   120721520.895       -1737.062          48.000  
 16  4  2 12  0 50.1000000  0  1G24
  22972574.898   120721694.762       -1740.215          48.000  
 16  4  2 12  0 50.2000000  0  1G24
  22972608.031   120721868.871       -1742.656          48.000  
 16  4  2 12  0 50.3000000  0  1G24
  22972641.234   120722043.312       -1746.055          48.000  
 16  4  2 12  0 50.4000000  0  1G24
  22972674.492   120722218.117       -1749.836          48.000  
 16  4  2 12  0 50.5000000  0  1G24
  22972707.812   120722393.211       -1752.789          48.000  
 16  4  2 12  0 50.6000000  0  1G24
  22972741.188   120722568.613       -1755.645          48.000  
 16  4  2 12  0 50.7000000  0  1G24
  22972774.641   120722744.340       -1758.918          48.000  
 16  4  2 12  0 50.8000000  0  1G24
  22972808.148   120722920.398       -1762.238          48.000  
 16  4  2 12  0 50.9000000  0  1G24
  22972841.688   120723096.711       -1764.785          48.000  
 16  4  2 12  0 51.0000000  0  1G24
  22972875.297   120723273.312       -1767.598          48.000  
 16  4  2 12  0 51.1000000  0  1G24
  22972908.953   120723450.238       -1770.785          48.000  
 16  4  2 12  0 51.2000000  0  1G24
  22972942.680   120723627.465       -1773.875          48.000  
 16  4  2 12  0 51.3000000  0  1G24
  22972976.469   120723805.016       -1777.031          48.000  
 16  4  2 12  0 51.4000000  0  1G24
  22973010.305   120723982.832       -1779.918          48.000  
 16  4  2 12  0 51.5000000  0  1G24
  22973044.203   120724160.984       -1783.180          48.000  
 16  4  2 12  0 51.6000000  0  1G24
  22973078.164   120724339.426       -1785.891          48.000  
 16  4  2 12  0 51.7000000  0  1G24
  22973112.172   120724518.160       -1788.836          48.000  
 16  4  2 12  0 51.8000000  0  1G24
  22973146.242   120724697.203       -1792.070          48.000  
 16  4  2 12  0 51.9000000  0  1G24
  22973180.383   120724876.602       -1795.613          48.000  
 16  4  2 12  0 52.0000000  0  1G24
  22973214.578   120725056.289       -1798.680          48.000  
 16  4  2 12  0 52.1000000  0  1G24
  22973248.812   120725236.266       -1801.398          48.000  
 16  4  2 12  0 52.2000000  0  1G24
  22973283.117   120725416.539       -1804.359          48.000  
 16  4  2 12  0 52.3000000  0  1G24
  22973317.500   120725597.152       -1807.812          48.000  
 16  4  2 12  0 52.4000000  0  1G24
  22973351.930   120725778.059       -1810.504          48.000  
 16  4  2 12  0 52.5000000  0  1G24
  22973386.406   120725959.172       -1812.605          48.000  
 16  4  2 12  0 52.6000000  0  1G24
  22973420.938   120726140.617       -1815.879          48.000  
 16  4  2 12  0 52.7000000  0  1G24
  22973455.516   120726322.355       -1819.008          48.000  
 16  4  2 12  0 52.8000000  0  1G24
  22973490.172   120726504.465       -1822.816          48.000  
 16  4  2 12  0 52.9000000  0  1G24
  22973524.867   120726686.848       -1825.594          48.000  
 16  4  2 12  0 53.0000000  0  1G24
  22973559.625   120726869.500       -1828.055          48.000  
 16  4  2 12  0 53.1000000  0  1G24
  22973594.430   120727052.406       -1830.539          48.000  
 16  4  2 12  0 53.2000000  0  1G24
  22973629.297   120727235.633       -1833.715          48.000  
 16  4  2 12  0 53.3000000  0  1G24
  22973664.227   120727419.230       -1837.582          48.000  
 16  4  2 12  0 53.4000000  0  1G24
  22973699.211   120727603.062       -1839.906          48.000  
 16  4  2 12  0 53.5000000  0  1G24
  22973734.266   120727787.246       -1843.488          48.000  
 16  4  2 12  0 53.6000000  0  1G24
  22973769.359   120727971.695       -1846.152          48.000  
 16  4  2 12  0 53.7000000  0  1G24
  22973804.523   120728156.469       -1849.359          48.000  
 16  4  2 12  0 53.8000000  0  1G24
  22973839.742   120728341.547       -1852.328          48.000  
 16  4  2 12  0 53.9000000  0  1G24
  22973875.016   120728526.875       -1855.000          48.000  
 16  4  2 12  0 54.0000000  0  1G24
  22973910.359   120728712.613       -1859.184          48.000  
 16  4  2 12  0 54.1000000  0  1G24
  22973945.742   120728898.664       -1862.160          48.000  
 16  4  2 12  0 54.2000000  0  1G24
  22973981.195   120729084.980       -1864.625          48.000  
 16  4  2 12  0 54.3000000  0  1G24
  22974016.703   120729271.551       -1867.387          48.000  
 16  4  2 12  0 54.4000000  0  1G24
  22974052.273   120729458.496       -1871.102          48.000  
 16  4  2 12  0 54.5000000  0  1G24
  22974087.906   120729645.750       -1874.246          48.000  
 16  4  2 12  0 54.6000000  0  1G24
  22974123.594   120729833.285       -1876.941          48.000  
 16  4  2 12  0 54.7000000  0  1G24
  22974159.336   120730021.133       -1879.941          48.000  
 16  4  2 12  0 54.8000000  0  1G24
  22974195.133   120730209.258       -1882.727          48.000  
 16  4  2 12  0 54.9000000  0  1G24
  22974230.984   120730397.711       -1886.191          48.000  
 16  4  2 12  0 55.0000000  0  1G24
  22974266.898   120730586.457       -1888.879          48.000  
 16  4  2 12  0 55.1000000  0  1G24
  22974302.875   120730775.477       -1891.953          48.000  
 16  4  2 12  0 55.2000000  0  1G24
  22974338.898   120730964.816       -1895.152          48.000  
 16  4  2 12  0 55.3000000  0  1G24
  22974374.984   120731154.496       -1898.234          48.000  
 16  4  2 12  0 55.4000000  0  1G24
  22974411.125   120731344.391       -1900.496          48.000  
 16  4  2 12  0 55.5000000  0  1G24
  22974447.320   120731534.613       -1903.801          48.000  
 16  4  2 12  0 55.6000000  0  1G24
  22974483.586   120731725.172       -1907.020          48.000  
 16  4  2 12  0 55.7000000  0  1G24
  22974519.898   120731916.020       -1910.258          48.000  
 16  4  2 12  0 55.8000000  0  1G24
  22974556.266   120732107.156       -1913.070          48.000  
 16  4  2 12  0 55.9000000  0  1G24
  22974592.711   120732298.605       -1916.078          48.000  
 16  4  2 12  0 56.0000000  0  1G24
  22974629.203   120732490.375       -1919.062          48.000  
 16  4  2 12  0 56.1000000  0  1G24
  22974665.750   120732682.410       -1922.023          48.000  
 16  4  2 12  0 56.2000000  0  1G24
  22974702.352   120732874.750       -1925.078          48.000  
 16  4  2 12  0 56.3000000  0  1G24
  22974739.016   120733067.449       -1928.477          48.000  
 16  4  2 12  0 56.4000000  0  1G24
  22974775.750   120733260.473       -1931.809          48.000  
 16  4  2 12  0 56.5000000  0  1G24
  22974812.523   120733453.727       -1934.238          48.000  
 16  4  2 12  0 56.6000000  0  1G24
  22974849.367   120733647.320       -1937.465          48.000  
 16  4  2 12  0 56.7000000  0  1G24
  22974886.273   120733841.301       -1941.590          48.000  
 16  4  2 12  0 56.8000000  0  1G24
  22974923.250   120734035.586       -1944.633          48.000  
 16  4  2 12  0 56.9000000  0  1G24
  22974960.266   120734230.102       -1946.754          48.000  
 16  4  2 12  0 57.0000000  0  1G24
  22974997.336   120734424.906       -1949.418          48.000  
 16  4  2 12  0 57.1000000  0  1G24
  22975034.461   120734620.000       -1952.473          48.000  
 16  4  2 12  0 57.2000000  0  1G24
  22975071.664   120734815.512       -1956.844          48.000  
 16  4  2 12  0 57.3000000  0  1G24
  22975108.914   120735011.305       -1959.770          48.000  
 16  4  2 12  0 57.4000000  0  1G24
  22975146.234   120735207.426       -1962.750          48.000  
 16  4  2 12  0 57.5000000  0  1G24
  22975183.617   120735403.859       -1966.031          48.000  
 16  4  2 12  0 57.6000000  0  1G24
  22975221.047   120735600.539       -1968.395          48.000  
 16  4  2 12  0 57.7000000  0  1G24
  22975258.531   120735797.531       -1971.426          48.000  
 16  4  2 12  0 57.8000000  0  1G24
  22975296.078   120735994.867       -1975.082          48.000  
 16  4  2 12  0 57.9000000  0  1G24
  22975333.688   120736192.449       -1977.445          48.000  
 16  4  2 12  0 58.0000000  0  1G24
  22975371.344   120736390.367       -1980.668          48.000  
 16  4  2 12  0 58.1000000  0  1G24
  22975409.039   120736588.516       -1983.129          48.000  
 16  4  2 12  0 58.2000000  0  1G24
  22975446.805   120736786.945       -1985.777          48.000  
 16  4  2 12  0 58.3000000  0  1G24
  22975484.625   120736985.707       -1989.125          48.000  
 16  4  2 12  0 58.4000000  0  1G24
  22975522.500   120737184.773       -1992.453          48.000  
 16  4  2 12  0 58.5000000  0  1G24
  22975560.445   120737384.176       -1995.586          48.000  
 16  4  2 12  0 58.6000000  0  1G24
  22975598.445   120737583.855       -1998.645          48.000  
 16  4  2 12  0 58.7000000  0  1G24
  22975636.508   120737783.902       -2001.914          48.000  
 16  4  2 12  0 58.8000000  0  1G24
  22975674.625   120737984.211       -2004.730          48.000  
 16  4  2 12  0 58.9000000  0  1G24
  22975712.789   120738184.805       -2007.477          48.000  
 16  4  2 12  0 59.0000000  0  1G24
  22975751.023   120738385.703       -2010.559          48.000  
 16  4  2 12  0 59.1000000  0  1G24
  22975789.320   120738586.922       -2013.699          48.000  
 16  4  2 12  0 59.2000000  0  1G24
  22975827.664   120738788.453       -2017.098          48.000  
 16  4  2 12  0 59.3000000  0  1G24
  22975866.078   120738990.305       -2020.164          48.000  
 16  4  2 12  0 59.4000000  0  1G24
  22975904.547   120739192.480       -2023.402          48.000  
 16  4  2 12  0 59.5000000  0  1G24
  22975943.078   120739394.941       -2026.133          48.000  
 16  4  2 12  0 59.6000000  0  1G24
  22975981.664   120739597.688       -2029.160          48.000  
 16  4  2 12  0 59.7000000  0  1G24
  22976020.297   120739800.742       -2032.078          48.000  
 16  4  2 12  0 59.8000000  0  1G24
  22976058.992   120740004.102       -2035.258          48.000  
 16  4  2 12  0 59.9000000  0  1G24
  22976097.742   120740207.727       -2037.809          48.000  
 16  4  2 12  1  0.0000000  0  1G24
  22976136.539   120740411.621       -2040.395          48.000  
 16  4  2 12  1  0.1000000  0  1G24
  22976175.398   120740615.863       -2043.965          48.000  
 16  4  2 12  1  0.2000000  0  1G24
  22976214.320   120740820.422       -2047.504          48.000  
 16  4  2 12  1  0.3000000  0  1G24
  22976253.320   120741025.344       -2050.840          48.000  
 16  4  2 12  1  0.4000000  0  1G24
  22976292.375   120741230.539       -2053.555          48.000  
 16  4  2 12  1  0.5000000  0  1G24
  22976331.484   120741436.047       -2056.676          48.000  
 16  4  2 12  1  0.6000000  0  1G24
  22976370.656   120741641.875       -2060.066          48.000  
 16  4  2 12  1  0.7000000  0  1G24
  22976409.891   120741847.992       -2062.566          48.000  
 16  4  2 12  1  0.8000000  0  1G24
  22976449.164   120742054.363       -2065.188          48.000  
 16  4  2 12  1  0.9000000  0  1G24
  22976488.484   120742261.047       -2068.582          48.000  
 16  4  2 12  1  1.0000000  0  1G24
  22976527.875   120742468.066       -2071.496          48.000  
 16  4  2 12  1  1.1000000  0  1G24
  22976567.305   120742675.328       -2074.238          48.000  
 16  4  2 12  1  1.2000000  0  1G24
  22976606.812   120742882.953       -2077.566          48.000  
 16  4  2 12  1  1.3000000  0  1G24
  22976646.375   120743090.820       -2080.340          48.000  
 16  4  2 12  1  1.4000000  0  1G24
  22976685.992   120743299.035       -2083.594          48.000  
 16  4  2 12  1  1.5000000  0  1G24
  22976725.672   120743507.562       -2086.883          48.000  
 16  4  2 12  1  1.6000000  0  1G24
  22976765.406   120743716.363       -2089.586          48.000  
 16  4  2 12  1  1.7000000  0  1G24
  22976805.195   120743925.457       -2092.398          48.000  
 16  4  2 12  1  1.8000000  0  1G24
  22976845.047   120744134.855       -2095.559          48.000  
 16  4  2 12  1  1.9000000  0  1G24
  22976884.945   120744344.523       -2098.363          48.000  
 16  4  2 12  1  2.0000000  0  1G24
  22976924.914   120744554.535       -2101.508          48.000  
 16  4  2 12  1  2.1000000  0  1G24
  22976964.914   120744764.836       -2104.691          48.000  
 16  4  2 12  1  2.2000000  0  1G24
  22977004.992   120744975.457       -2107.965          48.000  
 16  4  2 12  1  2.3000000  0  1G24
  22977045.125   120745186.398       -2110.855          48.000  
 16  4  2 12  1  2.4000000  0  1G24
  22977085.312   120745397.566       -2113.312          48.000  
 16  4  2 12  1  2.5000000  0  1G24
  22977125.562   120745609.105       -2117.043          48.000  
 16  4  2 12  1  2.6000000  0  1G24
  22977165.875   120745820.941       -2120.074          48.000  
 16  4  2 12  1  2.7000000  0  1G24
  22977206.250   120746033.094       -2123.035          48.000  
 16  4  2 12  1  2.8000000  0  1G24
  22977246.680   120746245.559       -2126.398          48.000  
 16  4  2 12  1  2.9000000  0  1G24
  22977287.164   120746458.344       -2129.469          48.000  
 16  4  2 12  1  3.0000000  0  1G24
  22977327.711   120746671.402       -2132.164          48.000  
 16  4  2 12  1  3.1000000  0  1G24
  22977368.312   120746884.742       -2134.672          48.000  
 16  4  2 12  1  3.2000000  0  1G24
  22977408.953   120747098.348       -2137.773          48.000  
 16  4  2 12  1  3.3000000  0  1G24
  22977449.672   120747312.316       -2141.289          48.000  
 16  4  2 12  1  3.4000000  0  1G24
  22977490.461   120747526.656       -2145.000          48.000  
 16  4  2 12  1  3.5000000  0  1G24
  22977531.281   120747741.207       -2147.164          48.000  
 16  4  2 12  1  3.6000000  0  1G24
  22977572.164   120747956.023       -2149.730          48.000  
 16  4  2 12  1  3.7000000  0  1G24
  22977613.109   120748171.184       -2153.043          48.000  
 16  4  2 12  1  3.8000000  0  1G24
  22977654.117   120748386.684       -2156.918          48.000  
 16  4  2 12  1  3.9000000  0  1G24
  22977695.188   120748602.504       -2160.039          48.000  
 16  4  2 12  1  4.0000000  0  1G24
  22977736.320   120748818.648       -2163.160          48.000  
 16  4  2 12  1  4.1000000  0  1G24
  22977777.508   120749035.109       -2166.336          48.000  
 16  4  2 12  1  4.2000000  0  1G24
  22977818.758   120749251.867       -2169.250          48.000  
 16  4  2 12  1  4.3000000  0  1G24
  22977860.070   120749468.965       -2172.453          48.000  
 16  4  2 12  1  4.4000000  0  1G24
  22977901.430   120749686.293       -2174.832          48.000  
 16  4  2 12  1  4.5000000  0  1G24
  22977942.852   120749903.957       -2178.191          48.000  
 16  4  2 12  1  4.6000000  0  1G24
  22977984.328   120750121.926       -2181.488          48.000  
 16  4  2 12  1  4.7000000  0  1G24
  22978025.875   120750340.191       -2184.234          48.000  
 16  4  2 12  1  4.8000000  0  1G24
  22978067.461   120750558.742       -2186.980          48.000  
 16  4  2 12  1  4.9000000  0  1G24
  22978109.109   120750777.609       -2190.172          48.000  
 16  4  2 12  1  5.0000000  0  1G24
  22978150.812   120750996.750       -2192.941          48.000  
 16  4  2 12  1  5.1000000  0  1G24
  22978192.555   120751216.152       -2195.582          48.000  
 16  4  2 12  1  5.2000000  0  1G24
  22978234.375   120751435.941       -2199.484          48.000  
 16  4  2 12  1  5.3000000  0  1G24
  22978276.242   120751655.980       -2202.203          48.000  
 16  4  2 12  1  5.4000000  0  1G24
  22978318.180   120751876.352       -2205.285          48.000  
 16  4  2 12  1  5.5000000  0  1G24
  22978360.164   120752096.973       -2207.918          48.000  
 16  4  2 12  1  5.6000000  0  1G24
  22978402.211   120752317.910       -2210.918          48.000  
 16  4  2 12  1  5.7000000  0  1G24
  22978444.336   120752539.191       -2214.391          48.000  
 16  4  2 12  1  5.8000000  0  1G24
  22978486.492   120752760.750       -2217.125          48.000  
 16  4  2 12  1  5.9000000  0  1G24
  22978528.719   120752982.633       -2220.520          48.000  
 16  4  2 12  1  6.0000000  0  1G24
  22978571.008   120753204.871       -2223.984          48.000  
 16  4  2 12  1  6.1000000  0  1G24
  22978613.359   120753427.359       -2226.559          48.000  
 16  4  2 12  1  6.2000000  0  1G24
  22978655.758   120753650.160       -2229.676          48.000  
 16  4  2 12  1  6.3000000  0  1G24
  22978698.219   120753873.301       -2232.938          48.000  
 16  4  2 12  1  6.4000000  0  1G24
  22978740.734   120754096.715       -2235.766          48.000  
 16  4  2 12  1  6.5000000  0  1G24
  22978783.312   120754320.473       -2239.266          48.000  
 16  4  2 12  1  6.6000000  0  1G24
  22978825.945   120754544.480       -2241.688          48.000  
 16  4  2 12  1  6.7000000  0  1G24
  22978868.625   120754768.793       -2244.688          48.000  
 16  4  2 12  1  6.8000000  0  1G24
  22978911.375   120754993.441       -2248.020          48.000  
 16  4  2 12  1  6.9000000  0  1G24
  22978954.172   120755218.391       -2251.223          48.000  
 16  4  2 12  1  7.0000000  0  1G24
  22978997.023   120755443.582       -2253.469          48.000  
 16  4  2 12  1  7.1000000  0  1G24
  22979039.938   120755669.102       -2256.664          48.000  
 16  4  2 12  1  7.2000000  0  1G24
  22979082.906   120755894.902       -2259.715          48.000  
 16  4  2 12  1  7.3000000  0  1G24
  22979125.938   120756121.016       -2262.602          48.000  
 16  4  2 12  1  7.4000000  0  1G24
  22979169.016   120756347.387       -2265.387          48.000  
 16  4  2 12  1  7.5000000  0  1G24
  22979212.164   120756574.133       -2268.973          48.000  
 16  4  2 12  1  7.6000000  0  1G24
  22979255.359   120756801.121       -2271.289          48.000  
 16  4  2 12  1  7.7000000  0  1G24
  22979298.617   120757028.438       -2274.859          48.000  
 16  4  2 12  1  7.8000000  0  1G24
  22979341.938   120757256.062       -2278.004          48.000  
 16  4  2 12  1  7.9000000  0  1G24
  22979385.320   120757484.039       -2281.348          48.000  
 16  4  2 12  1  8.0000000  0  1G24
  22979428.758   120757712.305       -2284.312          48.000  
 16  4  2 12  1  8.1000000  0  1G24
  22979472.250   120757940.902       -2287.496          48.000  
 16  4  2 12  1  8.2000000  0  1G24
  22979515.805   120758169.762       -2290.160          48.000  
 16  4  2 12  1  8.3000000  0  1G24
  22979559.406   120758398.922       -2293.230          48.000  
 16  4  2 12  1  8.4000000  0  1G24
  22979603.070   120758628.359       -2295.832          48.000  
 16  4  2 12  1  8.5000000  0  1G24
  22979646.773   120758858.043       -2298.531          48.000  
 16  4  2 12  1  8.6000000  0  1G24
  22979690.539   120759088.055       -2301.625          48.000  
 16  4  2 12  1  8.7000000  0  1G24
  22979734.367   120759318.359       -2304.719          48.000  
 16  4  2 12  1  8.8000000  0  1G24
  22979778.250   120759548.973       -2307.586          48.000  
 16  4  2 12  1  8.9000000  0  1G24
  22979822.195   120759779.887       -2310.914          48.000  
 16  4  2 12 30 37.0000000  0  1G16
  22505872.484   118269157.480        2605.477          49.000  
 16  4  2 12 30 37.1000000  0  2G03G16
  25425114.242   133609876.930       -1360.453          49.000  
  22505822.938   118268897.109        2601.352          49.000  
 16  4  2 12 40 36.8000000  0  1G04
  21411411.211   112517725.203       -7502.562          49.000  
 16  4  2 12 40 36.9000000  0  1G04
  21411554.031   112518475.734       -7507.535          49.000  
 16  4  2 12 40 37.0000000  0  1G04
  21411696.938   112519226.738       -7512.477          49.000  
 16  4  2 12 40 37.1000000  0  1G04
  21411839.961   112519978.328       -7518.238          49.000  
 16  4  2 12 40 37.2000000  0  1G04
  21411983.094   112520730.402       -7523.094          49.000  
 16  4  2 12 40 37.3000000  0  1G04
  21412126.305   112521482.980       -7528.355          49.000  
 16  4  2 12 40 37.4000000  0  1G04
  21412269.641   112522236.141       -7533.953          49.000  
 16  4  2 12 40 37.5000000  0  1G04
  21412413.047   112522989.758       -7538.746          49.000  
 16  4  2 12 40 37.6000000  0  1G04
  21412556.547   112523743.930       -7544.242          49.000  
 16  4  2 12 40 37.7000000  0  1G04
  21412700.156   112524498.590       -7549.000          49.000  
 16  4  2 12 40 37.8000000  0  1G04
  21412843.867   112525253.711       -7553.566          49.000  
 16  4  2 12 40 37.9000000  0  1G04
  21412987.680   112526009.453       -7559.785          49.000  
 16  4  2 12 40 38.0000000  0  1G04
  21413131.570   112526765.660       -7564.508          49.000  
 16  4  2 12 40 38.1000000  0  1G04
  21413275.578   112527522.410       -7570.070          49.000  
 16  4  2 12 40 38.2000000  0  1G04
  21413419.688   112528279.664       -7574.902          49.000  
 16  4  2 12 40 38.3000000  0  1G04
  21413563.891   112529037.477       -7580.695          49.000  
 16  4  2 12 40 38.4000000  0  1G04
  21413708.188   112529795.762       -7585.242          49.000  
 16  4  2 12 40 38.5000000  0  1G04
  21413852.586   112530554.582       -7590.496          49.000  
 16  4  2 12 40 38.6000000  0  1G04
  21413997.102   112531313.914       -7595.777          49.000  
 16  4  2 12 40 38.7000000  0  1G04
  21414141.688   112532073.723       -7600.535          49.000  
 16  4  2 12 40 38.8000000  0  1G04
  21414286.375   112532834.016       -7605.234          49.000  
 16  4  2 12 40 38.9000000  0  1G04
  21414431.148   112533594.812       -7610.395          49.000  
 16  4  2 12 40 39.0000000  0  1G04
  21414576.039   112534356.129       -7615.496          49.000  
 16  4  2 12 40 39.1000000  0  1G04
  21414721.008   112535117.961       -7620.902          49.000  
 16  4  2 12 40 39.2000000  0  1G04
  21414866.094   112535880.398       -7626.977          49.000  
 16  4  2 12 40 39.3000000  0  1G04
  21415011.266   112536643.281       -7631.492          49.000  
 16  4  2 12 40 39.4000000  0  1G04
  21415156.523   112537406.688       -7636.336          49.000  
 16  4  2 12 40 39.5000000  0  1G04
  21415301.906   112538170.648       -7642.004          49.000  
 16  4  2 12 40 39.6000000  0  1G04
  21415447.359   112538935.105       -7647.078          49.000  
 16  4  2 12 40 39.7000000  0  1G04
  21415592.930   112539700.102       -7652.352          49.000  
 16  4  2 12 40 39.8000000  0  1G04
  21415738.586   112540465.559       -7657.008          49.000  
 16  4  2 12 40 39.9000000  0  1G04
  21415884.352   112541231.523       -7661.984          49.000  
 16  4  2 12 40 40.0000000  0  1G04
  21416030.203   112541998.004       -7667.125          49.000  
 16  4  2 12 40 40.1000000  0  1G04
  21416176.156   112542764.977       -7672.043          49.000  
 16  4  2 12 40 40.2000000  0  1G04
  21416322.203   112543532.473       -7677.449          49.000  
 16  4  2 12 40 40.3000000  0  1G04
  21416468.359   112544300.531       -7683.020          49.000  
 16  4  2 12 40 40.4000000  0  1G04
  21416614.633   112545069.074       -7688.082          49.000  
 16  4  2 12 40 40.5000000  0  1G04
  21416760.977   112545838.129       -7692.922          49.000  
 16  4  2 12 40 40.6000000  0  1G04
  21416907.406   112546607.688       -7697.801          49.000  
 16  4  2 12 40 40.7000000  0  1G04
  21417053.945   112547377.754       -7703.105          49.000  
 16  4  2 12 40 40.8000000  0  1G04
  21417200.602   112548148.355       -7708.430          49.000  
 16  4  2 12 40 40.9000000  0  1G04
  21417347.336   112548919.465       -7713.594          49.000  
 16  4  2 12 40 41.0000000  0  1G04
  21417494.180   112549691.098       -7718.852          49.000  
 16  4  2 12 40 41.1000000  0  1G04
  21417641.109   112550463.195       -7723.363          49.000  
 16  4  2 12 40 41.2000000  0  1G04
  21417788.125   112551235.715       -7727.547          49.000  
 16  4  2 12 40 41.3000000  0  1G04
  21417935.250   112552008.863       -7733.746          49.000  
 16  4  2 12 40 41.4000000  0  1G04
  21418082.492   112552782.492       -7738.844          49.000  
 16  4  2 12 40 41.5000000  0  1G04
  21418229.805   112553556.664       -7744.328          49.000  
 16  4  2 12 40 41.6000000  0  1G04
  21418377.227   112554331.316       -7748.863          49.000  
 16  4  2 12 40 41.7000000  0  1G04
  21418524.734   112555106.469       -7753.836          49.000  
 16  4  2 12 40 41.8000000  0  1G04
  21418672.352   112555882.121       -7758.941          49.000  
 16  4  2 12 40 41.9000000  0  1G04
  21418820.055   112556658.328       -7764.699          49.000  
 16  4  2 12 40 42.0000000  0  1G04
  21418967.852   112557435.055       -7769.832          49.000  
 16  4  2 12 40 42.1000000  0  1G04
  21419115.742   112558212.230       -7774.129          49.000  
 16  4  2 12 40 42.2000000  0  1G04
  21419263.719   112558989.848       -7778.574          49.000  
 16  4  2 12 40 42.3000000  0  1G04
  21419411.805   112559768.062       -7784.484          49.000  
 16  4  2 12 40 42.4000000  0  1G04
  21419559.977   112560546.715       -7788.898          49.000  
 16  4  2 12 40 42.5000000  0  1G04
  21419708.258   112561325.930       -7794.574          49.000  
 16  4  2 12 40 42.6000000  0  1G04
  21419856.625   112562105.625       -7799.402          49.000  
 16  4  2 12 40 42.7000000  0  1G04
  21420005.109   112562885.879       -7804.914          49.000  
 16  4  2 12 40 42.8000000  0  1G04
  21420153.672   112563666.590       -7809.512          49.000  
 16  4  2 12 40 42.9000000  0  1G04
  21420302.344   112564447.863       -7814.914          49.000  
 16  4  2 12 40 43.0000000  0  1G04
  21420451.102   112565229.586       -7819.793          49.000  
 16  4  2 12 40 43.1000000  0  1G04
  21420599.945   112566011.801       -7824.484          49.000  
 16  4  2 12 40 43.2000000  0  1G04
  21420748.898   112566794.613       -7830.586          49.000  
 16  4  2 12 40 43.3000000  0  1G04
  21420897.953   112567577.871       -7835.141          49.000  
 16  4  2 12 40 43.4000000  0  1G04
  21421047.094   112568361.668       -7840.410          49.000  
 16  4  2 12 40 43.5000000  0  1G04
  21421196.344   112569145.957       -7845.191          49.000  
 16  4  2 12 40 43.6000000  0  1G04
  21421345.695   112569930.766       -7850.574          49.000  
 16  4  2 12 40 43.7000000  0  1G04
  21421495.125   112570716.027       -7855.031          49.000  
 16  4  2 12 40 43.8000000  0  1G04
  21421644.656   112571501.824       -7860.426          49.000  
 16  4  2 12 40 43.9000000  0  1G04
  21421794.297   112572288.191       -7866.285          49.000  
 16  4  2 12 40 44.0000000  0  1G04
  21421944.031   112573075.043       -7870.875          49.000  
 16  4  2 12 40 44.1000000  0  1G04
  21422093.852   112573862.359       -7875.562          49.000  
 16  4  2 12 40 44.2000000  0  1G04
  21422243.781   112574650.215       -7880.941          49.000  
 16  4  2 12 40 44.3000000  0  1G04
  21422393.797   112575438.543       -7885.691          49.000  
 16  4  2 12 40 44.4000000  0  1G04
  21422543.914   112576227.438       -7891.363          49.000  
 16  4  2 12 40 44.5000000  0  1G04
  21422694.125   112577016.816       -7896.258          49.000  
 16  4  2 12 40 44.6000000  0  1G04
  21422844.422   112577806.707       -7901.371          49.000  
 16  4  2 12 40 44.7000000  0  1G04
  21422994.844   112578597.152       -7906.930          49.000  
 16  4  2 12 40 44.8000000  0  1G04
  21423145.359   112579388.074       -7911.504          49.000  
 16  4  2 12 40 44.9000000  0  1G04
  21423295.953   112580179.430       -7916.000          49.000  
 16  4  2 12 40 45.0000000  0  1G04
  21423446.664   112580971.352       -7921.555          49.000  
 16  4  2 12 40 45.1000000  0  1G04
  21423597.445   112581763.738       -7926.391          49.000  
 16  4  2 12 40 45.2000000  0  1G04
  21423748.336   112582556.652       -7931.520          49.000  
 16  4  2 12 40 45.3000000  0  1G04
  21423899.320   112583350.082       -7936.715          49.000  
 16  4  2 12 40 45.4000000  0  1G04
  21424050.391   112584144.039       -7942.109          49.000  
 16  4  2 12 40 45.5000000  0  1G04
  21424201.578   112584938.508       -7947.160          49.000  
 16  4  2 12 40 45.6000000  0  1G04
  21424352.852   112585733.500       -7952.387          49.000  
 16  4  2 12 40 45.7000000  0  1G04
  21424504.234   112586529.035       -7957.914          49.000  
 16  4  2 12 40 45.8000000  0  1G04
  21424655.711   112587325.047       -7962.453          49.000  
 16  4  2 12 40 45.9000000  0  1G04
  21424807.266   112588121.496       -7966.691          49.000  
 16  4  2 12 40 46.0000000  0  1G04
  21424958.930   112588918.441       -7971.883          49.000  
 16  4  2 12 40 46.1000000  0  1G04
  21425110.688   112589715.938       -7977.336          49.000  
 16  4  2 12 40 46.2000000  0  1G04
  21425262.539   112590513.941       -7982.414          49.000  
 16  4  2 12 40 46.3000000  0  1G04
  21425414.492   112591312.438       -7987.434          49.000  
 16  4  2 12 40 46.4000000  0  1G04
  21425566.523   112592111.457       -7992.629          49.000  
 16  4  2 12 40 46.5000000  0  1G04
  21425718.664   112592910.961       -7997.426          49.000  
 16  4  2 12 40 46.6000000  0  1G04
  21425870.914   112593711.008       -8002.875          49.000  
 16  4  2 12 40 46.7000000  0  1G04
  21426023.242   112594511.520       -8007.566          49.000  
 16  4  2 12 40 46.8000000  0  1G04
  21426175.672   112595312.559       -8012.855          49.000  
 16  4  2 12 40 46.9000000  0  1G04
  21426328.211   112596114.137       -8018.336          49.000  
 16  4  2 12 40 47.0000000  0  1G04
  21426480.836   112596916.234       -8023.438          49.000  
 16  4  2 12 40 47.1000000  0  1G04
  21426633.555   112597718.809       -8028.074          49.000  
 16  4  2 12 40 47.2000000  0  1G04
  21426786.367   112598521.809       -8032.277          49.000  
 16  4  2 12 40 47.3000000  0  1G04
  21426939.281   112599325.371       -8037.824          49.000  
 16  4  2 12 40 47.4000000  0  1G04
  21427092.281   112600129.363       -8042.309          49.000  
 16  4  2 12 40 47.5000000  0  1G04
  21427245.383   112600933.930       -8047.930          49.000  
 16  4  2 12 40 47.6000000  0  1G04
  21427398.586   112601738.973       -8052.906          49.000  
 16  4  2 12 40 47.7000000  0  1G04
  21427551.875   112602544.547       -8058.176          49.000  
 16  4  2 12 40 47.8000000  0  1G04
  21427705.266   112603350.660       -8063.703          49.000  
 16  4  2 12 40 47.9000000  0  1G04
  21427858.773   112604157.316       -8069.066          49.000  
 16  4  2 12 40 48.0000000  0  1G04
  21428012.359   112604964.445       -8073.711          49.000  
 16  4  2 12 40 48.1000000  0  1G04
  21428166.047   112605772.074       -8078.516          49.000  
 16  4  2 12 40 48.2000000  0  1G04
  21428319.812   112606580.191       -8083.605          49.000  
 16  4  2 12 40 48.3000000  0  1G04
  21428473.703   112607388.867       -8089.289          49.000  
 16  4  2 12 40 48.4000000  0  1G04
  21428627.680   112608197.984       -8093.617          49.000  
 16  4  2 12 40 48.5000000  0  1G04
  21428781.758   112609007.652       -8099.035          49.000  
 16  4  2 12 40 48.6000000  0  1G04
  21428935.922   112609817.852       -8104.539          49.000  
 16  4  2 12 40 48.7000000  0  1G04
  21429090.195   112610628.531       -8109.113          49.000  
 16  4  2 12 40 48.8000000  0  1G04
  21429244.547   112611439.652       -8113.484          49.000  
 16  4  2 12 40 48.9000000  0  1G04
  21429398.992   112612251.273       -8118.609          49.000  
 16  4  2 12 40 49.0000000  0  1G04
  21429553.547   112613063.461       -8124.301          49.000  
 16  4  2 12 40 49.1000000  0  1G04
  21429708.188   112613876.133       -8129.250          49.000  
 16  4  2 12 40 49.2000000  0  1G04
  21429862.930   112614689.301       -8134.281          49.000  
 16  4  2 12 40 49.3000000  0  1G04
  21430017.773   112615502.984       -8139.277          49.000  
 16  4  2 12 40 49.4000000  0  1G04
  21430172.695   112616317.172       -8144.297          49.000  
 16  4  2 12 40 49.5000000  0  1G04
  21430327.719   112617131.840       -8149.027          49.000  
 16  4  2 12 40 49.6000000  0  1G04
  21430482.836   112617947.043       -8154.422          49.000  
 16  4  2 12 40 49.7000000  0  1G04
  21430638.062   112618762.750       -8159.410          49.000  
 16  4  2 12 40 49.8000000  0  1G04
  21430793.375   112619578.938       -8164.234          49.000  
 16  4  2 12 40 49.9000000  0  1G04
  21430948.789   112620395.637       -8169.398          49.000  
 16  4  2 12 40 50.0000000  0  1G04
  21431104.305   112621212.852       -8174.473          49.000  
 16  4  2 12 40 50.1000000  0  1G04
  21431259.914   112622030.582       -8179.688          49.000  
 16  4  2 12 40 50.2000000  0  1G04
  21431415.617   112622848.777       -8184.254          49.000  
 16  4  2 12 40 50.3000000  0  1G04
  21431571.406   112623667.465       -8189.195          49.000  
 16  4  2 12 40 50.4000000  0  1G04
  21431727.289   112624486.684       -8194.500          49.000  
 16  4  2 12 40 50.5000000  0  1G04
  21431883.273   112625306.406       -8199.570          49.000  
 16  4  2 12 40 50.6000000  0  1G04
  21432039.352   112626126.605       -8204.359          49.000  
 16  4  2 12 40 50.7000000  0  1G04
  21432195.539   112626947.375       -8210.090          49.000  
 16  4  2 12 40 50.8000000  0  1G04
  21432351.805   112627768.609       -8214.746          49.000  
 16  4  2 12 40 50.9000000  0  1G04
  21432508.172   112628590.328       -8219.617          49.000  
 16  4  2 12 40 51.0000000  0  1G04
  21432664.648   112629412.559       -8224.594          49.000  
 16  4  2 12 40 51.1000000  0  1G04
  21432821.211   112630235.289       -8229.641          49.000  
 16  4  2 12 40 51.2000000  0  1G04
  21432977.867   112631058.543       -8234.977          49.000  
 16  4  2 12 40 51.3000000  0  1G04
  21433134.625   112631882.332       -8240.305          49.000  
 16  4  2 12 40 51.4000000  0  1G04
  21433291.477   112632706.566       -8244.738          49.000  
 16  4  2 12 40 51.5000000  0  1G04
  21433448.422   112633531.320       -8249.773          49.000  
 16  4  2 12 40 51.6000000  0  1G04
  21433605.469   112634356.617       -8255.375          49.000  
 16  4  2 12 40 51.7000000  0  1G04
  21433762.609   112635182.430       -8260.633          49.000  
 16  4  2 12 40 51.8000000  0  1G04
  21433919.859   112636008.758       -8265.727          49.000  
 16  4  2 12 40 51.9000000  0  1G04
  21434077.195   112636835.582       -8270.547          49.000  
 16  4  2 12 40 52.0000000  0  1G04
  21434234.633   112637662.895       -8275.449          49.000  
 16  4  2 12 40 52.1000000  0  1G04
  21434392.164   112638490.742       -8280.852          49.000  
 16  4  2 12 40 52.2000000  0  1G04
  21434549.781   112639319.074       -8285.688          49.000  
 16  4  2 12 40 52.3000000  0  1G04
  21434707.500   112640147.855       -8290.102          49.000  
 16  4  2 12 40 52.4000000  0  1G04
  21434865.305   112640977.125       -8295.141          49.000  
 16  4  2 12 40 52.5000000  0  1G04
  21435023.211   112641806.941       -8300.512          49.000  
 16  4  2 12 40 52.6000000  0  1G04
  21435181.219   112642637.242       -8305.469          49.000  
 16  4  2 12 40 52.7000000  0  1G04
  21435339.328   112643468.082       -8310.781          49.000  
 16  4  2 12 40 52.8000000  0  1G04
  21435497.516   112644299.395       -8315.543          49.000  
 16  4  2 12 40 52.9000000  0  1G04
  21435655.789   112645131.129       -8319.758          49.000  
 16  4  2 12 40 53.0000000  0  1G04
  21435814.180   112645963.441       -8325.363          49.000  
 16  4  2 12 40 53.1000000  0  1G04
  21435972.656   112646796.223       -8330.230          49.000  
 16  4  2 12 40 53.2000000  0  1G04
  21436131.219   112647629.523       -8335.391          49.000  
 16  4  2 12 40 53.3000000  0  1G04
  21436289.898   112648463.402       -8341.285          49.000  
 16  4  2 12 40 53.4000000  0  1G04
  21436448.664   112649297.723       -8345.617          49.000  
 16  4  2 12 40 53.5000000  0  1G04
  21436607.508   112650132.461       -8349.762          49.000  
 16  4  2 12 40 53.6000000  0  1G04
  21436766.469   112650967.781       -8355.320          49.000  
 16  4  2 12 40 53.7000000  0  1G04
  21436925.508   112651803.559       -8360.109          49.000  
 16  4  2 12 40 53.8000000  0  1G04
  21437084.656   112652639.867       -8365.508          49.000  
 16  4  2 12 40 53.9000000  0  1G04
  21437243.891   112653476.656       -8370.332          49.000  
 16  4  2 12 40 54.0000000  0  1G04
  21437403.227   112654313.969       -8375.570          49.000  
 16  4  2 12 40 54.1000000  0  1G04
  21437562.656   112655151.801       -8380.602          49.000  
 16  4  2 12 40 54.2000000  0  1G04
  21437722.180   112655990.086       -8385.254          49.000  
 16  4  2 12 40 54.3000000  0  1G04
  21437881.805   112656828.906       -8390.598          49.000  
 16  4  2 12 40 54.4000000  0  1G04
  21438041.531   112657668.242       -8395.805          49.000  
 16  4  2 12 40 54.5000000  0  1G04
  21438201.336   112658508.047       -8400.395          49.000  
 16  4  2 12 40 54.6000000  0  1G04
  21438361.242   112659348.340       -8405.277          49.000  
 16  4  2 12 40 54.7000000  0  1G04
  21438521.258   112660189.219       -8411.188          49.000  
 16  4  2 12 40 54.8000000  0  1G04
  21438681.359   112661030.566       -8415.957          49.000  
 16  4  2 12 40 54.9000000  0  1G04
  21438841.555   112661872.434       -8421.098          49.000  
 16  4  2 12 40 55.0000000  0  1G04
  21439001.852   112662714.812       -8426.266          49.000  
 16  4  2 12 40 55.1000000  0  1G04
  21439162.242   112663557.660       -8430.785          49.000  
 16  4  2 12 40 55.2000000  0  1G04
  21439322.734   112664401.016       -8435.922          49.000  
 16  4  2 12 40 55.3000000  0  1G04
  21439483.328   112665244.953       -8441.770          49.000  
 16  4  2 12 40 55.4000000  0  1G04
  21439644.008   112666089.363       -8446.508          49.000  
 16  4  2 12 40 55.5000000  0  1G04
  21439804.781   112666934.199       -8450.852          49.000  
 16  4  2 12 40 55.6000000  0  1G04
  21439965.648   112667779.531       -8455.504          49.000  
 16  4  2 12 40 55.7000000  0  1G04
  21440126.609   112668625.398       -8460.891          49.000  
 16  4  2 12 40 55.8000000  0  1G04
  21440287.680   112669471.770       -8466.312          49.000  
 16  4  2 12 40 55.9000000  0  1G04
  21440448.828   112670318.617       -8470.793          49.000  
 16  4  2 12 40 56.0000000  0  1G04
  21440610.070   112671165.992       -8476.074          49.000  
 16  4  2 12 40 56.1000000  0  1G04
  21440771.414   112672013.859       -8481.137          49.000  
 16  4  2 12 40 56.2000000  0  1G04
  21440932.852   112672862.227       -8485.984          49.000  
 16  4  2 12 40 56.3000000  0  1G04
  21441094.383   112673711.066       -8490.738          49.000  
 16  4  2 12 40 56.4000000  0  1G04
  21441256.008   112674560.434       -8495.930          49.000  
 16  4  2 12 40 56.5000000  0  1G04
  21441417.727   112675410.277       -8500.918          49.000  
 16  4  2 12 40 56.6000000  0  1G04
  21441579.555   112676260.684       -8506.406          49.000  
 16  4  2 12 40 56.7000000  0  1G04
  21441741.461   112677111.535       -8511.039          49.000  
 16  4  2 12 40 56.8000000  0  1G04
  21441903.461   112677962.875       -8515.711          49.000  
 16  4  2 12 40 56.9000000  0  1G04
  21442065.570   112678814.746       -8521.090          49.000  
 16  4  2 12 40 57.0000000  0  1G04
  21442227.766   112679667.098       -8525.871          49.000  
 16  4  2 12 40 57.1000000  0  1G04
  21442390.078   112680520.023       -8531.543          49.000  
 16  4  2 12 40 57.2000000  0  1G04
  21442552.461   112681373.387       -8536.000          49.000  
 16  4  2 12 40 57.3000000  0  1G04
  21442714.945   112682227.254       -8541.113          49.000  
 16  4  2 12 40 57.4000000  0  1G04
  21442877.523   112683081.625       -8545.922          49.000  
 16  4  2 12 40 57.5000000  0  1G04
  21443040.195   112683936.453       -8550.703          49.000  
 16  4  2 12 40 57.6000000  0  1G04
  21443202.969   112684791.832       -8556.191          49.000  
 16  4  2 12 40 57.7000000  0  1G04
  21443365.828   112685647.688       -8561.121          49.000  
 16  4  2 12 40 57.8000000  0  1G04
  21443528.805   112686504.090       -8566.422          49.000  
 16  4  2 12 40 57.9000000  0  1G04
  21443691.859   112687360.941       -8570.980          49.000  
 16  4  2 12 40 58.0000000  0  1G04
  21443855.000   112688218.316       -8576.062          49.000  
 16  4  2 12 40 58.1000000  0  1G04
  21444018.250   112689076.188       -8581.016          49.000  
 16  4  2 12 40 58.2000000  0  1G04
  21444181.586   112689934.551       -8586.047          49.000  
 16  4  2 12 40 58.3000000  0  1G04
  21444345.016   112690793.395       -8590.691          49.000  
 16  4  2 12 40 58.4000000  0  1G04
  21444508.547   112691652.742       -8595.898          49.000  
 16  4  2 12 40 58.5000000  0  1G04
  21444672.164   112692512.570       -8600.660          49.000  
 16  4  2 12 40 58.6000000  0  1G04
  21444835.891   112693372.895       -8605.594          49.000  
 16  4  2 12 40 58.7000000  0  1G04
  21444999.703   112694233.746       -8610.988          49.000  
 16  4  2 12 40 58.8000000  0  1G04
  21445163.625   112695095.102       -8615.906          49.000  
 16  4  2 12 40 58.9000000  0  1G04
  21445327.625   112695956.938       -8620.852          49.000  
 16  4  2 12 40 59.0000000  0  1G04
  21445491.734   112696819.301       -8626.070          49.000  
 16  4  2 12 40 59.1000000  0  1G04
  21445655.938   112697682.184       -8631.281          49.000  
 16  4  2 12 40 59.2000000  0  1G04
  21445820.219   112698545.559       -8636.160          49.000  
 16  4  2 12 40 59.3000000  0  1G04
  21445984.594   112699409.359       -8640.172          49.000  
 16  4  2 12 40 59.4000000  0  1G04
  21446149.055   112700273.633       -8644.902          49.000  
 16  4  2 12 40 59.5000000  0  1G04
  21446313.617   112701138.406       -8649.973          49.000  
 16  4  2 12 40 59.6000000  0  1G04
  21446478.281   112702003.711       -8655.449          49.000  
 16  4  2 12 40 59.7000000  0  1G04
  21446643.055   112702869.602       -8661.594          49.000  
 16  4  2 12 40 59.8000000  0  1G04
  21446807.914   112703735.941       -8666.043          49.000  
 16  4  2 12 40 59.9000000  0  1G04
  21446972.859   112704602.758       -8670.590          49.000  
 16  4  2 12 41  0.0000000  0  1G04
  21447137.898   112705470.043       -8675.137          49.000  
 16  4  2 12 41  0.1000000  0  1G04
  21447303.039   112706337.859       -8680.367          49.000  
 16  4  2 12 41  0.2000000  0  1G04
  21447468.273   112707206.172       -8685.617          49.000  
 16  4  2 12 41  0.3000000  0  1G04
  21447633.617   112708075.039       -8691.148          49.000  
 16  4  2 12 41  0.4000000  0  1G04
  21447799.039   112708944.352       -8695.625          49.000  
 16  4  2 12 41  0.5000000  0  1G04
  21447964.562   112709814.168       -8700.449          49.000  
 16  4  2 12 41  0.6000000  0  1G04
  21448130.156   112710684.441       -8705.023          49.000  
 16  4  2 12 41  0.7000000  0  1G04
  21448295.859   112711555.199       -8709.898          49.000  
 16  4  2 12 41  0.8000000  0  1G04
  21448461.648   112712426.480       -8714.980          49.000  
 16  4  2 12 41  0.9000000  0  1G04
  21448627.539   112713298.230       -8720.074          49.000  
 16  4  2 12 41  1.0000000  0  1G04
  21448793.531   112714170.531       -8725.355          49.000  
 16  4  2 12 41  1.1000000  0  1G04
  21448959.617   112715043.297       -8729.965          49.000  
 16  4  2 12 41  1.2000000  0  1G04
  21449125.797   112715916.578       -8735.293          49.000  
 16  4  2 12 41  1.3000000  0  1G04
  21449292.070   112716790.375       -8740.270          49.000  
 16  4  2 12 41  1.4000000  0  1G04
  21449458.453   112717664.648       -8745.266          49.000  
 16  4  2 12 41  1.5000000  0  1G04
  21449624.922   112718539.477       -8750.793          49.000  
 16  4  2 12 41  1.6000000  0  1G04
  21449791.484   112719414.766       -8755.324          49.000  
 16  4  2 12 41  1.7000000  0  1G04
  21449958.141   112720290.547       -8760.062          49.000  
 16  4  2 12 41  1.8000000  0  1G04
  21450124.883   112721166.816       -8765.031          49.000  
 16  4  2 12 41  1.9000000  0  1G04
  21450291.734   112722043.625       -8770.461          49.000  
 16  4  2 12 41  2.0000000  0  1G04
  21450458.695   112722920.906       -8775.262          49.000  
 16  4  2 12 41  2.1000000  0  1G04
  21450625.719   112723798.656       -8779.836          49.000  
 16  4  2 12 41  2.2000000  0  1G04
  21450792.836   112724676.898       -8784.707          49.000  
 16  4  2 12 41  2.3000000  0  1G04
  21450960.070   112725555.723       -8790.672          49.000  
 16  4  2 12 41  2.4000000  0  1G04
  21451127.383   112726434.977       -8795.035          49.000  
 16  4  2 12 41  2.5000000  0  1G04
  21451294.781   112727314.699       -8799.465          49.000  
 16  4  2 12 41  2.6000000  0  1G04
  21451462.289   112728194.969       -8804.969          49.000  
 16  4  2 12 41  2.7000000  0  1G04
  21451629.891   112729075.707       -8809.727          49.000  
 16  4  2 12 41  2.8000000  0  1G04
  21451797.594   112729956.977       -8815.117          49.000  
 16  4  2 12 41  2.9000000  0  1G04
  21451965.391   112730838.758       -8820.098          49.000  
 16  4  2 12 41  3.0000000  0  1G04
  21452133.281   112731720.973       -8824.520          49.000  
 16  4  2 12 41  3.1000000  0  1G04
  21452301.242   112732603.633       -8828.992          49.000  
 16  4  2 12 41  3.2000000  0  1G04
  21452469.328   112733486.887       -8834.840          49.000  
 16  4  2 12 41  3.3000000  0  1G04
  21452637.500   112734370.629       -8839.965          49.000  
 16  4  2 12 41  3.4000000  0  1G04
  21452805.766   112735254.875       -8844.906          49.000  
 16  4  2 12 41  3.5000000  0  1G04
  21452974.133   112736139.641       -8849.973          49.000  
 16  4  2 12 41  3.6000000  0  1G04
  21453142.586   112737024.871       -8854.656          49.000  
 16  4  2 12 41  3.7000000  0  1G04
  21453311.125   112737910.535       -8858.852          49.000  
 16  4  2 12 41  3.8000000  0  1G04
  21453479.758   112738796.695       -8863.879          49.000  
 16  4  2 12 41  3.9000000  0  1G04
  21453648.500   112739683.480       -8870.199          49.000  
 16  4  2 12 41  4.0000000  0  1G04
  21453817.336   112740570.664       -8874.312          49.000  
 16  4  2 12 41  4.1000000  0  1G04
  21453986.258   112741458.348       -8879.094          49.000  
 16  4  2 12 41  4.2000000  0  1G04
  21454155.273   112742346.566       -8884.566          49.000  
 16  4  2 12 41  4.3000000  0  1G04
  21454324.391   112743235.293       -8889.570          49.000  
 16  4  2 12 41  4.4000000  0  1G04
  21454493.578   112744124.410       -8893.543          49.000  
 16  4  2 12 41  4.5000000  0  1G04
  21454662.875   112745014.066       -8898.906          49.000  
 16  4  2 12 41  4.6000000  0  1G04
  21454832.273   112745904.258       -8904.477          49.000  
 16  4  2 12 41  4.7000000  0  1G04
  21455001.773   112746794.984       -8909.684          49.000  
 16  4  2 12 41  4.8000000  0  1G04
  21455171.359   112747686.188       -8914.512          49.000  
 16  4  2 12 41  4.9000000  0  1G04
  21455341.039   112748577.855       -8919.102          49.000  
 16  4  2 12 41  5.0000000  0  1G04
  21455510.820   112749470.090       -8924.586          49.000  
 16  4  2 12 41  5.1000000  0  1G04
  21455680.703   112750362.848       -8929.984          49.000  
 16  4  2 12 41  5.2000000  0  1G04
  21455850.688   112751256.086       -8934.832          49.000  
 16  4  2 12 41  5.3000000  0  1G04
  21456020.758   112752149.816       -8939.777          49.000  
 16  4  2 12 41  5.4000000  0  1G04
  21456190.922   112753044.055       -8944.562          49.000  
 16  4  2 12 41  5.5000000  0  1G04
  21456361.164   112753938.699       -8948.785          49.000  
 16  4  2 12 41  5.6000000  0  1G04
  21456531.516   112754833.879       -8954.016          49.000  
 16  4  2 12 41  5.7000000  0  1G04
  21456701.961   112755729.574       -8959.469          49.000  
 16  4  2 12 41  5.8000000  0  1G04
  21456872.500   112756625.793       -8964.637          49.000  
 16  4  2 12 41  5.9000000  0  1G04
  21457043.133   112757522.484       -8969.207          49.000  
 16  4  2 12 41  6.0000000  0  1G04
  21457213.859   112758419.652       -8973.922          49.000  
 16  4  2 12 41  6.1000000  0  1G04
  21457384.688   112759317.332       -8979.156          49.000  
 16  4  2 12 41  6.2000000  0  1G04
  21457555.594   112760215.508       -8984.098          49.000  
 16  4  2 12 41  6.3000000  0  1G04
  21457726.586   112761114.105       -8988.410          49.000  
 16  4  2 12 41  6.4000000  0  1G04
  21457897.680   112762013.234       -8993.480          49.000  
 16  4  2 12 41  6.5000000  0  1G04
  21458068.867   112762912.820       -8998.148          49.000  
 16  4  2 12 41  6.6000000  0  1G04
  21458240.164   112763812.969       -9003.871          49.000  
 16  4  2 12 41  6.7000000  0  1G04
  21458411.547   112764713.602       -9008.848          49.000  
 16  4  2 12 41  6.8000000  0  1G04
  21458583.023   112765614.707       -9013.551          49.000  
 16  4  2 12 41  6.9000000  0  1G04
  21458754.602   112766516.340       -9018.590          49.000  
 16  4  2 12 41  7.0000000  0  1G04
  21458926.273   112767418.516       -9024.262          49.000  
 16  4  2 12 41  7.1000000  0  1G04
  21459098.047   112768321.156       -9028.859          49.000  
 16  4  2 12 41  7.2000000  0  1G04
  21459269.906   112769224.312       -9033.863          49.000  
 16  4  2 12 41  7.3000000  0  1G04
  21459441.859   112770127.926       -9038.434          49.000  
 16  4  2 12 41  7.4000000  0  1G04
  21459613.898   112771032.023       -9043.191          49.000  
 16  4  2 12 41  7.5000000  0  1G04
  21459786.047   112771936.641       -9048.531          49.000  
 16  4  2 12 41  7.6000000  0  1G04
  21459958.281   112772841.754       -9053.551          49.000  
 16  4  2 12 41  7.7000000  0  1G04
  21460130.609   112773747.340       -9058.324          49.000  
 16  4  2 12 41  7.8000000  0  1G04
  21460303.039   112774653.434       -9063.223          49.000  
 16  4  2 12 41  7.9000000  0  1G04
  21460475.562   112775560.074       -9068.895          49.000  
 16  4  2 12 41  8.0000000  0  1G04
  21460648.188   112776467.246       -9074.137          49.000  
 16  4  2 12 41  8.1000000  0  1G04
  21460820.891   112777374.805       -9077.918          49.000  
 16  4  2 12 41  8.2000000  0  1G04
  21460993.680   112778282.879       -9083.145          49.000  
 16  4  2 12 41  8.3000000  0  1G04
  21461166.578   112779191.484       -9088.434          49.000  
 16  4  2 12 41  8.4000000  0  1G04
  21461339.578   112780100.594       -9093.504          49.000  
 16  4  2 12 41  8.5000000  0  1G04
  21461512.672   112781010.180       -9098.340          49.000  
 16  4  2 12 41  8.6000000  0  1G04
  21461685.852   112781920.273       -9103.434          49.000  
 16  4  2 12 50 36.6000000  0  1G29
  21133885.133   111059315.367       -2890.652          50.000  
 16  4  2 12 50 36.7000000  0  1G29
  21133940.180   111059604.629       -2894.414          50.000  
 16  4  2 12 50 36.8000000  0  2G09G29
  22436629.273   117905281.355       -4352.402          50.000  
  21133995.305   111059894.332       -2898.848          50.000  
 16  4  2 12 50 36.9000000  0  2G09G29
  22436712.148   117905716.848       -4357.668          50.000  
  21134050.500   111060184.383       -2902.141          50.000  
 16  4  2 13 11  6.5000000  0  1G12
  21995938.984   115589438.082        6572.883          50.000  
 16  4  2 13 11  6.6000000  0  1G12
  21995813.930   115588780.922        6570.199          50.000  
 16  4  2 13 11  6.7000000  0  2G12G20
  21995688.938   115588124.059        6567.012          50.000  
  22662847.422   119094066.758       -9593.840          50.000  
 16  4  2 13 11  6.8000000  0  3G12G13G20
  21995564.000   115587467.488        6564.422          50.000  
  20544362.906   107961354.785       12216.293          49.000  
  22663030.031   119095026.355       -9598.301          50.000  
 16  4  2 13 11  6.9000000  0  4G12G13G19G20
  21995439.125   115586811.242        6560.836          50.000  
  20544130.508   107960133.508       12209.004          49.000  
  21746054.969   114276289.891       13924.602          50.000  
  22663212.727   119095986.441       -9603.445          50.000  
 16  4  2 13 11  7.0000000  0  4G12G13G19G20
  21995314.305   115586155.293        6558.043          50.000  
  20543898.242   107958912.910       12202.434          49.000  
  21745790.023   114274897.586       13921.473          50.000  
  22663395.523   119096947.023       -9608.152          50.000  
 16  4  2 13 11  7.1000000  0  4G12G13G19G20
  21995189.547   115585499.684        6554.402          50.000  
  20543666.102   107957693.027       12194.887          49.000  
  21745525.148   114273505.660       13917.473          50.000  
  22663578.414   119097908.129       -9613.668          50.000  
 16  4  2 13 11  7.2000000  0  4G12G13G19G20
  21995064.852   115584844.414        6551.176          50.000  
  20543434.125   107956473.848       12188.160          49.000  
  21745260.336   114272114.086       13914.055          50.000  
  22663761.398   119098869.734       -9618.547          50.000  
 16  4  2 13 11  7.3000000  0  4G12G13G19G20
  21994940.211   115584189.395        6548.699          50.000  
  20543202.242   107955255.305       12181.805          49.000  
  21744995.570   114270722.797       13911.301          50.000  
  22663944.469   119099831.789       -9622.980          50.000  
 16  4  2 13 11  7.4000000  0  4G12G13G19G20
  21994815.633   115583534.734        6544.984          50.000  
  20542970.492   107954037.492       12174.266          49.000  
  21744730.891   114269331.887       13907.387          50.000  
  22664127.641   119100794.367       -9628.434          50.000  
 16  4  2 13 11  7.5000000  0  4G12G13G19G20
  21994691.109   115582880.398        6541.766          50.000  
  20542738.883   107952820.383       12167.277          49.000  
  21744466.312   114267941.340       13903.809          50.000  
  22664310.914   119101757.465       -9633.551          50.000  
 16  4  2 13 11  7.6000000  0  4G12G13G19G20
  21994566.656   115582226.375        6538.652          50.000  
  20542507.406   107951603.957       12160.488          49.000  
  21744201.766   114266551.125       13900.480          50.000  
  22664494.273   119102721.043       -9638.359          50.000  
 16  4  2 13 20 36.9000000  0  1G15
  22411919.609   117775431.055       -6443.652          49.000  
 16  4  2 13 20 37.0000000  0  1G15
  22412042.297   117776075.754       -6450.391          49.000  
 16  4  2 13 20 37.1000000  0  2G15G19
  22412165.086   117776721.195       -6458.184          49.000  
  22927954.188   120487212.352       -6222.406          50.000  
 16  4  2 13 20 37.2000000  0  2G15G19
  22412288.055   117777367.371       -6465.316          49.000  
  22928072.633   120487834.789       -6226.219          50.000  
 16  4  2 13 20 37.3000000  0  2G15G19
  22412411.125   117778014.223       -6472.172          49.000  
  22928191.148   120488457.562       -6229.770          50.000  
 16  4  2 13 20 37.4000000  0  2G15G19
  22412534.359   117778661.797       -6479.430          49.000  
  22928309.734   120489080.727       -6233.652          50.000  
 16  4  2 13 20 37.5000000  0  2G15G19
  22412657.719   117779310.133       -6487.059          49.000  
  22928428.391   120489704.305       -6237.812          50.000  
 16  4  2 13 20 37.6000000  0  2G15G19
  22412781.219   117779959.152       -6493.773          49.000  
  22928547.125   120490328.242       -6241.332          50.000  
 16  4  2 13 20 37.7000000  0  2G15G19
  22412904.867   117780608.910       -6501.422          49.000  
  22928665.922   120490952.578       -6245.637          50.000  
 16  4  2 13 20 37.8000000  0  2G15G19
  22413028.656   117781259.430       -6508.941          49.000  
  22928784.805   120491577.336       -6249.719          50.000  
 16  4  2 13 20 37.9000000  0  2G15G19
  22413152.570   117781910.625       -6515.559          49.000  
  22928903.766   120492202.438       -6253.000          50.000  
 16  4  2 13 20 38.0000000  0  2G15G19
  22413276.625   117782562.570       -6523.180          49.000  
  22929022.797   120492827.941       -6257.094          50.000  
 16  4  2 13 20 38.1000000  0  2G15G19
  22413400.828   117783215.207       -6530.066          49.000  
  22929141.914   120493453.820       -6260.820          50.000  
 16  4  2 13 20 38.2000000  0  2G15G19
  22413525.156   117783868.582       -6537.336          49.000  
  22929261.086   120494080.090       -6264.672          50.000  
 16  4  2 13 20 38.3000000  0  2G15G19
  22413649.633   117784522.641       -6544.355          49.000  
  22929380.305   120494706.688       -6268.109          50.000  
 16  4  2 13 20 38.4000000  0  2G15G19
  22413774.250   117785177.484       -6552.387          49.000  
  22929499.633   120495333.758       -6272.965          50.000  
 16  4  2 13 20 38.5000000  0  2G15G19
  22413899.008   117785833.094       -6559.812          49.000  
  22929619.031   120495961.254       -6276.961          50.000  
 16  4  2 13 20 38.6000000  0  2G15G19
  22414023.898   117786489.379       -6566.609          49.000  
  22929738.508   120496589.090       -6280.457          50.000  
 16  4  2 13 20 38.7000000  0  2G15G19
  22414148.938   117787146.363       -6573.410          49.000  
  22929858.039   120497217.301       -6284.180          50.000  
 16  4  2 13 20 38.8000000  0  2G15G19
  22414274.094   117787804.094       -6580.926          49.000  
  22929977.656   120497845.887       -6287.941          50.000  
 16  4  2 13 20 38.9000000  0  2G15G19
  22414399.375   117788462.496       -6587.535          49.000  
  22930097.344   120498474.840       -6291.328          50.000  
 16  4  2 13 20 39.0000000  0  2G15G19
  22414524.812   117789121.652       -6595.371          49.000  
  22930217.109   120499104.191       -6295.668          50.000  
 16  4  2 13 20 39.1000000  0  2G15G19
  22414650.383   117789781.500       -6602.141          49.000  
  22930336.945   120499733.918       -6299.219          50.000  
 16  4  2 13 20 39.2000000  0  2G15G19
  22414776.086   117790442.070       -6609.488          49.000  
  22930456.852   120500364.012       -6303.059          50.000  
 16  4  2 13 20 39.3000000  0  2G15G19
  22414901.930   117791103.367       -6616.543          49.000  
  22930576.812   120500994.500       -6306.836          50.000  
 16  4  2 13 20 39.4000000  0  2G15G19
  22415027.898   117791765.348       -6623.496          49.000  
  22930696.859   120501625.336       -6310.441          50.000  
 16  4  2 13 20 39.5000000  0  2G15G19
  22415154.023   117792428.047       -6630.555          49.000  
  22930816.953   120502256.566       -6314.266          50.000  
 16  4  2 13 20 39.6000000  0  2G15G19
  22415280.273   117793091.473       -6637.871          49.000  
  22930937.148   120502888.168       -6318.039          50.000  
 16  4  2 13 20 39.7000000  0  2G15G19
  22415406.648   117793755.641       -6645.418          49.000  
  22931057.422   120503520.203       -6322.367          50.000  
 16  4  2 13 20 39.8000000  0  2G15G19
  22415533.172   117794420.531       -6652.516          49.000  
  22931177.766   120504152.582       -6325.781          50.000  
 16  4  2 13 20 39.9000000  0  2G15G19
  22415659.820   117795086.121       -6659.660          49.000  
  22931298.164   120504785.367       -6329.875          50.000  
 16  4  2 13 20 40.0000000  0  2G15G19
  22415786.609   117795752.426       -6666.582          49.000  
  22931418.648   120505418.512       -6333.383          50.000  
 16  4  2 13 20 40.1000000  0  2G15G19
  22415913.516   117796419.402       -6673.207          49.000  
  22931539.195   120506051.980       -6336.512          50.000  
 16  4  2 13 20 40.2000000  0  2G15G19
  22416040.570   117797087.094       -6680.730          49.000  
  22931659.820   120506685.848       -6340.738          50.000  
 16  4  2 13 20 40.3000000  0  2G15G19
  22416167.766   117797755.527       -6687.945          49.000  
  22931780.508   120507320.113       -6344.652          50.000  
 16  4  2 13 20 40.4000000  0  2G15G19
  22416295.094   117798424.625       -6694.570          49.000  
  22931901.266   120507954.699       -6347.906          50.000  
 16  4  2 13 20 40.5000000  0  2G15G19
  22416422.578   117799094.488       -6702.105          49.000  
  22932022.102   120508589.723       -6352.004          50.000  
 16  4  2 13 20 40.6000000  0  2G15G19
  22416550.180   117799765.043       -6709.328          49.000  
  22932143.008   120509225.102       -6355.977          50.000  
 16  4  2 13 20 40.7000000  0  2G15G19
  22416677.938   117800436.352       -6716.699          49.000  
  22932264.008   120509860.898       -6359.852          50.000  
 16  4  2 13 20 40.8000000  0  2G15G19
  22416805.820   117801108.340       -6723.609          49.000  
  22932385.062   120510497.031       -6363.289          50.000  
 16  4  2 13 20 40.9000000  0  2G15G19
  22416933.805   117801781.059       -6730.863          49.000  
  22932506.188   120511133.566       -6367.379          50.000  
 16  4  2 13 20 41.0000000  0  2G15G19
  22417061.945   117802454.457       -6737.477          49.000  
  22932627.383   120511770.449       -6370.684          50.000  
 16  4  2 13 20 41.1000000  0  2G15G19
  22417190.227   117803128.535       -6744.469          49.000  
  22932748.641   120512407.656       -6374.094          50.000  
 16  4  2 13 20 41.2000000  0  2G15G19
  22417318.633   117803803.336       -6751.551          49.000  
  22932869.977   120513045.273       -6378.074          50.000  
 16  4  2 13 20 41.3000000  0  2G15G19
  22417447.180   117804478.910       -6759.352          49.000  
  22932991.391   120513683.312       -6382.480          50.000  
 16  4  2 13 20 41.4000000  0  2G15G19
  22417575.875   117805155.219       -6766.930          49.000  
  22933112.883   120514321.754       -6386.664          50.000  
 16  4  2 13 20 41.5000000  0  2G15G19
  22417704.711   117805832.262       -6774.078          49.000  
  22933234.453   120514960.590       -6390.363          50.000  
 16  4  2 13 20 41.6000000  0  2G15G19
  22417833.680   117806509.984       -6780.840          49.000  
  22933356.086   120515599.770       -6393.738          50.000  
 16  4  2 13 20 41.7000000  0  2G15G19
  22417962.789   117807188.426       -6788.023          49.000  
  22933477.789   120516239.340       -6397.656          50.000  
 16  4  2 13 20 41.8000000  0  2G15G19
  22418092.023   117807867.574       -6795.004          49.000  
  22933599.562   120516879.266       -6401.102          50.000  
 16  4  2 13 20 41.9000000  0  2G15G19
  22418221.406   117808547.406       -6801.840          49.000  
  22933721.406   120517519.559       -6404.777          50.000  
 16  4  2 13 20 42.0000000  0  2G15G19
  22418350.898   117809227.891       -6808.551          49.000  
  22933843.305   120518160.152       -6408.012          50.000  
 16  4  2 13 20 42.1000000  0  2G15G19
  22418480.531   117809909.184       -6816.582          49.000  
  22933965.289   120518801.230       -6412.750          50.000  
 16  4  2 13 20 42.2000000  0  2G15G19
  22418610.320   117810591.207       -6823.973          49.000  
  22934087.359   120519442.699       -6416.848          50.000  
 16  4  2 13 20 42.3000000  0  2G15G19
  22418740.242   117811273.961       -6831.168          49.000  
  22934209.500   120520084.551       -6420.602          50.000  
 16  4  2 13 20 42.4000000  0  2G15G19
  22418870.305   117811957.426       -6838.199          49.000  
  22934331.711   120520726.789       -6424.359          50.000  
 16  4  2 13 20 42.5000000  0  2G15G19
  22419000.484   117812641.551       -6844.824          49.000  
  22934453.992   120521369.352       -6427.625          50.000  
 16  4  2 13 20 42.6000000  0  2G15G19
  22419130.812   117813326.441       -6852.477          49.000  
  22934576.344   120522012.340       -6431.789          50.000  
 16  4  2 13 20 42.7000000  0  2G15G19
  22419261.289   117814012.000       -6859.242          49.000  
  22934698.750   120522655.656       -6435.238          50.000  
 16  4  2 13 20 42.8000000  0  2G15G19
  22419391.898   117814698.332       -6866.922          49.000  
  22934821.258   120523299.414       -6439.539          50.000  
 16  4  2 13 20 42.9000000  0  2G15G19
  22419522.625   117815385.352       -6873.949          49.000  
  22934943.812   120523943.527       -6443.191          50.000  
 16  4  2 13 20 43.0000000  0  2G15G19
  22419653.492   117816073.082       -6880.980          49.000  
  22935066.445   120524588.004       -6446.793          50.000  
 16  4  2 13 20 43.1000000  0  2G15G19
  22419784.516   117816761.520       -6887.828          49.000  
  22935189.164   120525232.859       -6450.395          50.000  
 16  4  2 13 20 43.2000000  0  2G15G19
  22419915.656   117817450.699       -6895.691          49.000  
  22935311.953   120525878.129       -6454.871          50.000  
 16  4  2 13 20 43.3000000  0  2G15G19
  22420046.953   117818140.637       -6902.980          49.000  
  22935434.820   120526523.805       -6458.742          50.000  
 16  4  2 13 20 43.4000000  0  2G15G19
  22420178.375   117818831.273       -6910.160          49.000  
  22935557.758   120527169.848       -6462.523          50.000  
 16  4  2 13 20 43.5000000  0  2G15G19
  22420309.938   117819522.656       -6917.469          49.000  
  22935680.789   120527816.309       -6466.574          50.000  
 16  4  2 13 20 43.6000000  0  2G15G19
  22420441.617   117820214.621       -6923.242          49.000  
  22935803.852   120528463.008       -6468.898          50.000  
 16  4  2 13 20 43.7000000  0  2G15G19
  22420573.445   117820907.371       -6931.102          49.000  
  22935927.000   120529110.160       -6473.465          50.000  
 16  4  2 13 20 43.8000000  0  2G15G19
  22420705.406   117821600.848       -6938.238          49.000  
  22936050.227   120529757.707       -6477.258          50.000  
 16  4  2 13 20 43.9000000  0  2G15G19
  22420837.492   117822294.941       -6944.688          49.000  
  22936173.508   120530405.527       -6480.355          50.000  
 16  4  2 13 20 44.0000000  0  2G15G19
  22420969.742   117822989.902       -6953.332          49.000  
  22936296.883   120531053.871       -6485.434          50.000  
 16  4  2 13 20 44.1000000  0  2G15G19
  22421102.141   117823685.582       -6960.590          49.000  
  22936420.336   120531702.621       -6489.539          50.000  
 16  4  2 13 20 44.2000000  0  2G15G19
  22421234.641   117824381.871       -6966.668          49.000  
  22936543.836   120532351.621       -6492.125          50.000  
 16  4  2 13 20 44.3000000  0  2G15G19
  22421367.266   117825078.871       -6973.312          49.000  
  22936667.406   120533001.004       -6495.488          50.000  
 16  4  2 13 20 44.4000000  0  2G15G19
  22421500.039   117825776.609       -6980.949          49.000  
  22936791.055   120533650.797       -6499.742          50.000  
 16  4  2 13 20 44.5000000  0  2G15G19
  22421632.953   117826475.066       -6988.293          49.000  
  22936914.789   120534300.965       -6503.871          50.000  
 16  4  2 13 20 44.6000000  0  2G15G19
  22421766.000   117827174.234       -6995.371          49.000  
  22937038.578   120534951.508       -6507.555          50.000  
 16  4  2 13 20 44.7000000  0  2G15G19
  22421899.188   117827874.082       -7001.945          49.000  
  22937162.430   120535602.398       -6510.805          50.000  
 16  4  2 13 20 44.8000000  0  2G15G19
  22422032.508   117828574.652       -7009.234          49.000  
  22937286.359   120536253.668       -6514.688          50.000  
 16  4  2 13 20 44.9000000  0  2G15G19
  22422165.961   117829275.949       -7016.531          49.000  
  22937410.391   120536905.336       -6518.629          50.000  
 16  4  2 13 20 45.0000000  0  2G15G19
  22422299.555   117829977.996       -7023.801          49.000  
  22937534.469   120537557.410       -6522.449          50.000  
 16  4  2 13 20 45.1000000  0  2G15G19
  22422433.289   117830680.703       -7030.949          49.000  
  22937658.617   120538209.824       -6526.398          50.000  
 16  4  2 13 20 45.2000000  0  2G15G19
  22422567.156   117831384.207       -7038.723          49.000  
  22937782.852   120538862.672       -6530.520          50.000  
 16  4  2 13 20 45.3000000  0  2G15G19
  22422701.148   117832088.352       -7045.090          49.000  
  22937907.148   120539515.848       -6533.789          50.000  
 16  4  2 13 20 45.4000000  0  2G15G19
  22422835.273   117832793.203       -7052.141          49.000  
  22938031.516   120540169.387       -6537.258          50.000  
 16  4  2 13 20 45.5000000  0  2G15G19
  22422969.531   117833498.676       -7058.320          49.000  
  22938155.945   120540823.211       -6540.199          50.000  
 16  4  2 13 20 45.6000000  0  2G15G19
  22423103.938   117834204.965       -7066.426          49.000  
  22938280.453   120541477.516       -6544.855          50.000  
 16  4  2 13 20 45.7000000  0  2G15G19
  22423238.484   117834911.988       -7074.027          49.000  
  22938405.039   120542132.223       -6549.191          50.000  
 16  4  2 13 20 45.8000000  0  2G15G19
  22423373.156   117835619.711       -7080.969          49.000  
  22938529.695   120542787.293       -6552.863          50.000  
 16  4  2 13 20 45.9000000  0  2G15G19
  22423507.969   117836328.156       -7088.098          49.000  
  22938654.422   120543442.742       -6556.547          50.000  
 16  4  2 13 20 46.0000000  0  2G15G19
  22423642.922   117837037.324       -7095.414          49.000  
  22938779.219   120544098.578       -6560.500          50.000  
 16  4  2 13 20 46.1000000  0  2G15G19
  22423778.016   117837747.211       -7102.199          49.000  
  22938904.094   120544754.805       -6563.938          50.000  
 16  4  2 13 20 46.2000000  0  2G15G19
  22423913.219   117838457.738       -7108.969          49.000  
  22939029.023   120545411.328       -6567.301          50.000  
 16  4  2 13 20 46.3000000  0  2G15G19
  22424048.562   117839168.969       -7115.941          49.000  
  22939154.023   120546068.230       -6570.969          50.000  
 16  4  2 13 20 46.4000000  0  2G15G19
  22424184.055   117839880.996       -7124.027          49.000  
  22939279.117   120546725.586       -6575.570          50.000  
 16  4  2 13 20 46.5000000  0  2G15G19
  22424319.656   117840593.664       -7130.273          49.000  
  22939404.266   120547383.246       -6578.625          50.000  
 16  4  2 13 20 46.6000000  0  2G15G19
  22424455.406   117841307.047       -7137.355          49.000  
  22939529.484   120548041.277       -6582.207          50.000  
 16  4  2 13 20 46.7000000  0  2G15G19
  22424591.297   117842021.152       -7144.672          49.000  
  22939654.773   120548699.711       -6586.223          50.000  
 16  4  2 13 20 46.8000000  0  2G15G19
  22424727.328   117842735.980       -7152.020          49.000  
  22939780.141   120549358.520       -6590.090          50.000  
 16  4  2 13 20 46.9000000  0  2G15G19
  22424863.469   117843451.504       -7158.895          49.000  
  22939905.586   120550017.691       -6593.680          50.000  
 16  4  2 13 20 47.0000000  0  2G15G19
  22424999.773   117844167.781       -7166.379          49.000  
  22940031.102   120550677.293       -6597.930          50.000  
 16  4  2 13 20 47.1000000  0  2G15G19
  22425136.195   117844884.707       -7172.848          49.000  
  22940156.680   120551337.195       -6600.984          50.000  
 16  4  2 13 20 47.2000000  0  2G15G19
  22425272.758   117845602.371       -7180.270          49.000  
  22940282.336   120551997.500       -6605.086          50.000  
 16  4  2 13 20 47.3000000  0  2G15G19
  22425409.453   117846320.742       -7187.137          49.000  
  22940408.039   120552658.172       -6608.527          50.000  
 16  4  2 13 20 47.4000000  0  2G15G19
  22425546.289   117847039.824       -7194.371          49.000  
  22940533.836   120553319.227       -6612.465          50.000  
 16  4  2 13 20 47.5000000  0  2G15G19
  22425683.281   117847759.672       -7202.254          49.000  
  22940659.727   120553980.711       -6616.984          50.000  
 16  4  2 13 20 47.6000000  0  2G15G19
  22425820.406   117848480.266       -7209.641          49.000  
  22940785.680   120554642.602       -6621.047          50.000  
 16  4  2 13 20 47.7000000  0  2G15G19
  22425957.656   117849201.555       -7216.473          49.000  
  22940911.688   120555304.832       -6624.281          50.000  
 16  4  2 13 20 47.8000000  0  2G15G19
  22426095.039   117849923.484       -7223.043          49.000  
  22941037.766   120555967.402       -6627.762          50.000  
 16  4  2 13 20 47.9000000  0  2G15G19
  22426232.547   117850646.137       -7229.922          49.000  
  22941163.922   120556630.348       -6631.191          50.000  
 16  4  2 13 20 48.0000000  0  2G15G19
  22426370.211   117851369.531       -7237.434          49.000  
  22941290.148   120557293.691       -6635.324          50.000  
 16  4  2 13 20 48.1000000  0  2G15G19
  22426508.008   117852093.633       -7244.555          49.000  
  22941416.469   120557957.418       -6639.117          50.000  
 16  4  2 13 20 48.2000000  0  2G15G19
  22426645.922   117852818.391       -7251.098          49.000  
  22941542.828   120558621.449       -6642.207          50.000  
 16  4  2 13 20 48.3000000  0  2G15G19
  22426783.977   117853543.855       -7258.191          49.000  
  22941669.273   120559285.867       -6645.930          50.000  
 16  4  2 13 20 48.4000000  0  2G15G19
  22426922.172   117854270.094       -7266.027          49.000  
  22941795.789   120559950.723       -6650.660          50.000  
 16  4  2 13 20 48.5000000  0  2G15G19
  22427060.500   117854996.965       -7272.367          49.000  
  22941922.359   120560615.863       -6653.500          50.000  
 16  4  2 13 20 48.6000000  0  2G15G19
  22427198.969   117855724.609       -7280.074          49.000  
  22942049.016   120561281.457       -6657.855          50.000  
 16  4  2 13 20 48.7000000  0  2G15G19
  22427337.562   117856452.938       -7286.953          49.000  
  22942175.750   120561947.387       -6661.258          50.000  
 16  4  2 13 20 48.8000000  0  2G15G19
  22427476.289   117857181.965       -7293.836          49.000  
  22942302.539   120562613.676       -6664.820          50.000  
 16  4  2 13 20 48.9000000  0  2G15G19
  22427615.141   117857911.680       -7300.652          49.000  
  22942429.391   120563280.328       -6668.281          50.000  
 16  4  2 13 20 49.0000000  0  2G15G19
  22427754.133   117858642.078       -7307.562          49.000  
  22942556.312   120563947.328       -6672.113          50.000  
 16  4  2 13 20 49.1000000  0  2G15G19
  22427893.258   117859373.258       -7315.324          49.000  
  22942683.320   120564614.754       -6676.117          50.000  
 16  4  2 13 20 49.2000000  0  2G15G19
  22428032.523   117860105.102       -7322.145          49.000  
  22942810.391   120565282.535       -6679.793          50.000  
 16  4  2 13 20 49.3000000  0  2G15G19
  22428171.922   117860837.656       -7329.125          49.000  
  22942937.555   120565950.680       -6683.410          50.000  
 16  4  2 13 20 49.4000000  0  2G15G19
  22428311.461   117861570.961       -7336.582          49.000  
  22943064.773   120566619.234       -6687.422          50.000  
 16  4  2 13 20 49.5000000  0  2G15G19
  22428451.125   117862304.906       -7343.129          49.000  
  22943192.055   120567288.098       -6690.613          50.000  
 16  4  2 13 20 49.6000000  0  2G15G19
  22428590.938   117863039.625       -7350.867          49.000  
  22943319.422   120567957.410       -6695.105          50.000  
 16  4  2 13 20 49.7000000  0  2G15G19
  22428730.883   117863775.059       -7357.941          49.000  
  22943446.859   120568627.090       -6698.730          50.000  
 16  4  2 13 20 49.8000000  0  2G15G19
  22428870.961   117864511.176       -7364.902          49.000  
  22943574.367   120569297.109       -6702.250          50.000  
 16  4  2 13 20 49.9000000  0  2G15G19
  22429011.188   117865247.992       -7371.703          49.000  
  22943701.930   120569967.500       -6705.680          50.000  
 16  4  2 13 20 50.0000000  0  2G15G19
  22429151.531   117865985.523       -7378.984          49.000  
  22943829.570   120570638.273       -6709.684          50.000  
 16  4  2 13 20 50.1000000  0  2G15G19
  22429292.008   117866723.770       -7385.988          49.000  
  22943957.273   120571309.430       -6713.461          50.000  
 16  4  2 13 20 50.2000000  0  2G15G19
  22429432.617   117867462.707       -7393.059          49.000  
  22944085.055   120571980.934       -6717.078          50.000  
 16  4  2 13 20 50.3000000  0  2G15G19
  22429573.375   117868202.391       -7400.398          49.000  
  22944212.906   120572652.852       -6721.098          50.000  
 16  4  2 13 20 50.4000000  0  2G15G19
  22429714.258   117868942.734       -7407.172          49.000  
  22944340.828   120573325.086       -6724.324          50.000  
 16  4  2 13 20 50.5000000  0  2G15G19
  22429855.266   117869683.754       -7413.699          49.000  
  22944468.828   120573997.676       -6727.750          50.000  
 16  4  2 13 20 50.6000000  0  2G15G19
  22429996.422   117870425.535       -7421.469          49.000  
  22944596.898   120574670.684       -6732.172          50.000  
 16  4  2 13 20 50.7000000  0  2G15G19
  22430137.727   117871168.047       -7428.824          49.000  
  22944725.047   120575344.086       -6736.090          50.000  
 16  4  2 13 20 50.8000000  0  2G15G19
  22430279.156   117871911.266       -7435.855          49.000  
  22944853.258   120576017.848       -6739.609          50.000  
 16  4  2 13 20 50.9000000  0  2G15G19
  22430420.711   117872655.160       -7442.594          49.000  
  22944981.531   120576691.973       -6743.184          50.000  
 16  4  2 13 20 51.0000000  0  2G15G19
  22430562.406   117873399.789       -7449.809          49.000  
  22945109.891   120577366.492       -6747.102          50.000  
 16  4  2 13 20 51.1000000  0  2G15G19
  22430704.227   117874145.090       -7456.492          49.000  
  22945238.312   120578041.336       -6750.316          50.000  
 16  4  2 13 20 51.2000000  0  2G15G19
  22430846.188   117874891.074       -7463.266          49.000  
  22945366.797   120578716.527       -6753.746          50.000  
 16  4  2 13 20 51.3000000  0  2G15G19
  22430988.281   117875637.801       -7470.832          49.000  
  22945495.359   120579392.137       -6757.996          50.000  
 16  4  2 13 20 51.4000000  0  2G15G19
  22431130.516   117876385.242       -7477.891          49.000  
  22945623.992   120580068.117       -6761.734          50.000  
 16  4  2 13 20 51.5000000  0  2G15G19
  22431272.875   117877133.387       -7485.086          49.000  
  22945752.695   120580744.457       -6765.414          50.000  
 16  4  2 13 20 51.6000000  0  2G15G19
  22431415.383   117877882.238       -7492.070          49.000  
  22945881.477   120581421.191       -6769.203          50.000  
 16  4  2 13 20 51.7000000  0  2G15G19
  22431558.016   117878631.770       -7498.867          49.000  
  22946010.320   120582098.250       -6772.578          50.000  
 16  4  2 13 20 51.8000000  0  2G15G19
  22431700.781   117879382.008       -7505.949          49.000  
  22946139.234   120582775.695       -6776.324          50.000  
 16  4  2 13 20 51.9000000  0  2G15G19
  22431843.688   117880132.957       -7513.137          49.000  
  22946268.219   120583453.504       -6780.109          50.000  
 16  4  2 13 20 52.0000000  0  2G15G19
  22431986.727   117880884.648       -7520.676          49.000  
  22946397.281   120584131.719       -6784.203          50.000  
 16  4  2 13 20 52.1000000  0  2G15G19
  22432129.914   117881637.031       -7527.562          49.000  
  22946526.406   120584810.305       -6787.910          50.000  
 16  4  2 13 20 52.2000000  0  2G15G19
  22432273.234   117882390.152       -7534.863          49.000  
  22946655.609   120585489.277       -6791.832          50.000  
 16  4  2 13 20 52.3000000  0  2G15G19
  22432416.672   117883143.953       -7541.590          49.000  
  22946784.883   120586168.613       -6795.340          50.000  
 16  4  2 13 20 52.4000000  0  2G15G19
  22432560.258   117883898.500       -7549.027          49.000  
  22946914.227   120586848.332       -6799.094          50.000  
 16  4  2 13 20 52.5000000  0  2G15G19
  22432703.977   117884653.703       -7555.715          49.000  
  22947043.625   120587528.391       -6802.609          50.000  
 16  4  2 13 20 52.6000000  0  2G15G19
  22432847.820   117885409.609       -7562.637          49.000  
  22947173.109   120588208.820       -6806.188          50.000  
 16  4  2 13 20 52.7000000  0  2G15G19
  22432991.789   117886166.215       -7569.457          49.000  
  22947302.656   120588889.594       -6809.570          50.000  
 16  4  2 13 20 52.8000000  0  2G15G19
  22433135.906   117886923.547       -7576.996          49.000  
  22947432.281   120589570.770       -6813.801          50.000  
 16  4  2 13 20 52.9000000  0  2G15G19
  22433280.156   117887681.621       -7584.293          49.000  
  22947561.969   120590252.363       -6817.824          50.000  
 16  4  2 13 20 53.0000000  0  2G15G19
  22433424.539   117888440.363       -7591.016          49.000  
  22947691.727   120590934.270       -6821.105          50.000  
 16  4  2 13 20 53.1000000  0  2G15G19
  22433569.047   117889199.805       -7597.992          49.000  
  22947821.562   120591616.555       -6824.730          50.000  
 16  4  2 13 20 53.2000000  0  2G15G19
  22433713.719   117889960.051       -7606.047          49.000  
  22947951.484   120592299.301       -6829.465          50.000  
 16  4  2 13 20 53.3000000  0  2G15G19
  22433858.500   117890720.871       -7611.797          49.000  
  22948081.469   120592982.289       -6831.816          50.000  
 16  4  2 13 20 53.4000000  0  2G15G19
  22434003.414   117891482.422       -7618.953          49.000  
  22948211.516   120593665.668       -6835.488          50.000  
 16  4  2 13 20 53.5000000  0  2G15G19
  22434148.461   117892244.641       -7626.066          49.000  
  22948341.617   120594349.391       -6839.367          50.000  
 16  4  2 13 20 53.6000000  0  2G15G19
  22434293.656   117893007.672       -7633.820          49.000  
  22948471.812   120595033.582       -6843.746          50.000  
 16  4  2 13 20 53.7000000  0  2G15G19
  22434438.992   117893771.402       -7641.270          49.000  
  22948602.078   120595718.141       -6847.891          50.000  
 16  4  2 13 20 53.8000000  0  2G15G19
  22434584.469   117894535.883       -7648.406          49.000  
  22948732.422   120596403.105       -6851.660          50.000  
 16  4  2 13 20 53.9000000  0  2G15G19
  22434730.086   117895301.016       -7654.891          49.000  
  22948862.844   120597088.402       -6854.883          50.000  
 16  4  2 13 20 54.0000000  0  2G15G19
  22434875.828   117896066.891       -7662.289          49.000  
  22948993.320   120597774.086       -6858.875          50.000  
 16  4  2 13 20 54.1000000  0  2G15G19
  22435021.695   117896833.434       -7669.078          49.000  
  22949123.875   120598460.113       -6862.305          50.000  
 16  4  2 13 20 54.2000000  0  2G15G19
  22435167.695   117897600.664       -7675.801          49.000  
  22949254.484   120599146.488       -6865.566          50.000  
 16  4  2 13 20 54.3000000  0  2G15G19
  22435313.844   117898368.594       -7682.969          49.000  
  22949385.172   120599833.238       -6869.543          50.000  
 16  4  2 13 20 54.4000000  0  2G15G19
  22435460.109   117899137.246       -7689.816          49.000  
  22949515.930   120600520.363       -6872.953          50.000  
 16  4  2 13 20 54.5000000  0  2G15G19
  22435606.492   117899906.516       -7696.379          49.000  
  22949646.734   120601207.777       -6876.160          50.000  
 16  4  2 13 20 54.6000000  0  2G15G19
  22435753.039   117900676.598       -7704.461          49.000  
  22949777.641   120601895.672       -6880.840          50.000  
 16  4  2 13 20 54.7000000  0  2G15G19
  22435899.703   117901447.336       -7711.102          49.000  
  22949908.609   120602583.895       -6884.285          50.000  
 16  4  2 13 20 54.8000000  0  2G15G19
  22436046.516   117902218.844       -7718.547          49.000  
  22950039.656   120603272.535       -6888.262          50.000  
 16  4  2 13 20 54.9000000  0  2G15G19
  22436193.453   117902991.047       -7725.812          49.000  
  22950170.766   120603961.527       -6892.082          50.000  
 16  4  2 13 20 55.0000000  0  2G15G19
  22436340.531   117903763.941       -7732.406          49.000  
  22950301.945   120604650.891       -6895.348          50.000  
 16  4  2 13 20 55.1000000  0  2G15G19
  22436487.742   117904537.477       -7738.688          49.000  
  22950433.172   120605340.562       -6898.355          50.000  
 16  4  2 13 20 55.2000000  0  2G15G19
  22436635.078   117905311.734       -7745.988          49.000  
  22950564.484   120606030.613       -6902.402          50.000  
 16  4  2 13 20 55.3000000  0  2G15G19
  22436782.562   117906086.762       -7753.965          49.000  
  22950695.883   120606721.105       -6906.953          50.000  
 16  4  2 13 20 55.4000000  0  2G15G19
  22436930.164   117906862.406       -7760.047          49.000  
  22950827.328   120607411.871       -6909.629          50.000  
 16  4  2 13 20 55.5000000  0  2G15G19
  22437077.898   117907638.777       -7767.375          49.000  
  22950958.859   120608103.031       -6913.641          50.000  
 16  4  2 13 20 55.6000000  0  2G15G19
  22437225.781   117908415.891       -7774.895          49.000  
  22951090.461   120608794.598       -6917.715          50.000  
 16  4  2 13 20 55.7000000  0  2G15G19
  22437373.789   117909193.715       -7781.855          49.000  
  22951222.141   120609486.547       -6921.414          50.000  
 16  4  2 13 20 55.8000000  0  2G15G19
  22437521.922   117909972.156       -7787.734          49.000  
  22951353.867   120610178.773       -6923.957          50.000  
 16  4  2 13 20 55.9000000  0  2G15G19
  22437670.203   117910751.363       -7795.613          49.000  
  22951485.672   120610871.430       -6928.461          50.000  
 16  4  2 13 20 56.0000000  0  2G15G19
  22437818.617   117911531.270       -7802.863          49.000  
  22951617.547   120611564.449       -6932.348          50.000  
 16  4  2 13 20 56.1000000  0  2G15G19
  22437967.164   117912311.910       -7809.953          49.000  
  22951749.508   120612257.863       -6936.023          50.000  
 16  4  2 13 20 56.2000000  0  2G15G19
  22438115.844   117913093.238       -7817.074          49.000  
  22951881.523   120612951.641       -6939.887          50.000  
 16  4  2 13 20 56.3000000  0  2G15G19
  22438264.664   117913875.289       -7823.898          49.000  
  22952013.625   120613645.793       -6943.262          50.000  
 16  4  2 13 20 56.4000000  0  2G15G19
  22438413.617   117914658.023       -7830.957          49.000  
  22952145.781   120614340.312       -6947.078          50.000  
 16  4  2 13 20 56.5000000  0  2G15G19
  22438562.680   117915441.426       -7837.441          49.000  
  22952278.008   120615035.152       -6950.277          50.000  
 16  4  2 13 20 56.6000000  0  2G15G19
  22438711.898   117916225.555       -7844.855          49.000  
  22952410.305   120615730.383       -6954.332          50.000  
 16  4  2 13 20 56.7000000  0  2G15G19
  22438861.242   117917010.410       -7852.199          49.000  
  22952542.680   120616426.008       -6958.250          50.000  
 16  4  2 13 20 56.8000000  0  2G15G19
  22439010.734   117917795.984       -7859.500          49.000  
  22952675.125   120617122.008       -6962.129          50.000  
 16  4  2 13 20 56.9000000  0  2G15G19
  22439160.352   117918582.230       -7866.008          49.000  
  22952807.648   120617818.355       -6965.344          50.000  
 16  4  2 13 20 57.0000000  0  2G15G19
  22439310.102   117919369.195       -7873.141          49.000  
  22952940.227   120618515.078       -6969.109          50.000  
 16  4  2 13 20 57.1000000  0  2G15G19
  22439459.984   117920156.801       -7879.789          49.000  
  22953072.867   120619212.113       -6972.332          50.000  
 16  4  2 13 20 57.2000000  0  2G15G19
  22439610.000   117920945.152       -7886.992          49.000  
  22953205.586   120619909.559       -6976.332          50.000  
 16  4  2 13 20 57.3000000  0  2G15G19
  22439760.164   117921734.273       -7894.844          49.000  
  22953338.383   120620607.438       -6980.777          50.000  
 16  4  2 13 20 57.4000000  0  2G15G19
  22439910.445   117922524.016       -7900.809          49.000  
  22953471.242   120621305.594       -6983.434          50.000  
 16  4  2 13 20 57.5000000  0  2G15G19
  22440060.859   117923314.406       -7907.371          49.000  
  22953604.148   120622004.074       -6986.660          50.000  
 16  4  2 13 20 57.6000000  0  2G15G19
  22440211.414   117924105.582       -7915.309          49.000  
  22953737.148   120622703.000       -6991.133          50.000  
 16  4  2 13 20 57.7000000  0  2G15G19
  22440362.094   117924897.430       -7922.141          49.000  
  22953870.219   120623402.273       -6994.699          50.000  
 16  4  2 13 20 57.8000000  0  2G15G19
  22440512.914   117925689.980       -7929.168          49.000  
  22954003.352   120624101.906       -6998.387          50.000  
 16  4  2 13 20 57.9000000  0  2G15G19
  22440663.875   117926483.281       -7936.492          49.000  
  22954136.570   120624801.945       -7002.230          50.000  
 16  4  2 13 20 58.0000000  0  2G15G19
  22440814.953   117927277.191       -7942.766          49.000  
  22954269.836   120625502.277       -7005.215          50.000  
 16  4  2 13 20 58.1000000  0  2G15G19
  22440966.172   117928071.852       -7950.180          49.000  
  22954403.188   120626203.016       -7009.328          50.000  
 16  4  2 13 20 58.2000000  0  2G15G19
  22441117.523   117928867.203       -7957.035          49.000  
  22954536.602   120626904.105       -7012.906          50.000  
 16  4  2 13 20 58.3000000  0  2G15G19
  22441269.008   117929663.203       -7963.512          49.000  
  22954670.070   120627605.512       -7016.000          50.000  
 16  4  2 13 20 58.4000000  0  2G15G19
  22441420.625   117930459.969       -7971.230          49.000  
  22954803.625   120628307.348       -7020.312          50.000  
 16  4  2 13 20 58.5000000  0  2G15G19
  22441572.383   117931257.469       -7978.629          49.000  
  22954937.258   120629009.586       -7024.262          50.000  
 16  4  2 13 20 58.6000000  0  2G15G19
  22441724.273   117932055.656       -7985.691          49.000  
  22955070.961   120629712.172       -7028.055          50.000  
 16  4  2 13 20 58.7000000  0  2G15G19
  22441876.289   117932854.578       -7992.848          49.000  
  22955204.734   120630415.160       -7031.945          50.000  
 16  4  2 13 20 58.8000000  0  2G15G19
  22442028.453   117933654.191       -7999.629          49.000  
  22955338.578   120631118.508       -7035.336          50.000  
 16  4  2 13 20 58.9000000  0  2G15G19
  22442180.750   117934454.496       -8006.461          49.000  
  22955472.492   120631822.219       -7038.895          50.000  
 16  4  2 13 20 59.0000000  0  2G15G19
  22442333.156   117935255.418       -8012.508          49.000  
  22955606.453   120632526.191       -7041.410          50.000  
 16  4  2 13 20 59.1000000  0  2G15G19
  22442485.695   117936057.020       -8019.449          49.000  
  22955740.492   120633230.520       -7045.020          50.000  
 16  4  2 13 20 59.2000000  0  2G15G19
  22442638.383   117936859.410       -8027.461          49.000  
  22955874.609   120633935.305       -7049.738          50.000  
 16  4  2 13 20 59.3000000  0  2G15G19
  22442791.195   117937662.430       -8034.004          49.000  
  22956008.773   120634640.383       -7052.898          50.000  
 16  4  2 13 20 59.4000000  0  2G15G19
  22442944.141   117938466.188       -8041.012          49.000  
  22956143.023   120635345.859       -7056.484          50.000  
 16  4  2 13 20 59.5000000  0  2G15G19
  22443097.227   117939270.621       -8047.910          49.000  
  22956277.336   120636051.691       -7060.215          50.000  
 16  4  2 13 20 59.6000000  0  2G15G19
  22443250.453   117940075.824       -8055.852          49.000  
  22956411.734   120636757.938       -7064.672          50.000  
 16  4  2 13 20 59.7000000  0  2G15G19
  22443403.820   117940881.758       -8063.047          49.000  
  22956546.203   120637464.598       -7068.672          50.000  
 16  4  2 13 20 59.8000000  0  2G15G19
  22443557.312   117941688.367       -8069.770          49.000  
  22956680.742   120638171.586       -7071.922          50.000  
 16  4  2 13 20 59.9000000  0  2G15G19
  22443710.945   117942495.699       -8076.969          49.000  
  22956815.352   120638878.953       -7075.777          50.000  
 16  4  2 13 21  0.0000000  0  2G15G19
  22443864.711   117943303.754       -8084.055          49.000  
  22956950.039   120639586.742       -7079.781          50.000  
 16  4  2 13 21  0.1000000  0  2G15G19
  22444018.617   117944112.516       -8091.297          49.000  
  22957084.789   120640294.879       -7083.426          50.000  
 16  4  2 13 21  0.2000000  0  2G15G19
  22444172.641   117944921.930       -8097.531          49.000  
  22957219.609   120641003.332       -7086.367          50.000  
 16  4  2 13 21  0.3000000  0  2G15G19
  22444326.805   117945732.066       -8104.941          49.000  
  22957354.500   120641712.188       -7090.488          50.000  
 16  4  2 13 21  0.4000000  0  2G15G19
  22444481.094   117946542.875       -8111.590          49.000  
  22957489.445   120642421.344       -7093.516          50.000  
 16  4  2 13 21  0.5000000  0  2G15G19
  22444635.523   117947354.383       -8118.719          49.000  
  22957624.469   120643130.906       -7097.574          50.000  
 16  4  2 13 21  0.6000000  0  2G15G19
  22444790.078   117948166.574       -8125.449          49.000  
  22957759.555   120643840.801       -7100.922          50.000  
 16  4  2 13 21  0.7000000  0  2G15G19
  22444944.766   117948979.488       -8132.828          49.000  
  22957894.719   120644551.082       -7104.770          50.000  
 16  4  2 13 21  0.8000000  0  2G15G19
  22445099.586   117949793.086       -8139.508          49.000  
  22958029.945   120645261.715       -7108.180          50.000  
 16  4  2 13 21  0.9000000  0  2G15G19
  22445254.539   117950607.391       -8146.598          49.000  
  22958165.242   120645972.723       -7112.035          50.000  
 16  4  2 13 21  1.0000000  0  2G15G19
  22445409.633   117951422.410       -8153.824          49.000  
  22958300.609   120646684.102       -7115.758          50.000  
 16  4  2 13 21  1.1000000  0  2G15G19
  22445564.859   117952238.137       -8160.793          49.000  
  22958436.062   120647395.867       -7119.469          50.000  
 16  4  2 13 21  1.2000000  0  2G15G19
  22445720.219   117953054.586       -8168.184          49.000  
  22958571.578   120648108.008       -7123.477          50.000  
 16  4  2 13 21  1.3000000  0  2G15G19
  22445875.719   117953871.762       -8175.512          49.000  
  22958707.164   120648820.543       -7127.418          50.000  
 16  4  2 13 21  1.4000000  0  2G15G19
  22446031.352   117954689.617       -8182.078          49.000  
  22958842.820   120649533.422       -7130.750          50.000  
 16  4  2 13 21  1.5000000  0  2G15G19
  22446187.117   117955508.184       -8189.426          49.000  
  22958978.555   120650246.684       -7134.648          50.000  
 16  4  2 13 21  1.6000000  0  2G15G19
  22446343.016   117956327.445       -8196.254          49.000  
  22959114.352   120650960.297       -7138.023          50.000  
 16  4  2 13 21  1.7000000  0  2G15G19
  22446499.055   117957147.438       -8203.520          49.000  
  22959250.234   120651674.324       -7142.188          50.000  
 16  4  2 13 21  1.8000000  0  2G15G19
  22446655.227   117957968.141       -8210.535          49.000  
  22959386.172   120652388.699       -7145.680          50.000  
 16  4  2 13 21  1.9000000  0  2G15G19
  22446811.523   117958789.500       -8217.324          49.000  
  22959522.188   120653103.422       -7149.141          50.000  
 16  4  2 13 21  2.0000000  0  2G15G19
  22446967.969   117959611.598       -8224.613          49.000  
  22959658.266   120653818.527       -7153.086          50.000  
 16  4  2 13 21  2.1000000  0  2G15G19
  22447124.547   117960434.453       -8232.121          49.000  
  22959794.430   120654534.082       -7157.406          50.000  
 16  4  2 13 21  2.2000000  0  2G15G19
  22447281.258   117961257.984       -8238.844          49.000  
  22959930.656   120655249.961       -7160.812          50.000  
 16  4  2 13 21  2.3000000  0  2G15G19
  22447438.094   117962082.207       -8245.879          49.000  
  22960066.953   120655966.188       -7164.328          50.000  
 16  4  2 13 21  2.4000000  0  2G15G19
  22447595.078   117962907.160       -8253.133          49.000  
  22960203.328   120656682.836       -7168.375          50.000  
 16  4  2 13 21  2.5000000  0  2G15G19
  22447752.195   117963732.824       -8260.141          49.000  
  22960339.766   120657399.832       -7171.938          50.000  
 16  4  2 13 21  2.6000000  0  2G15G19
  22447909.445   117964559.188       -8267.266          49.000  
  22960476.281   120658117.215       -7175.742          50.000  
 16  4  2 13 21  2.7000000  0  2G15G19
  22448066.812   117965386.207       -8273.797          49.000  
  22960612.852   120658834.895       -7178.734          50.000  
 16  4  2 13 21  2.8000000  0  2G15G19
  22448224.328   117966213.926       -8280.680          49.000  
  22960749.492   120659552.969       -7182.527          50.000  
 16  4  2 13 21  2.9000000  0  2G15G19
  22448381.961   117967042.348       -8287.672          49.000  
  22960886.203   120660271.395       -7186.105          50.000  
 16  4  2 13 21  3.0000000  0  2G15G19
  22448539.734   117967871.465       -8294.844          49.000  
  22961022.984   120660990.180       -7189.949          50.000  
 16  4  2 13 21  3.1000000  0  2G15G19
  22448697.648   117968701.305       -8301.871          49.000  
  22961159.844   120661709.355       -7193.617          50.000  
 16  4  2 13 21  3.2000000  0  2G15G19
  22448855.688   117969531.809       -8308.707          49.000  
  22961296.766   120662428.859       -7197.000          50.000  
 16  4  2 13 21  3.3000000  0  2G15G19
  22449013.867   117970363.039       -8315.898          49.000  
  22961433.742   120663148.762       -7200.996          50.000  
 16  4  2 13 21  3.4000000  0  2G15G19
  22449172.188   117971195.016       -8323.531          49.000  
  22961570.812   120663869.074       -7205.219          50.000  
 16  4  2 13 21  3.5000000  0  2G15G19
  22449330.633   117972027.668       -8330.105          49.000  
  22961707.953   120664589.719       -7208.426          50.000  
 16  4  2 13 21  3.6000000  0  2G15G19
  22449489.211   117972861.012       -8337.129          49.000  
  22961845.156   120665310.734       -7212.219          50.000  
 16  4  2 13 21  3.7000000  0  2G15G19
  22449647.930   117973695.078       -8344.066          49.000  
  22961982.430   120666032.129       -7215.816          50.000  
 16  4  2 13 21  3.8000000  0  2G15G19
  22449806.773   117974529.828       -8351.188          49.000  
  22962119.773   120666753.875       -7219.500          50.000  
 16  4  2 13 21  3.9000000  0  2G15G19
  22449965.758   117975365.273       -8358.000          49.000  
  22962257.180   120667475.984       -7222.973          50.000  
 16  4  2 13 21  4.0000000  0  2G15G19
  22450124.867   117976201.387       -8364.664          49.000  
  22962394.656   120668198.410       -7226.035          50.000  
 16  4  2 13 21  4.1000000  0  2G15G19
  22450284.109   117977038.215       -8371.773          49.000  
  22962532.211   120668921.234       -7230.059          50.000  
 16  4  2 13 21  4.2000000  0  2G15G19
  22450443.484   117977875.707       -8378.547          49.000  
  22962669.828   120669644.391       -7233.570          50.000  
 16  4  2 13 21  4.3000000  0  2G15G19
  22450602.977   117978713.930       -8385.828          49.000  
  22962807.516   120670367.941       -7237.422          50.000  
 16  4  2 13 21  4.4000000  0  2G15G19
  22450762.625   117979552.863       -8392.840          49.000  
  22962945.273   120671091.863       -7241.094          50.000  
 16  4  2 13 21  4.5000000  0  2G15G19
  22450922.391   117980392.473       -8399.836          49.000  
  22963083.109   120671816.125       -7244.727          50.000  
 16  4  2 13 21  4.6000000  0  2G15G19
  22451082.297   117981232.801       -8406.801          49.000  
  22963221.000   120672540.773       -7248.422          50.000  
 16  4  2 13 21  4.7000000  0  2G15G19
  22451242.344   117982073.855       -8414.207          49.000  
  22963358.969   120673265.812       -7252.438          50.000  
 16  4  2 13 21  4.8000000  0  2G15G19
  22451402.523   117982915.613       -8421.246          49.000  
  22963497.016   120673991.223       -7256.121          50.000  
 16  4  2 13 21  4.9000000  0  2G15G19
  22451562.836   117983758.055       -8427.949          49.000  
  22963635.117   120674716.973       -7259.414          50.000  
 16  4  2 13 21  5.0000000  0  2G15G19
  22451723.273   117984601.160       -8434.621          49.000  
  22963773.289   120675443.078       -7262.973          50.000  
 16  4  2 13 21  5.1000000  0  2G15G19
  22451883.852   117985444.977       -8441.406          49.000  
  22963911.531   120676169.535       -7266.285          50.000  
 16  4  2 13 21  5.2000000  0  2G15G19
  22452044.547   117986289.457       -8448.289          49.000  
  22964049.836   120676896.336       -7269.840          50.000  
 16  4  2 13 21  5.3000000  0  2G15G19
  22452205.383   117987134.613       -8454.984          49.000  
  22964188.211   120677623.461       -7273.172          50.000  
 16  4  2 13 21  5.4000000  0  2G15G19
  22452366.352   117987980.512       -8462.500          49.000  
  22964326.656   120678351.016       -7277.422          50.000  
 16  4  2 13 21  5.5000000  0  2G15G19
  22452527.453   117988827.133       -8469.805          49.000  
  22964465.172   120679078.938       -7281.344          50.000  
 16  4  2 13 21  5.6000000  0  2G15G19
  22452688.695   117989674.477       -8477.043          49.000  
  22964603.766   120679807.266       -7285.223          50.000  
 16  4  2 13 21  5.7000000  0  2G15G19
  22452850.070   117990522.488       -8483.629          49.000  
  22964742.422   120680535.906       -7288.266          50.000  
 16  4  2 13 21  5.8000000  0  2G15G19
  22453011.578   117991371.195       -8490.734          49.000  
  22964881.156   120681264.926       -7292.277          50.000  
 16  4  2 13 21  5.9000000  0  2G15G19
  22453173.227   117992220.617       -8497.543          49.000  
  22965019.945   120681994.324       -7295.762          50.000  
 16  4  2 13 21  6.0000000  0  2G15G19
  22453335.000   117993070.742       -8504.781          49.000  
  22965158.820   120682724.082       -7299.543          50.000  
 16  4  2 13 21  6.1000000  0  2G15G19
  22453496.883   117993921.504       -8510.984          49.000  
  22965297.742   120683454.152       -7302.398          50.000  
 16  4  2 13 21  6.2000000  0  2G15G19
  22453658.922   117994773.012       -8518.625          49.000  
  22965436.750   120684184.637       -7306.691          50.000  
 16  4  2 13 21  6.3000000  0  2G15G19
  22453821.102   117995625.254       -8526.152          49.000  
  22965575.828   120684915.516       -7310.832          50.000  
 16  4  2 13 21  6.4000000  0  2G15G19
  22453983.398   117996478.160       -8532.836          49.000  
  22965714.977   120685646.719       -7314.180          50.000  
 16  4  2 13 21  6.5000000  0  2G15G19
  22454145.836   117997331.812       -8540.066          49.000  
  22965854.188   120686378.332       -7318.031          50.000  
 16  4  2 13 21  6.6000000  0  2G15G19
  22454308.414   117998186.164       -8547.176          49.000  
  22965993.484   120687110.320       -7321.848          50.000  
 16  4  2 13 21  6.7000000  0  2G15G19
  22454471.117   117999041.176       -8553.914          49.000  
  22966132.836   120687842.629       -7325.133          50.000  
 16  4  2 13 21  6.8000000  0  2G15G19
  22454633.953   117999896.895       -8560.594          49.000  
  22966272.258   120688575.316       -7328.641          50.000  
 16  4  2 13 21  6.9000000  0  2G15G19
  22454796.930   118000753.316       -8567.711          49.000  
  22966411.750   120689308.375       -7332.520          50.000  
 16  4  2 13 21  7.0000000  0  2G15G19
  22454960.039   118001610.465       -8575.055          49.000  
  22966551.320   120690041.812       -7336.281          50.000  
 16  4  2 13 21  7.1000000  0  2G15G19
  22455123.273   118002468.254       -8581.504          49.000  
  22966690.953   120690775.566       -7339.398          50.000  
 16  4  2 13 21  7.2000000  0  2G15G19
  22455286.633   118003326.727       -8588.430          49.000  
  22966830.648   120691509.672       -7343.156          50.000  
 16  4  2 13 21  7.3000000  0  2G15G19
  22455450.148   118004185.977       -8596.020          49.000  
  22966970.430   120692244.215       -7347.277          50.000  
 16  4  2 13 21  7.4000000  0  2G15G19
  22455613.797   118005045.938       -8603.449          49.000  
  22967110.281   120692979.137       -7351.418          50.000  
 16  4  2 13 21  7.5000000  0  2G15G19
  22455777.570   118005906.582       -8609.848          49.000  
  22967250.195   120693714.410       -7354.461          50.000  
 16  4  2 13 21  7.6000000  0  2G15G19
  22455941.484   118006767.926       -8616.992          49.000  
  22967390.180   120694450.043       -7358.188          50.000  
 16  4  2 13 21  7.7000000  0  2G15G19
  22456105.523   118007629.945       -8623.695          49.000  
  22967530.227   120695186.016       -7361.562          50.000  
 16  4  2 13 21  7.8000000  0  2G15G19
  22456269.695   118008492.668       -8630.879          49.000  
  22967670.352   120695922.371       -7365.586          50.000  
 16  4  2 13 21  7.9000000  0  2G15G19
  22456434.000   118009356.117       -8638.055          49.000  
  22967810.547   120696659.098       -7369.086          50.000  
 16  4  2 13 21  8.0000000  0  2G15G19
  22456598.438   118010220.215       -8644.430          49.000  
  22967950.805   120697396.164       -7372.496          50.000  
 16  4  2 13 21  8.1000000  0  2G15G19
  22456763.000   118011085.023       -8651.676          49.000  
  22968091.125   120698133.586       -7376.281          50.000  
 16  4  2 13 21  8.2000000  0  2G15G19
  22456927.711   118011950.574       -8658.969          49.000  
  22968231.531   120698871.426       -7380.156          50.000  
 16  4  2 13 21  8.3000000  0  2G15G19
  22457092.523   118012816.750       -8665.383          49.000  
  22968371.992   120699609.555       -7383.297          49.000  
 16  4  2 13 21  8.4000000  0  2G15G19
  22457257.492   118013683.660       -8672.691          49.000  
  22968512.523   120700348.078       -7387.203          50.000  
 16  4  2 13 21  8.5000000  0  2G15G19
  22457422.594   118014551.250       -8679.559          49.000  
  22968653.133   120701086.965       -7390.805          50.000  
 16  4  2 13 21  8.6000000  0  2G15G19
  22457587.828   118015419.566       -8686.738          49.000  
  22968793.812   120701826.230       -7394.562          50.000  
