     2.10           OBSERVATION DATA    G (GPS)             RINEX VERSION / TYPE
Convert v1.8.0                          09-Jun-2016 14:46   PGM / RUN BY / DATE 
Signal Strength values S1,S2 are in dBHz                    COMMENT             
                                                            MARKER NAME         
                                                            MARKER NUMBER       
                                                            OBSERVER / AGENCY   
                    NovAtel GPSCard                         REC # / TYPE / VERS 
                                                            ANT # / TYPE        
0.0000        0.0000        0.0000                          APPROX POSITION XYZ 
        0.0000        0.0000        0.0000                  ANTENNA: DELTA H/E/N
     1     0                                                WAVELENGTH FACT L1/2
     1     0     4   G04   G07   G26   G30                  WAVELENGTH FACT L1/2
                                                            COMMENT             
                                                            COMMENT             
                                                            COMMENT             
                                                            COMMENT             
                                                            COMMENT             
                                                            COMMENT             
     4    C1    L1    D1    S1                              # / TYPES OF OBSERV 
     0.100                                                  INTERVAL            
  2016    04    02    14    20    36.8000000    GPS         TIME OF FIRST OBS   
  2016    04    02    14    22     1.9000000    GPS         TIME OF LAST OBS    
Leap Seconds Unknown                                        COMMENT             
                                                            END OF HEADER       
 16 04 02 14 20 36.8000000  0  1G04                                             
  23231346.69549 122081550.18459      4643.48449        49.000  
 16 04 02 14 20 36.9000000  0  2G04G26                                          
  23231258.32849 122081085.89149      4641.38749        50.000  
  22588741.65649 118704637.96159     -2215.52749        50.000  
 16 04 02 14 20 37.0000000  0  2G04G26                                          
  23231170.03149 122080621.87149      4638.66049        50.000  
  22588783.85249 118704859.67649     -2218.85949        50.000  
 16 04 02 14 20 37.1000000  0  2G04G26                                          
  23231081.78149 122080158.16449      4635.73449        50.000  
  22588826.11749 118705081.74649     -2222.19949        50.000  
 16 04 02 14 20 37.2000000  0  2G04G26                                          
  23230993.58649 122079694.71549      4632.91849        50.000  
  22588868.43049 118705304.12549     -2225.55549        50.000  
 16 04 02 14 20 37.3000000  0  2G04G26                                          
  23230905.45349 122079231.57449      4629.67649        50.000  
  22588910.81249 118705526.85249     -2229.15649        50.000  
 16 04 02 14 20 37.4000000  0  2G04G26                                          
  23230817.40649 122078768.85549      4625.38349        50.000  
  22588953.28149 118705750.05149     -2233.94949        50.000  
 16 04 02 14 20 37.5000000  0  3G04G30G26                                       
  23230729.37549 122078306.37949      4623.03949        50.000  
  25966954.22749 136457264.41459      1935.33249        48.000  
  22588995.81249 118705973.53549     -2236.73849        50.000  
 16 04 02 14 20 37.6000000  0  4G04G30G26G07                                    
  23230641.41449 122077844.16049      4620.73849        50.000  
  25966917.41449 136457070.96549      1933.34849        48.000  
  22589038.39849 118706197.33249     -2239.56249        50.000  
  23125257.00049 121524044.46559     -8670.35549        50.000  
 16 04 02 14 20 37.7000000  0  4G04G30G26G07                                    
  23230553.53149 122077382.27749      4617.28549        50.000  
  25966880.65649 136456877.80549      1930.37549        48.000  
  22589081.06249 118706421.51249     -2243.53949        50.000  
  23125422.03949 121524911.75049     -8675.05949        50.000  
 16 04 02 14 20 37.8000000  0  4G04G30G26G07                                    
  23230465.70349 122076920.71549      4614.05149        50.000  
  25966843.94549 136456684.87949      1927.85949        48.000  
  22589123.78949 118706646.04749     -2247.22349        50.000  
  23125587.17249 121525779.49249     -8679.72349        50.000  
 16 04 02 14 20 37.9000000  0  4G04G30G26G07                                    
  23230377.90649 122076459.41449      4611.14849        50.000  
  25966807.25049 136456492.18449      1925.34849        48.000  
  22589166.58649 118706870.90249     -2250.55549        50.000  
  23125752.36749 121526647.63349     -8683.90649        50.000  
 16 04 02 14 20 38.0000000  0  4G04G30G26G07                                    
  23230290.18049 122075998.40249      4608.53949        50.000  
  25966770.61749 136456299.69949      1923.58649        48.000  
  22589209.43849 118707096.07849     -2253.57849        50.000  
  23125917.64149 121527516.18049     -8687.76249        50.000  
 16 04 02 14 20 38.1000000  0  4G04G30G26G07                                    
  23230202.50049 122075537.68049      4605.70749        50.000  
  25966734.04749 136456107.47349      1921.06249        48.000  
  22589252.35949 118707321.60949     -2256.96549        50.000  
  23126083.00849 121528385.16449     -8692.07449        50.000  
 16 04 02 14 20 38.2000000  0  4G04G30G26G07                                    
  23230114.89149 122075077.31649      4601.99249        50.000  
  25966697.52349 136455915.53949      1917.97749        48.000  
  22589295.34449 118707547.53149     -2261.00849        50.000  
  23126248.51649 121529254.64549     -8697.14149        50.000  
 16 04 02 14 20 38.3000000  0  4G04G30G26G07                                    
  23230027.34449 122074617.23449      4599.13349        50.000  
  25966660.99249 136455723.84049      1915.60549        48.000  
  22589338.40649 118707773.79349     -2264.37949        50.000  
  23126414.05549 121530124.53549     -8701.19549        50.000  
 16 04 02 14 20 38.4000000  0  4G04G30G26G07                                    
  23229939.85949 122074157.49649      4595.77349        50.000  
  25966624.57049 136455532.41849      1912.79349        48.000  
  22589381.53149 118708000.43849     -2268.29749        50.000  
  23126579.68049 121530994.89849     -8705.96549        50.000  
 16 04 02 14 20 38.5000000  0  4G04G30G26G07                                    
  23229852.42249 122073698.04749      4592.93849        50.000  
  25966588.18849 136455341.23849      1910.52749        48.000  
  22589424.72749 118708227.41849     -2271.53549        50.000  
  23126745.33649 121531865.69149     -8710.18449        50.000  
 16 04 02 14 20 38.6000000  0  4G04G30G26G07                                    
  23229765.05549 122073238.92649      4589.42649        50.000  
  25966551.85949 136455150.33649      1907.59849        48.000  
  22589468.00049 118708454.78549     -2275.51249        50.000  
  23126911.13349 121532736.94949     -8715.02349        50.000  
 16 04 02 14 20 38.7000000  0  4G04G30G26G07                                    
  23229677.74249 122072780.14149      4586.06649        50.000  
  25966515.57849 136454959.70349      1904.90249        48.000  
  22589511.32849 118708682.52049     -2279.32449        50.000  
  23127077.01649 121533608.66849     -8719.68449        50.000  
 16 04 02 14 20 38.8000000  0  4G04G30G26G07                                    
  23229590.49249 122072321.61349      4583.62149        50.000  
  25966479.33649 136454769.28149      1902.93849        48.000  
  22589554.72749 118708910.57049     -2282.42649        50.000  
  23127242.93049 121534480.78149     -8723.48049        50.000  
 16 04 02 14 20 38.9000000  0  4G04G30G26G07                                    
  23229503.28949 122071863.43849      4580.12949        50.000  
  25966443.16449 136454579.14549      1900.03149        48.000  
  22589598.19549 118709139.01249     -2286.25849        50.000  
  23127408.98449 121535353.37949     -8728.30549        50.000  
 16 04 02 14 20 39.0000000  0  4G04G30G26G07                                    
  23229416.15649 122071405.53549      4577.27049        50.000  
  25966407.03149 136454389.24249      1897.62549        48.000  
  22589641.72749 118709367.77349     -2289.53549        50.000  
  23127575.12549 121536226.38749     -8732.52349        50.000  
 16 04 02 14 20 39.1000000  0  4G04G30G26G07                                    
  23229329.08649 122070947.99649      4573.55149        50.000  
  25966370.95349 136454199.64149      1894.50449        48.000  
  22589685.35249 118709596.95349     -2293.66449        50.000  
  23127741.35249 121537099.88749     -8737.47749        50.000  
 16 04 02 14 20 39.2000000  0  4G04G30G26G07                                    
  23229242.08649 122070490.82449      4570.16849        50.000  
  25966334.93049 136454010.35249      1891.52049        48.000  
  22589729.03949 118709826.53549     -2297.64149        50.000  
  23127907.62549 121537973.89549     -8742.35949        50.000  
 16 04 02 14 20 39.3000000  0  4G04G30G26G07                                    
  23229155.13349 122070033.81649      4568.38349        50.000  
  25966298.93049 136453821.17649      1890.42649        48.000  
  22589772.78149 118710056.34849     -2300.02749        50.000  
  23128074.00049 121538848.20349     -8745.54349        50.000  
 16 04 02 14 20 39.4000000  0  4G04G30G26G07                                    
  23229068.23449 122069577.16849      4565.09849        50.000  
  25966262.98449 136453632.28949      1887.63749        48.000  
  22589816.58649 118710286.53949     -2303.63749        50.000  
  23128240.46949 121539722.98449     -8749.97349        50.000  
 16 04 02 14 20 39.5000000  0  4G04G30G26G07                                    
  23228981.39849 122069120.81249      4561.73449        50.000  
  25966227.09449 136453443.66049      1884.85549        48.000  
  22589860.46149 118710517.07849     -2307.39149        50.000  
  23128407.09449 121540598.21949     -8754.76249        50.000  
 16 04 02 14 20 39.6000000  0  4G04G30G26G07                                    
  23228894.62549 122068664.80549      4558.67249        50.000  
  25966191.25049 136453255.30149      1882.50449        48.000  
  22589904.40649 118710748.00849     -2310.99649        50.000  
  23128573.79749 121541473.90649     -8759.00049        50.000  
 16 04 02 14 20 39.7000000  0  4G04G30G26G07                                    
  23228807.89849 122068209.08249      4555.39849        50.000  
  25966155.43049 136453067.19949      1879.58649        48.000  
  22589948.42249 118710979.28549     -2314.65649        50.000  
  23128740.51649 121542350.02749     -8763.66049        50.000  
 16 04 02 14 20 39.8000000  0  4G04G30G26G07                                    
  23228721.23449 122067753.68449      4552.34449        50.000  
  25966119.68849 136452879.35249      1877.11349        48.000  
  22589992.50849 118711210.93449     -2318.27049        50.000  
  23128907.31249 121543226.61749     -8768.18049        50.000  
 16 04 02 14 20 39.9000000  0  4G04G30G26G07                                    
  23228634.61749 122067298.53949      4549.72349        50.000  
  25966083.96149 136452691.70749      1874.99649        48.000  
  22590036.64849 118711442.87149     -2321.30149        50.000  
  23129074.19549 121544103.58249     -8772.06249        50.000  
 16 04 02 14 20 40.0000000  0  4G04G30G26G07                                    
  23228548.07049 122066843.72749      4546.53949        50.000  
  25966048.30549 136452504.32849      1872.44149        48.000  
  22590080.85949 118711675.18849     -2325.02049        50.000  
  23129241.16449 121544981.01249     -8776.60249        50.000  
 16 04 02 14 20 40.1000000  0  4G04G30G26G07                                    
  23228461.57849 122066389.24649      4543.16849        50.000  
  25966012.69549 136452317.25049      1869.45349        48.000  
  22590125.15649 118711907.89149     -2328.82849        50.000  
  23129408.21949 121545858.91049     -8781.19949        50.000  
 16 04 02 14 20 40.2000000  0  4G04G30G26G07                                    
  23228375.13349 122065934.97349      4541.16449        50.000  
  25965977.12549 136452130.29749      1868.19549        48.000  
  22590169.48449 118712140.82849     -2331.18049        50.000  
  23129575.37549 121546737.15249     -8784.69549        50.000  
 16 04 02 14 20 40.3000000  0  4G04G30G26G07                                    
  23228288.74249 122065481.03549      4537.77749        50.000  
  25965941.60249 136451943.64549      1865.25449        48.000  
  22590213.88349 118712374.16849     -2335.08649        50.000  
  23129742.58649 121547615.85949     -8789.35949        50.000  
 16 04 02 14 20 40.4000000  0  4G04G30G26G07                                    
  23228202.41449 122065027.39149      4535.09449        50.000  
  25965906.12549 136451757.22349      1863.09449        48.000  
  22590258.34449 118712607.83649     -2338.28549        50.000  
  23129909.87549 121548494.99249     -8793.39549        50.000  
 16 04 02 14 20 40.5000000  0  4G04G30G26G07                                    
  23228116.14149 122064574.00449      4532.32849        50.000  
  25965870.69549 136451570.99649      1860.86749        48.000  
  22590302.87549 118712841.81649     -2341.56249        50.000  
  23130077.23449 121549374.51649     -8797.61749        50.000  
 16 04 02 14 20 40.6000000  0  4G04G30G26G07                                    
  23228029.93849 122064120.99249      4528.46549        50.000  
  25965835.32049 136451385.10249      1857.70749        48.000  
  22590347.47749 118713076.21149     -2345.69149        50.000  
  23130244.67249 121550254.54749     -8802.55149        50.000  
 16 04 02 14 20 40.7000000  0  4G04G30G26G07                                    
  23227943.79749 122063668.25449      4525.68849        50.000  
  25965800.02349 136451199.43049      1855.28149        48.000  
  22590392.15649 118713310.94149     -2349.23449        50.000  
  23130412.21949 121551135.00049     -8806.80549        50.000  
 16 04 02 14 20 40.8000000  0  4G04G30G26G07                                    
  23227857.69549 122063215.79349      4522.84849        50.000  
  25965764.72749 136451013.96149      1853.29349        48.000  
  22590436.88349 118713545.96949     -2352.18849        50.000  
  23130579.85249 121552015.84049     -8810.87949        50.000  
 16 04 02 14 20 40.9000000  0  4G04G30G26G07                                    
  23227771.66449 122062763.68849      4519.46149        50.000  
  25965729.50849 136450828.81649      1850.28949        48.000  
  22590481.69549 118713781.42249     -2356.24249        50.000  
  23130747.56249 121552897.18849     -8815.72349        50.000  
 16 04 02 14 20 41.0000000  0  4G04G30G26G07                                    
  23227685.69549 122062311.90649      4516.05949        50.000  
  25965694.32049 136450643.92249      1847.53549        48.000  
  22590526.56249 118714017.23049     -2360.04749        50.000  
  23130915.39149 121553778.99249     -8820.43049        50.000  
 16 04 02 14 20 41.1000000  0  4G04G30G26G07                                    
  23227599.77349 122061860.43049      4512.93849        50.000  
  25965659.19549 136450459.28949      1844.93849        48.000  
  22590571.50049 118714253.39849     -2363.68049        50.000  
  23131083.27349 121554661.22349     -8824.82849        50.000  
 16 04 02 14 20 41.2000000  0  4G04G30G26G07                                    
  23227513.92249 122061409.25849      4510.16449        50.000  
  25965624.10949 136450274.90249      1842.65649        48.000  
  22590616.50849 118714489.91449     -2366.86749        50.000  
  23131251.21149 121555543.89549     -8828.90649        50.000  
 16 04 02 14 20 41.3000000  0  4G04G30G26G07                                    
  23227428.10949 122060958.35549      4507.50849        50.000  
  25965589.07849 136450090.73449      1840.39149        48.000  
  22590661.58649 118714726.75849     -2370.31249        50.000  
  23131419.25849 121556426.98049     -8833.11749        50.000  
 16 04 02 14 20 41.4000000  0  4G04G30G26G07                                    
  23227342.35949 122060507.76249      4504.09449        50.000  
  25965554.07849 136449906.81249      1837.73849        48.000  
  22590706.71949 118714963.93449     -2373.72749        50.000  
  23131587.38349 121557310.49249     -8837.63749        50.000  
 16 04 02 14 20 41.5000000  0  4G04G30G26G07                                    
  23227256.70349 122060057.53149      4500.77749        50.000  
  25965519.10949 136449723.20749      1834.84049        48.000  
  22590751.93849 118715201.53949     -2377.75049        50.000  
  23131755.60249 121558194.51249     -8842.36349        50.000  
 16 04 02 14 20 41.6000000  0  4G04G30G26G07                                    
  23227171.07849 122059607.57849      4497.99249        50.000  
  25965484.21949 136449539.82049      1832.59049        48.000  
  22590797.21149 118715439.45749     -2380.94549        50.000  
  23131923.88349 121559078.94549     -8846.57849        50.000  
 16 04 02 14 20 41.7000000  0  4G04G30G26G07                                    
  23227085.50049 122059157.91849      4494.84449        49.000  
  25965449.36749 136449356.67649      1830.05949        48.000  
  22590842.54749 118715677.71949     -2384.47749        50.000  
  23132092.26649 121559963.79749     -8850.94549        50.000  
 16 04 02 14 20 41.8000000  0  4G04G30G26G07                                    
  23227000.00049 122058708.62949      4491.19949        49.000  
  25965414.57049 136449173.84449      1826.89549        48.000  
  22590887.96149 118715916.39549     -2388.61749        50.000  
  23132260.74249 121560849.15649     -8856.03549        50.000  
 16 04 02 14 20 41.9000000  0  4G04G30G26G07                                    
  23226914.56249 122058259.63349      4488.41849        50.000  
  25965379.84449 136448991.25049      1824.61749        48.000  
  22590933.43849 118716155.41049     -2391.89549        50.000  
  23132429.29749 121561734.94549     -8860.10549        50.000  
 16 04 02 14 20 42.0000000  0  4G04G30G26G07                                    
  23226829.17249 122057810.92649      4485.51649        50.000  
  25965345.14149 136448808.89149      1822.30549        48.000  
  22590978.98449 118716394.76249     -2395.32849        50.000  
  23132597.93849 121562621.14549     -8864.36349        50.000  
 16 04 02 14 20 42.1000000  0  4G04G30G26G07                                    
  23226743.84449 122057362.48049      4482.91049        50.000  
  25965310.47749 136448626.74249      1820.19149        48.000  
  22591024.59449 118716634.41849     -2398.23049        50.000  
  23132766.65649 121563507.74649     -8868.25049        50.000  
 16 04 02 14 20 42.2000000  0  4G04G30G26G07                                    
  23226658.57049 122056914.36349      4479.65649        50.000  
  25965275.86749 136448444.86349      1817.49249        48.000  
  22591070.27349 118716874.45749     -2401.90249        50.000  
  23132935.46149 121564394.82449     -8873.00449        50.000  
 16 04 02 14 20 42.3000000  0  4G04G30G26G07                                    
  23226573.34449 122056466.49249      4477.17649        50.000  
  25965241.29749 136448263.17249      1815.60249        48.000  
  22591116.00049 118717114.78949     -2405.02349        50.000  
  23133104.32849 121565282.24649     -8876.53949        50.000  
 16 04 02 14 20 42.4000000  0  4G04G30G26G07                                    
  23226488.18849 122056018.99249      4473.48049        50.000  
  25965206.78149 136448081.80949      1812.36749        48.000  
  22591161.82049 118717355.53949     -2409.24249        50.000  
  23133273.27349 121566170.20749     -8881.79349        50.000  
 16 04 02 14 20 42.5000000  0  4G04G30G26G07                                    
  23226403.08649 122055571.76649      4470.72749        50.000  
  25965172.32049 136447900.64849      1810.25849        48.000  
  22591207.69549 118717596.60249     -2412.44149        50.000  
  23133442.32049 121567058.55949     -8885.71549        50.000  
 16 04 02 14 20 42.6000000  0  4G04G30G26G07                                    
  23226318.03149 122055124.80949      4467.84849        50.000  
  25965137.89149 136447719.70749      1808.04749        48.000  
  22591253.62549 118717837.96949     -2415.57849        50.000  
  23133611.41449 121567947.31649     -8890.00049        50.000  
 16 04 02 14 20 42.7000000  0  4G04G30G26G07                                    
  23226233.04749 122054678.19949      4464.51649        50.000  
  25965103.52349 136447539.07449      1805.14849        48.000  
  22591299.64149 118718079.75849     -2419.57449        50.000  
  23133780.62549 121568836.55549     -8894.60549        50.000  
 16 04 02 14 20 42.8000000  0  4G04G30G26G07                                    
  23226148.12549 122054231.92249      4461.11349        50.000  
  25965069.19549 136447358.70349      1802.33649        48.000  
  22591345.71949 118718321.89549     -2423.26249        50.000  
  23133949.94549 121569726.25449     -8899.39849        50.000  
 16 04 02 14 20 42.9000000  0  4G04G30G26G07                                    
  23226063.25849 122053785.94549      4458.01649        50.000  
  25965034.92249 136447178.59449      1799.67249        48.000  
  22591391.86749 118718564.39849     -2426.84849        50.000  
  23134119.33649 121570616.39549     -8903.81249        50.000  
 16 04 02 14 20 43.0000000  0  4G04G30G26G07                                    
  23225978.45349 122053340.27349      4455.11749        50.000  
  25965000.69549 136446998.71949      1797.48049        48.000  
  22591438.08649 118718807.25849     -2430.38749        50.000  
  23134288.80549 121571506.96549     -8908.05149        50.000  
 16 04 02 14 20 43.1000000  0  4G04G30G26G07                                    
  23225893.70349 122052894.89849      4451.95349        50.000  
  25964966.50849 136446819.09049      1794.81649        48.000  
  22591484.35949 118719050.44549     -2433.90649        50.000  
  23134458.37549 121572397.97349     -8912.53149        50.000  
 16 04 02 14 20 43.2000000  0  4G04G30G26G07                                    
  23225809.00849 122052449.84049      4449.05149        50.000  
  25964932.37549 136446639.72749      1792.31249        48.000  
  22591530.70349 118719293.99649     -2437.32849        50.000  
  23134628.01649 121573289.43449     -8916.90249        50.000  
 16 04 02 14 20 43.3000000  0  4G04G30G26G07                                    
  23225724.38349 122052005.10949      4445.62549        50.000  
  25964898.28949 136446460.63749      1789.57049        48.000  
  22591577.11749 118719537.93049     -2441.10249        50.000  
  23134797.73449 121574181.34449     -8921.52049        50.000  
 16 04 02 14 20 43.4000000  0  4G04G30G26G07                                    
  23225639.80549 122051560.64149      4443.15649        49.000  
  25964864.25049 136446281.75449      1787.67649        48.000  
  22591623.59449 118719782.16849     -2444.11349        50.000  
  23134967.52349 121575073.65649     -8925.37949        50.000  
 16 04 02 14 20 43.5000000  0  4G04G30G26G07                                    
  23225555.26649 122051116.43049      4440.57449        50.000  
  25964830.25049 136446103.08249      1785.50049        48.000  
  22591670.12549 118720026.70749     -2447.05949        50.000  
  23135137.39849 121575966.35949     -8929.30949        50.000  
 16 04 02 14 20 43.6000000  0  4G04G30G26G07                                    
  23225470.79749 122050672.56249      4437.17249        50.000  
  25964796.30549 136445924.68049      1782.76249        48.000  
  22591716.73449 118720271.63749     -2451.03949        50.000  
  23135307.35949 121576859.52349     -8933.93449        50.000  
 16 04 02 14 20 43.7000000  0  4G04G30G26G07                                    
  23225386.39149 122050228.99249      4434.13749        50.000  
  25964762.41449 136445746.54349      1780.18449        48.000  
  22591763.40649 118720516.91449     -2454.52749        50.000  
  23135477.41449 121577753.14849     -8938.37149        50.000  
 16 04 02 14 20 43.8000000  0  4G04G30G26G07                                    
  23225302.03949 122049785.72749      4431.02349        50.000  
  25964728.56249 136445568.62949      1777.75049        48.000  
  22591810.14849 118720762.53549     -2457.99249        50.000  
  23135647.56249 121578647.18049     -8942.60949        50.000  
 16 04 02 14 20 43.9000000  0  4G04G30G26G07                                    
  23225217.75849 122049342.77049      4427.98849        50.000  
  25964694.77349 136445390.99249      1775.03549        48.000  
  22591856.94549 118721008.51649     -2461.54749        50.000  
  23135817.77349 121579541.68049     -8947.25449        50.000  
 16 04 02 14 20 44.0000000  0  4G04G30G26G07                                    
  23225133.51649 122048900.07049      4425.33249        50.000  
  25964661.00849 136445213.55549      1773.15649        48.000  
  22591903.81249 118721254.80549     -2464.69149        50.000  
  23135988.06249 121580436.55549     -8951.03949        50.000  
 16 04 02 14 20 44.1000000  0  4G04G30G26G07                                    
  23225049.33649 122048457.69149      4422.36749        50.000  
  25964627.30549 136445036.38749      1770.56649        48.000  
  22591950.73449 118721501.45749     -2468.09449        50.000  
  23136158.41449 121581331.89549     -8955.50049        50.000  
 16 04 02 14 20 44.2000000  0  4G04G30G26G07                                    
  23224965.21949 122048015.63749      4419.09049        49.000  
  25964593.63349 136444859.45749      1768.09449        48.000  
  22591997.74249 118721748.46549     -2471.82049        50.000  
  23136328.87549 121582227.66849     -8960.00849        50.000  
 16 04 02 14 20 44.3000000  0  4G04G30G26G07                                    
  23224881.14849 122047573.90649      4415.25049        50.000  
  25964560.05549 136444682.84849      1764.48449        48.000  
  22592044.82849 118721995.85949     -2476.10949        50.000  
  23136499.42249 121583123.92649     -8965.25449        50.000  
 16 04 02 14 20 44.4000000  0  4G04G30G26G07                                    
  23224797.14849 122047132.47749      4412.86349        50.000  
  25964526.48449 136444506.43849      1762.91849        48.000  
  22592091.96949 118722243.59849     -2479.10249        50.000  
  23136670.04749 121584020.60249     -8968.94149        50.000  
 16 04 02 14 20 44.5000000  0  4G04G30G26G07                                    
  23224713.18849 122046691.32449      4409.86349        50.000  
  25964492.95349 136444330.29749      1760.17249        48.000  
  22592139.17249 118722491.65649     -2482.42649        50.000  
  23136840.75849 121584917.69949     -8973.26249        50.000  
 16 04 02 14 20 44.6000000  0  4G04G30G26G07                                    
  23224629.29749 122046250.48049      4406.87549        50.000  
  25964459.47749 136444154.37549      1757.86349        48.000  
  22592186.44549 118722740.07449     -2485.95749        50.000  
  23137011.56249 121585815.23449     -8977.68849        49.000  
 16 04 02 14 20 44.7000000  0  4G04G30G26G07                                    
  23224545.46149 122045809.91849      4404.02049        49.000  
  25964426.04749 136443978.69949      1755.49649        48.000  
  22592233.77349 118722988.81649     -2489.16049        50.000  
  23137182.43849 121586713.17649     -8981.71949        50.000  
 16 04 02 14 20 44.8000000  0  4G04G30G26G07                                    
  23224461.69549 122045369.69949      4400.34449        49.000  
  25964392.67249 136443803.30149      1752.49249        48.000  
  22592281.18049 118723237.94949     -2493.30949        50.000  
  23137353.41449 121587611.59849     -8986.68449        50.000  
 16 04 02 14 20 44.9000000  0  4G04G30G26G07                                    
  23224377.96149 122044929.74649      4398.12149        49.000  
  25964359.33649 136443628.12149      1750.57849        48.000  
  22592328.64149 118723487.39849     -2496.08649        50.000  
  23137524.45349 121588510.42649     -8990.41449        50.000  
 16 04 02 14 20 45.0000000  0  4G04G30G26G07                                    
  23224294.28949 122044490.04749      4395.32849        49.000  
  25964326.03149 136443453.13749      1748.39149        48.000  
  22592376.16449 118723737.14549     -2499.32449        50.000  
  23137695.57049 121589409.64149     -8994.50449        50.000  
 16 04 02 14 20 45.1000000  0  4G04G30G26G07                                    
  23224210.71149 122044050.75449      4391.24649        49.000  
  25964292.80549 136443278.50849      1745.00049        48.000  
  22592423.78149 118723987.34049     -2503.89849        50.000  
  23137866.78149 121590309.38749     -8999.86749        50.000  
 16 04 02 14 20 45.2000000  0  4G04G30G26G07                                    
  23224127.17249 122043611.74249      4388.41049        50.000  
  25964259.61749 136443104.09849      1742.61749        48.000  
  22592471.45349 118724237.84849     -2506.95349        50.000  
  23138038.07049 121591209.53949     -9003.95749        49.000  
 16 04 02 14 20 45.3000000  0  4G04G30G26G07                                    
  23224043.67249 122043172.97749      4386.14549        50.000  
  25964226.46149 136442929.88749      1740.90649        48.000  
  22592519.18049 118724488.67649     -2509.89849        50.000  
  23138209.43849 121592110.09449     -9007.71549        50.000  
 16 04 02 14 20 45.4000000  0  4G04G30G26G07                                    
  23223960.22749 122042734.46149      4383.67249        50.000  
  25964193.34449 136442755.88749      1738.83649        48.000  
  22592566.96949 118724739.78949     -2512.77349        50.000  
  23138380.89149 121593011.01249     -9011.34049        50.000  
 16 04 02 14 20 45.5000000  0  4G04G30G26G07                                    
  23223876.85249 122042296.32049      4379.94949        50.000  
  25964160.29749 136442582.17249      1735.98849        48.000  
  22592614.82849 118724991.31249     -2516.89849        50.000  
  23138552.42249 121593912.44549     -9016.51249        50.000  
 16 04 02 14 20 45.6000000  0  4G04G30G26G07                                    
  23223793.52349 122041858.44949      4377.12149        50.000  
  25964127.28949 136442408.70349      1733.47749        48.000  
  22592662.75849 118725243.16449     -2520.30149        50.000  
  23138724.03949 121594814.27749     -9020.62149        50.000  
 16 04 02 14 20 45.7000000  0  4G04G30G26G07                                    
  23223710.26649 122041420.89549      4373.78149        50.000  
  25964094.32849 136442235.49249      1730.65649        48.000  
  22592710.75049 118725495.37549     -2524.02349        50.000  
  23138895.74249 121595716.56649     -9025.29749        50.000  
 16 04 02 14 20 45.8000000  0  4G04G30G26G07                                    
  23223627.06249 122040983.66849      4370.65649        50.000  
  25964061.42249 136442062.53949      1728.14849        48.000  
  22592758.82049 118725747.95749     -2527.70749        50.000  
  23139067.53149 121596619.30549     -9029.71949        50.000  
 16 04 02 14 20 45.9000000  0  4G04G30G26G07                                    
  23223543.91449 122040546.69549      4368.11349        50.000  
  25964028.54749 136441889.79349      1726.11349        48.000  
  22592806.93849 118726000.83249     -2530.61749        50.000  
  23139239.39149 121597522.44149     -9033.69549        50.000  
 16 04 02 14 20 46.0000000  0  4G04G30G26G07                                    
  23223460.81249 122040109.99249      4365.35549        50.000  
  25963995.71949 136441717.28149      1723.76249        48.000  
  22592855.11749 118726254.03949     -2533.79349        50.000  
  23139411.30549 121598425.97349     -9037.67649        50.000  
 16 04 02 14 20 46.1000000  0  4G04G30G26G07                                    
  23223377.78949 122039673.66049      4361.94549        50.000  
  25963962.94549 136441545.04749      1721.19549        48.000  
  22592903.38349 118726507.64549     -2537.68049        50.000  
  23139583.34449 121599330.00449     -9042.44549        50.000  
 16 04 02 14 20 46.2000000  0  4G04G30G26G07                                    
  23223294.81249 122039237.63749      4358.26649        50.000  
  25963930.21949 136441373.10249      1717.87949        48.000  
  22592951.71149 118726761.62149     -2541.86349        50.000  
  23139755.43849 121600234.48849     -9047.50849        50.000  
 16 04 02 14 20 46.3000000  0  4G04G30G26G07                                    
  23223211.90649 122038801.94949      4355.30549        49.000  
  25963897.54749 136441201.42249      1715.48049        48.000  
  22593000.11749 118727015.96949     -2545.26649        50.000  
  23139927.64849 121601139.43449     -9051.78149        50.000  
 16 04 02 14 20 46.4000000  0  4G04G30G26G07                                    
  23223129.04749 122038366.53149      4352.59049        50.000  
  25963864.92249 136441029.95749      1713.41849        48.000  
  22593048.57849 118727270.63349     -2548.45349        50.000  
  23140099.93049 121602044.78549     -9055.82849        50.000  
 16 04 02 14 20 46.5000000  0  4G04G30G26G07                                    
  23223046.24249 122037931.39549      4349.82049        50.000  
  25963832.32049 136440858.73449      1710.97349        48.000  
  22593097.10249 118727525.62549     -2551.65649        50.000  
  23140272.28949 121602950.54749     -9059.94149        50.000  
 16 04 02 14 20 46.6000000  0  4G04G30G26G07                                    
  23222963.49249 122037496.52749      4347.19549        50.000  
  25963799.78149 136440687.71949      1709.09449        48.000  
  22593145.68849 118727780.93849     -2554.69949        50.000  
  23140444.72749 121603856.71149     -9063.76249        50.000  
 16 04 02 14 20 46.7000000  0  4G04G30G26G07                                    
  23222880.79749 122037061.94949      4344.12949        50.000  
  25963767.29749 136440516.93049      1706.54349        48.000  
  22593194.33649 118728036.58249     -2558.18449        50.000  
  23140617.25849 121604763.30549     -9068.28549        50.000  
 16 04 02 14 20 46.8000000  0  4G04G30G26G07                                    
  23222798.17249 122036627.78149      4339.97749        50.000  
  25963734.86749 136440346.51249      1702.98049        48.000  
  22593243.06249 118728292.67649     -2562.71949        50.000  
  23140789.87549 121605670.43049     -9073.55949        50.000  
 16 04 02 14 20 46.9000000  0  4G04G30G26G07                                    
  23222715.60949 122036193.86749      4337.50049        50.000  
  25963702.47749 136440176.28949      1700.87549        48.000  
  22593291.85949 118728549.07849     -2565.83649        50.000  
  23140962.57049 121606577.95749     -9077.59449        50.000  
 16 04 02 14 20 47.0000000  0  4G04G30G26G07                                    
  23222633.09449 122035760.25449      4334.46549        50.000  
  25963670.13349 136440006.30149      1698.46949        48.000  
  22593340.71149 118728805.82449     -2569.32049        50.000  
  23141135.34449 121607485.89549     -9081.85549        50.000  
 16 04 02 14 20 47.1000000  0  4G04G30G26G07                                    
  23222550.64149 122035326.93049      4331.71149        50.000  
  25963637.85249 136439836.57049      1696.13749        48.000  
  22593389.64149 118729062.91049     -2572.51649        50.000  
  23141308.20349 121608394.27749     -9085.94149        50.000  
 16 04 02 14 20 47.2000000  0  4G04G30G26G07                                    
  23222468.24249 122034893.93049      4328.37949        50.000  
  25963605.59449 136439667.09449      1693.50049        48.000  
  22593438.62549 118729320.35549     -2576.23049        50.000  
  23141481.14149 121609303.11349     -9090.62549        50.000  
 16 04 02 14 20 47.3000000  0  4G04G30G26G07                                    
  23222385.89849 122034461.21949      4325.59849        50.000  
  25963573.38349 136439497.85949      1691.09849        48.000  
  22593487.68049 118729578.14149     -2579.56649        50.000  
  23141654.16449 121610212.35949     -9094.79749        50.000  
 16 04 02 14 20 47.4000000  0  4G04G30G26G07                                    
  23222303.61749 122034028.84049      4322.00449        50.000  
  25963541.23449 136439328.89849      1688.11749        48.000  
  22593536.81249 118729836.30549     -2583.57449        50.000  
  23141827.26649 121611122.07049     -9099.69149        50.000  
 16 04 02 14 20 47.5000000  0  4G04G30G26G07                                    
  23222221.39849 122033596.72349      4319.68049        50.000  
  25963509.11749 136439160.14849      1686.28549        48.000  
  22593585.99249 118730094.78549     -2586.51649        50.000  
  23142000.46149 121612032.19549     -9103.37949        50.000  
 16 04 02 14 20 47.6000000  0  4G04G30G26G07                                    
  23222139.23449 122033164.92649      4316.44949        50.000  
  25963477.05549 136438991.65649      1683.67249        48.000  
  22593635.24249 118730353.60949     -2590.04749        50.000  
  23142173.73449 121612942.74649     -9107.87949        50.000  
 16 04 02 14 20 47.7000000  0  4G04G30G26G07                                    
  23222057.11749 122032733.40249      4313.46149        50.000  
  25963445.03949 136438823.39149      1681.33649        48.000  
  22593684.57049 118730612.76649     -2593.47349        50.000  
  23142347.08649 121613853.71149     -9112.16049        50.000  
 16 04 02 14 20 47.8000000  0  4G04G30G26G07                                    
  23221975.07049 122032302.23449      4309.99249        50.000  
  25963413.07049 136438655.42249      1678.34049        48.000  
  22593733.96149 118730872.32049     -2597.39149        50.000  
  23142520.54749 121614765.17249     -9116.88349        50.000  
 16 04 02 14 20 47.9000000  0  4G04G30G26G07                                    
  23221893.06249 122031871.27749      4307.80949        50.000  
  25963381.13349 136438487.62949      1676.53549        48.000  
  22593783.39149 118731132.12949     -2599.89549        50.000  
  23142694.05549 121615676.97749     -9120.47349        50.000  
 16 04 02 14 20 48.0000000  0  4G04G30G26G07                                    
  23221811.12549 122031440.69949      4304.36349        50.000  
  25963349.26649 136438320.13749      1673.75449        48.000  
  22593832.91449 118731392.37149     -2604.12149        50.000  
  23142867.64849 121616589.29749     -9125.43049        50.000  
 16 04 02 14 20 48.1000000  0  4G04G30G26G07                                    
  23221729.23449 122031010.40249      4301.17249        50.000  
  25963317.43849 136438152.88349      1671.09849        48.000  
  22593882.50049 118731652.93449     -2607.62149        50.000  
  23143041.33649 121617502.01649     -9129.78149        50.000  
 16 04 02 14 20 48.2000000  0  4G04G30G26G07                                    
  23221647.41449 122030580.43449      4298.01249        50.000  
  25963285.66449 136437985.90649      1668.37949        48.000  
  22593932.15649 118731913.87549     -2611.30149        50.000  
  23143215.10249 121618415.20749     -9134.31249        50.000  
 16 04 02 14 20 48.3000000  0  4G04G30G26G07                                    
  23221565.64849 122030150.79749      4294.66049        50.000  
  25963253.94549 136437819.20349      1665.66849        48.000  
  22593981.88349 118732175.18449     -2614.90649        50.000  
  23143388.96149 121619328.85549     -9138.85549        50.000  
 16 04 02 14 20 48.4000000  0  4G04G30G26G07                                    
  23221483.94549 122029721.45749      4291.79749        50.000  
  25963222.26649 136437652.75049      1663.22349        48.000  
  22594031.67249 118732436.85249     -2618.43049        50.000  
  23143562.89149 121620242.94149     -9143.11349        50.000  
 16 04 02 14 20 48.5000000  0  4G04G30G26G07                                    
  23221402.28149 122029292.36349      4289.43849        50.000  
  25963190.64849 136437486.48849      1661.38749        48.000  
  22594081.52349 118732698.79749     -2621.21149        50.000  
  23143736.90649 121621157.39549     -9146.79349        50.000  
 16 04 02 14 20 48.6000000  0  4G04G30G26G07                                    
  23221320.69549 122028863.62549      4285.70749        50.000  
  25963159.06249 136437320.52049      1658.22749        48.000  
  22594131.44549 118732961.14849     -2625.39149        50.000  
  23143911.00049 121622072.34449     -9151.91049        50.000  
 16 04 02 14 20 48.7000000  0  4G04G30G26G07                                    
  23221239.16449 122028435.18049      4282.82849        50.000  
  25963127.54749 136437154.78949      1656.03549        48.000  
  22594181.42249 118733223.83249     -2628.60249        50.000  
  23144085.18849 121622987.71549     -9156.03549        50.000  
 16 04 02 14 20 48.8000000  0  4G04G30G26G07                                    
  23221157.68849 122028007.02749      4279.89149        50.000  
  25963096.05549 136436989.29749      1653.68449        48.000  
  22594231.47749 118733486.85249     -2631.90649        50.000  
  23144259.46149 121623903.50849     -9160.16849        50.000  
 16 04 02 14 20 48.9000000  0  4G04G30G26G07                                    
  23221076.25849 122027579.14149      4277.34849        50.000  
  25963064.60949 136436824.03549      1651.45349        48.000  
  22594281.58649 118733750.19949     -2635.07849        50.000  
  23144433.80549 121624819.71949     -9164.28549        50.000  
 16 04 02 14 20 49.0000000  0  4G04G30G26G07                                    
  23220994.89149 122027151.55549      4274.33249        50.000  
  25963033.20349 136436659.00049      1649.10949        48.000  
  22594331.76649 118734013.88349     -2638.51249        50.000  
  23144608.22749 121625736.33649     -9168.44949        50.000  
 16 04 02 14 20 49.1000000  0  4G04G30G26G07                                    
  23220913.59449 122026724.28149      4271.33249        50.000  
  25963001.85949 136436494.24249      1646.45749        48.000  
  22594382.00849 118734277.92249     -2642.04349        50.000  
  23144782.74249 121626653.41449     -9172.89849        50.000  
 16 04 02 14 20 49.2000000  0  4G04G30G26G07                                    
  23220832.32849 122026297.23449      4268.95749        50.000  
  25962970.53949 136436329.64549      1644.76249        48.000  
  22594432.30549 118734542.24249     -2644.82449        50.000  
  23144957.32049 121627570.84849     -9176.53149        50.000  
 16 04 02 14 20 49.3000000  0  4G04G30G26G07                                    
  23220751.13349 122025870.52049      4265.62949        50.000  
  25962939.25849 136436165.32849      1641.97349        48.000  
  22594482.66449 118734806.93049     -2648.49249        50.000  
  23145131.98449 121628488.75049     -9181.19549        50.000  
 16 04 02 14 20 49.4000000  0  4G04G30G26G07                                    
  23220669.99249 122025444.13749      4262.16049        50.000  
  25962908.04749 136436001.29349      1638.97349        48.000  
  22594533.10949 118735072.00049     -2652.59049        50.000  
  23145306.74249 121629407.10949     -9186.03149        50.000  
 16 04 02 14 20 49.5000000  0  4G04G30G26G07                                    
  23220588.90649 122025018.05549      4259.14149        50.000  
  25962876.87549 136435837.49249      1636.52049        48.000  
  22594583.60949 118735337.41449     -2656.02749        50.000  
  23145481.58649 121630325.89849     -9190.26649        50.000  
 16 04 02 14 20 49.6000000  0  4G04G30G26G07                                    
  23220507.87549 122024592.24249      4256.40249        50.000  
  25962845.75049 136435673.92249      1634.34449        48.000  
  22594634.17249 118735603.14149     -2659.18849        50.000  
  23145656.50049 121631245.09849     -9194.46149        50.000  
 16 04 02 14 20 49.7000000  0  4G04G30G26G07                                    
  23220426.90649 122024166.75849      4253.23449        50.000  
  25962814.68849 136435510.62149      1631.75849        48.000  
  22594684.80549 118735869.25049     -2662.79349        50.000  
  23145831.51649 121632164.76249     -9198.93849        50.000  
 16 04 02 14 20 49.8000000  0  4G04G30G26G07                                    
  23220345.98449 122023741.50049      4251.01249        50.000  
  25962783.64849 136435347.48849      1630.03149        48.000  
  22594735.49249 118736135.62549     -2665.46149        50.000  
  23146006.60249 121633084.77749     -9202.49649        50.000  
 16 04 02 14 20 49.9000000  0  4G04G30G26G07                                    
  23220265.13349 122023316.59449      4247.46149        50.000  
  25962752.66449 136435184.66849      1626.90649        48.000  
  22594786.25849 118736402.39849     -2669.50049        50.000  
  23146181.76649 121634005.27049     -9207.15649        50.000  
 16 04 02 14 20 50.0000000  0  4G04G30G26G07                                    
  23220184.33649 122022892.00849      4244.27349        50.000  
  25962721.72749 136435022.10249      1624.21149        48.000  
  22594837.08649 118736669.53549     -2673.21549        50.000  
  23146357.00049 121634926.23049     -9211.93049        50.000  
 16 04 02 14 20 50.1000000  0  4G04G30G26G07                                    
  23220103.59449 122022467.70749      4241.20349        50.000  
  25962690.82849 136434859.77049      1621.88349        48.000  
  22594887.98449 118736937.00449     -2676.60949        50.000  
  23146532.32849 121635847.59849     -9216.13349        50.000  
 16 04 02 14 20 50.2000000  0  4G04G30G26G07                                    
  23220022.92249 122022043.78149      4237.50049        50.000  
  25962659.99249 136434697.74649      1618.75449        48.000  
  22594938.96149 118737204.88349     -2680.72349        50.000  
  23146707.75849 121636769.47349     -9221.19149        50.000  
 16 04 02 14 20 50.3000000  0  4G04G30G26G07                                    
  23219942.30549 122021620.13749      4234.98049        50.000  
  25962629.20349 136434535.97749      1616.53549        48.000  
  22594990.00849 118737473.10549     -2683.86749        50.000  
  23146883.26649 121637691.76249     -9224.98449        50.000  
 16 04 02 14 20 50.4000000  0  4G04G30G26G07                                    
  23219861.73449 122021196.73449      4232.48849        50.000  
  25962598.45349 136434374.38349      1614.71149        48.000  
  22595041.10249 118737741.61349     -2686.84449        50.000  
  23147058.83649 121638614.43049     -9228.91849        50.000  
 16 04 02 14 20 50.5000000  0  4G04G30G26G07                                    
  23219781.23449 122020773.65249      4229.18449        50.000  
  25962567.75049 136434213.06649      1611.82449        48.000  
  22595092.25849 118738010.47749     -2690.44949        50.000  
  23147234.50049 121639537.55149     -9233.58649        50.000  
 16 04 02 14 20 50.6000000  0  4G04G30G26G07                                    
  23219700.79749 122020350.94549      4225.49649        50.000  
  25962537.10949 136434052.05549      1608.72749        48.000  
  22595143.50049 118738279.77049     -2694.66049        50.000  
  23147410.26649 121640461.18449     -9238.65249        50.000  
 16 04 02 14 20 50.7000000  0  4G04G30G26G07                                    
  23219620.39849 122019928.49649      4222.81249        50.000  
  25962506.52349 136433891.24649      1606.71149        48.000  
  22595194.79749 118738549.35549     -2697.76649        50.000  
  23147586.10249 121641385.18049     -9242.41849        50.000  
 16 04 02 14 20 50.8000000  0  4G04G30G26G07                                    
  23219540.06249 122019506.31649      4220.19149        50.000  
  25962475.96149 136433730.65249      1604.77749        48.000  
  22595246.15649 118738819.25449     -2700.68449        50.000  
  23147762.00849 121642309.59449     -9246.36749        50.000  
 16 04 02 14 20 50.9000000  0  4G04G30G26G07                                    
  23219459.78149 122019084.39549      4217.57849        50.000  
  25962445.43049 136433570.28949      1602.43849        48.000  
  22595297.57049 118739089.46949     -2703.86749        50.000  
  23147937.99249 121643234.41449     -9250.44149        50.000  
 16 04 02 14 20 51.0000000  0  4G04G30G26G07                                    
  23219379.55549 122018662.80949      4214.33649        50.000  
  25962414.96949 136433410.18449      1599.91449        48.000  
  22595349.06249 118739360.07049     -2707.59449        50.000  
  23148114.07049 121644159.68849     -9254.90649        50.000  
 16 04 02 14 20 51.1000000  0  4G04G30G26G07                                    
  23219299.37549 122018241.50049      4211.58649        50.000  
  25962384.55549 136433250.32849      1597.30149        48.000  
  22595400.62549 118739630.98849     -2710.99649        50.000  
  23148290.21949 121645085.37949     -9259.21549        50.000  
 16 04 02 14 20 51.2000000  0  4G04G30G26G07                                    
  23219219.26649 122017820.50849      4208.40649        50.000  
  25962354.18049 136433090.69949      1594.86749        48.000  
  22595452.25049 118739902.25449     -2714.41049        50.000  
  23148466.46149 121646011.50849     -9263.62949        50.000  
 16 04 02 14 20 51.3000000  0  4G04G30G26G07                                    
  23219139.21149 122017399.82049      4205.20349        50.000  
  25962323.85949 136432931.34449      1592.37949        48.000  
  22595503.93849 118740173.87949     -2718.02349        50.000  
  23148642.78149 121646938.07049     -9267.88349        50.000  
 16 04 02 14 20 51.4000000  0  4G04G30G26G07                                    
  23219059.20349 122016979.38349      4202.96149        50.000  
  25962293.57849 136432772.19149      1590.27049        48.000  
  22595555.68049 118740445.79749     -2720.84849        50.000  
  23148819.15649 121647865.02749     -9271.77349        50.000  
 16 04 02 14 20 51.5000000  0  4G04G30G26G07                                    
  23218979.24249 122016559.23849      4200.09449        50.000  
  25962263.32049 136432613.26649      1588.13749        48.000  
  22595607.50049 118740718.05949     -2724.25449        50.000  
  23148995.63349 121648792.40649     -9275.93049        50.000  
 16 04 02 14 20 51.6000000  0  4G04G30G26G07                                    
  23218899.35249 122016139.42249      4196.44949        50.000  
  25962233.13349 136432454.61749      1585.10949        48.000  
  22595659.37549 118740990.68849     -2728.07049        50.000  
  23149172.18049 121649720.24249     -9280.71549        50.000  
 16 04 02 14 20 51.7000000  0  4G04G30G26G07                                    
  23218819.51649 122015719.95349      4193.21949        50.000  
  25962203.01649 136432296.25449      1582.53149        48.000  
  22595711.32049 118741263.71149     -2731.81249        50.000  
  23149348.82849 121650648.55949     -9285.23849        50.000  
 16 04 02 14 20 51.8000000  0  4G04G30G26G07                                    
  23218739.74249 122015300.73049      4190.41449        50.000  
  25962172.92249 136432138.08649      1580.14149        48.000  
  22595763.33649 118741537.02049     -2735.12549        50.000  
  23149525.55549 121651577.24249     -9289.43849        50.000  
 16 04 02 14 20 51.9000000  0  4G04G30G26G07                                    
  23218660.02349 122014881.83649      4187.42649        50.000  
  25962142.87549 136431980.21949      1577.46949        48.000  
  22595815.41449 118741810.71549     -2738.60549        50.000  
  23149702.36749 121652506.40649     -9293.72349        50.000  
 16 04 02 14 20 52.0000000  0  4G04G30G26G07                                    
  23218580.37549 122014463.25449      4184.03549        50.000  
  25962112.87549 136431822.56249      1575.17649        48.000  
  22595867.56249 118742084.74649     -2742.18049        50.000  
  23149879.25849 121653435.99649     -9298.26249        50.000  
 16 04 02 14 20 52.1000000  0  4G04G30G26G07                                    
  23218500.76649 122014044.93849      4181.51249        50.000  
  25962082.93849 136431665.17649      1572.65249        48.000  
  22595919.77349 118742359.11749     -2745.42249        50.000  
  23150056.23449 121654366.00849     -9302.38749        50.000  
 16 04 02 14 20 52.2000000  0  4G04G30G26G07                                    
  23218421.22749 122013626.94149      4178.24649        50.000  
  25962053.03149 136431508.02049      1570.01649        48.000  
  22595972.05549 118742633.82849     -2749.00049        50.000  
  23150233.29749 121655296.44549     -9306.85249        50.000  
 16 04 02 14 20 52.3000000  0  4G04G30G26G07                                    
  23218341.75049 122013209.34049      4174.09449        50.000  
  25962023.18849 136431351.20749      1566.55549        48.000  
  22596024.41449 118742908.99249     -2753.56249        50.000  
  23150410.45349 121656227.42249     -9312.25449        50.000  
 16 04 02 14 20 52.4000000  0  4G04G30G26G07                                    
  23218262.32849 122012791.94549      4172.27049        50.000  
  25961993.38349 136431194.57049      1564.87549        48.000  
  22596076.82849 118743184.42249     -2756.18049        50.000  
  23150587.69549 121657158.75049     -9315.62549        50.000  
 16 04 02 14 20 52.5000000  0  4G04G30G26G07                                    
  23218182.95349 122012374.87149      4169.23849        50.000  
  25961963.62549 136431038.16849      1562.77749        48.000  
  22596129.30549 118743460.19149     -2759.38349        50.000  
  23150765.00049 121658090.50449     -9319.76249        50.000  
 16 04 02 14 20 52.6000000  0  4G04G30G26G07                                    
  23218103.63349 122011958.02349      4167.01649        50.000  
  25961933.89849 136430881.96549      1560.88749        48.000  
  22596181.83649 118743736.24249     -2762.19149        50.000  
  23150942.37549 121659022.64149     -9323.51649        50.000  
 16 04 02 14 20 52.7000000  0  4G04G30G26G07                                    
  23218024.37549 122011541.51249      4163.68449        50.000  
  25961904.22749 136430726.03949      1558.25049        48.000  
  22596234.43849 118744012.67649     -2765.87149        50.000  
  23151119.84449 121659955.23049     -9327.98849        50.000  
 16 04 02 14 20 52.8000000  0  4G04G30G26G07                                    
  23217945.17249 122011125.28949      4160.57049        50.000  
  25961874.60249 136430570.33649      1555.55149        48.000  
  22596287.10949 118744289.43849     -2769.46149        50.000  
  23151297.39149 121660888.24249     -9332.45349        50.000  
 16 04 02 14 20 52.9000000  0  4G04G30G26G07                                    
  23217866.03149 122010709.40249      4157.27749        50.000  
  25961845.02349 136430414.94549      1552.66449        48.000  
  22596339.85249 118744566.59049     -2773.38349        50.000  
  23151475.03149 121661821.73049     -9337.14549        50.000  
 16 04 02 14 20 53.0000000  0  4G04G30G26G07                                    
  23217786.95349 122010293.82049      4154.02349        50.000  
  25961815.50049 136430259.77349      1550.19549        48.000  
  22596392.65649 118744844.07849     -2776.75449        50.000  
  23151652.75049 121662755.64849     -9341.62949        50.000  
 16 04 02 14 20 53.1000000  0  4G04G30G26G07                                    
  23217707.92249 122009878.53949      4151.19949        50.000  
  25961786.02349 136430104.86749      1547.72349        48.000  
  22596445.52349 118745121.92649     -2780.25449        50.000  
  23151830.55549 121663690.00049     -9345.89149        50.000  
 16 04 02 14 20 53.2000000  0  4G04G30G26G07                                    
  23217628.95349 122009463.55949      4148.35949        50.000  
  25961756.58649 136429950.19549      1545.54349        48.000  
  22596498.46149 118745400.10949     -2783.52049        50.000  
  23152008.43849 121664624.78149     -9350.00849        50.000  
 16 04 02 14 20 53.3000000  0  4G04G30G26G07                                    
  23217550.03949 122009048.81649      4145.77349        49.000  
  25961727.18049 136429795.71549      1543.49249        48.000  
  22596551.46149 118745678.58249     -2786.44549        50.000  
  23152186.39849 121665559.93449     -9353.79349        50.000  
 16 04 02 14 20 53.4000000  0  4G04G30G26G07                                    
  23217471.15649 122008634.30149      4143.79349        49.000  
  25961697.82049 136429641.41849      1541.88349        48.000  
  22596604.50049 118745957.33249     -2789.06249        50.000  
  23152364.41449 121666495.45749     -9357.32049        49.000  
 16 04 02 14 20 53.5000000  0  4G04G30G26G07                                    
  23217392.34449 122008220.14549      4140.23449        49.000  
  25961668.50049 136429487.41049      1538.96549        48.000  
  22596657.61749 118746236.46549     -2792.87949        50.000  
  23152542.52349 121667431.44949     -9362.06649        50.000  
 16 04 02 14 20 53.6000000  0  4G04G30G26G07                                    
  23217313.59449 122007806.29349      4136.94949        50.000  
  25961639.24249 136429333.66049      1536.22749        48.000  
  22596710.80549 118746515.96549     -2796.76649        50.000  
  23152720.73449 121668367.88749     -9366.70349        50.000  
 16 04 02 14 20 53.7000000  0  4G04G30G26G07                                    
  23217234.88349 122007392.68849      4134.42649        50.000  
  25961610.01649 136429180.11349      1534.21149        48.000  
  22596764.04749 118746795.75849     -2799.69549        50.000  
  23152899.00849 121669304.71149     -9370.53149        50.000  
 16 04 02 14 20 53.8000000  0  4G04G30G26G07                                    
  23217156.23449 122006979.40249      4131.15249        50.000  
  25961580.85249 136429026.82849      1531.53949        48.000  
  22596817.35949 118747075.91049     -2803.41849        50.000  
  23153077.35949 121670241.98849     -9375.05949        49.000  
 16 04 02 14 20 53.9000000  0  4G04G30G26G07                                    
  23217077.65649 122006566.45749      4127.94149        50.000  
  25961551.71149 136428873.82049      1528.92249        48.000  
  22596870.75049 118747356.44549     -2807.05549        50.000  
  23153255.80549 121671179.72349     -9379.57849        50.000  
 16 04 02 14 20 54.0000000  0  4G04G30G26G07                                    
  23216999.13349 122006153.80549      4124.86349        50.000  
  25961522.64149 136428721.06249      1526.28149        48.000  
  22596924.19549 118747637.31249     -2810.51249        50.000  
  23153434.35249 121672117.88349     -9383.98449        50.000  
 16 04 02 14 20 54.1000000  0  4G04G30G26G07                                    
  23216920.65649 122005741.37949      4122.80149        50.000  
  25961493.59449 136428568.47749      1524.77049        48.000  
  22596977.70349 118747918.46949     -2813.11349        50.000  
  23153612.94549 121673056.41449     -9387.37149        50.000  
 16 04 02 14 20 54.2000000  0  4G04G30G26G07                                    
  23216842.22749 122005329.25849      4119.55549        50.000  
  25961464.60249 136428416.14549      1522.05949        48.000  
  22597031.27349 118748199.96549     -2816.85549        50.000  
  23153791.62549 121673995.38349     -9391.98449        50.000  
 16 04 02 14 20 54.3000000  0  4G04G30G26G07                                    
  23216763.88349 122004917.53149      4115.61749        50.000  
  25961435.68849 136428264.14849      1518.60549        48.000  
  22597084.92249 118748481.89849     -2821.18849        50.000  
  23153970.40649 121674934.86349     -9397.21949        50.000  
 16 04 02 14 20 54.4000000  0  4G04G30G26G07                                    
  23216685.59449 122004506.12549      4112.37949        50.000  
  25961406.82049 136428112.43049      1515.85549        48.000  
  22597138.64149 118748764.19549     -2824.84849        50.000  
  23154149.28149 121675874.80549     -9401.81249        50.000  
 16 04 02 14 20 54.5000000  0  4G04G30G26G07                                    
  23216607.35949 122004094.98449      4109.66449        50.000  
  25961377.98449 136427960.91049      1513.69949        48.000  
  22597192.41449 118749046.80949     -2828.02349        50.000  
  23154328.21949 121676815.14149     -9405.81649        50.000  
 16 04 02 14 20 54.6000000  0  4G04G30G26G07                                    
  23216529.18049 122003684.15649      4106.57849        50.000  
  25961349.20349 136427809.65649      1511.17649        48.000  
  22597246.25849 118749329.77049     -2831.46149        50.000  
  23154507.23449 121677755.92249     -9410.28149        50.000  
 16 04 02 14 20 54.7000000  0  4G04G30G26G07                                    
  23216451.06249 122003273.62549      4103.81249        50.000  
  25961320.45349 136427658.65249      1508.74249        48.000  
  22597300.17249 118749613.09049     -2834.89149        50.000  
  23154686.34449 121678697.13349     -9414.33649        50.000  
 16 04 02 14 20 54.8000000  0  4G04G30G26G07                                    
  23216373.00049 122002863.40649      4100.70349        50.000  
  25961291.76649 136427507.90649      1506.32849        48.000  
  22597354.14849 118749896.75049     -2838.27749        50.000  
  23154865.53949 121679638.78949     -9418.75449        50.000  
 16 04 02 14 20 54.9000000  0  4G04G30G26G07                                    
  23216295.00049 122002453.50449      4097.32849        50.000  
  25961263.12549 136427357.41449      1503.59049        48.000  
  22597408.19549 118750180.77749     -2842.09049        50.000  
  23155044.79749 121680580.88749     -9423.35549        50.000  
 16 04 02 14 20 55.0000000  0  4G04G30G26G07                                    
  23216217.05549 122002043.89149      4094.68049        50.000  
  25961234.53149 136427207.16049      1501.29349        48.000  
  22597462.30549 118750465.14149     -2845.35249        50.000  
  23155224.14849 121681523.40649     -9427.41849        50.000  
 16 04 02 14 20 55.1000000  0  4G04G30G26G07                                    
  23216139.14849 122001634.52049      4092.23449        49.000  
  25961205.97749 136427057.10249      1499.46949        48.000  
  22597516.46949 118750749.79749     -2848.18849        50.000  
  23155403.57849 121682466.30949     -9431.19549        50.000  
 16 04 02 14 20 55.2000000  0  4G04G30G26G07                                    
  23216061.30549 122001225.44549      4089.37149        50.000  
  25961177.46149 136426907.27749      1497.10249        48.000  
  22597570.70349 118751034.77049     -2851.34449        50.000  
  23155583.10249 121683409.62949     -9435.34449        50.000  
 16 04 02 14 20 55.3000000  0  4G04G30G26G07                                    
  23215983.52349 122000816.68449      4085.84449        50.000  
  25961149.00849 136426757.73449      1494.09849        48.000  
  22597625.00049 118751320.12949     -2855.39849        50.000  
  23155762.69549 121684353.40649     -9440.33649        50.000  
 16 04 02 14 20 55.4000000  0  4G04G30G26G07                                    
  23215905.80549 122000408.25449      4082.90249        50.000  
  25961120.60249 136426608.44549      1491.69949        48.000  
  22597679.37549 118751605.84849     -2858.78949        50.000  
  23155942.35949 121685297.62549     -9444.34449        50.000  
 16 04 02 14 20 55.5000000  0  4G04G30G26G07                                    
  23215828.11749 122000000.00849      4080.85949        50.000  
  25961092.21149 136426459.30549      1490.25849        48.000  
  22597733.79749 118751891.80949     -2861.27749        50.000  
  23156122.10249 121686242.18449     -9447.73849        50.000  
 16 04 02 14 20 55.6000000  0  4G04G30G26G07                                    
  23215750.50049 121999592.10249      4077.48049        50.000  
  25961063.88349 136426310.43849      1487.44149        48.000  
  22597788.28149 118752178.13749     -2864.93449        50.000  
  23156301.91449 121687187.19549     -9452.38749        50.000  
 16 04 02 14 20 55.7000000  0  4G04G30G26G07                                    
  23215672.93849 121999184.52749      4074.03549        50.000  
  25961035.61749 136426161.85949      1484.35949        48.000  
  22597842.84449 118752464.85249     -2868.92249        50.000  
  23156481.83649 121688132.68049     -9457.16849        50.000  
 16 04 02 14 20 55.8000000  0  4G04G30G26G07                                    
  23215595.43849 121998777.26249      4071.03149        50.000  
  25961007.39149 136426013.53149      1481.96949        48.000  
  22597897.46949 118752751.91849     -2872.48049        50.000  
  23156661.83649 121689078.59849     -9461.55149        50.000  
 16 04 02 14 20 55.9000000  0  4G04G30G26G07                                    
  23215517.99249 121998370.26249      4068.30549        50.000  
  25960979.21949 136425865.41849      1479.72749        48.000  
  22597952.16449 118753039.29349     -2875.53549        50.000  
  23156841.93049 121690024.91849     -9465.54349        50.000  
 16 04 02 14 20 56.0000000  0  4G04G30G26G07                                    
  23215440.60249 121997963.56249      4065.38349        50.000  
  25960951.07849 136425717.55549      1477.34049        48.000  
  22598006.91449 118753327.02049     -2878.98449        50.000  
  23157022.08649 121690971.66849     -9469.80149        50.000  
 16 04 02 14 20 56.1000000  0  4G04G30G26G07                                    
  23215363.25849 121997557.15649      4062.52049        50.000  
  25960922.99249 136425569.93449      1474.96949        48.000  
  22598061.72749 118753615.07049     -2882.18049        50.000  
  23157202.32849 121691918.84449     -9473.88749        50.000  
 16 04 02 14 20 56.2000000  0  4G04G30G26G07                                    
  23215285.96949 121997151.01649      4059.89149        50.000  
  25960894.93849 136425422.51649      1472.91849        48.000  
  22598116.60949 118753903.44949     -2885.44149        50.000  
  23157382.64849 121692866.42249     -9478.02349        50.000  
 16 04 02 14 20 56.3000000  0  4G04G30G26G07                                    
  23215208.73449 121996745.11749      4057.69149        50.000  
  25960866.90649 136425275.30949      1471.08649        48.000  
  22598171.54749 118754192.10949     -2888.12549        50.000  
  23157563.03949 121693814.37149     -9481.50449        50.000  
 16 04 02 14 20 56.4000000  0  4G04G30G26G07                                    
  23215131.55549 121996339.52349      4054.40649        50.000  
  25960838.93849 136425128.32849      1468.54349        48.000  
  22598226.53949 118754481.10949     -2891.69149        50.000  
  23157743.50849 121694762.75049     -9486.03149        50.000  
 16 04 02 14 20 56.5000000  0  4G04G30G26G07                                    
  23215054.43849 121995934.29749      4050.68849        50.000  
  25960811.02349 136424981.67249      1465.21949        48.000  
  22598281.60949 118754770.53149     -2895.98449        50.000  
  23157924.07849 121695711.63349     -9491.12549        50.000  
 16 04 02 14 20 56.6000000  0  4G04G30G26G07                                    
  23214977.39149 121995529.37949      4047.44549        50.000  
  25960783.16449 136424835.28149      1462.63349        48.000  
  22598336.75049 118755060.30549     -2899.63749        50.000  
  23158104.73449 121696660.95749     -9495.65649        50.000  
 16 04 02 14 20 56.7000000  0  4G04G30G26G07                                    
  23214900.39149 121995124.75049      4044.81249        50.000  
  25960755.34449 136424689.12149      1460.42249        48.000  
  22598391.95349 118755350.40649     -2902.67249        50.000  
  23158285.46149 121697610.69549     -9499.55949        50.000  
 16 04 02 14 20 56.8000000  0  4G04G30G26G07                                    
  23214823.43849 121994720.37549      4042.26249        50.000  
  25960727.57049 136424543.14549      1458.54749        48.000  
  22598447.21949 118755640.80949     -2905.68849        50.000  
  23158466.26649 121698560.82449     -9503.42649        50.000  
 16 04 02 14 20 56.9000000  0  4G04G30G26G07                                    
  23214746.56249 121994316.34449      4038.69149        50.000  
  25960699.84449 136424397.48849      1455.35949        48.000  
  22598502.54749 118755931.59849     -2909.62549        50.000  
  23158647.16449 121699511.42249     -9508.23449        50.000  
 16 04 02 14 20 57.0000000  0  4G04G30G26G07                                    
  23214669.72749 121993912.59849      4035.75449        50.000  
  25960672.16449 136424252.04349      1452.97349        48.000  
  22598557.94549 118756222.71949     -2913.09449        50.000  
  23158828.14849 121700462.44549     -9512.58649        50.000  
 16 04 02 14 20 57.1000000  0  4G04G30G26G07                                    
  23214592.94549 121993509.12949      4033.08249        50.000  
  25960644.53149 136424106.83249      1450.64149        48.000  
  22598613.40649 118756514.16449     -2916.23849        50.000  
  23159009.20349 121701413.87149     -9516.57449        50.000  
 16 04 02 14 20 57.2000000  0  4G04G30G26G07                                    
  23214516.23449 121993106.00449      4029.68849        50.000  
  25960616.95349 136423961.90649      1448.03549        48.000  
  22598668.93849 118756805.99649     -2920.05549        50.000  
  23159190.34449 121702365.77349     -9521.25849        50.000  
 16 04 02 14 20 57.3000000  0  4G04G30G26G07                                    
  23214439.58649 121992703.19949      4026.27349        50.000  
  25960589.42249 136423817.25049      1445.12549        48.000  
  22598724.53149 118757098.19149     -2923.84849        50.000  
  23159371.57049 121703318.12949     -9526.03949        50.000  
 16 04 02 14 20 57.4000000  0  4G04G30G26G07                                    
  23214363.00049 121992300.74249      4022.97349        50.000  
  25960561.95349 136423672.89149      1442.30149        48.000  
  22598780.21149 118757390.77749     -2927.59049        50.000  
  23159552.88349 121704270.96149     -9530.59049        50.000  
 16 04 02 14 20 57.5000000  0  4G04G30G26G07                                    
  23214286.45349 121991898.48049      4021.17249        50.000  
  25960534.50049 136423528.68449      1440.89549        48.000  
  22598835.93849 118757683.60949     -2929.97349        50.000  
  23159734.25849 121705224.12949     -9533.84449        50.000  
 16 04 02 14 20 57.6000000  0  4G04G30G26G07                                    
  23214209.96949 121991496.53549      4017.88349        50.000  
  25960507.10949 136423384.72749      1438.35949        48.000  
  22598891.73449 118757976.79349     -2933.53949        50.000  
  23159915.71949 121706177.72749     -9538.30949        50.000  
 16 04 02 14 20 57.7000000  0  4G04G30G26G07                                    
  23214133.53949 121991094.90649      4014.94149        50.000  
  25960479.76649 136423241.03549      1435.83649        48.000  
  22598947.60249 118758270.34049     -2937.05149        50.000  
  23160097.27349 121707131.78549     -9542.60549        50.000  
 16 04 02 14 20 57.8000000  0  4G04G30G26G07                                    
  23214057.15649 121990693.50849      4012.48449        50.000  
  25960452.46149 136423097.53549      1433.70749        48.000  
  22599003.51649 118758564.15649     -2939.82049        50.000  
  23160278.89149 121708086.19549     -9546.32049        50.000  
 16 04 02 14 20 57.9000000  0  4G04G30G26G07                                    
  23213980.82849 121990292.45349      4008.86749        50.000  
  25960425.20349 136422954.30549      1430.91049        48.000  
  22599059.50049 118758858.37949     -2944.02749        50.000  
  23160460.61749 121709041.09049     -9551.34049        50.000  
 16 04 02 14 20 58.0000000  0  4G04G30G26G07                                    
  23213904.58649 121989891.80149      4004.78149        50.000  
  25960398.01649 136422811.43049      1427.26649        48.000  
  22599115.57049 118759153.03549     -2948.49249        50.000  
  23160642.42249 121709996.51649     -9556.65249        50.000  
 16 04 02 14 20 58.1000000  0  4G04G30G26G07                                    
  23213828.39149 121989491.37949      4002.36349        50.000  
  25960370.87549 136422668.75449      1425.15649        48.000  
  22599171.68849 118759447.96949     -2951.31249        50.000  
  23160824.30549 121710952.30549     -9560.38749        50.000  
 16 04 02 14 20 58.2000000  0  4G04G30G26G07                                    
  23213752.24249 121989091.19949      4000.33249        50.000  
  25960343.75849 136422526.24649      1423.86749        48.000  
  22599227.86749 118759743.18449     -2953.82849        50.000  
  23161006.26649 121711908.45749     -9563.76249        50.000  
 16 04 02 14 20 58.3000000  0  4G04G30G26G07                                    
  23213676.15649 121988691.33649      3997.20349        50.000  
  25960316.68049 136422384.00849      1421.11349        48.000  
  22599284.11749 118760038.77349     -2957.41849        50.000  
  23161188.30549 121712865.07049     -9568.17649        50.000  
 16 04 02 14 20 58.4000000  0  4G04G30G26G07                                    
  23213600.11749 121988291.76649      3994.24249        50.000  
  25960289.65649 136422242.01649      1418.83649        48.000  
  22599340.43049 118760334.69549     -2960.85249        50.000  
  23161370.42249 121713822.10549     -9572.45349        50.000  
 16 04 02 14 20 58.5000000  0  4G04G30G26G07                                    
  23213524.14149 121987892.48049      3991.34849        50.000  
  25960262.69549 136422100.23449      1416.55549        48.000  
  22599396.79749 118760630.93449     -2964.14149        50.000  
  23161552.60949 121714779.55149     -9576.62549        50.000  
 16 04 02 14 20 58.6000000  0  4G04G30G26G07                                    
  23213448.22749 121987493.56249      3987.44949        50.000  
  25960235.78149 136421958.79749      1413.14149        48.000  
  22599453.25049 118760927.59449     -2968.47749        50.000  
  23161734.90649 121715737.49649     -9581.90249        50.000  
 16 04 02 14 20 58.7000000  0  4G04G30G26G07                                    
  23213372.36749 121987094.91049      3984.72349        50.000  
  25960208.89149 136421817.55549      1410.90649        48.000  
  22599509.75049 118761224.55949     -2971.62149        50.000  
  23161917.27349 121716695.83649     -9585.88349        50.000  
 16 04 02 14 20 58.8000000  0  4G04G30G26G07                                    
  23213296.54749 121986696.48049      3982.86749        50.000  
  25960182.04749 136421676.49249      1409.52049        48.000  
  22599566.32049 118761521.80549     -2974.02349        50.000  
  23162099.71949 121717654.54349     -9589.23449        50.000  
 16 04 02 14 20 58.9000000  0  4G04G30G26G07                                    
  23213220.79749 121986298.44949      3978.56649        50.000  
  25960155.28149 136421535.77749      1405.70349        48.000  
  22599622.95349 118761819.48049     -2978.71949        50.000  
  23162282.25049 121718613.76249     -9594.67649        50.000  
 16 04 02 14 20 59.0000000  0  4G04G30G26G07                                    
  23213145.10949 121985900.74249      3975.42249        50.000  
  25960128.55549 136421395.31649      1403.18049        48.000  
  22599679.67249 118762117.52049     -2982.18449        50.000  
  23162464.88349 121719573.44149     -9599.07049        50.000  
 16 04 02 14 20 59.1000000  0  4G04G30G26G07                                    
  23213069.47749 121985503.29349      3972.97349        50.000  
  25960101.88349 136421255.08649      1401.15249        48.000  
  22599736.44549 118762415.88349     -2985.30149        50.000  
  23162647.57849 121720533.52049     -9602.99649        50.000  
 16 04 02 14 20 59.2000000  0  4G04G30G26G07                                    
  23212993.90649 121985106.14549      3969.78149        50.000  
  25960075.24249 136421115.08649      1398.44149        48.000  
  22599793.28149 118762714.56249     -2988.70749        50.000  
  23162830.35949 121721494.01249     -9607.26649        50.000  
 16 04 02 14 20 59.3000000  0  4G04G30G26G07                                    
  23212918.38349 121984709.28149      3967.31249        50.000  
  25960048.64149 136420975.32449      1396.53149        48.000  
  22599850.18049 118763013.59849     -2991.92249        50.000  
  23163013.21149 121722454.93049     -9611.16049        50.000  
 16 04 02 14 20 59.4000000  0  4G04G30G26G07                                    
  23212842.92249 121984312.69549      3964.12949        50.000  
  25960022.09449 136420835.79749      1393.97349        48.000  
  22599907.14149 118763312.93849     -2995.31649        50.000  
  23163196.14849 121723416.27049     -9615.72349        50.000  
 16 04 02 14 20 59.5000000  0  4G04G30G26G07                                    
  23212767.51649 121983916.46949      3960.89849        50.000  
  25959995.60249 136420696.55949      1391.23049        48.000  
  22599964.18849 118763612.68449     -2999.08649        50.000  
  23163379.17249 121724378.07849     -9620.24249        50.000  
 16 04 02 14 20 59.6000000  0  4G04G30G26G07                                    
  23212692.15649 121983520.48049      3958.40649        50.000  
  25959969.14149 136420557.51649      1389.20349        48.000  
  22600021.28149 118763912.71949     -3002.07849        50.000  
  23163562.27349 121725340.26649     -9624.15649        50.000  
 16 04 02 14 20 59.7000000  0  4G04G30G26G07                                    
  23212616.85949 121983124.77749      3955.31249        50.000  
  25959942.73449 136420418.69949      1386.64149        48.000  
  22600078.43849 118764213.07049     -3005.38349        50.000  
  23163745.45349 121726302.86349     -9628.37549        50.000  
 16 04 02 14 20 59.8000000  0  4G04G30G26G07                                    
  23212541.61749 121982729.36749      3952.69949        50.000  
  25959916.36749 136420280.14149      1384.52049        48.000  
  22600135.65649 118764513.77749     -3008.62149        50.000  
  23163928.71949 121727265.90249     -9632.47749        50.000  
 16 04 02 14 20 59.9000000  0  4G04G30G26G07                                    
  23212466.43049 121982334.27049      3949.49649        50.000  
  25959890.06249 136420141.81649      1382.04349        48.000  
  22600192.94549 118764814.82449     -3012.19549        50.000  
  23164112.05549 121728229.37149     -9636.92249        50.000  
 16 04 02 14 21  0.0000000  0  4G04G30G26G07                                    
  23212391.29749 121981939.44949      3946.66449        50.000  
  25959863.78949 136420003.75049      1379.39149        48.000  
  22600250.28949 118765116.19949     -3015.50449        50.000  
  23164295.47749 121729193.23449     -9640.87149        50.000  
 16 04 02 14 21  0.1000000  0  4G04G30G26G07                                    
  23212316.21949 121981544.92249      3943.78149        50.000  
  25959837.53949 136419865.89549      1377.32849        48.000  
  22600307.70349 118765417.91449     -3018.81249        50.000  
  23164478.97749 121730157.54749     -9645.34049        50.000  
 16 04 02 14 21  0.2000000  0  4G04G30G26G07                                    
  23212241.19549 121981150.66849      3941.04749        50.000  
  25959811.35249 136419728.27349      1375.01649        48.000  
  22600365.18049 118765719.94949     -3022.05149        50.000  
  23164662.54749 121731122.25049     -9649.23049        50.000  
 16 04 02 14 21  0.3000000  0  4G04G30G26G07                                    
  23212166.23449 121980756.70349      3938.18849        50.000  
  25959785.21149 136419590.88749      1372.69949        48.000  
  22600422.71949 118766022.30549     -3025.19949        50.000  
  23164846.20349 121732087.37149     -9653.41049        50.000  
 16 04 02 14 21  0.4000000  0  4G04G30G26G07                                    
  23212091.31249 121980363.00849      3935.14849        50.000  
  25959759.10949 136419453.71549      1370.31649        48.000  
  22600480.32049 118766324.98449     -3028.69149        50.000  
  23165029.93849 121733052.90649     -9657.70749        50.000  
 16 04 02 14 21  0.5000000  0  4G04G30G26G07                                    
  23212016.46949 121979969.68049      3931.66049        50.000  
  25959733.07049 136419316.86349      1367.19949        48.000  
  22600537.99249 118766628.07049     -3032.70749        50.000  
  23165213.77349 121734018.92649     -9662.61349        50.000  
 16 04 02 14 21  0.6000000  0  4G04G30G26G07                                    
  23211941.67249 121979576.63749      3928.85949        50.000  
  25959707.07049 136419180.24649      1364.87149        48.000  
  22600595.72749 118766931.48849     -3035.88349        50.000  
  23165397.68049 121734985.36749     -9666.62549        50.000  
 16 04 02 14 21  0.7000000  0  4G04G30G26G07                                    
  23211866.93049 121979183.84849      3926.39849        50.000  
  25959681.11749 136419043.83649      1363.02749        48.000  
  22600653.53149 118767235.20349     -3038.79349        50.000  
  23165581.65649 121735952.19149     -9670.39549        50.000  
 16 04 02 14 21  0.8000000  0  4G04G30G26G07                                    
  23211792.24249 121978791.32849      3923.64549        50.000  
  25959655.19549 136418907.62549      1360.78149        48.000  
  22600711.38349 118767539.23449     -3041.96949        50.000  
  23165765.71149 121736919.42249     -9674.56649        50.000  
 16 04 02 14 21  0.9000000  0  4G04G30G26G07                                    
  23211717.60249 121978399.11349      3920.76649        50.000  
  25959629.32849 136418771.67249      1358.37549        48.000  
  22600769.30549 118767843.60549     -3045.34049        50.000  
  23165949.85249 121737887.07849     -9678.75849        50.000  
 16 04 02 14 21  1.0000000  0  4G04G30G26G07                                    
  23211643.01649 121978007.14849      3918.03549        50.000  
  25959603.50049 136418635.94149      1356.04749        48.000  
  22600827.28149 118768148.28549     -3048.50449        50.000  
  23166134.07049 121738855.12149     -9682.60249        50.000  
 16 04 02 14 21  1.1000000  0  4G04G30G26G07                                    
  23211568.50049 121977615.55949      3914.35949        50.000  
  25959577.73449 136418500.49649      1353.09849        48.000  
  22600885.33649 118768453.36349     -3052.58649        50.000  
  23166318.37549 121739823.66449     -9687.78149        50.000  
 16 04 02 14 21  1.2000000  0  4G04G30G26G07                                    
  23211494.02349 121977224.20749      3911.97749        50.000  
  25959552.00049 136418365.27049      1351.10549        48.000  
  22600943.45349 118768758.74649     -3055.48049        50.000  
  23166502.75849 121740792.58649     -9691.39549        50.000  
 16 04 02 14 21  1.3000000  0  4G04G30G26G07                                    
  23211419.61749 121976833.18049      3908.51649        50.000  
  25959526.31249 136418230.28549      1348.39549        48.000  
  22601001.63349 118769064.48449     -3059.25049        50.000  
  23166687.21949 121741761.96149     -9696.16449        50.000  
 16 04 02 14 21  1.4000000  0  4G04G30G26G07                                    
  23211345.26649 121976442.47349      3905.42249        50.000  
  25959500.68849 136418095.59849      1345.59849        48.000  
  22601059.88349 118769370.58649     -3062.75049        50.000  
  23166871.77349 121742731.77749     -9700.47749        50.000  
 16 04 02 14 21  1.5000000  0  4G04G30G26G07                                    
  23211270.97749 121976052.02349      3902.93049        50.000  
  25959475.09449 136417961.09849      1343.87549        48.000  
  22601118.18849 118769676.99649     -3065.77049        50.000  
  23167056.40649 121743701.98449     -9704.12949        50.000  
 16 04 02 14 21  1.6000000  0  4G04G30G26G07                                    
  23211196.73449 121975661.87549      3899.78949        50.000  
  25959449.54749 136417826.84049      1341.14149        48.000  
  22601176.56249 118769983.74649     -3069.37949        50.000  
  23167241.10249 121744672.62549     -9708.75049        50.000  
 16 04 02 14 21  1.7000000  0  4G04G30G26G07                                    
  23211122.55549 121975272.03949      3897.07049        50.000  
  25959424.04749 136417692.86749      1338.77749        48.000  
  22601235.00049 118770290.85549     -3072.53949        50.000  
  23167425.89849 121745643.71949     -9712.78949        50.000  
 16 04 02 14 21  1.8000000  0  4G04G30G26G07                                    
  23211048.41449 121974882.44149      3894.43849        50.000  
  25959398.58649 136417559.07849      1336.55949        48.000  
  22601293.50049 118770598.24649     -3075.59849        50.000  
  23167610.75049 121746615.16849     -9716.68849        50.000  
 16 04 02 14 21  1.9000000  0  4G04G30G26G07                                    
  23210974.33649 121974493.17649      3891.27049        50.000  
  25959373.17249 136417425.54349      1334.13349        48.000  
  22601352.07049 118770906.01249     -3079.26249        50.000  
  23167795.70349 121747587.09449     -9721.34849        50.000  
 16 04 02 14 21  2.0000000  0  4G04G30G26G07                                    
  23210900.30549 121974104.11749      3888.88749        50.000  
  25959347.79749 136417292.19949      1332.07049        48.000  
  22601410.68049 118771214.03149     -3082.06249        50.000  
  23167980.71949 121748559.34849     -9724.93049        50.000  
 16 04 02 14 21  2.1000000  0  4G04G30G26G07                                    
  23210826.35249 121973715.47349      3885.12549        50.000  
  25959322.48449 136417159.17249      1329.16449        48.000  
  22601469.38349 118771522.50849     -3086.28949        50.000  
  23168165.82849 121749532.14849     -9730.07849        50.000  
 16 04 02 14 21  2.2000000  0  4G04G30G26G07                                    
  23210752.43049 121973327.03949      3882.64849        50.000  
  25959297.20349 136417026.33249      1326.94149        48.000  
  22601528.12549 118771831.22749     -3089.16049        50.000  
  23168351.01649 121750505.28149     -9733.87149        50.000  
 16 04 02 14 21  2.3000000  0  4G04G30G26G07                                    
  23210678.57049 121972938.93449      3879.38349        50.000  
  25959271.98449 136416893.77349      1324.21949        48.000  
  22601586.94549 118772140.33249     -3092.89849        50.000  
  23168536.28949 121751478.88749     -9738.42649        50.000  
 16 04 02 14 21  2.4000000  0  4G04G30G26G07                                    
  23210604.78949 121972551.18849      3875.85249        50.000  
  25959246.81249 136416761.51249      1321.32049        48.000  
  22601645.83649 118772449.84049     -3096.83249        50.000  
  23168721.64849 121752452.98049     -9743.23849        50.000  
 16 04 02 14 21  2.5000000  0  4G04G30G26G07                                    
  23210531.05549 121972163.71149      3873.14149        50.000  
  25959221.70349 136416629.46949      1319.12949        48.000  
  22601704.78949 118772759.65649     -3100.02749        50.000  
  23168907.09449 121753427.46549     -9747.16449        50.000  
 16 04 02 14 21  2.6000000  0  4G04G30G26G07                                    
  23210457.37549 121971776.53549      3870.28149        50.000  
  25959196.62549 136416497.68049      1316.64849        48.000  
  22601763.81249 118773069.81649     -3103.30149        50.000  
  23169092.61749 121754402.37949     -9751.40649        50.000  
 16 04 02 14 21  2.7000000  0  4G04G30G26G07                                    
  23210383.75049 121971389.68049      3866.83649        50.000  
  25959171.57849 136416366.15249      1313.81649        48.000  
  22601822.90649 118773380.34449     -3107.12149        50.000  
  23169278.21949 121755377.75049     -9755.94949        50.000  
 16 04 02 14 21  2.8000000  0  4G04G30G26G07                                    
  23210310.19549 121971003.14849      3863.73049        50.000  
  25959146.60249 136416234.89149      1311.30549        48.000  
  22601882.06249 118773691.23449     -3110.70349        50.000  
  23169463.90649 121756353.57849     -9760.50849        50.000  
 16 04 02 14 21  2.9000000  0  4G04G30G26G07                                    
  23210236.68849 121970616.84049      3861.31649        50.000  
  25959121.64849 136416103.82449      1309.35549        48.000  
  22601941.28149 118774002.40649     -3113.55149        50.000  
  23169649.67249 121757329.77049     -9764.31649        50.000  
 16 04 02 14 21  3.0000000  0  4G04G30G26G07                                    
  23210163.24249 121970230.87149      3858.41849        50.000  
  25959096.75849 136415973.02049      1307.05549        48.000  
  22602000.56249 118774313.94549     -3116.90649        50.000  
  23169835.51649 121758306.41449     -9768.41849        50.000  
 16 04 02 14 21  3.1000000  0  4G04G30G26G07                                    
  23210089.83649 121969845.15649      3855.52749        50.000  
  25959071.90649 136415842.43849      1304.48049        48.000  
  22602059.89849 118774625.78949     -3120.27749        50.000  
  23170021.44549 121759283.45349     -9772.77749        50.000  
 16 04 02 14 21  3.2000000  0  4G04G30G26G07                                    
  23210016.50049 121969459.76649      3852.23849        50.000  
  25959047.10949 136415712.11749      1301.90249        48.000  
  22602119.31249 118774937.99649     -3123.85949        50.000  
  23170207.46949 121760260.93849     -9777.19949        50.000  
 16 04 02 14 21  3.3000000  0  4G04G30G26G07                                    
  23209943.21149 121969074.64849      3849.50049        50.000  
  25959022.35249 136415582.02349      1299.76249        48.000  
  22602178.78149 118775250.52049     -3127.00049        50.000  
  23170393.55549 121761238.83649     -9781.24249        50.000  
 16 04 02 14 21  3.4000000  0  4G04G30G26G07                                    
  23209869.99249 121968689.87949      3845.93849        50.000  
  25958997.64849 136415452.22349      1296.53549        48.000  
  22602238.32849 118775563.44549     -3131.10249        50.000  
  23170579.75049 121762217.20749     -9786.18849        50.000  
 16 04 02 14 21  3.5000000  0  4G04G30G26G07                                    
  23209796.84449 121968305.41849      3843.01249        50.000  
  25958973.00049 136415322.67649      1294.19149        48.000  
  22602297.93849 118775876.71149     -3134.41049        50.000  
  23170766.00849 121763196.01249     -9790.34849        50.000  
 16 04 02 14 21  3.6000000  0  4G04G30G26G07                                    
  23209723.72749 121967921.19149      3840.49649        50.000  
  25958948.38349 136415193.32049      1292.07849        48.000  
  22602357.60949 118776190.26249     -3137.39849        50.000  
  23170952.34449 121764175.19149     -9794.25849        50.000  
 16 04 02 14 21  3.7000000  0  4G04G30G26G07                                    
  23209650.67249 121967537.30549      3837.37149        50.000  
  25958923.82849 136415064.24249      1289.61349        48.000  
  22602417.35249 118776504.19149     -3140.88749        50.000  
  23171138.75849 121765154.83249     -9798.52749        50.000  
 16 04 02 14 21  3.8000000  0  4G04G30G26G07                                    
  23209577.67249 121967153.67649      3834.80949        50.000  
  25958899.29749 136414935.35949      1287.59449        48.000  
  22602477.14149 118776818.42249     -3144.01649        50.000  
  23171325.25049 121766134.86749     -9802.51649        50.000  
 16 04 02 14 21  3.9000000  0  4G04G30G26G07                                    
  23209504.72749 121966770.32049      3831.91449        50.000  
  25958874.82049 136414806.73449      1285.01249        48.000  
  22602537.00049 118777132.98049     -3147.26249        50.000  
  23171511.82049 121767115.30949     -9806.70349        50.000  
 16 04 02 14 21  4.0000000  0  4G04G30G26G07                                    
  23209431.84449 121966387.30949      3828.70349        50.000  
  25958850.39149 136414678.37949      1282.24249        48.000  
  22602596.93049 118777447.91849     -3151.02049        50.000  
  23171698.48449 121768096.21949     -9811.32449        50.000  
 16 04 02 14 21  4.1000000  0  4G04G30G26G07                                    
  23209359.01649 121966004.59849      3825.37549        50.000  
  25958826.00849 136414550.26649      1279.79349        48.000  
  22602656.93049 118777763.20349     -3154.61349        50.000  
  23171885.23449 121769077.55949     -9815.76649        50.000  
 16 04 02 14 21  4.2000000  0  4G04G30G26G07                                    
  23209286.24249 121965622.19549      3822.43049        50.000  
  25958801.68849 136414422.43449      1277.18049        48.000  
  22602716.99249 118778078.85249     -3158.23049        50.000  
  23172072.05549 121770059.35249     -9820.19549        50.000  
 16 04 02 14 21  4.3000000  0  4G04G30G26G07                                    
  23209213.52349 121965240.04749      3820.10949        50.000  
  25958777.39849 136414294.77349      1275.45349        48.000  
  22602777.10949 118778394.77049     -3160.85249        50.000  
  23172258.95349 121771041.50449     -9823.68849        50.000  
 16 04 02 14 21  4.4000000  0  4G04G30G26G07                                    
  23209140.85949 121964858.18049      3817.13349        50.000  
  25958753.14849 136414167.36749      1272.90249        48.000  
  22602837.29749 118778711.03549     -3164.46949        50.000  
  23172445.94549 121772024.08649     -9828.11349        50.000  
 16 04 02 14 21  4.5000000  0  4G04G30G26G07                                    
  23209068.25049 121964476.65649      3813.92249        50.000  
  25958728.96149 136414040.24249      1270.20349        48.000  
  22602897.54749 118779027.68049     -3168.02049        50.000  
  23172633.01649 121773007.13749     -9832.67649        50.000  
 16 04 02 14 21  4.6000000  0  4G04G30G26G07                                    
  23208995.69549 121964095.37949      3811.32849        50.000  
  25958704.81249 136413913.31249      1267.96149        48.000  
  22602957.85949 118779344.60949     -3171.04749        50.000  
  23172820.15649 121773990.56649     -9836.45749        50.000  
 16 04 02 14 21  4.7000000  0  4G04G30G26G07                                    
  23208923.19549 121963714.39549      3808.00049        50.000  
  25958680.71149 136413786.62949      1265.31649        48.000  
  22603018.22749 118779661.87149     -3174.59049        50.000  
  23173007.37549 121774974.41049     -9840.98849        50.000  
 16 04 02 14 21  4.8000000  0  4G04G30G26G07                                    
  23208850.77349 121963333.79749      3804.54349        50.000  
  25958656.66449 136413660.26649      1262.55949        48.000  
  22603078.68049 118779979.57849     -3178.77749        50.000  
  23173194.69549 121775958.78149     -9845.87149        50.000  
 16 04 02 14 21  4.9000000  0  4G04G30G26G07                                    
  23208778.38349 121962953.40649      3802.22749        50.000  
  25958632.65649 136413534.07449      1260.72749        48.000  
  22603139.18049 118780297.53149     -3181.25849        50.000  
  23173382.07849 121776943.49249     -9849.37149        50.000  
 16 04 02 14 21  5.0000000  0  4G04G30G26G07                                    
  23208706.05549 121962573.32849      3799.24249        50.000  
  25958608.68849 136413408.13349      1258.13349        48.000  
  22603199.75049 118780615.84049     -3184.77749        50.000  
  23173569.54749 121777928.63349     -9853.73449        50.000  
 16 04 02 14 21  5.1000000  0  4G04G30G26G07                                    
  23208633.78949 121962193.52349      3796.60949        50.000  
  25958584.77349 136413282.41449      1256.09849        48.000  
  22603260.38349 118780934.45349     -3187.69549        50.000  
  23173757.08649 121778914.18449     -9857.59049        50.000  
 16 04 02 14 21  5.2000000  0  4G04G30G26G07                                    
  23208561.57049 121961814.00049      3793.66449        50.000  
  25958560.89849 136413156.93849      1253.66449        48.000  
  22603321.07849 118781253.41449     -3191.25049        50.000  
  23173944.71149 121779900.14849     -9861.83249        50.000  
 16 04 02 14 21  5.3000000  0  4G04G30G26G07                                    
  23208489.38349 121961434.70349      3791.55949        50.000  
  25958537.03949 136413031.62549      1251.86749        48.000  
  22603381.82849 118781572.63749     -3193.98049        50.000  
  23174132.40649 121780886.46949     -9865.38749        50.000  
 16 04 02 14 21  5.4000000  0  4G04G30G26G07                                    
  23208417.27349 121961055.75449      3787.87949        50.000  
  25958513.24249 136412906.60549      1248.96949        48.000  
  22603442.64149 118781892.23049     -3197.64849        50.000  
  23174320.18849 121781873.26249     -9870.25049        50.000  
 16 04 02 14 21  5.5000000  0  4G04G30G26G07                                    
  23208345.21949 121960677.12549      3784.78949        50.000  
  25958489.50849 136412781.87149      1246.09849        48.000  
  22603503.53149 118782212.21549     -3201.67649        50.000  
  23174508.05549 121782860.51249     -9874.80949        50.000  
 16 04 02 14 21  5.6000000  0  4G04G30G26G07                                    
  23208273.21949 121960298.76649      3782.05949        50.000  
  25958465.81249 136412657.34049      1243.98049        48.000  
  22603564.48449 118782532.49249     -3204.59449        50.000  
  23174696.00049 121783848.15649     -9878.75849        50.000  
 16 04 02 14 21  5.7000000  0  4G04G30G26G07                                    
  23208201.26649 121959920.69149      3779.09849        50.000  
  25958442.17249 136412533.05549      1241.56249        48.000  
  22603625.50049 118782853.12149     -3208.01649        50.000  
  23174884.02349 121784836.22749     -9883.04349        50.000  
 16 04 02 14 21  5.8000000  0  4G04G30G26G07                                    
  23208129.39149 121959542.96149      3775.82049        50.000  
  25958418.57049 136412409.05949      1238.72349        48.000  
  22603686.58649 118783174.11349     -3211.49249        50.000  
  23175072.12549 121785824.75449     -9887.48049        50.000  
 16 04 02 14 21  5.9000000  0  4G04G30G26G07                                    
  23208057.53949 121959165.43449      3773.75449        50.000  
  25958395.00049 136412285.19949      1237.31649        48.000  
  22603747.71149 118783495.37549     -3214.24649        50.000  
  23175260.30549 121786813.63749     -9891.02749        50.000  
 16 04 02 14 21  6.0000000  0  4G04G30G26G07                                    
  23207985.77349 121958788.28149      3769.83249        50.000  
  25958371.49249 136412161.67649      1233.82849        48.000  
  22603808.92249 118783817.04349     -3218.51649        50.000  
  23175448.57849 121787803.00849     -9896.13349        50.000  
 16 04 02 14 21  6.1000000  0  4G04G30G26G07                                    
  23207914.05549 121958411.42249      3766.89149        50.000  
  25958348.04749 136412038.39549      1231.38749        48.000  
  22603870.21149 118784139.04349     -3221.80549        50.000  
  23175636.91449 121788792.79749     -9900.23049        50.000  
 16 04 02 14 21  6.2000000  0  4G04G30G26G07                                    
  23207842.39849 121958034.86749      3763.90249        50.000  
  25958324.63349 136411915.35549      1229.09049        48.000  
  22603931.54749 118784461.39149     -3225.31649        50.000  
  23175825.35249 121789783.03149     -9904.63749        50.000  
 16 04 02 14 21  6.3000000  0  4G04G30G26G07                                    
  23207770.80549 121957658.59849      3761.21949        50.000  
  25958301.25849 136411792.56249      1226.77349        48.000  
  22603992.95349 118784784.07449     -3228.42649        50.000  
  23176013.86749 121790773.68449     -9908.63349        50.000  
 16 04 02 14 21  6.4000000  0  4G04G30G26G07                                    
  23207699.25049 121957282.57849      3758.59449        49.000  
  25958277.93049 136411669.97349      1224.60949        48.000  
  22604054.41449 118785107.04749     -3231.46549        50.000  
  23176202.44549 121791764.70749     -9912.52349        50.000  
 16 04 02 14 21  6.5000000  0  4G04G30G26G07                                    
  23207627.75849 121956906.88349      3755.60249        50.000  
  25958254.65649 136411547.65249      1222.11749        48.000  
  22604115.94549 118785430.39149     -3234.97749        50.000  
  23176391.12549 121792756.19149     -9916.87549        50.000  
 16 04 02 14 21  6.6000000  0  4G04G30G26G07                                    
  23207556.30549 121956531.41849      3753.02349        50.000  
  25958231.40649 136411425.48849      1220.32049        48.000  
  22604177.52349 118785754.00049     -3237.95349        50.000  
  23176579.85949 121793748.03149     -9920.72749        50.000  
 16 04 02 14 21  6.7000000  0  4G04G30G26G07                                    
  23207484.93049 121956156.34049      3749.42649        49.000  
  25958208.23449 136411303.68849      1216.95349        48.000  
  22604239.18849 118786078.05549     -3242.02049        50.000  
  23176768.70349 121794740.39549     -9925.66049        50.000  
 16 04 02 14 21  6.8000000  0  4G04G30G26G07                                    
  23207413.60949 121955781.53949      3746.27349        50.000  
  25958185.10249 136411182.10249      1214.44949        48.000  
  22604300.91449 118786402.41849     -3245.66449        50.000  
  23176957.61749 121795733.16049     -9930.24649        50.000  
 16 04 02 14 21  6.9000000  0  4G04G30G26G07                                    
  23207342.35249 121955407.04749      3743.35549        50.000  
  25958162.00849 136411060.78149      1211.89549        48.000  
  22604362.70349 118786727.12949     -3248.89549        50.000  
  23177146.61749 121796726.37149     -9934.36749        50.000  
 16 04 02 14 21  7.0000000  0  4G04G30G26G07                                    
  23207271.14849 121955032.87149      3740.10549        50.000  
  25958138.96949 136410939.71549      1209.29749        48.000  
  22604424.56249 118787052.21149     -3252.59449        50.000  
  23177335.70349 121797720.01249     -9938.79749        50.000  
 16 04 02 14 21  7.1000000  0  4G04G30G26G07                                    
  23207199.98449 121954658.92249      3737.87549        50.000  
  25958115.96149 136410818.82849      1207.47749        48.000  
  22604486.48449 118787377.56649     -3255.39149        50.000  
  23177524.85949 121798714.02349     -9942.47349        50.000  
 16 04 02 14 21  7.2000000  0  4G04G30G26G07                                    
  23207128.89149 121954285.30149      3734.76249        50.000  
  25958093.00849 136410698.22349      1204.92649        48.000  
  22604548.46149 118787703.26649     -3258.57049        50.000  
  23177714.10949 121799708.48449     -9946.68449        50.000  
 16 04 02 14 21  7.3000000  0  4G04G30G26G07                                    
  23207057.82849 121953911.90249      3732.46149        50.000  
  25958070.08649 136410577.79349      1202.96549        48.000  
  22604610.50049 118788029.27749     -3261.84049        50.000  
  23177903.41449 121800703.30949     -9950.50849        50.000  
 16 04 02 14 21  7.4000000  0  4G04G30G26G07                                    
  23206986.84449 121953538.87549      3728.85249        50.000  
  25958047.22749 136410457.65649      1200.10249        48.000  
  22604672.60949 118788355.64849     -3265.49249        50.000  
  23178092.80549 121801698.62149     -9955.25849        50.000  
 16 04 02 14 21  7.5000000  0  4G04G30G26G07                                    
  23206915.91449 121953166.15249      3725.57049        50.000  
  25958024.41449 136410337.80149      1197.27049        48.000  
  22604734.78949 118788682.41449     -3269.36349        50.000  
  23178282.29749 121802694.37549     -9959.80949        50.000  
 16 04 02 14 21  7.6000000  0  4G04G30G26G07                                    
  23206845.04749 121952793.70749      3722.55949        50.000  
  25958001.64849 136410218.15249      1194.84849        48.000  
  22604797.02349 118789009.46949     -3272.70349        50.000  
  23178471.85949 121803690.53549     -9964.11749        50.000  
 16 04 02 14 21  7.7000000  0  4G04G30G26G07                                    
  23206774.22749 121952421.59449      3719.49249        50.000  
  25957978.94549 136410098.80149      1192.15249        48.000  
  22604859.32849 118789336.91849     -3276.28549        50.000  
  23178661.51649 121804687.16449     -9968.69949        50.000  
 16 04 02 14 21  7.8000000  0  4G04G30G26G07                                    
  23206703.46949 121952049.77349      3716.39849        50.000  
  25957956.28149 136409979.68049      1189.66049        48.000  
  22604921.70349 118789664.69149     -3279.67249        50.000  
  23178851.25049 121805684.20749     -9972.91849        50.000  
 16 04 02 14 21  7.9000000  0  4G04G30G26G07                                    
  23206632.78149 121951678.29349      3713.29749        50.000  
  25957933.68049 136409860.84849      1187.08249        48.000  
  22604984.15649 118789992.85249     -3283.25849        50.000  
  23179041.07049 121806681.71549     -9977.18849        50.000  
 16 04 02 14 21  8.0000000  0  4G04G30G26G07                                    
  23206562.14149 121951307.07049      3710.68449        50.000  
  25957911.10249 136409742.23449      1184.94949        48.000  
  22605046.66449 118790321.32049     -3286.53549        50.000  
  23179230.96949 121807679.62549     -9981.37549        50.000  
 16 04 02 14 21  8.1000000  0  4G04G30G26G07                                    
  23206491.54749 121950936.11749      3707.96149        50.000  
  25957888.57849 136409623.83249      1182.63349        48.000  
  22605109.22749 118790650.09849     -3289.55549        50.000  
  23179420.93849 121808677.93049     -9985.34049        50.000  
 16 04 02 14 21  8.2000000  0  4G04G30G26G07                                    
  23206421.01649 121950565.48049      3704.79749        50.000  
  25957866.09449 136409505.68849      1180.30149        48.000  
  22605171.85249 118790979.23049     -3292.99649        50.000  
  23179610.99249 121809676.67649     -9989.74649        50.000  
 16 04 02 14 21  8.3000000  0  4G04G30G26G07                                    
  23206350.54749 121950195.14849      3701.75449        50.000  
  25957843.65649 136409387.81649      1177.48049        48.000  
  22605234.55549 118791308.71149     -3296.52749        50.000  
  23179801.14149 121810675.86349     -9994.15249        50.000  
 16 04 02 14 21  8.4000000  0  4G04G30G26G07                                    
  23206280.13349 121949825.11349      3698.70349        50.000  
  25957821.26649 136409270.16449      1175.21149        48.000  
  22605297.31249 118791638.52749     -3299.95349        50.000  
  23179991.35949 121811675.46149     -9998.36349        50.000  
 16 04 02 14 21  8.5000000  0  4G04G30G26G07                                    
  23206209.78149 121949455.43449      3695.01249        50.000  
  25957798.94549 136409152.84049      1171.87149        48.000  
  22605360.15649 118791968.75449     -3304.13749        50.000  
  23180181.66449 121812675.55949    -10003.40649        50.000  
 16 04 02 14 21  8.6000000  0  4G04G30G26G07                                    
  23206139.48449 121949085.99649      3692.66049        50.000  
  25957776.65649 136409035.71149      1169.78949        48.000  
  22605423.04749 118792299.27049     -3307.14149        50.000  
  23180372.05549 121813676.03949    -10007.26649        50.000  
 16 04 02 14 21  8.7000000  0  4G04G30G26G07                                    
  23206069.23449 121948716.84849      3690.05549        50.000  
  25957754.40649 136408918.79349      1168.04749        48.000  
  22605486.00849 118792630.09449     -3309.82849        50.000  
  23180562.51649 121814676.91049    -10010.84449        50.000  
 16 04 02 14 21  8.8000000  0  4G04G30G26G07                                    
  23205999.04749 121948348.00449      3686.79749        50.000  
  25957732.21149 136408802.13349      1165.17649        48.000  
  22605549.03149 118792961.28149     -3313.69549        50.000  
  23180753.05549 121815678.23049    -10015.59849        50.000  
 16 04 02 14 21  8.9000000  0  4G04G30G26G07                                    
  23205928.92249 121947979.49649      3683.64149        50.000  
  25957710.08649 136408685.78149      1162.41049        48.000  
  22605612.12549 118793292.85249     -3317.28149        50.000  
  23180943.68849 121816680.01249    -10019.93049        50.000  
 16 04 02 14 21  9.0000000  0  4G04G30G26G07                                    
  23205858.84449 121947611.22349      3681.10549        50.000  
  25957687.97749 136408569.60249      1160.34849        48.000  
  22605675.27349 118793624.68849     -3320.26649        50.000  
  23181134.39149 121817682.16449    -10023.93849        50.000  
 16 04 02 14 21  9.1000000  0  4G04G30G26G07                                    
  23205788.82849 121947243.27049      3677.90249        50.000  
  25957665.91449 136408453.67649      1157.87949        48.000  
  22605738.49249 118793956.90249     -3323.95349        50.000  
  23181325.18049 121818684.76649    -10028.29749        50.000  
 16 04 02 14 21  9.2000000  0  4G04G30G26G07                                    
  23205718.85949 121946875.58249      3675.18449        49.000  
  25957643.90649 136408337.98849      1155.55549        48.000  
  22605801.76649 118794289.41849     -3326.93049        50.000  
  23181516.03949 121819687.76249    -10032.26649        50.000  
 16 04 02 14 21  9.3000000  0  4G04G30G26G07                                    
  23205648.95349 121946508.22349      3672.21549        49.000  
  25957621.93049 136408222.55949      1153.05149        48.000  
  22605865.10949 118794622.29349     -3330.37549        50.000  
  23181706.99249 121820691.20749    -10036.50449        50.000  
 16 04 02 14 21  9.4000000  0  4G04G30G26G07                                    
  23205579.09449 121946141.09049      3669.82449        49.000  
  25957600.00049 136408107.31649      1151.16449        48.000  
  22605928.50849 118794955.44949     -3333.19549        50.000  
  23181898.00849 121821695.01649    -10040.25449        49.000  
 16 04 02 14 21  9.5000000  0  4G04G30G26G07                                    
  23205509.28949 121945774.30949      3666.31249        50.000  
  25957578.13349 136407992.36349      1148.28149        48.000  
  22605991.97749 118795288.99249     -3337.13349        50.000  
  23182089.11749 121822699.30149    -10045.05949        50.000  
 16 04 02 14 21  9.6000000  0  4G04G30G26G07                                    
  23205439.54749 121945407.78949      3663.53549        49.000  
  25957556.29749 136407877.63749      1145.81649        48.000  
  22606055.50849 118795622.85949     -3340.46549        50.000  
  23182280.30549 121823703.99249    -10049.27749        50.000  
 16 04 02 14 21  9.7000000  0  4G04G30G26G07                                    
  23205369.85949 121945041.59849      3660.38749        49.000  
  25957534.50849 136407763.18449      1143.21149        48.000  
  22606119.11749 118795957.08649     -3344.00049        50.000  
  23182471.57049 121824709.13349    -10053.61749        50.000  
 16 04 02 14 21  9.8000000  0  4G04G30G26G07                                    
  23205300.21949 121944675.63349      3658.12949        49.000  
  25957512.76649 136407648.89149      1141.48849        48.000  
  22606182.76649 118796291.56249     -3346.50449        50.000  
  23182662.90649 121825714.61349    -10057.12949        50.000  
 16 04 02 14 21  9.9000000  0  4G04G30G26G07                                    
  23205230.64149 121944309.98849      3654.97749        49.000  
  25957491.06249 136407534.88349      1138.83649        48.000  
  22606246.49249 118796626.43849     -3350.32849        50.000  
  23182854.33649 121826720.57049    -10061.69949        49.000  
 16 04 02 14 21 10.0000000  0  4G04G30G26G07                                    
  23205161.11749 121943944.63349      3652.02749        49.000  
  25957469.41449 136407421.11349      1136.44549        48.000  
  22606310.27349 118796961.61749     -3353.50849        50.000  
  23183045.83649 121827726.92249    -10065.83249        50.000  
 16 04 02 14 21 10.1000000  0  4G04G30G26G07                                    
  23205091.64849 121943579.57049      3649.02349        49.000  
  25957447.81249 136407307.57049      1133.98449        48.000  
  22606374.12549 118797297.14149     -3357.02349        50.000  
  23183237.42249 121828733.71149    -10070.27049        50.000  
 16 04 02 14 21 10.2000000  0  4G04G30G26G07                                    
  23205022.24249 121943214.84849      3645.71949        49.000  
  25957426.26649 136407194.33649      1131.07449        48.000  
  22606438.04749 118797633.06249     -3360.92249        50.000  
  23183429.09449 121829740.96149    -10074.82449        50.000  
 16 04 02 14 21 10.3000000  0  4G04G30G26G07                                    
  23204952.89849 121942850.44149      3642.24249        49.000  
  25957404.77349 136407081.34849      1128.29749        48.000  
  22606502.03149 118797969.30949     -3364.34849        50.000  
  23183620.86749 121830748.66449    -10079.45749        50.000  
 16 04 02 14 21 10.4000000  0  4G04G30G26G07                                    
  23204883.60249 121942486.28949      3639.82849        50.000  
  25957383.31249 136406968.57849      1126.35949        48.000  
  22606566.07849 118798305.88349     -3367.29749        50.000  
  23183812.68849 121831756.74249    -10083.10949        50.000  
 16 04 02 14 21 10.5000000  0  4G04G30G26G07                                    
  23204814.35949 121942122.43449      3636.85549        50.000  
  25957361.89849 136406856.04749      1123.98449        48.000  
  22606630.18049 118798642.78149     -3370.80149        50.000  
  23184004.60249 121832765.25049    -10087.43449        50.000  
 16 04 02 14 21 10.6000000  0  4G04G30G26G07                                    
  23204745.18849 121941758.92649      3633.50049        49.000  
  25957340.53949 136406743.81649      1121.06249        48.000  
  22606694.36749 118798980.08649     -3374.69549        50.000  
  23184196.60949 121833774.25049    -10092.25849        49.000  
 16 04 02 14 21 10.7000000  0  4G04G30G26G07                                    
  23204676.06249 121941395.69549      3630.62149        50.000  
  25957319.21949 136406631.81249      1118.70349        48.000  
  22606758.60949 118799317.68849     -3377.71949        50.000  
  23184388.68849 121834783.62949    -10096.14849        49.000  
 16 04 02 14 21 10.8000000  0  4G04G30G26G07                                    
  23204606.99249 121941032.73049      3628.16049        50.000  
  25957297.94549 136406520.02049      1116.82849        48.000  
  22606822.91449 118799655.62949     -3381.00049        50.000  
  23184580.84449 121835793.42249    -10100.05149        49.000  
 16 04 02 14 21 10.9000000  0  4G04G30G26G07                                    
  23204537.96949 121940669.99649      3625.70349        50.000  
  25957276.70349 136406408.42249      1114.70349        48.000  
  22606887.27349 118799993.82049     -3383.82449        50.000  
  23184773.06249 121836803.56649    -10103.82849        49.000  
 16 04 02 14 21 11.0000000  0  4G04G30G26G07                                    
  23204469.01649 121940307.63749      3622.14849        50.000  
  25957255.52349 136406297.12949      1111.69549        48.000  
  22606951.71149 118800332.43049     -3387.69949        50.000  
  23184965.39149 121837814.23049    -10108.78149        49.000  
 16 04 02 14 21 11.1000000  0  4G04G30G26G07                                    
  23204400.11749 121939945.57449      3619.09449        50.000  
  25957234.40649 136406186.09449      1109.07049        48.000  
  22607016.21149 118800671.39549     -3391.39849        50.000  
  23185157.78949 121838825.30549    -10113.11349        49.000  
 16 04 02 14 21 11.2000000  0  4G04G30G26G07                                    
  23204331.27349 121939583.79749      3616.11749        50.000  
  25957213.32049 136406075.28949      1106.75049        48.000  
  22607080.77349 118801010.68049     -3394.67249        50.000  
  23185350.26649 121839836.80149    -10117.25449        49.000  
 16 04 02 14 21 11.3000000  0  4G04G30G26G07                                    
  23204262.48449 121939222.32849      3613.22349        50.000  
  25957192.28949 136405964.74249      1104.29749        48.000  
  22607145.40649 118801350.30949     -3397.96549        50.000  
  23185542.82849 121840848.73049    -10121.39149        49.000  
 16 04 02 14 21 11.4000000  0  4G04G30G26G07                                    
  23204193.75849 121938861.15249      3610.07849        50.000  
  25957171.29749 136405854.43049      1101.62549        48.000  
  22607210.09449 118801690.27049     -3401.49649        50.000  
  23185735.47749 121841861.08249    -10125.93449        49.000  
 16 04 02 14 21 11.5000000  0  4G04G30G26G07                                    
  23204125.08649 121938500.28549      3607.30949        50.000  
  25957150.35249 136405744.38749      1099.32049        48.000  
  22607274.86749 118802030.60249     -3404.91449        50.000  
  23185928.20349 121842873.87149    -10130.03949        49.000  
 16 04 02 14 21 11.6000000  0  4G04G30G26G07                                    
  23204056.45349 121938139.62149      3605.10249        50.000  
  25957129.43849 136405634.48849      1097.67649        48.000  
  22607339.67249 118802371.16449     -3407.48849        50.000  
  23186120.99249 121843887.00049    -10133.54749        49.000  
 16 04 02 14 21 11.7000000  0  4G04G30G26G07                                    
  23203987.88349 121937779.30549      3601.80549        50.000  
  25957108.57849 136405524.89149      1094.85549        48.000  
  22607404.55549 118802712.09849     -3410.88349        50.000  
  23186313.87549 121844900.59449    -10138.02749        49.000  
 16 04 02 14 21 11.8000000  0  4G04G30G26G07                                    
  23203919.37549 121937419.29749      3598.62549        50.000  
  25957087.77349 136405415.54749      1092.25849        48.000  
  22607469.50849 118803053.41449     -3414.76249        50.000  
  23186506.84449 121845914.62949    -10142.55949        49.000  
 16 04 02 14 21 11.9000000  0  4G04G30G26G07                                    
  23203850.91449 121937059.51249      3596.31649        50.000  
  25957067.00049 136405306.36349      1090.63349        48.000  
  22607534.50049 118803394.99249     -3417.39149        50.000  
  23186699.87549 121846929.01649    -10146.00049        49.000  
 16 04 02 14 21 12.0000000  0  4G04G30G26G07                                    
  23203782.51649 121936700.07449      3592.82449        50.000  
  25957046.28149 136405197.51249      1087.34449        48.000  
  22607599.57849 118803736.94949     -3421.30549        50.000  
  23186893.01649 121847943.89149    -10150.93049        49.000  
 16 04 02 14 21 12.1000000  0  4G04G30G26G07                                    
  23203714.15649 121936340.86749      3590.51649        50.000  
  25957025.60249 136405088.80949      1085.68849        48.000  
  22607664.70349 118804079.18849     -3424.10949        50.000  
  23187086.20349 121848959.11349    -10154.50449        49.000  
 16 04 02 14 21 12.2000000  0  4G04G30G26G07                                    
  23203645.85949 121935981.95349      3587.67249        49.000  
  25957004.96149 136404980.37149      1083.29749        48.000  
  22607729.89149 118804421.76249     -3427.36349        50.000  
  23187279.47749 121849974.75849    -10158.61349        49.000  
 16 04 02 14 21 12.3000000  0  4G04G30G26G07                                    
  23203577.61749 121935623.32049      3584.80949        50.000  
  25956984.36749 136404872.14549      1081.07849        48.000  
  22607795.13349 118804764.65249     -3430.50449        50.000  
  23187472.82849 121850990.82049    -10162.75049        49.000  
 16 04 02 14 21 12.4000000  0  4G04G30G26G07                                    
  23203509.43049 121935264.98849      3581.77349        50.000  
  25956963.82049 136404764.18449      1078.33249        48.000  
  22607860.45349 118805107.90249     -3434.32049        50.000  
  23187666.27349 121852007.31649    -10167.31249        49.000  
 16 04 02 14 21 12.5000000  0  4G04G30G26G07                                    
  23203441.29749 121934906.96949      3578.48449        50.000  
  25956943.32849 136404656.47349      1075.61349        48.000  
  22607925.82849 118805451.48449     -3437.65249        50.000  
  23187859.78949 121853024.24249    -10171.64549        49.000  
 16 04 02 14 21 12.6000000  0  4G04G30G26G07                                    
  23203373.22749 121934549.27349      3575.39149        50.000  
  25956922.88349 136404549.03549      1072.98849        48.000  
  22607991.28149 118805795.44949     -3441.46149        50.000  
  23188053.39149 121854041.62549    -10176.13349        49.000  
 16 04 02 14 21 12.7000000  0  4G04G30G26G07                                    
  23203305.21149 121934191.87149      3572.30949        50.000  
  25956902.49249 136404441.84849      1070.47349        48.000  
  22608056.79749 118806139.73449     -3444.75049        50.000  
  23188247.07049 121855059.43049    -10180.52749        49.000  
 16 04 02 14 21 12.8000000  0  4G04G30G26G07                                    
  23203237.25849 121933834.76249      3569.30549        50.000  
  25956882.14149 136404334.90249      1067.88349        48.000  
  22608122.38349 118806484.38749     -3448.32449        50.000  
  23188440.83649 121856077.66449    -10184.71549        49.000  
 16 04 02 14 21 12.9000000  0  4G04G30G26G07                                    
  23203169.35949 121933477.98049      3566.31249        50.000  
  25956861.85249 136404228.23449      1065.55949        48.000  
  22608188.03949 118806829.37949     -3451.61349        50.000  
  23188634.69549 121857096.34449    -10188.98049        49.000  
 16 04 02 14 21 13.0000000  0  4G04G30G26G07                                    
  23203101.51649 121933121.45749      3563.28149        50.000  
  25956841.58649 136404121.77049      1062.93849        48.000  
  22608253.75049 118807174.68449     -3455.12149        50.000  
  23188828.61749 121858115.41449    -10193.32449        49.000  
 16 04 02 14 21 13.1000000  0  4G04G30G26G07                                    
  23203033.72749 121932765.19949      3561.11749        50.000  
  25956821.37549 136404015.53149      1061.32049        48.000  
  22608319.50849 118807520.29349     -3457.61749        50.000  
  23189022.60949 121859134.88749    -10196.81249        49.000  
 16 04 02 14 21 13.2000000  0  4G04G30G26G07                                    
  23202966.00049 121932409.28549      3557.59449        50.000  
  25956801.21149 136403909.57849      1058.25449        48.000  
  22608385.35249 118807866.28949     -3461.66049        50.000  
  23189216.70349 121860154.82449    -10201.64849        49.000  
 16 04 02 14 21 13.3000000  0  4G04G30G26G07                                    
  23202898.31249 121932053.62549      3555.00849        50.000  
  25956781.07849 136403803.82049      1056.28149        48.000  
  22608451.25049 118808212.58649     -3464.66849        50.000  
  23189410.86749 121861175.14549    -10205.38749        49.000  
 16 04 02 14 21 13.4000000  0  4G04G30G26G07                                    
  23202830.68849 121931698.24249      3552.07049        50.000  
  25956761.00049 136403698.30149      1053.73049        48.000  
  22608517.21149 118808559.19149     -3467.87949        50.000  
  23189605.10249 121862195.87549    -10209.74249        49.000  
 16 04 02 14 21 13.5000000  0  4G04G30G26G07                                    
  23202763.12549 121931343.21149      3548.80949        50.000  
  25956740.98449 136403593.06249      1051.12149        48.000  
  22608583.24249 118808906.19949     -3471.65649        50.000  
  23189799.43049 121863217.07449    -10214.13349        49.000  
 16 04 02 14 21 13.6000000  0  4G04G30G26G07                                    
  23202695.61749 121930988.44549      3545.80949        49.000  
  25956721.00049 136403488.05949      1048.68449        48.000  
  22608649.33649 118809253.52349     -3475.09449        50.000  
  23189993.83649 121864238.68449    -10218.46549        49.000  
 16 04 02 14 21 13.7000000  0  4G04G30G26G07                                    
  23202628.16449 121930633.98849      3542.72749        49.000  
  25956701.07049 136403383.31249      1045.93049        48.000  
  22608715.49249 118809601.19149     -3478.65649        50.000  
  23190188.32849 121865260.72749    -10222.87949        49.000  
 16 04 02 14 21 13.8000000  0  4G04G30G26G07                                    
  23202560.76649 121930279.84449      3540.10549        50.000  
  25956681.19549 136403278.83649      1043.55949        48.000  
  22608781.71949 118809949.20749     -3481.80149        50.000  
  23190382.89849 121866283.21549    -10226.96949        49.000  
 16 04 02 14 21 13.9000000  0  4G04G30G26G07                                    
  23202493.42249 121929925.93049      3537.73449        50.000  
  25956661.35249 136403174.53149      1041.73849        48.000  
  22608848.00049 118810297.51249     -3484.71149        50.000  
  23190577.53949 121867306.06249    -10230.75049        49.000  
 16 04 02 14 21 14.0000000  0  4G04G30G26G07                                    
  23202426.14849 121929572.40649      3533.82449        50.000  
  25956641.56249 136403070.55149      1038.60949        48.000  
  22608914.35949 118810646.23049     -3488.93049        50.000  
  23190772.28149 121868329.41849    -10235.81649        49.000  
 16 04 02 14 21 14.1000000  0  4G04G30G26G07                                    
  23202358.92249 121929219.16049      3530.96949        50.000  
  25956621.81249 136402966.79749      1036.33649        48.000  
  22608980.77349 118810995.26249     -3492.09049        50.000  
  23190967.10249 121869353.17649    -10239.77049        49.000  
 16 04 02 14 21 14.2000000  0  4G04G30G26G07                                    
  23202291.75049 121928866.18849      3527.98449        50.000  
  25956602.11749 136402863.28949      1033.80549        48.000  
  22609047.25849 118811344.62949     -3495.34849        50.000  
  23191161.99249 121870377.34849    -10244.05149        49.000  
 16 04 02 14 21 14.3000000  0  4G04G30G26G07                                    
  23202224.64149 121928513.49249      3525.26249        50.000  
  25956582.45349 136402760.01249      1031.55149        48.000  
  22609113.80549 118811694.32449     -3498.60549        50.000  
  23191356.96949 121871401.93049    -10248.08649        49.000  
 16 04 02 14 21 14.4000000  0  4G04G30G26G07                                    
  23202157.57849 121928161.06649      3522.93049        50.000  
  25956562.84449 136402656.94149      1029.50049        48.000  
  22609180.40649 118812044.32049     -3501.59049        50.000  
  23191552.02349 121872426.91449    -10251.84449        49.000  
 16 04 02 14 21 14.5000000  0  4G04G30G26G07                                    
  23202090.57849 121927808.96149      3519.59449        50.000  
  25956543.28149 136402554.14149      1026.69549        48.000  
  22609247.07049 118812394.66849     -3505.27749        50.000  
  23191747.14849 121873452.32449    -10256.45349        50.000  
 16 04 02 14 21 14.6000000  0  4G04G30G26G07                                    
  23202023.64149 121927457.22749      3515.60549        50.000  
  25956523.77349 136402451.64849      1023.48449        48.000  
  22609313.82049 118812745.43449     -3509.42649        50.000  
  23191942.37549 121874478.24249    -10261.45749        49.000  
 16 04 02 14 21 14.7000000  0  4G04G30G26G07                                    
  23201956.75049 121927105.70749      3513.70749        50.000  
  25956504.30549 136402349.35249      1021.90649        48.000  
  22609380.61749 118813096.48049     -3512.11349        50.000  
  23192137.67249 121875504.52349    -10265.02349        49.000  
 16 04 02 14 21 14.8000000  0  4G04G30G26G07                                    
  23201889.92249 121926754.52749      3510.11749        50.000  
  25956484.89149 136402247.30949      1019.00449        48.000  
  22609447.48449 118813447.86749     -3515.69949        50.000  
  23192333.04749 121876531.25049    -10269.59449        50.000  
 16 04 02 14 21 14.9000000  0  4G04G30G26G07                                    
  23201823.14849 121926403.61749      3507.38349        49.000  
  25956465.52349 136402145.51249      1016.57049        48.000  
  22609514.42249 118813799.60249     -3519.20749        50.000  
  23192528.50849 121877558.38749    -10273.69549        50.000  
 16 04 02 14 21 15.0000000  0  4G04G30G26G07                                    
  23201756.43049 121926053.01649      3504.80949        50.000  
  25956446.19549 136402043.96549      1014.39849        48.000  
  22609581.41449 118814151.67249     -3522.27349        50.000  
  23192724.05549 121878585.95349    -10277.72749        50.000  
 16 04 02 14 21 15.1000000  0  4G04G30G26G07                                    
  23201689.75049 121925702.62149      3502.45349        49.000  
  25956426.90649 136401942.57849      1012.59849        48.000  
  22609648.46949 118814504.00449     -3525.06249        50.000  
  23192919.65649 121879613.88349    -10281.46949        50.000  
 16 04 02 14 21 15.2000000  0  4G04G30G26G07                                    
  23201623.14149 121925352.57849      3498.96149        49.000  
  25956407.67249 136401841.48849      1009.77749        48.000  
  22609715.58649 118814856.71949     -3528.79749        50.000  
  23193115.35249 121880642.27049    -10285.96149        50.000  
 16 04 02 14 21 15.3000000  0  4G04G30G26G07                                    
  23201556.59449 121925002.84849      3495.95349        49.000  
  25956388.48449 136401740.64849      1007.12149        48.000  
  22609782.77349 118815209.78149     -3532.30949        50.000  
  23193311.13349 121881671.08249    -10290.34849        49.000  
 16 04 02 14 21 15.4000000  0  4G04G30G26G07                                    
  23201490.08649 121924653.35949      3493.15249        50.000  
  25956369.33649 136401640.00449      1005.12149        48.000  
  22609850.01649 118815563.12949     -3535.32449        50.000  
  23193506.97749 121882700.28149    -10294.30149        49.000  
 16 04 02 14 21 15.5000000  0  4G04G30G26G07                                    
  23201423.64849 121924304.19549      3489.93049        50.000  
  25956350.22749 136401539.64849      1002.30949        48.000  
  22609917.32049 118815916.85249     -3539.00849        50.000  
  23193702.91449 121883729.93049    -10298.77049        49.000  
 16 04 02 14 21 15.6000000  0  4G04G30G26G07                                    
  23201357.25849 121923955.31249      3487.25449        49.000  
  25956331.17249 136401439.52749      1000.04349        48.000  
  22609984.69549 118816270.89149     -3542.06649        50.000  
  23193898.93049 121884759.99649    -10302.80149        50.000  
 16 04 02 14 21 15.7000000  0  4G04G30G26G07                                    
  23201290.91449 121923606.69549      3484.48049        49.000  
  25956312.16449 136401339.60949       997.68849        48.000  
  22610052.13349 118816625.25449     -3545.54749        50.000  
  23194095.01649 121885790.45749    -10307.06249        49.000  
 16 04 02 14 21 15.8000000  0  4G04G30G26G07                                    
  23201224.64149 121923258.43049      3481.07849        50.000  
  25956293.21149 136401239.99249       994.91449        48.000  
  22610119.63349 118816979.99649     -3549.08249        50.000  
  23194291.20349 121886821.39849    -10311.60249        49.000  
 16 04 02 14 21 15.9000000  0  4G04G30G26G07                                    
  23201158.42249 121922910.43049      3478.14549        50.000  
  25956274.29749 136401140.59049       992.61749        48.000  
  22610187.19549 118817335.04749     -3552.39849        50.000  
  23194487.46949 121887852.72349    -10315.72749        49.000  
 16 04 02 14 21 16.0000000  0  4G04G30G26G07                                    
  23201092.26649 121922562.79349      3474.83649        50.000  
  25956255.43849 136401041.51649       989.55949        48.000  
  22610254.84449 118817690.51649     -3556.37149        50.000  
  23194683.82049 121888884.54749    -10320.46949        49.000  
 16 04 02 14 21 16.1000000  0  4G04G30G26G07                                    
  23201026.15649 121922215.39849      3472.35949        50.000  
  25956236.61749 136400942.62549       987.53549        48.000  
  22610322.53949 118818046.25449     -3559.23449        50.000  
  23194880.23449 121889916.74249    -10324.30149        50.000  
 16 04 02 14 21 16.2000000  0  4G04G30G26G07                                    
  23200960.10949 121921868.30549      3469.38349        50.000  
  25956217.84449 136400843.97749       985.21149        48.000  
  22610390.29749 118818402.33249     -3562.38349        50.000  
  23195076.73449 121890949.36749    -10328.41049        50.000  
 16 04 02 14 21 16.3000000  0  4G04G30G26G07                                    
  23200894.10949 121921521.49249      3466.59049        50.000  
  25956199.12549 136400745.55949       982.90249        48.000  
  22610458.11749 118818758.74249     -3565.80149        50.000  
  23195273.31249 121891982.39549    -10332.52049        50.000  
 16 04 02 14 21 16.4000000  0  4G04G30G26G07                                    
  23200828.16449 121921174.96149      3463.62549        50.000  
  25956180.44549 136400647.38749       980.46549        48.000  
  22610526.00849 118819115.47749     -3569.17249        50.000  
  23195469.97749 121893015.84449    -10336.90649        49.000  
 16 04 02 14 21 16.5000000  0  4G04G30G26G07                                    
  23200762.28149 121920828.73849      3460.49249        50.000  
  25956161.81249 136400549.46949       977.78949        48.000  
  22610593.96149 118819472.56249     -3572.61349        50.000  
  23195666.71149 121894049.71949    -10341.14549        50.000  
 16 04 02 14 21 16.6000000  0  4G04G30G26G07                                    
  23200696.44549 121920482.79749      3457.81249        50.000  
  25956143.22749 136400451.78949       975.42649        48.000  
  22610661.97749 118819829.98849     -3576.04349        50.000  
  23195863.53149 121895084.03149    -10345.50449        50.000  
 16 04 02 14 21 16.7000000  0  4G04G30G26G07                                    
  23200630.68849 121920137.26249      3453.96149        50.000  
  25956124.71149 136400354.43849       972.27049        48.000  
  22610730.06249 118820187.81249     -3579.89849        50.000  
  23196060.44549 121896118.82849    -10350.26249        50.000  
 16 04 02 14 21 16.8000000  0  4G04G30G26G07                                    
  23200564.97749 121919791.91449      3451.83249        50.000  
  25956106.21149 136400257.25849       970.52749        48.000  
  22610798.20349 118820545.91449     -3582.76649        50.000  
  23196257.42249 121897153.97349    -10353.69549        50.000  
 16 04 02 14 21 16.9000000  0  4G04G30G26G07                                    
  23200499.31249 121919446.85249      3449.12549        50.000  
  25956087.75849 136400160.28949       968.31649        48.000  
  22610866.41449 118820904.33249     -3585.93049        50.000  
  23196454.48449 121898189.53949    -10357.96149        50.000  
 16 04 02 14 21 17.0000000  0  4G04G30G26G07                                    
  23200433.70349 121919102.07449      3446.41449        50.000  
  25956069.35249 136400063.56649       966.18849        48.000  
  22610934.67249 118821263.06249     -3588.94149        50.000  
  23196651.62549 121899225.50049    -10361.71149        50.000  
 16 04 02 14 21 17.1000000  0  4G04G30G26G07                                    
  23200368.14149 121918757.57449      3443.47349        50.000  
  25956050.99249 136399967.06649       963.81649        48.000  
  22611003.00049 118821622.12949     -3592.34049        50.000  
  23196848.84449 121900261.87149    -10365.88749        50.000  
 16 04 02 14 21 17.2000000  0  4G04G30G26G07                                    
  23200302.64149 121918413.36349      3440.57849        50.000  
  25956032.68049 136399870.80149       961.35949        48.000  
  22611071.39149 118821981.51249     -3595.56249        50.000  
  23197046.14149 121901298.66849    -10370.14149        50.000  
 16 04 02 14 21 17.3000000  0  4G04G30G26G07                                    
  23200237.18049 121918069.39849      3438.17649        50.000  
  25956014.40649 136399774.74249       959.56249        48.000  
  22611139.82849 118822341.18849     -3598.20749        50.000  
  23197243.50849 121902335.82449    -10373.62549        50.000  
 16 04 02 14 21 17.4000000  0  4G04G30G26G07                                    
  23200171.78949 121917725.76649      3434.78549        50.000  
  25955996.18049 136399678.96949       956.52749        48.000  
  22611208.35249 118822701.24649     -3602.32849        50.000  
  23197440.96149 121903373.45749    -10378.55549        50.000  
 16 04 02 14 21 17.5000000  0  4G04G30G26G07                                    
  23200106.45349 121917382.42649      3431.75049        50.000  
  25955978.00849 136399583.42249       954.05549        48.000  
  22611276.93049 118823061.62949     -3605.68849        50.000  
  23197638.50049 121904411.50049    -10382.76249        50.000  
 16 04 02 14 21 17.6000000  0  4G04G30G26G07                                    
  23200041.16449 121917039.36349      3428.95349        50.000  
  25955959.86749 136399488.11349       951.74649        48.000  
  22611345.57049 118823422.33249     -3608.87949        50.000  
  23197836.11749 121905449.95749    -10386.93849        50.000  
 16 04 02 14 21 17.7000000  0  4G04G30G26G07                                    
  23199975.93849 121916696.57449      3426.52349        50.000  
  25955941.77349 136399393.02749       949.79349        48.000  
  22611414.26649 118823783.35249     -3611.69549        50.000  
  23198033.80549 121906488.81249    -10390.62949        50.000  
 16 04 02 14 21 17.8000000  0  4G04G30G26G07                                    
  23199910.75849 121916354.08249      3423.30549        50.000  
  25955923.72749 136399298.18449       947.07049        48.000  
  22611483.03149 118824144.71549     -3615.34849        50.000  
  23198231.57049 121907528.09049    -10395.13749        50.000  
 16 04 02 14 21 17.9000000  0  4G04G30G26G07                                    
  23199845.64849 121916011.91449      3420.27749        50.000  
  25955905.73449 136399203.62949       944.30149        48.000  
  22611551.86749 118824506.44549     -3618.86749        50.000  
  23198429.43849 121908567.83249    -10399.60949        50.000  
 16 04 02 14 21 18.0000000  0  4G04G30G26G07                                    
  23199780.59449 121915670.04349      3417.36349        50.000  
  25955887.78149 136399109.30949       942.05149        48.000  
  22611620.76649 118824868.50849     -3622.12549        50.000  
  23198627.37549 121909607.98049    -10403.64149        50.000  
 16 04 02 14 21 18.1000000  0  4G04G30G26G07                                    
  23199715.57849 121915328.35949      3415.39549        50.000  
  25955869.85949 136399015.12149       940.77749        48.000  
  22611689.71149 118825230.79749     -3624.53949        50.000  
  23198825.36749 121910648.45349    -10406.85249        50.000  
 16 04 02 14 21 18.2000000  0  4G04G30G26G07                                    
  23199650.62549 121914987.04349      3411.78949        50.000  
  25955852.00049 136398921.26249       937.41849        48.000  
  22611758.72749 118825593.50449     -3628.61349        50.000  
  23199023.46149 121911689.42249    -10411.79749        50.000  
 16 04 02 14 21 18.3000000  0  4G04G30G26G07                                    
  23199585.72749 121914646.01249      3408.57449        50.000  
  25955834.18049 136398827.62549       934.95349        48.000  
  22611827.81249 118825956.52749     -3632.09049        50.000  
  23199221.63349 121912730.80149    -10416.14849        50.000  
 16 04 02 14 21 18.4000000  0  4G04G30G26G07                                    
  23199520.89149 121914305.28949      3405.63749        50.000  
  25955816.41449 136398734.26249       932.37149        48.000  
  22611896.96949 118826319.92649     -3635.75049        50.000  
  23199419.88349 121913772.62949    -10420.58249        50.000  
 16 04 02 14 21 18.5000000  0  4G04G30G26G07                                    
  23199456.11749 121913964.86749      3402.36749        50.000  
  25955798.69549 136398641.14849       929.60549        48.000  
  22611966.18049 118826683.64549     -3639.30549        50.000  
  23199618.21149 121914814.87149    -10424.91449        50.000  
 16 04 02 14 21 18.6000000  0  4G04G30G26G07                                    
  23199391.39849 121913624.76649      3399.27749        50.000  
  25955781.02349 136398548.29749       926.94549        48.000  
  22612035.46149 118827047.72749     -3642.79749        50.000  
  23199816.63349 121915857.56649    -10429.46549        50.000  
 16 04 02 14 21 18.7000000  0  4G04G30G26G07                                    
  23199326.75049 121913285.05149      3395.55149        50.000  
  25955763.42249 136398455.78149       923.79349        48.000  
  22612104.82849 118827412.23449     -3646.94949        50.000  
  23200015.14849 121916900.77749    -10434.40649        50.000  
 16 04 02 14 21 18.8000000  0  4G04G30G26G07                                    
  23199262.14849 121912945.55549      3393.43849        50.000  
  25955745.85249 136398363.45349       921.97349        48.000  
  22612174.24249 118827777.02349     -3649.62549        50.000  
  23200213.72749 121917944.33649    -10437.88349        50.000  
 16 04 02 14 21 18.9000000  0  4G04G30G26G07                                    
  23199197.60249 121912606.37149      3390.46149        50.000  
  25955728.33649 136398271.36349       919.76649        48.000  
  22612243.71949 118828142.13749     -3652.80949        50.000  
  23200412.39849 121918988.34049    -10442.16049        50.000  
 16 04 02 14 21 19.0000000  0  4G04G30G26G07                                    
  23199133.09449 121912267.37549      3388.43049        50.000  
  25955710.84449 136398179.41849       918.25049        48.000  
  22612313.24249 118828507.50049     -3655.14849        50.000  
  23200611.12549 121920032.64849    -10445.32449        50.000  
 16 04 02 14 21 19.1000000  0  4G04G30G26G07                                    
  23199068.65649 121911928.75449      3384.80149        50.000  
  25955693.39849 136398087.80549       915.16849        48.000  
  22612382.85249 118828873.27349     -3659.28149        50.000  
  23200809.94549 121921077.46949    -10450.19149        50.000  
 16 04 02 14 21 19.2000000  0  4G04G30G26G07                                    
  23199004.27349 121911590.40249      3381.75049        50.000  
  25955676.00849 136397996.41849       912.35249        48.000  
  22612452.51649 118829239.36349     -3662.79349        50.000  
  23201008.84449 121922122.68449    -10454.52049        50.000  
 16 04 02 14 21 19.3000000  0  4G04G30G26G07                                    
  23198939.94549 121911252.39549      3378.58249        50.000  
  25955658.68049 136397905.30549       909.90649        48.000  
  22612522.25049 118829605.83249     -3666.30149        50.000  
  23201207.83649 121923168.37549    -10459.05549        50.000  
 16 04 02 14 21 19.4000000  0  4G04G30G26G07                                    
  23198875.66449 121910914.58649      3376.39849        50.000  
  25955641.37549 136397814.36749       907.99649        48.000  
  22612592.03149 118829972.54749     -3669.04349        50.000  
  23201406.88349 121924214.38349    -10462.48449        50.000  
 16 04 02 14 21 19.5000000  0  4G04G30G26G07                                    
  23198811.44549 121910577.12549      3373.15649        50.000  
  25955624.11749 136397723.70349       905.37949        48.000  
  22612661.89149 118830339.64849     -3672.66849        50.000  
  23201606.02349 121925260.87549    -10466.99649        50.000  
 16 04 02 14 21 19.6000000  0  4G04G30G26G07                                    
  23198747.27349 121910239.89549      3370.66849        50.000  
  25955606.89849 136397633.23449       903.42249        48.000  
  22612731.80549 118830707.02749     -3675.53149        50.000  
  23201805.23449 121926307.73049    -10470.81649        50.000  
 16 04 02 14 21 19.7000000  0  4G04G30G26G07                                    
  23198683.16449 121909902.98049      3367.76649        50.000  
  25955589.74249 136397543.02349       901.01249        48.000  
  22612801.78149 118831074.75449     -3678.78149        50.000  
  23202004.52349 121927355.01649    -10474.86349        50.000  
 16 04 02 14 21 19.8000000  0  4G04G30G26G07                                    
  23198619.10949 121909566.37549      3364.33249        50.000  
  25955572.62549 136397453.07049       898.02349        48.000  
  22612871.82049 118831442.83649     -3682.72749        50.000  
  23202203.90649 121928402.75049    -10479.75449        50.000  
 16 04 02 14 21 19.9000000  0  4G04G30G26G07                                    
  23198555.10949 121909230.07049      3361.44549        50.000  
  25955555.55549 136397363.38349       895.67649        48.000  
  22612941.93049 118831811.26249     -3685.96949        50.000  
  23202403.36749 121929450.91049    -10483.87149        50.000  
 16 04 02 14 21 20.0000000  0  4G04G30G26G07                                    
  23198491.17249 121908894.04349      3358.55149        50.000  
  25955538.53149 136397273.91849       893.26249        48.000  
  22613012.10249 118832180.00849     -3689.32049        50.000  
  23202602.90649 121930499.47749    -10488.06249        49.000  
 16 04 02 14 21 20.1000000  0  4G04G30G26G07                                    
  23198427.28949 121908558.34049      3355.47349        50.000  
  25955521.55549 136397184.71949       890.68849        48.000  
  22613082.34449 118832549.12149     -3692.82449        50.000  
  23202802.51649 121931548.48849    -10492.39149        49.000  
 16 04 02 14 21 20.2000000  0  4G04G30G26G07                                    
  23198363.46149 121908222.91049      3352.80949        50.000  
  25955504.62549 136397095.74649       888.53149        48.000  
  22613152.64149 118832918.55149     -3695.98449        50.000  
  23203002.22749 121932597.91049    -10496.36749        50.000  
 16 04 02 14 21 20.3000000  0  4G04G30G26G07                                    
  23198299.68049 121907887.75049      3350.10249        50.000  
  25955487.74249 136397007.00849       886.24649        48.000  
  22613223.00049 118833288.28149     -3699.06249        50.000  
  23203202.00049 121933647.72349    -10500.30949        50.000  
 16 04 02 14 21 20.4000000  0  4G04G30G26G07                                    
  23198235.96149 121907552.91049      3346.86749        50.000  
  25955470.90649 136396918.52349       883.57449        48.000  
  22613293.43049 118833658.38349     -3702.65249        50.000  
  23203401.85949 121934697.98849    -10504.77049        50.000  
 16 04 02 14 21 20.5000000  0  4G04G30G26G07                                    
  23198172.29749 121907218.34449      3344.08649        50.000  
  25955454.10249 136396830.27049       881.27749        48.000  
  22613363.91449 118834028.79749     -3705.80549        50.000  
  23203601.78949 121935748.65649    -10508.89849        50.000  
 16 04 02 14 21 20.6000000  0  4G04G30G26G07                                    
  23198108.69549 121906884.09049      3340.95749        50.000  
  25955437.35949 136396742.27349       878.63749        48.000  
  22613434.46149 118834399.55949     -3709.43849        50.000  
  23203801.82049 121936799.76249    -10513.32449        50.000  
 16 04 02 14 21 20.7000000  0  4G04G30G26G07                                    
  23198045.14149 121906550.09049      3338.43849        50.000  
  25955420.65649 136396654.48449       876.56649        48.000  
  22613505.07049 118834770.61749     -3712.28149        50.000  
  23204001.90649 121937851.24649    -10517.11349        50.000  
 16 04 02 14 21 20.8000000  0  4G04G30G26G07                                    
  23197981.63349 121906216.36749      3335.73849        50.000  
  25955403.99249 136396566.92649       874.43849        48.000  
  22613575.74249 118835142.00049     -3715.52349        50.000  
  23204202.07849 121938903.13749    -10521.07849        50.000  
 16 04 02 14 21 20.9000000  0  4G04G30G26G07                                    
  23197918.18849 121905882.96549      3332.58249        50.000  
  25955387.38349 136396479.63749       871.69949        48.000  
  22613646.48449 118835513.74249     -3719.02749        50.000  
  23204402.33649 121939955.48049    -10525.58249        50.000  
 16 04 02 14 21 21.0000000  0  4G04G30G26G07                                    
  23197854.80549 121905549.87949      3329.29749        50.000  
  25955370.82849 136396392.60549       869.02049        48.000  
  22613717.29749 118835885.84849     -3722.73049        50.000  
  23204602.67249 121941008.26249    -10530.17249        49.000  
 16 04 02 14 21 21.1000000  0  4G04G30G26G07                                    
  23197791.48449 121905217.10249      3326.16849        50.000  
  25955354.31249 136396305.84849       866.24649        48.000  
  22613788.17249 118836258.30149     -3726.32049        50.000  
  23204803.09449 121942061.48849    -10534.57049        49.000  
 16 04 02 14 21 21.2000000  0  4G04G30G26G07                                    
  23197728.21149 121904884.62949      3323.25049        50.000  
  25955337.85249 136396219.34049       863.75849        48.000  
  22613859.11749 118836631.09449     -3729.62549        50.000  
  23205003.59449 121943115.13349    -10538.74649        49.000  
 16 04 02 14 21 21.3000000  0  4G04G30G26G07                                    
  23197665.00049 121904552.43049      3320.57049        50.000  
  25955321.43049 136396133.05549       861.71549        48.000  
  22613930.11749 118837004.20749     -3732.75049        50.000  
  23205204.17249 121944169.19149    -10542.70749        49.000  
 16 04 02 14 21 21.4000000  0  4G04G30G26G07                                    
  23197601.83649 121904220.50449      3317.67649        50.000  
  25955305.05549 136396047.00449       859.16049        48.000  
  22614001.18049 118837377.63749     -3736.00849        50.000  
  23205404.82849 121945223.65249    -10546.87549        49.000  
 16 04 02 14 21 21.5000000  0  4G04G30G26G07                                    
  23197538.74249 121903888.91049      3314.40649        50.000  
  25955288.73449 136395961.21549       856.74249        48.000  
  22614072.31249 118837751.44149     -3739.72749        50.000  
  23205605.57849 121946278.57449    -10551.44949        49.000  
 16 04 02 14 21 21.6000000  0  4G04G30G26G07                                    
  23197475.68849 121903557.57049      3311.74249        50.000  
  25955272.44549 136395875.64549       854.35549        48.000  
  22614143.50049 118838125.53549     -3742.80149        50.000  
  23205806.39149 121947333.86349    -10555.30149        50.000  
 16 04 02 14 21 21.7000000  0  4G04G30G26G07                                    
  23197412.69549 121903226.52349      3309.06649        50.000  
  25955256.21149 136395790.31649       852.16449        48.000  
  22614214.75049 118838499.96949     -3745.96149        50.000  
  23206007.28949 121948389.58649    -10559.28149        50.000  
 16 04 02 14 21 21.8000000  0  4G04G30G26G07                                    
  23197349.75049 121902895.75049      3306.27749        50.000  
  25955240.01649 136395705.22349       849.81249        48.000  
  22614286.06249 118838874.71549     -3749.07849        50.000  
  23206208.25849 121949445.70349    -10563.32449        50.000  
 16 04 02 14 21 21.9000000  0  4G04G30G26G07                                    
  23197286.85949 121902565.25849      3303.42649        50.000  
  25955223.85949 136395620.34049       847.54749        48.000  
  22614357.43849 118839249.77749     -3752.35949        50.000  
  23206409.31249 121950502.23049    -10567.47349        50.000  
 16 04 02 14 21 22.0000000  0  4G04G30G26G07                                    
  23197224.03149 121902235.07849      3300.18849        50.000  
  25955207.76649 136395535.74249       844.60249        48.000  
  22614428.87549 118839625.20349     -3756.03549        50.000  
  23206610.44549 121951559.20349    -10572.09849        50.000  
 16 04 02 14 21 22.1000000  0  4G04G30G26G07                                    
  23197161.26649 121901905.26249      3296.38349        50.000  
  25955191.71949 136395451.43849       841.39849        48.000  
  22614500.39849 118840001.03149     -3760.24649        50.000  
  23206811.67249 121952616.66049    -10576.94549        50.000  
 16 04 02 14 21 22.2000000  0  4G04G30G26G07                                    
  23197098.56249 121901575.73849      3293.62549        50.000  
  25955175.72749 136395367.38749       839.25849        48.000  
  22614571.97749 118840377.18449     -3763.40249        50.000  
  23207012.98449 121953674.53949    -10581.18049        50.000  
 16 04 02 14 21 22.3000000  0  4G04G30G26G07                                    
  23197035.91449 121901246.49249      3290.91049        50.000  
  25955159.77349 136395283.56649       836.97349        48.000  
  22614643.61749 118840753.67249     -3766.46549        50.000  
  23207214.36749 121954732.82449    -10585.05149        50.000  
 16 04 02 14 21 22.4000000  0  4G04G30G26G07                                    
  23196973.31249 121900917.53949      3288.19149        50.000  
  25955143.86749 136395199.98049       834.77049        48.000  
  22614715.32049 118841130.47749     -3769.60549        50.000  
  23207415.82849 121955791.52749    -10589.03549        50.000  
 16 04 02 14 21 22.5000000  0  4G04G30G26G07                                    
  23196910.78149 121900588.90649      3284.78949        50.000  
  25955128.01649 136395116.66849       831.80949        48.000  
  22614787.09449 118841507.65249     -3773.53949        50.000  
  23207617.37549 121956850.68449    -10593.80149        50.000  
 16 04 02 14 21 22.6000000  0  4G04G30G26G07                                    
  23196848.29749 121900260.55149      3281.91449        50.000  
  25955112.20349 136395033.59049       829.44549        48.000  
  22614858.93049 118841885.15649     -3776.81649        50.000  
  23207819.00849 121957910.24249    -10597.94549        50.000  
 16 04 02 14 21 22.7000000  0  4G04G30G26G07                                    
  23196785.86749 121899932.48449      3279.04749        50.000  
  25955096.43849 136394950.75449       827.05949        48.000  
  22614930.82849 118842262.97749     -3779.97349        50.000  
  23208020.70349 121958970.21949    -10601.98849        50.000  
 16 04 02 14 21 22.8000000  0  4G04G30G26G07                                    
  23196723.50049 121899604.74649      3275.76649        50.000  
  25955080.72749 136394868.18449       824.27349        48.000  
  22615002.78949 118842641.17249     -3783.74649        50.000  
  23208222.49249 121960030.64849    -10606.66449        50.000  
 16 04 02 14 21 22.9000000  0  4G04G30G26G07                                    
  23196661.18049 121899277.25449      3273.49249        50.000  
  25955065.05549 136394785.82449       822.57849        48.000  
  22615074.82049 118843019.66049     -3786.46949        50.000  
  23208424.35949 121961091.45749    -10610.14849        50.000  
 16 04 02 14 21 23.0000000  0  4G04G30G26G07                                    
  23196598.90649 121898950.03149      3270.70349        50.000  
  25955049.42249 136394703.68449       820.27049        48.000  
  22615146.89849 118843398.44949     -3789.55549        50.000  
  23208626.29749 121962152.66049    -10614.22749        50.000  
 16 04 02 14 21 23.1000000  0  4G04G30G26G07                                    
  23196536.70349 121898623.14149      3267.28949        50.000  
  25955033.83649 136394621.81249       817.28949        48.000  
  22615219.04749 118843777.60949     -3793.36749        50.000  
  23208828.32049 121963214.31649    -10618.87949        50.000  
 16 04 02 14 21 23.2000000  0  4G04G30G26G07                                    
  23196474.54749 121898296.51249      3264.69149        50.000  
  25955018.29749 136394540.17249       815.04349        48.000  
  22615291.25849 118844157.08249     -3796.49649        50.000  
  23209030.42249 121964276.37549    -10622.89849        50.000  
 16 04 02 14 21 23.3000000  0  4G04G30G26G07                                    
  23196412.45349 121897970.15249      3262.10549        50.000  
  25955002.79749 136394458.74249       813.12149        48.000  
  22615363.53149 118844536.86749     -3799.46149        50.000  
  23209232.60249 121965338.81649    -10626.65649        50.000  
 16 04 02 14 21 23.4000000  0  4G04G30G26G07                                    
  23196350.40649 121897644.12549      3258.59849        50.000  
  25954987.35249 136394377.58649       810.28949        48.000  
  22615435.86749 118844917.00449     -3803.16449        50.000  
  23209434.86749 121966401.72349    -10631.32449        50.000  
 16 04 02 14 21 23.5000000  0  4G04G30G26G07                                    
  23196288.42249 121897318.39149      3255.65649        50.000  
  25954971.96949 136394296.69949       807.51249        48.000  
  22615508.27349 118845297.50049     -3806.79749        50.000  
  23209637.21149 121967465.05549    -10635.69949        50.000  
 16 04 02 14 21 23.6000000  0  4G04G30G26G07                                    
  23196226.50049 121896992.98049      3252.52349        50.000  
  25954956.62549 136394216.06249       804.98849        48.000  
  22615580.75049 118845678.35549     -3810.26649        50.000  
  23209839.64149 121968528.83249    -10640.07849        49.000  
 16 04 02 14 21 23.7000000  0  4G04G30G26G07                                    
  23196164.63349 121896667.87149      3249.49249        50.000  
  25954941.32849 136394135.68449       802.45349        48.000  
  22615653.28949 118846059.54749     -3813.71949        50.000  
  23210042.15649 121969593.04349    -10644.38749        49.000  
 16 04 02 14 21 23.8000000  0  4G04G30G26G07                                    
  23196102.82049 121896343.05149      3246.52749        50.000  
  25954926.08649 136394055.55549       799.97749        48.000  
  22615725.89149 118846441.08249     -3817.18049        50.000  
  23210244.75049 121970657.66449    -10648.59849        49.000  
 16 04 02 14 21 23.9000000  0  4G04G30G26G07                                    
  23196041.06249 121896018.51249      3244.07449        50.000  
  25954910.86749 136393975.64549       798.02349        48.000  
  22615798.55549 118846822.91849     -3819.96149        50.000  
  23210447.42249 121971722.69549    -10652.29349        49.000  
 16 04 02 14 21 24.0000000  0  4G04G30G26G07                                    
  23195979.35249 121895694.22349      3241.30549        50.000  
  25954895.70349 136393895.94549       795.68049        48.000  
  22615871.26649 118847205.05549     -3823.14849        50.000  
  23210650.16449 121972788.10249    -10656.35949        49.000  
 16 04 02 14 21 24.1000000  0  4G04G30G26G07                                    
  23195917.70349 121895370.26649      3238.07849        50.000  
  25954880.60249 136393816.53549       792.81649        48.000  
  22615944.06249 118847587.57849     -3826.86749        50.000  
  23210852.99249 121973853.98049    -10660.94949        49.000  
 16 04 02 14 21 24.2000000  0  4G04G30G26G07                                    
  23195856.10249 121895046.54749      3235.72349        50.000  
  25954865.52349 136393737.30149       791.08649        48.000  
  22616016.89849 118847970.36349     -3829.57049        50.000  
  23211055.88349 121974920.21149    -10664.52049        49.000  
 16 04 02 14 21 24.3000000  0  4G04G30G26G07                                    
  23195794.56249 121894723.14149      3232.56649        50.000  
  25954850.49249 136393658.33249       788.51649        48.000  
  22616089.81249 118848353.50449     -3833.02749        50.000  
  23211258.86749 121975986.88749    -10668.86349        50.000  
 16 04 02 14 21 24.4000000  0  4G04G30G26G07                                    
  23195733.06249 121894399.96149      3230.37149        50.000  
  25954835.50049 136393579.54349       786.75049        48.000  
  22616162.77349 118848736.91049     -3835.63349        50.000  
  23211461.91449 121977053.91449    -10672.37149        49.000  
 16 04 02 14 21 24.5000000  0  4G04G30G26G07                                    
  23195671.62549 121894077.11749      3226.68849        50.000  
  25954820.55549 136393501.03949       783.67649        48.000  
  22616235.80549 118849120.70349     -3839.72349        50.000  
  23211665.06249 121978121.40649    -10677.23049        49.000  
 16 04 02 14 21 24.6000000  0  4G04G30G26G07                                    
  23195610.25849 121893754.59849      3223.41449        50.000  
  25954805.67249 136393422.81249       780.79749        48.000  
  22616308.90649 118849504.86749     -3843.55549        50.000  
  23211868.28149 121979189.35249    -10681.91049        49.000  
 16 04 02 14 21 24.7000000  0  4G04G30G26G07                                    
  23195548.93849 121893432.39849      3220.38749        50.000  
  25954790.82849 136393344.85549       778.27749        48.000  
  22616382.07849 118849889.36749     -3846.73849        50.000  
  23212071.59449 121980257.74249    -10686.20349        50.000  
 16 04 02 14 21 24.8000000  0  4G04G30G26G07                                    
  23195487.68049 121893110.46949      3217.58249        50.000  
  25954776.03149 136393267.12149       775.96949        48.000  
  22616455.31249 118850274.19949     -3850.09049        50.000  
  23212274.96949 121981326.52749    -10690.23049        50.000  
 16 04 02 14 21 24.9000000  0  4G04G30G26G07                                    
  23195426.47749 121892788.84449      3214.68849        50.000  
  25954761.28949 136393189.64549       773.42649        48.000  
  22616528.60249 118850659.37949     -3853.45749        50.000  
  23212478.43849 121982395.76249    -10694.55949        50.000  
 16 04 02 14 21 25.0000000  0  4G04G30G26G07                                    
  23195365.33649 121892467.53949      3211.55149        50.000  
  25954746.59449 136393112.44149       770.75049        48.000  
  22616601.96949 118851044.91049     -3857.07849        50.000  
  23212681.98449 121983465.42649    -10698.91849        50.000  
 16 04 02 14 21 25.1000000  0  4G04G30G26G07                                    
  23195304.24249 121892146.48849      3209.08649        50.000  
  25954731.94549 136393035.42649       768.85949        48.000  
  22616675.39149 118851430.73849     -3859.97749        50.000  
  23212885.61749 121984535.45749    -10702.57449        49.000  
 16 04 02 14 21 25.2000000  0  4G04G30G26G07                                    
  23195243.20349 121891825.72349      3206.14549        50.000  
  25954717.34449 136392958.66849       766.41449        48.000  
  22616748.87549 118851816.88349     -3863.16049        50.000  
  23213089.32849 121985605.92649    -10706.80149        49.000  
 16 04 02 14 21 25.3000000  0  4G04G30G26G07                                    
  23195182.21949 121891505.24649      3203.32849        50.000  
  25954702.78949 136392882.13749       764.14149        48.000  
  22616822.42249 118852203.37549     -3866.48449        50.000  
  23213293.10949 121986676.80149    -10710.83649        49.000  
 16 04 02 14 21 25.4000000  0  4G04G30G26G07                                    
  23195121.28149 121891185.03949      3200.59849        50.000  
  25954688.26649 136392805.84049       761.77349        48.000  
  22616896.02349 118852590.17249     -3869.64849        50.000  
  23213496.96949 121987748.09049    -10715.02349        49.000  
 16 04 02 14 21 25.5000000  0  4G04G30G26G07                                    
  23195060.39849 121890865.11349      3197.73449        50.000  
  25954673.79749 136392729.76249       759.55949        48.000  
  22616969.69549 118852977.28949     -3872.90649        50.000  
  23213700.89849 121988819.76649    -10719.00849        50.000  
 16 04 02 14 21 25.6000000  0  4G04G30G26G07                                    
  23194999.58649 121890545.53949      3194.03549        50.000  
  25954659.37549 136392653.99249       756.24249        48.000  
  22617043.43849 118853364.79749     -3876.93449        50.000  
  23213904.92249 121989891.92249    -10723.94549        49.000  
 16 04 02 14 21 25.7000000  0  4G04G30G26G07                                    
  23194938.82849 121890226.22749      3191.36749        50.000  
  25954645.00049 136392578.43449       754.06649        48.000  
  22617117.23449 118853752.61349     -3880.12149        50.000  
  23214109.02349 121990964.47349    -10727.90249        50.000  
 16 04 02 14 21 25.8000000  0  4G04G30G26G07                                    
  23194878.12549 121889907.23849      3188.46549        50.000  
  25954630.67249 136392503.15249       751.66049        48.000  
  22617191.10249 118854140.78549     -3883.31649        50.000  
  23214313.20349 121992037.47349    -10732.05549        50.000  
 16 04 02 14 21 25.9000000  0  4G04G30G26G07                                    
  23194817.46949 121889588.50849      3185.73449        50.000  
  25954616.39849 136392428.07449       749.44949        48.000  
  22617265.02349 118854529.26649     -3886.58649        50.000  
  23214517.46149 121993110.85949    -10736.07849        49.000  
 16 04 02 14 21 26.0000000  0  4G04G30G26G07                                    
  23194756.87549 121889270.08649      3182.55549        50.000  
  25954602.16449 136392353.27049       746.71549        48.000  
  22617339.01649 118854918.09049     -3890.06249        50.000  
  23214721.80549 121994184.68049    -10740.47749        49.000  
 16 04 02 14 21 26.1000000  0  4G04G30G26G07                                    
  23194696.33649 121888951.94149      3179.89549        50.000  
  25954587.96149 136392278.68049       744.55549        48.000  
  22617413.06249 118855307.23849     -3893.18849        50.000  
  23214926.21949 121995258.91049    -10744.55549        49.000  
 16 04 02 14 21 26.2000000  0  4G04G30G26G07                                    
  23194635.84449 121888634.09049      3177.12549        50.000  
  25954573.81249 136392204.33649       742.32049        48.000  
  22617487.18049 118855696.71149     -3896.38349        50.000  
  23215130.71949 121996333.55949    -10748.48049        49.000  
 16 04 02 14 21 26.3000000  0  4G04G30G26G07                                    
  23194575.39849 121888316.43449      3174.97349        50.000  
  25954559.69549 136392130.14549       740.62949        48.000  
  22617561.33649 118856086.42249     -3898.89549        50.000  
  23215335.28149 121997408.52349    -10751.98049        50.000  
 16 04 02 14 21 26.4000000  0  4G04G30G26G07                                    
  23194515.02349 121887999.14849      3171.28949        50.000  
  25954545.64149 136392056.27049       737.48449        48.000  
  22617635.57849 118856476.55149     -3902.92649        50.000  
  23215539.93849 121998483.99249    -10756.99249        50.000  
 16 04 02 14 21 26.5000000  0  4G04G30G26G07                                    
  23194454.70349 121887682.16449      3168.30549        50.000  
  25954531.62549 136391982.65249       734.92649        48.000  
  22617709.88349 118856867.02349     -3906.50049        50.000  
  23215744.67249 121999559.89149    -10761.25449        50.000  
 16 04 02 14 21 26.6000000  0  4G04G30G26G07                                    
  23194394.42249 121887365.40649      3166.05549        50.000  
  25954517.65649 136391909.21949       733.02349        48.000  
  22617784.23449 118857257.75449     -3909.07049        50.000  
  23215949.47749 122000636.13349    -10764.66449        49.000  
 16 04 02 14 21 26.7000000  0  4G04G30G26G07                                    
  23194334.21149 121887048.99649      3162.68049        50.000  
  25954503.74249 136391836.07049       730.34849        48.000  
  22617858.66449 118857648.88349     -3912.84449        50.000  
  23216154.36749 122001712.86349    -10769.36349        49.000  
 16 04 02 14 21 26.8000000  0  4G04G30G26G07                                    
  23194274.05549 121886732.85249      3159.79349        50.000  
  25954489.85949 136391763.14149       727.96549        48.000  
  22617933.14849 118858040.30149     -3916.07449        50.000  
  23216359.33649 122002789.96549    -10773.37549        50.000  
 16 04 02 14 21 26.9000000  0  4G04G30G26G07                                    
  23194213.93849 121886416.97349      3157.17649        50.000  
  25954476.03149 136391690.43849       725.76249        48.000  
  22618007.69549 118858432.04749     -3919.06649        50.000  
  23216564.38349 122003867.48449    -10777.44549        49.000  
 16 04 02 14 21 27.0000000  0  4G04G30G26G07                                    
  23194153.89149 121886101.39549      3154.26649        50.000  
  25954462.24249 136391617.97349       723.45349        48.000  
  22618082.30549 118858824.12149     -3922.35249        50.000  
  23216769.50849 122004945.41849    -10781.48449        49.000  
 16 04 02 14 21 27.1000000  0  4G04G30G26G07                                    
  23194093.89849 121885786.14149      3150.92649        50.000  
  25954448.50849 136391545.80149       720.36749        48.000  
  22618156.99249 118859216.57049     -3926.27049        50.000  
  23216974.71949 122006023.80549    -10786.11749        49.000  
 16 04 02 14 21 27.2000000  0  4G04G30G26G07                                    
  23194033.96149 121885471.14549      3148.41449        50.000  
  25954434.81249 136391473.82049       718.48849        48.000  
  22618231.72749 118859609.30549     -3929.13349        50.000  
  23217180.00849 122007102.57849    -10789.90649        49.000  
 16 04 02 14 21 27.3000000  0  4G04G30G26G07                                    
  23193974.07049 121885156.41849      3145.88749        50.000  
  25954421.14849 136391402.07049       716.35949        48.000  
  22618306.52349 118860002.35549     -3932.13349        50.000  
  23217385.36749 122008181.73449    -10793.80549        49.000  
 16 04 02 14 21 27.4000000  0  4G04G30G26G07                                    
  23193914.23449 121884841.97749      3142.78149        50.000  
  25954407.54749 136391330.55949       713.82049        48.000  
  22618381.38349 118860395.73849     -3935.55549        50.000  
  23217590.80549 122009261.32449    -10798.21549        49.000  
 16 04 02 14 21 27.5000000  0  4G04G30G26G07                                    
  23193854.46149 121884527.90649      3139.21949        50.000  
  25954393.99249 136391259.36349       710.76649        48.000  
  22618456.31249 118860789.52349     -3939.51249        50.000  
  23217796.33649 122010341.39849    -10802.88749        50.000  
 16 04 02 14 21 27.6000000  0  4G04G30G26G07                                    
  23193794.74249 121884214.07449      3136.69549        50.000  
  25954380.48449 136391188.37549       708.49249        48.000  
  22618531.30549 118861183.59449     -3942.45749        50.000  
  23218001.93849 122011421.84449    -10806.68449        49.000  
 16 04 02 14 21 27.7000000  0  4G04G30G26G07                                    
  23193735.07849 121883900.54749      3133.69149        50.000  
  25954367.01649 136391117.62149       706.18849        48.000  
  22618606.35949 118861578.01249     -3945.94549        50.000  
  23218207.62549 122012502.71949    -10810.99249        50.000  
 16 04 02 14 21 27.8000000  0  4G04G30G26G07                                    
  23193675.47749 121883587.31249      3130.79349        50.000  
  25954353.60249 136391047.11749       703.75049        48.000  
  22618681.47749 118861972.75449     -3949.12949        50.000  
  23218413.39149 122013584.02049    -10815.23049        49.000  
 16 04 02 14 21 27.9000000  0  4G04G30G26G07                                    
  23193615.93049 121883274.41449      3127.39549        50.000  
  25954340.23449 136390976.89149       701.03149        48.000  
  22618756.66449 118862367.87949     -3952.95749        50.000  
  23218619.24249 122014665.76649    -10819.79349        49.000  
 16 04 02 14 21 28.0000000  0  4G04G30G26G07                                    
  23193556.43849 121882961.78149      3124.74249        50.000  
  25954326.92249 136390906.91049       698.60949        48.000  
  22618831.91449 118862763.31249     -3956.18849        50.000  
  23218825.16449 122015747.92249    -10823.76649        49.000  
 16 04 02 14 21 28.1000000  0  4G04G30G26G07                                    
  23193497.00849 121882649.46149      3121.68049        50.000  
  25954313.64849 136390837.17249       696.14549        48.000  
  22618907.22749 118863159.09049     -3959.51249        50.000  
  23219031.18049 122016830.50449    -10828.03549        49.000  
 16 04 02 14 21 28.2000000  0  4G04G30G26G07                                    
  23193437.62549 121882337.43049      3118.52349        50.000  
  25954300.43049 136390767.68049       693.39849        48.000  
  22618982.60949 118863555.20749     -3963.07849        50.000  
  23219237.26649 122017913.51649    -10832.50849        49.000  
 16 04 02 14 21 28.3000000  0  4G04G30G26G07                                    
  23193378.31249 121882025.73449      3115.42249        50.000  
  25954287.26649 136390698.47349       690.82049        48.000  
  22619058.06249 118863951.69549     -3966.60549        50.000  
  23219443.44549 122018996.98849    -10836.95349        49.000  
 16 04 02 14 21 28.4000000  0  4G04G30G26G07                                    
  23193319.03949 121881714.25849      3113.23049        50.000  
  25954274.12549 136390629.43849       689.11749        48.000  
  22619133.56249 118864348.44549     -3969.19549        50.000  
  23219649.68849 122020080.79749    -10840.25449        49.000  
 16 04 02 14 21 28.5000000  0  4G04G30G26G07                                    
  23193259.82049 121881403.06249      3110.48049        50.000  
  25954261.03949 136390560.63349       686.89149        48.000  
  22619209.11749 118864745.51249     -3972.39149        50.000  
  23219856.00849 122021165.02049    -10844.46949        49.000  
 16 04 02 14 21 28.6000000  0  4G04G30G26G07                                    
  23193200.64849 121881092.13749      3107.98049        50.000  
  25954247.98449 136390492.05949       684.75049        48.000  
  22619284.73449 118865142.89149     -3975.11749        50.000  
  23220062.39849 122022249.62949    -10848.02349        49.000  
 16 04 02 14 21 28.7000000  0  4G04G30G26G07                                    
  23193141.53949 121880781.48049      3105.13349        50.000  
  25954234.97749 136390423.69149       682.59449        48.000  
  22619360.41449 118865540.59449     -3978.59049        50.000  
  23220268.86749 122023334.64849    -10852.32849        49.000  
 16 04 02 14 21 28.8000000  0  4G04G30G26G07                                    
  23193082.49249 121880471.19149      3101.19949        50.000  
  25954222.03149 136390355.66449       678.82049        48.000  
  22619436.17249 118865938.68049     -3982.74649        50.000  
  23220475.43049 122024420.14849    -10857.43049        49.000  
 16 04 02 14 21 28.9000000  0  4G04G30G26G07                                    
  23193023.50049 121880161.18849      3098.41049        50.000  
  25954209.12549 136390287.84849       676.78549        48.000  
  22619511.98449 118866337.10949     -3986.05949        50.000  
  23220682.07049 122025506.06649    -10861.46149        49.000  
 16 04 02 14 21 29.0000000  0  4G04G30G26G07                                    
  23192964.56249 121879851.46549      3095.63749        50.000  
  25954196.27349 136390220.28549       674.36749        48.000  
  22619587.86749 118866735.86349     -3989.24249        50.000  
  23220888.79749 122026592.40249    -10865.58649        49.000  
 16 04 02 14 21 29.1000000  0  4G04G30G26G07                                    
  23192905.68049 121879542.00449      3093.11749        50.000  
  25954183.46149 136390152.92649       672.39849        48.000  
  22619663.80549 118867134.89849     -3992.07049        50.000  
  23221095.59449 122027679.10949    -10869.20749        49.000  
 16 04 02 14 21 29.2000000  0  4G04G30G26G07                                    
  23192846.85249 121879232.85549      3090.05949        50.000  
  25954170.68849 136390085.82449       669.82449        48.000  
  22619739.80549 118867534.30949     -3995.68849        50.000  
  23221302.46949 122028766.26649    -10873.65249        49.000  
 16 04 02 14 21 29.3000000  0  4G04G30G26G07                                    
  23192788.06249 121878923.93449      3087.78549        50.000  
  25954157.95349 136390018.91049       668.08649        48.000  
  22619815.85949 118867933.97749     -3998.30549        50.000  
  23221509.41449 122029853.77349    -10877.21149        49.000  
 16 04 02 14 21 29.4000000  0  4G04G30G26G07                                    
  23192729.32849 121878615.29349      3084.87549        50.000  
  25954145.26649 136389952.22749       665.61349        48.000  
  22619891.97749 118868333.96549     -4001.52049        50.000  
  23221716.43849 122030941.68849    -10881.41449        49.000  
 16 04 02 14 21 29.5000000  0  4G04G30G26G07                                    
  23192670.66449 121878307.00449      3081.36749        50.000  
  25954132.64149 136389885.84049       662.62149        48.000  
  22619968.16449 118868734.34449     -4005.44549        50.000  
  23221923.55549 122032030.07449    -10886.04749        49.000  
 16 04 02 14 21 29.6000000  0  4G04G30G26G07                                    
  23192612.05549 121877999.00849      3078.18049        50.000  
  25954120.05549 136389819.71149       659.87149        48.000  
  22620044.41449 118869135.05949     -4009.10949        50.000  
  23222130.75049 122033118.89149    -10890.54749        50.000  
 16 04 02 14 21 29.7000000  0  4G04G30G26G07                                    
  23192553.50849 121877691.32449      3075.14149        50.000  
  25954107.52349 136389753.84049       657.27349        48.000  
  22620120.74249 118869536.13349     -4012.48849        50.000  
  23222338.02349 122034208.14549    -10894.87549        50.000  
 16 04 02 14 21 29.8000000  0  4G04G30G26G07                                    
  23192495.00849 121877383.94949      3072.08249        50.000  
  25954095.03949 136389688.23049       654.68849        48.000  
  22620197.12549 118869937.54749     -4015.93449        50.000  
  23222545.38349 122035297.82849    -10899.10549        50.000  
 16 04 02 14 21 29.9000000  0  4G04G30G26G07                                    
  23192436.57049 121877076.86349      3069.19149        50.000  
  25954082.60249 136389622.86349       652.35249        48.000  
  22620273.57849 118870339.30149     -4019.30949        50.000  
  23222752.82849 122036387.93849    -10903.34849        50.000  
 16 04 02 14 21 30.0000000  0  4G04G30G26G07                                    
  23192378.18849 121876770.02749      3066.98049        50.000  
  25954070.20349 136389557.69149       650.59849        48.000  
  22620350.07849 118870741.33649     -4022.00049        50.000  
  23222960.33649 122037478.41449    -10906.86749        50.000  
 16 04 02 14 21 30.1000000  0  4G04G30G26G07                                    
  23192319.84449 121876463.42249      3064.64149        50.000  
  25954057.83649 136389492.70749       648.68449        48.000  
  22620426.63349 118871143.64149     -4024.62149        50.000  
  23223167.91449 122038569.24249    -10910.46549        50.000  
 16 04 02 14 21 30.2000000  0  4G04G30G26G07                                    
  23192261.55549 121876157.12549      3061.50849        50.000  
  25954045.51649 136389427.98449       646.12149        48.000  
  22620503.25849 118871546.30149     -4028.15649        50.000  
  23223375.57849 122039660.52749    -10914.90249        50.000  
 16 04 02 14 21 30.3000000  0  4G04G30G26G07                                    
  23192203.34449 121875851.20349      3057.60949        50.000  
  25954033.25049 136389363.57849       642.59849        48.000  
  22620579.96149 118871949.37149     -4032.49649        50.000  
  23223583.33649 122040752.29349    -10920.03549        50.000  
 16 04 02 14 21 30.4000000  0  4G04G30G26G07                                    
  23192145.18049 121875545.55549      3054.86349        50.000  
  25954021.03949 136389299.41849       640.35949        48.000  
  22620656.72749 118872352.76249     -4035.68449        50.000  
  23223791.17249 122041844.46949    -10924.02749        50.000  
 16 04 02 14 21 30.5000000  0  4G04G30G26G07                                    
  23192087.06249 121875240.15649      3052.40649        50.000  
  25954008.86749 136389235.43449       638.53149        48.000  
  22620733.53949 118872756.43049     -4038.51249        50.000  
  23223999.07049 122042937.01249    -10927.76649        50.000  
 16 04 02 14 21 30.6000000  0  4G04G30G26G07                                    
  23192029.01649 121874935.08249      3049.27349        50.000  
  25953996.75049 136389171.74249       635.74649        48.000  
  22620810.43049 118873160.47749     -4042.04749        50.000  
  23224207.06249 122044030.00449    -10932.02349        50.000  
 16 04 02 14 21 30.7000000  0  4G04G30G26G07                                    
  23191971.02349 121874630.31649      3046.02349        50.000  
  25953984.68049 136389108.30949       632.98049        48.000  
  22620887.38349 118873564.87149     -4045.68449        50.000  
  23224415.13349 122045123.44149    -10936.54349        50.000  
 16 04 02 14 21 30.8000000  0  4G04G30G26G07                                    
  23191913.08649 121874325.83649      3043.26649        50.000  
  25953972.65649 136389045.10949       630.62949        48.000  
  22620964.39149 118873969.58649     -4048.91449        50.000  
  23224623.28949 122046217.28549    -10940.76249        50.000  
 16 04 02 14 21 30.9000000  0  4G04G30G26G07                                    
  23191855.19549 121874021.63749      3040.55149        50.000  
  25953960.67249 136388982.14849       628.59449        48.000  
  22621041.46949 118874374.62149     -4051.94149        50.000  
  23224831.51649 122047311.54349    -10944.53149        50.000  
 16 04 02 14 21 31.0000000  0  4G04G30G26G07                                    
  23191797.36749 121873717.75449      3037.22749        50.000  
  25953948.73449 136388919.44149       625.69549        48.000  
  22621118.60949 118874780.00849     -4055.64149        50.000  
  23225039.82849 122048406.23449    -10949.22349        50.000  
 16 04 02 14 21 31.1000000  0  4G04G30G26G07                                    
  23191739.58649 121873414.08649      3035.14849        50.000  
  25953936.83649 136388856.91449       624.03149        48.000  
  22621195.80549 118875185.66849     -4058.31249        50.000  
  23225248.21149 122049501.27049    -10952.52349        50.000  
 16 04 02 14 21 31.2000000  0  4G04G30G26G07                                    
  23191681.86749 121873110.80149      3031.36749        50.000  
  25953925.00849 136388794.73049       620.72349        48.000  
  22621273.07849 118875591.73849     -4062.38349        50.000  
  23225456.68849 122050596.82049    -10957.59449        50.000  
 16 04 02 14 21 31.3000000  0  4G04G30G26G07                                    
  23191624.21149 121872807.79749      3028.46149        50.000  
  25953913.21149 136388732.75449       618.34049        48.000  
  22621350.41449 118875998.12549     -4065.73049        50.000  
  23225665.24249 122051692.77049    -10961.68049        50.000  
 16 04 02 14 21 31.4000000  0  4G04G30G26G07                                    
  23191566.59449 121872505.03149      3025.98449        50.000  
  25953901.45349 136388670.98449       616.36749        48.000  
  22621427.80549 118876404.80149     -4068.47349        50.000  
  23225873.86749 122052789.09449    -10965.59449        50.000  
 16 04 02 14 21 31.5000000  0  4G04G30G26G07                                    
  23191509.03149 121872202.55149      3023.38749        50.000  
  25953889.73449 136388609.44949       614.19549        48.000  
  22621505.25049 118876811.79749     -4071.48449        50.000  
  23226082.56249 122053885.81649    -10969.31649        50.000  
 16 04 02 14 21 31.6000000  0  4G04G30G26G07                                    
  23191451.53149 121871900.37949      3020.20349        50.000  
  25953878.07849 136388548.17649       611.52749        48.000  
  22621582.76649 118877219.14149     -4075.06649        50.000  
  23226291.35249 122054982.98049    -10973.83649        50.000  
 16 04 02 14 21 31.7000000  0  4G04G30G26G07                                    
  23191394.09449 121871598.50049      3017.30549        50.000  
  25953866.46149 136388487.16049       608.84449        48.000  
  22621660.35249 118877626.83649     -4078.58249        50.000  
  23226500.21149 122056080.57849    -10978.31649        50.000  
 16 04 02 14 21 31.8000000  0  4G04G30G26G07                                    
  23191336.70349 121871296.93049      3014.09849        50.000  
  25953854.89849 136388426.38349       606.40249        48.000  
  22621737.99249 118878034.85249     -4081.98449        50.000  
  23226709.15649 122057178.57849    -10982.46149        50.000  
 16 04 02 14 21 31.9000000  0  4G04G30G26G07                                    
  23191279.36749 121870995.60549      3011.78149        50.000  
  25953843.37549 136388365.80549       604.61349        48.000  
  22621815.69549 118878443.16849     -4084.76649        50.000  
  23226918.17249 122058276.96949    -10985.92249        50.000  
 16 04 02 14 21 32.0000000  0  4G04G30G26G07                                    
  23191222.08649 121870694.60249      3008.54349        50.000  
  25953831.89849 136388305.52749       601.53949        48.000  
  22621893.46149 118878851.85949     -4088.62549        50.000  
  23227127.28149 122059375.82449    -10990.78949        50.000  
 16 04 02 14 21 32.1000000  0  4G04G30G26G07                                    
  23191164.88349 121870393.95749      3004.86749        50.000  
  25953820.47749 136388245.52049       598.66049        48.000  
  22621971.30549 118879260.91449     -4092.38349        50.000  
  23227336.46949 122060475.12949    -10995.38349        50.000  
 16 04 02 14 21 32.2000000  0  4G04G30G26G07                                    
  23191107.71949 121870093.55149      3002.40649        50.000  
  25953809.10249 136388185.71149       596.75449        48.000  
  22622049.19549 118879670.25849     -4095.29349        50.000  
  23227545.72749 122061574.80149    -10999.02049        50.000  
 16 04 02 14 21 32.3000000  0  4G04G30G26G07                                    
  23191050.61749 121869793.48849      2998.86349        50.000  
  25953797.77349 136388126.22349       593.53149        48.000  
  22622127.16449 118880079.99649     -4099.25449        50.000  
  23227755.08649 122062674.95349    -11004.01649        50.000  
 16 04 02 14 21 32.4000000  0  4G04G30G26G07                                    
  23190993.57049 121869493.69549      2996.33249        50.000  
  25953786.49249 136388066.95349       591.38349        48.000  
  22622205.20349 118880490.05949     -4102.26249        50.000  
  23227964.52349 122063775.53549    -11007.87549        50.000  
 16 04 02 14 21 32.5000000  0  4G04G30G26G07                                    
  23190936.57049 121869194.16849      2993.77349        50.000  
  25953775.25849 136388007.88749       589.39849        48.000  
  22622283.28949 118880900.41049     -4105.25049        50.000  
  23228174.02349 122064876.47349    -11011.65649        50.000  
 16 04 02 14 21 32.6000000  0  4G04G30G26G07                                    
  23190879.63349 121868894.94149      2990.87149        50.000  
  25953764.06249 136387949.06649       587.01649        48.000  
  22622361.43849 118881311.09449     -4108.43049        50.000  
  23228383.60949 122065977.84049    -11015.84049        50.000  
 16 04 02 14 21 32.7000000  0  4G04G30G26G07                                    
  23190822.75049 121868596.01249      2987.50449        50.000  
  25953752.93049 136387890.51649       584.24249        48.000  
  22622439.65649 118881722.12949     -4112.19549        50.000  
  23228593.26649 122067079.62549    -11020.21949        50.000  
 16 04 02 14 21 32.8000000  0  4G04G30G26G07                                    
  23190765.93849 121868297.46149      2983.88749        50.000  
  25953741.84449 136387832.28949       580.95349        48.000  
  22622517.95349 118882133.58249     -4116.26649        50.000  
  23228803.03149 122068181.94549    -11025.35949        50.000  
 16 04 02 14 21 32.9000000  0  4G04G30G26G07                                    
  23190709.16449 121867999.12149      2981.87149        50.000  
  25953730.79749 136387774.23049       579.33249        48.000  
  22622596.29749 118882545.28949     -4118.82049        50.000  
  23229012.85949 122069284.58249    -11028.77349        50.000  
 16 04 02 14 21 33.0000000  0  4G04G30G26G07                                    
  23190652.46149 121867701.10949      2978.64849        50.000  
  25953719.79749 136387716.43849       576.59049        48.000  
  22622674.71149 118882957.35249     -4122.35949        50.000  
  23229222.76649 122070387.65649    -11033.07049        50.000  
 16 04 02 14 21 33.1000000  0  4G04G30G26G07                                    
  23190595.79749 121867403.32449      2976.46549        50.000  
  25953708.83649 136387658.82449       574.97349        48.000  
  22622753.17249 118883369.67249     -4124.79749        50.000  
  23229432.74249 122071491.09449    -11036.52049        50.000  
 16 04 02 14 21 33.2000000  0  4G04G30G26G07                                    
  23190539.18049 121867105.82049      2973.64549        50.000  
  25953697.92249 136387601.46149       572.44549        48.000  
  22622831.70349 118883782.34049     -4128.23049        50.000  
  23229642.80549 122072594.94549    -11040.66449        50.000  
 16 04 02 14 21 33.3000000  0  4G04G30G26G07                                    
  23190482.63349 121866808.64849      2970.15249        50.000  
  25953687.05549 136387544.37149       569.55949        48.000  
  22622910.29749 118884195.36749     -4131.95349        50.000  
  23229852.94549 122073699.25849    -11045.40649        50.000  
 16 04 02 14 21 33.4000000  0  4G04G30G26G07                                    
  23190426.13349 121866511.74249      2967.54349        50.000  
  25953676.23449 136387487.50449       567.36749        48.000  
  22622988.95349 118884608.69949     -4135.02749        50.000  
  23230063.15649 122074803.96149    -11049.30149        50.000  
 16 04 02 14 21 33.5000000  0  4G04G30G26G07                                    
  23190369.69549 121866215.18049      2963.87549        50.000  
  25953665.46949 136387430.91849       564.30549        48.000  
  22623067.68049 118885022.41449     -4139.07049        50.000  
  23230273.46149 122075909.11749    -11054.04349        50.000  
 16 04 02 14 21 33.6000000  0  4G04G30G26G07                                    
  23190313.32849 121865918.93449      2961.15249        50.000  
  25953654.75849 136387374.62149       561.96949        48.000  
  22623146.47749 118885436.49649     -4142.28149        50.000  
  23230483.85949 122077014.74249    -11058.15649        50.000  
 16 04 02 14 21 33.7000000  0  4G04G30G26G07                                    
  23190257.00049 121865622.94949      2958.25049        50.000  
  25953644.08649 136387318.52749       559.64849        48.000  
  22623225.32849 118885850.85949     -4145.37549        50.000  
  23230694.32049 122078120.73449    -11062.13749        50.000  
 16 04 02 14 21 33.8000000  0  4G04G30G26G07                                    
  23190200.72749 121865327.21549      2955.61749        50.000  
  25953633.45349 136387262.63349       557.45749        48.000  
  22623304.23449 118886265.53149     -4148.47749        50.000  
  23230904.85949 122079227.10549    -11066.13749        50.000  
 16 04 02 14 21 33.9000000  0  4G04G30G26G07                                    
  23190144.51649 121865031.84449      2952.16049        50.000  
  25953622.87549 136387207.05549       554.64149        48.000  
  22623383.21949 118886680.59449     -4152.32849        50.000  
  23231115.48449 122080333.96949    -11070.78949        50.000  
 16 04 02 14 21 34.0000000  0  4G04G30G26G07                                    
  23190088.36749 121864736.76249      2949.12949        50.000  
  25953612.34449 136387151.72349       552.02749        48.000  
  22623462.26649 118887095.99249     -4155.78949        50.000  
  23231326.19549 122081441.25049    -11075.16449        50.000  
 16 04 02 14 21 34.1000000  0  4G04G30G26G07                                    
  23190032.25849 121864441.91849      2946.66049        50.000  
  25953601.84449 136387096.57049       549.98449        48.000  
  22623541.36749 118887511.66449     -4158.53949        50.000  
  23231536.97749 122082548.88349    -11078.82449        50.000  
 16 04 02 14 21 34.2000000  0  4G04G30G26G07                                    
  23189976.21149 121864147.38749      2943.82049        50.000  
  25953591.40649 136387041.70349       547.54349        48.000  
  22623620.53149 118887927.69949     -4161.85949        50.000  
  23231747.83649 122083656.96949    -11082.95349        50.000  
 16 04 02 14 21 34.3000000  0  4G04G30G26G07                                    
  23189920.21149 121863853.12949      2940.94949        50.000  
  25953581.00849 136386987.04749       545.15249        48.000  
  22623699.76649 118888344.03549     -4165.08649        50.000  
  23231958.77349 122084765.44549    -11087.07849        50.000  
 16 04 02 14 21 34.4000000  0  4G04G30G26G07                                    
  23189864.28149 121863559.23849      2937.21549        50.000  
  25953570.67249 136386932.71949       541.94949        48.000  
  22623779.07049 118888760.78949     -4169.28549        50.000  
  23232169.80549 122085874.42649    -11092.02749        50.000  
 16 04 02 14 21 34.5000000  0  4G04G30G26G07                                    
  23189808.40649 121863265.59849      2934.91849        50.000  
  25953560.36749 136386878.58249       540.17649        48.000  
  22623858.43049 118889177.81649     -4171.90649        50.000  
  23232380.90649 122086983.77049    -11095.61749        50.000  
 16 04 02 14 21 34.6000000  0  4G04G30G26G07                                    
  23189752.57849 121862972.23049      2932.03549        50.000  
  25953550.10949 136386824.68449       537.59449        48.000  
  22623937.85249 118889595.17649     -4175.28149        50.000  
  23232592.08649 122088093.52049    -11099.89549        50.000  
 16 04 02 14 21 34.7000000  0  4G04G30G26G07                                    
  23189696.81249 121862679.15649      2929.22349        50.000  
  25953539.90649 136386771.02049       535.39149        48.000  
  22624017.32849 118890012.86349     -4178.57049        50.000  
  23232803.34449 122089203.68849    -11103.86749        50.000  
 16 04 02 14 21 34.8000000  0  4G04G30G26G07                                    
  23189641.09449 121862386.34449      2926.67649        50.000  
  25953529.73449 136386717.57449       533.34449        48.000  
  22624096.87549 118890430.84849     -4181.48049        50.000  
  23233014.67249 122090314.23449    -11107.73849        50.000  
 16 04 02 14 21 34.9000000  0  4G04G30G26G07                                    
  23189585.43049 121862093.84849      2923.48849        50.000  
  25953519.61749 136386664.40249       530.46149        48.000  
  22624176.47749 118890849.18849     -4185.02749        50.000  
  23233226.09449 122091425.23849    -11112.12149        50.000  
 16 04 02 14 21 35.0000000  0  4G04G30G26G07                                    
  23189529.82049 121861801.61749      2920.39549        50.000  
  25953509.53949 136386611.44549       528.01249        48.000  
  22624256.14149 118891267.83649     -4188.44949        50.000  
  23233437.58649 122092536.62149    -11116.31249        50.000  
 16 04 02 14 21 35.1000000  0  4G04G30G26G07                                    
  23189474.27349 121861509.71549      2917.59449        50.000  
  25953499.50849 136386558.75849       525.66049        48.000  
  22624335.88349 118891686.85249     -4191.73449        50.000  
  23233649.15649 122093648.46149    -11120.45749        50.000  
 16 04 02 14 21 35.2000000  0  4G04G30G26G07                                    
  23189418.78149 121861218.09449      2914.57449        50.000  
  25953489.53149 136386506.31649       523.10549        48.000  
  22624415.68049 118892106.18449     -4195.14149        50.000  
  23233860.81249 122094760.70749    -11124.70749        50.000  
 16 04 02 14 21 35.3000000  0  4G04G30G26G07                                    
  23189363.35249 121860926.77749      2911.66449        50.000  
  25953479.59449 136386454.12149       520.73849        48.000  
  22624495.53949 118892525.85949     -4198.42649        50.000  
  23234072.54749 122095873.38749    -11128.96149        50.000  
 16 04 02 14 21 35.4000000  0  4G04G30G26G07                                    
  23189307.96149 121860635.71949      2909.10549        50.000  
  25953469.70349 136386402.14849       518.53549        48.000  
  22624575.46149 118892945.84449     -4201.45749        50.000  
  23234284.35949 122096986.44549    -11132.80549        50.000  
 16 04 02 14 21 35.5000000  0  4G04G30G26G07                                    
  23189252.62549 121860344.93049      2906.31649        50.000  
  25953459.85949 136386350.40649       516.18049        48.000  
  22624655.43849 118893366.13749     -4204.57849        50.000  
  23234496.23449 122098099.90649    -11136.73049        50.000  
 16 04 02 14 21 35.6000000  0  4G04G30G26G07                                    
  23189197.35249 121860054.46149      2903.03149        50.000  
  25953450.06249 136386298.91849       513.45749        48.000  
  22624735.48449 118893786.78149     -4208.22349        50.000  
  23234708.21149 122099213.81249    -11141.28949        50.000  
 16 04 02 14 21 35.7000000  0  4G04G30G26G07                                    
  23189142.12549 121859764.27049      2900.26649        50.000  
  25953440.31249 136386247.66449       511.12549        48.000  
  22624815.59449 118894207.74649     -4211.44549        50.000  
  23234920.25849 122100328.12549    -11145.50049        50.000  
 16 04 02 14 21 35.8000000  0  4G04G30G26G07                                    
  23189086.96149 121859474.35949      2897.68849        50.000  
  25953430.60249 136386196.64849       508.97749        48.000  
  22624895.76649 118894629.03549     -4214.48849        50.000  
  23235132.37549 122101442.83649    -11149.27749        50.000  
 16 04 02 14 21 35.9000000  0  4G04G30G26G07                                    
  23189031.85249 121859184.78149      2894.12949        50.000  
  25953420.93849 136386145.90249       506.08249        48.000  
  22624976.00849 118895050.68449     -4218.32849        50.000  
  23235344.58649 122102557.99249    -11153.97749        50.000  
 16 04 02 14 21 36.0000000  0  4G04G30G26G07                                    
  23188976.80549 121858895.46949      2891.64149        50.000  
  25953411.32849 136386095.39549       503.93849        48.000  
  22625056.30549 118895472.65249     -4221.34049        50.000  
  23235556.87549 122103673.55949    -11157.76249        50.000  
 16 04 02 14 21 36.1000000  0  4G04G30G26G07                                    
  23188921.80549 121858606.46949      2888.27349        50.000  
  25953401.76649 136386045.14149       501.15249        48.000  
  22625136.66449 118895894.96149     -4224.98049        50.000  
  23235769.24249 122104789.55949    -11162.35249        50.000  
 16 04 02 14 21 36.2000000  0  4G04G30G26G07                                    
  23188866.86749 121858317.75049      2885.60549        50.000  
  25953392.25049 136385995.12549       498.79349        48.000  
  22625217.09449 118896317.60249     -4228.16049        50.000  
  23235981.68849 122105905.96949    -11166.39549        50.000  
 16 04 02 14 21 36.3000000  0  4G04G30G26G07                                    
  23188811.98449 121858029.33649      2882.67649        50.000  
  25953382.78149 136385945.36749       496.28149        48.000  
  22625297.58649 118896740.57449     -4231.48049        50.000  
  23236194.21949 122107022.80149    -11170.55549        50.000  
 16 04 02 14 21 36.4000000  0  4G04G30G26G07                                    
  23188757.15649 121857741.20749      2879.72349        50.000  
  25953373.35949 136385895.84049       494.04349        48.000  
  22625378.13349 118897163.87149     -4234.62949        50.000  
  23236406.82049 122108140.03949    -11174.52749        50.000  
 16 04 02 14 21 36.5000000  0  4G04G30G26G07                                    
  23188702.38349 121857453.35949      2876.89149        50.000  
  25953363.96949 136385846.55549       491.55949        48.000  
  22625458.75049 118897587.50849     -4238.03149        50.000  
  23236619.50049 122109257.70349    -11178.90249        50.000  
 16 04 02 14 21 36.6000000  0  4G04G30G26G07                                    
  23188647.65649 121857165.77049      2874.53549        50.000  
  25953354.63349 136385797.47349       489.68449        48.000  
  22625539.42249 118898011.43049     -4240.86749        50.000  
  23236832.25849 122110375.73449    -11182.43849        50.000  
 16 04 02 14 21 36.7000000  0  4G04G30G26G07                                    
  23188592.97749 121856878.43449      2872.09449        50.000  
  25953345.33649 136385748.60549       487.61349        48.000  
  22625620.14849 118898435.64849     -4243.60949        50.000  
  23237045.08649 122111494.15649    -11186.12549        50.000  
 16 04 02 14 21 36.8000000  0  4G04G30G26G07                                    
  23188538.35949 121856591.44149      2868.45749        50.000  
  25953336.08649 136385700.02349       484.70749        48.000  
  22625700.94549 118898860.23849     -4247.50849        50.000  
  23237258.00049 122112613.03549    -11190.99249        50.000  
 16 04 02 14 21 36.9000000  0  4G04G30G26G07                                    
  23188483.81249 121856304.77049      2865.07449        50.000  
  25953326.89849 136385651.72749       481.60249        48.000  
  22625781.81249 118899285.20349     -4251.47749        50.000  
  23237471.00049 122113732.36749    -11195.77349        50.000  
 16 04 02 14 21 37.0000000  0  4G04G30G26G07                                    
  23188429.32049 121856018.41849      2861.73049        50.000  
  25953317.75849 136385603.70349       478.65249        48.000  
  22625862.75049 118899710.52049     -4255.14549        50.000  
  23237684.08649 122114852.14849    -11200.09449        50.000  
 16 04 02 14 21 37.1000000  0  4G04G30G26G07                                    
  23188374.88349 121855732.33649      2859.43849        50.000  
  25953308.65649 136385555.89849       476.84449        48.000  
  22625943.75049 118900136.15249     -4257.88749        50.000  
  23237897.25049 122115972.31649    -11203.78149        50.000  
 16 04 02 14 21 37.2000000  0  4G04G30G26G07                                    
  23188320.48449 121855446.46949      2857.12949        50.000  
  25953299.58649 136385508.25449       475.12949        48.000  
  22626024.78949 118900562.03149     -4260.53549        50.000  
  23238110.47749 122117092.83249    -11207.32449        50.000  
 16 04 02 14 21 37.3000000  0  4G04G30G26G07                                    
  23188266.14849 121855160.93049      2853.78549        50.000  
  25953290.57849 136385460.89549       472.23049        48.000  
  22626105.90649 118900988.28149     -4264.28549        50.000  
  23238323.78949 122118213.78949    -11211.87149        50.000  
 16 04 02 14 21 37.4000000  0  4G04G30G26G07                                    
  23188211.88349 121854875.73849      2850.23049        50.000  
  25953281.62549 136385413.82449       469.30549        48.000  
  22626187.08649 118901414.91449     -4268.12549        50.000  
  23238537.19549 122119335.22749    -11216.81649        50.000  
 16 04 02 14 21 37.5000000  0  4G04G30G26G07                                    
  23188157.66449 121854590.82449      2847.49649        50.000  
  25953272.71149 136385367.00449       466.79749        48.000  
  22626268.33649 118901841.87149     -4271.35949        50.000  
  23238750.67249 122120457.07449    -11220.85549        50.000  
 16 04 02 14 21 37.6000000  0  4G04G30G26G07                                    
  23188103.50849 121854306.23449      2844.31649        50.000  
  25953263.85249 136385320.45349       464.21949        48.000  
  22626349.64849 118902269.18449     -4274.89549        50.000  
  23238964.24249 122121579.35949    -11225.12949        50.000  
 16 04 02 14 21 37.7000000  0  4G04G30G26G07                                    
  23188049.39849 121854021.85249      2842.36349        50.000  
  25953255.02349 136385274.07049       462.66849        48.000  
  22626431.00849 118902696.75849     -4277.35549        50.000  
  23239177.86749 122122701.98049    -11228.39549        50.000  
 16 04 02 14 21 37.8000000  0  4G04G30G26G07                                    
  23187995.33649 121853737.75449      2839.68049        50.000  
  25953246.24249 136385227.90649       460.46549        48.000  
  22626512.43049 118903124.64149     -4280.39549        50.000  
  23239391.57049 122123825.00849    -11232.39849        50.000  
 16 04 02 14 21 37.9000000  0  4G04G30G26G07                                    
  23187941.33649 121853453.98049      2836.12949        50.000  
  25953237.50849 136385182.03949       457.45749        48.000  
  22626593.92249 118903552.89149     -4284.23049        50.000  
  23239605.36749 122124948.49249    -11237.08249        50.000  
 16 04 02 14 21 38.0000000  0  4G04G30G26G07                                    
  23187887.39149 121853170.48049      2833.42249        50.000  
  25953228.82049 136385136.37549       455.27349        48.000  
  22626675.47749 118903981.45349     -4287.37949        50.000  
  23239819.23449 122126072.38349    -11241.10549        49.000  
 16 04 02 14 21 38.1000000  0  4G04G30G26G07                                    
  23187833.48449 121852887.19949      2831.32449        50.000  
  25953220.17249 136385090.90249       453.59049        48.000  
  22626757.07849 118904410.27749     -4289.89549        50.000  
  23240033.17249 122127196.59449    -11244.36349        49.000  
 16 04 02 14 21 38.2000000  0  4G04G30G26G07                                    
  23187779.64149 121852604.26649      2827.80149        50.000  
  25953211.57849 136385045.73049       450.35249        48.000  
  22626838.75849 118904839.49649     -4293.76649        50.000  
  23240247.19549 122128321.30549    -11249.27349        50.000  
 16 04 02 14 21 38.3000000  0  4G04G30G26G07                                    
  23187725.86749 121852321.68449      2824.24649        50.000  
  25953203.03949 136385000.84849       447.48849        48.000  
  22626920.50849 118905269.09049     -4297.68049        50.000  
  23240461.30549 122129446.46549    -11253.91049        50.000  
 16 04 02 14 21 38.4000000  0  4G04G30G26G07                                    
  23187672.13349 121852039.29749      2822.34449        50.000  
  25953194.52349 136384956.12949       445.95749        48.000  
  22627002.29749 118905698.92649     -4300.00449        50.000  
  23240675.48449 122130571.97349    -11257.23849        50.000  
 16 04 02 14 21 38.5000000  0  4G04G30G26G07                                    
  23187618.43849 121851757.16449      2819.76249        50.000  
  25953186.06249 136384911.61349       443.90249        48.000  
  22627084.14849 118906129.05949     -4302.98849        50.000  
  23240889.72749 122131697.83649    -11260.93849        50.000  
 16 04 02 14 21 38.6000000  0  4G04G30G26G07                                    
  23187564.82849 121851475.43049      2815.89149        50.000  
  25953177.65649 136384867.43449       440.51249        48.000  
  22627166.08649 118906559.62949     -4307.32449        50.000  
  23241104.07849 122132824.23049    -11266.09049        50.000  
 16 04 02 14 21 38.7000000  0  4G04G30G26G07                                    
  23187511.27349 121851193.99649      2812.69949        50.000  
  25953169.30549 136384823.52349       437.73449        48.000  
  22627248.08649 118906990.53149     -4310.89849        50.000  
  23241318.50049 122133951.05949    -11270.60949        50.000  
 16 04 02 14 21 38.8000000  0  4G04G30G26G07                                    
  23187457.75849 121850912.79749      2810.33649        50.000  
  25953160.98449 136384779.80149       435.82049        48.000  
  22627330.13349 118907421.71149     -4313.53149        50.000  
  23241533.00049 122135078.24249    -11274.23849        49.000  
 16 04 02 14 21 38.9000000  0  4G04G30G26G07                                    
  23187404.31249 121850631.92649      2807.17649        50.000  
  25953152.71149 136384736.35949       433.06649        48.000  
  22627412.25849 118907853.26249     -4317.25849        50.000  
  23241747.57849 122136205.87549    -11278.61749        49.000  
 16 04 02 14 21 39.0000000  0  4G04G30G26G07                                    
  23187350.92249 121850351.38749      2803.73049        50.000  
  25953144.50049 136384693.18849       430.29349        48.000  
  22627494.44549 118908285.17249     -4320.94149        50.000  
  23241962.25049 122137333.96949    -11283.23449        49.000  
 16 04 02 14 21 39.1000000  0  4G04G30G26G07                                    
  23187297.58649 121850071.09049      2801.57049        50.000  
  25953136.32849 136384650.21949       428.59849        48.000  
  22627576.69549 118908717.37949     -4323.61749        50.000  
  23242176.99249 122138462.42649    -11286.70349        49.000  
 16 04 02 14 21 39.2000000  0  4G04G30G26G07                                    
  23187244.28949 121849791.02349      2799.05949        50.000  
  25953128.18849 136384607.44549       426.47749        48.000  
  22627658.99249 118909149.85549     -4326.51249        50.000  
  23242391.78949 122139591.23849    -11290.34849        49.000  
 16 04 02 14 21 39.3000000  0  4G04G30G26G07                                    
  23187191.07849 121849511.36349      2794.97349        50.000  
  25953120.10949 136384565.02349       422.93849        48.000  
  22627741.36749 118909582.75849     -4330.75449        50.000  
  23242606.70349 122140720.59049    -11295.79349        49.000  
 16 04 02 14 21 39.4000000  0  4G04G30G26G07                                    
  23187137.89849 121849231.94149      2792.39549        50.000  
  25953112.07049 136384522.78949       420.78549        48.000  
  22627823.79749 118910015.96549     -4333.93049        50.000  
  23242821.67249 122141850.28949    -11299.41449        49.000  
 16 04 02 14 21 39.5000000  0  4G04G30G26G07                                    
  23187084.78949 121848952.82849      2789.59449        50.000  
  25953104.08649 136384480.81249       418.66449        48.000  
  22627906.30549 118910449.50049     -4337.08649        50.000  
  23243036.73449 122142980.44549    -11303.67649        49.000  
 16 04 02 14 21 39.6000000  0  4G04G30G26G07                                    
  23187031.72749 121848673.98849      2786.63349        50.000  
  25953096.14149 136384439.07449       415.94949        48.000  
  22627988.85949 118910883.34449     -4340.34849        50.000  
  23243251.86749 122144110.98049    -11307.84849        49.000  
 16 04 02 14 21 39.7000000  0  4G04G30G26G07                                    
  23186978.74249 121848395.51249      2783.29349        50.000  
  25953088.25849 136384397.64849       413.04349        48.000  
  22628071.50049 118911317.60549     -4344.09849        50.000  
  23243467.10249 122145242.01649    -11312.37149        49.000  
 16 04 02 14 21 39.8000000  0  4G04G30G26G07                                    
  23186925.78949 121848117.26249      2780.60549        50.000  
  25953080.41449 136384356.40249       410.72749        48.000  
  22628154.18849 118911752.13349     -4347.32849        50.000  
  23243682.39149 122146373.39549    -11316.43049        49.000  
 16 04 02 14 21 39.9000000  0  4G04G30G26G07                                    
  23186872.90649 121847839.35249      2777.97349        50.000  
  25953072.61749 136384315.44949       408.61349        48.000  
  22628236.94549 118912187.03549     -4350.48049        50.000  
  23243897.77349 122147505.23849    -11320.30949        49.000  
 16 04 02 14 21 40.0000000  0  4G04G30G26G07                                    
  23186820.04749 121847561.58649      2776.09449        50.000  
  25953064.84449 136384274.58649       407.29749        48.000  
  22628319.74249 118912622.10949     -4352.38749        50.000  
  23244113.21149 122148637.35549    -11323.32449        49.000  
 16 04 02 14 21 40.1000000  0  4G04G30G26G07                                    
  23186767.25849 121847284.16849      2772.81249        50.000  
  25953057.12549 136384234.02749       404.62149        48.000  
  22628402.60949 118913057.59449     -4356.30549        50.000  
  23244328.73449 122149769.94949    -11327.93049        49.000  
 16 04 02 14 21 40.2000000  0  4G04G30G26G07                                    
  23186714.52349 121847007.03949      2769.77049        50.000  
  25953049.45349 136384193.72349       401.79349        48.000  
  22628485.53949 118913493.39149     -4359.63749        50.000  
  23244544.33649 122150902.94949    -11332.30149        49.000  
 16 04 02 14 21 40.3000000  0  4G04G30G26G07                                    
  23186661.83649 121846730.18849      2767.01649        50.000  
  25953041.82849 136384153.62549       399.74249        48.000  
  22628568.52349 118913929.49249     -4362.68449        50.000  
  23244760.01649 122152036.34049    -11336.10949        49.000  
 16 04 02 14 21 40.4000000  0  4G04G30G26G07                                    
  23186609.21149 121846453.62949      2763.97749        50.000  
  25953034.24249 136384113.78949       397.03149        48.000  
  22628651.57849 118914365.95749     -4366.30149        50.000  
  23244975.77349 122153170.17249    -11340.48449        49.000  
 16 04 02 14 21 40.5000000  0  4G04G30G26G07                                    
  23186556.64849 121846177.38749      2760.79349        50.000  
  25953026.71949 136384074.23049       394.34449        48.000  
  22628734.70349 118914802.75849     -4369.72749        50.000  
  23245191.62549 122154304.44149    -11345.06649        49.000  
 16 04 02 14 21 40.6000000  0  4G04G30G26G07                                    
  23186504.14149 121845901.45749      2757.75849        50.000  
  25953019.23449 136384034.91849       391.85549        48.000  
  22628817.89149 118915239.91049     -4373.23849        50.000  
  23245407.54749 122155439.13749    -11349.14549        49.000  
 16 04 02 14 21 40.7000000  0  4G04G30G26G07                                    
  23186451.67249 121845625.73849      2755.73449        50.000  
  25953011.79749 136383995.77749       390.13349        48.000  
  22628901.12549 118915677.31649     -4375.70349        50.000  
  23245623.53949 122156574.17249    -11352.50449        49.000  
 16 04 02 14 21 40.8000000  0  4G04G30G26G07                                    
  23186399.27349 121845350.38749      2751.96549        50.000  
  25953004.40649 136383956.96549       386.85249        48.000  
  22628984.43849 118916115.12549     -4379.83649        50.000  
  23245839.62549 122157709.69149    -11357.41449        49.000  
 16 04 02 14 21 40.9000000  0  4G04G30G26G07                                    
  23186346.93049 121845075.30949      2749.14549        50.000  
  25952997.06249 136383918.36349       384.62149        48.000  
  22629067.80549 118916553.25049     -4383.09449        50.000  
  23246055.78149 122158845.62149    -11361.62149        49.000  
 16 04 02 14 21 41.0000000  0  4G04G30G26G07                                    
  23186294.63349 121844800.50449      2746.48449        50.000  
  25952989.76649 136383880.00049       382.31649        48.000  
  22629151.24249 118916991.68849     -4386.09449        50.000  
  23246272.01649 122159981.94549    -11365.50849        49.000  
 16 04 02 14 21 41.1000000  0  4G04G30G26G07                                    
  23186242.39849 121844526.01649      2743.35249        50.000  
  25952982.50849 136383841.91449       379.55949        48.000  
  22629234.73449 118917430.48049     -4389.53149        50.000  
  23246488.33649 122161118.71549    -11369.95349        49.000  
 16 04 02 14 21 41.2000000  0  4G04G30G26G07                                    
  23186190.21949 121844251.83649      2740.34049        50.000  
  25952975.30549 136383804.07449       377.16849        48.000  
  22629318.29749 118917869.61349     -4393.01649        50.000  
  23246704.73449 122162255.91049    -11374.05949        49.000  
 16 04 02 14 21 41.3000000  0  4G04G30G26G07                                    
  23186138.08649 121843977.88349      2737.96149        50.000  
  25952968.14149 136383766.42649       375.10949        48.000  
  22629401.91449 118918309.02349     -4395.75449        50.000  
  23246921.20349 122163393.46549    -11377.85949        49.000  
 16 04 02 14 21 41.4000000  0  4G04G30G26G07                                    
  23186086.02349 121843704.28149      2734.37549        50.000  
  25952961.03949 136383729.07449       372.12149        48.000  
  22629485.60949 118918748.81649     -4399.68449        50.000  
  23247137.76649 122164531.48849    -11382.54749        49.000  
 16 04 02 14 21 41.5000000  0  4G04G30G26G07                                    
  23186034.00849 121843430.94549      2731.90249        50.000  
  25952953.97749 136383691.94149       370.10949        48.000  
  22629569.35949 118919188.91849     -4402.71549        50.000  
  23247354.40649 122165669.89849    -11386.19549        49.000  
 16 04 02 14 21 41.6000000  0  4G04G30G26G07                                    
  23185982.05549 121843157.90249      2728.89549        50.000  
  25952946.95349 136383655.05949       367.49249        48.000  
  22629653.17249 118919629.34849     -4405.95349        50.000  
  23247571.11749 122166808.73849    -11390.55149        49.000  
 16 04 02 14 21 41.7000000  0  4G04G30G26G07                                    
  23185930.15649 121842885.18049      2725.54349        50.000  
  25952939.99249 136383618.45349       364.64549        48.000  
  22629737.04749 118920070.14849     -4409.78149        50.000  
  23247787.91449 122167948.01649    -11395.09449        49.000  
 16 04 02 14 21 41.8000000  0  4G04G30G26G07                                    
  23185878.31249 121842612.73849      2723.03549        50.000  
  25952933.06249 136383582.06649       362.62549        48.000  
  22629820.98449 118920511.23849     -4412.44549        50.000  
  23248004.78949 122169087.69949    -11398.86349        49.000  
 16 04 02 14 21 41.9000000  0  4G04G30G26G07                                    
  23185826.50849 121842340.52049      2720.59849        50.000  
  25952926.18049 136383545.87149       360.58649        48.000  
  22629904.97749 118920952.63749     -4415.70749        50.000  
  23248221.72749 122170227.73849    -11402.55149        49.000  
 16 04 02 14 21 42.0000000  0  4G04G30G26G07                                    
  23185774.77349 121842068.64149      2717.27349        50.000  
  25952919.35249 136383509.96949       357.71549        48.000  
  22629989.03949 118921394.37149     -4419.15649        50.000  
  23248438.75849 122171368.23049    -11407.14149        49.000  
 16 04 02 14 21 42.1000000  0  4G04G30G26G07                                    
  23185723.08649 121841797.03949      2714.42649        50.000  
  25952912.55549 136383474.28549       355.55949        48.000  
  22630073.16449 118921836.44549     -4422.53149        50.000  
  23248655.85949 122172509.12149    -11411.11349        49.000  
 16 04 02 14 21 42.2000000  0  4G04G30G26G07                                    
  23185671.46149 121841525.73849      2711.37549        50.000  
  25952905.81249 136383438.85949       353.00449        48.000  
  22630157.35249 118922278.84849     -4425.70749        50.000  
  23248873.04749 122173650.45349    -11415.52049        50.000  
 16 04 02 14 21 42.3000000  0  4G04G30G26G07                                    
  23185619.88349 121841254.69549      2708.63749        50.000  
  25952899.11749 136383403.64849       350.69949        48.000  
  22630241.59449 118922721.55949     -4428.95749        50.000  
  23249090.30549 122174792.14849    -11419.48849        50.000  
 16 04 02 14 21 42.4000000  0  4G04G30G26G07                                    
  23185568.36749 121840983.98049      2705.53149        50.000  
  25952892.46949 136383368.72749       347.98449        48.000  
  22630325.90649 118923164.63349     -4432.56649        50.000  
  23249307.65649 122175934.31249    -11423.78549        50.000  
 16 04 02 14 21 42.5000000  0  4G04G30G26G07                                    
  23185516.91449 121840713.61349      2702.25049        50.000  
  25952885.88349 136383334.09849       345.09449        48.000  
  22630410.29749 118923608.08649     -4436.21149        50.000  
  23249525.09449 122177076.94949    -11428.50449        50.000  
 16 04 02 14 21 42.6000000  0  4G04G30G26G07                                    
  23185465.51649 121840443.48849      2699.66449        50.000  
  25952879.32849 136383299.65249       343.09849        48.000  
  22630494.73449 118924051.82049     -4439.12149        50.000  
  23249742.59449 122178219.93849    -11432.19949        50.000  
 16 04 02 14 21 42.7000000  0  4G04G30G26G07                                    
  23185414.14849 121840173.57449      2697.57049        50.000  
  25952872.81249 136383265.40249       341.29749        48.000  
  22630579.22749 118924495.81249     -4441.66449        50.000  
  23249960.16449 122179363.27749    -11435.55149        50.000  
 16 04 02 14 21 42.8000000  0  4G04G30G26G07                                    
  23185362.85949 121839904.02349      2693.96949        50.000  
  25952866.35249 136383231.44149       338.27049        48.000  
  22630663.78149 118924940.19149     -4445.48449        50.000  
  23250177.82849 122180507.09449    -11440.35249        50.000  
 16 04 02 14 21 42.9000000  0  4G04G30G26G07                                    
  23185311.61749 121839634.78549      2690.69949        50.000  
  25952859.94549 136383197.75449       335.41049        48.000  
  22630748.41449 118925384.93849     -4449.25049        50.000  
  23250395.57049 122181651.34849    -11444.96949        49.000  
 16 04 02 14 21 43.0000000  0  4G04G30G26G07                                    
  23185260.43849 121839365.82449      2688.04349        50.000  
  25952853.57849 136383164.30149       333.21949        48.000  
  22630833.10949 118925830.00449     -4452.30949        50.000  
  23250613.39849 122182796.00849    -11448.83249        50.000  
 16 04 02 14 21 43.1000000  0  4G04G30G26G07                                    
  23185209.31249 121839097.14549      2685.38749        50.000  
  25952847.25849 136383131.07849       331.05149        48.000  
  22630917.85949 118926275.36349     -4455.28149        50.000  
  23250831.29749 122183941.08249    -11452.90249        50.000  
 16 04 02 14 21 43.2000000  0  4G04G30G26G07                                    
  23185158.22749 121838828.70749      2682.65249        50.000  
  25952840.97749 136383098.04349       328.93049        48.000  
  22631002.66449 118926721.03549     -4458.53149        50.000  
  23251049.26649 122185086.51249    -11456.57849        50.000  
 16 04 02 14 21 43.3000000  0  4G04G30G26G07                                    
  23185107.20349 121838560.57449      2679.82049        50.000  
  25952834.74249 136383065.29349       326.32049        48.000  
  22631087.53949 118927167.03949     -4461.64549        50.000  
  23251267.31249 122186232.36749    -11460.80549        50.000  
 16 04 02 14 21 43.4000000  0  4G04G30G26G07                                    
  23185056.24249 121838292.76249      2676.64149        50.000  
  25952828.56249 136383032.79749       323.67649        48.000  
  22631172.47749 118927613.39849     -4465.18449        50.000  
  23251485.44549 122187378.66449    -11465.12549        50.000  
 16 04 02 14 21 43.5000000  0  4G04G30G26G07                                    
  23185005.32849 121838025.23849      2673.58649        50.000  
  25952822.43049 136383000.53949       321.21549        48.000  
  22631257.47749 118928060.09049     -4468.68049        50.000  
  23251703.66449 122188525.37949    -11469.34849        50.000  
 16 04 02 14 21 43.6000000  0  4G04G30G26G07                                    
  23184954.47749 121837757.99649      2670.78549        50.000  
  25952816.33649 136382968.52749       318.86349        48.000  
  22631342.53949 118928507.09849     -4471.80549        50.000  
  23251921.95349 122189672.50849    -11473.39149        50.000  
 16 04 02 14 21 43.7000000  0  4G04G30G26G07                                    
  23184903.67249 121837491.03949      2667.93449        50.000  
  25952810.28949 136382936.75449       316.36349        48.000  
  22631427.66449 118928954.42649     -4475.03549        50.000  
  23252140.32049 122190820.04349    -11477.77049        50.000  
 16 04 02 14 21 43.8000000  0  4G04G30G26G07                                    
  23184852.93849 121837224.39149      2664.90649        50.000  
  25952804.28949 136382905.23049       313.97349        48.000  
  22631512.85249 118929402.10249     -4478.37549        50.000  
  23252358.77349 122191968.01249    -11481.84849        50.000  
 16 04 02 14 21 43.9000000  0  4G04G30G26G07                                    
  23184802.23449 121836957.95349      2663.00049        50.000  
  25952798.32849 136382873.89149       312.31649        48.000  
  22631598.09449 118929850.04349     -4480.85549        50.000  
  23252577.28949 122193116.31249    -11485.26649        50.000  
 16 04 02 14 21 44.0000000  0  4G04G30G26G07                                    
  23184751.59449 121836691.84849      2659.40249        50.000  
  25952792.41449 136382842.82449       309.28949        48.000  
  22631683.39849 118930298.33249     -4484.64149        50.000  
  23252795.88349 122194265.06649    -11490.01249        50.000  
 16 04 02 14 21 44.1000000  0  4G04G30G26G07                                    
  23184701.01649 121836426.05549      2656.32049        50.000  
  25952786.55549 136382812.03549       306.54349        48.000  
  22631768.78149 118930746.99649     -4488.23449        50.000  
  23253014.57049 122195414.27049    -11494.35949        50.000  
 16 04 02 14 21 44.2000000  0  4G04G30G26G07                                    
  23184650.49249 121836160.54749      2653.73449        50.000  
  25952780.74249 136382781.46549       304.60249        48.000  
  22631854.21149 118931195.96149     -4491.21549        50.000  
  23253233.33649 122196563.87149    -11498.07049        50.000  
 16 04 02 14 21 44.3000000  0  4G04G30G26G07                                    
  23184600.02349 121835895.33649      2650.43449        50.000  
  25952774.96949 136382751.15249       301.78149        48.000  
  22631939.71149 118931645.27749     -4494.95349        50.000  
  23253452.18049 122197713.88749    -11502.56649        49.000  
 16 04 02 14 21 44.4000000  0  4G04G30G26G07                                    
  23184549.60949 121835630.41849      2647.55949        50.000  
  25952769.25049 136382721.09049       299.23049        48.000  
  22632025.27349 118932094.91449     -4498.14849        50.000  
  23253671.10249 122198864.33249    -11506.65249        50.000  
 16 04 02 14 21 44.5000000  0  4G04G30G26G07                                    
  23184499.25049 121835365.77749      2645.06649        50.000  
  25952763.57849 136382691.25449       297.17649        48.000  
  22632110.89849 118932544.87149     -4501.09849        50.000  
  23253890.09449 122200015.16049    -11510.34049        49.000  
 16 04 02 14 21 44.6000000  0  4G04G30G26G07                                    
  23184448.93849 121835101.40249      2642.25849        50.000  
  25952757.94549 136382661.65249       294.78149        48.000  
  22632196.58649 118932995.14149     -4504.35549        50.000  
  23254109.17249 122201166.40249    -11514.53549        49.000  
 16 04 02 14 21 44.7000000  0  4G04G30G26G07                                    
  23184398.68849 121834837.32449      2639.11349        50.000  
  25952752.35949 136382632.28949       292.25449        48.000  
  22632282.32849 118933445.73849     -4507.76249        50.000  
  23254328.32049 122202318.05949    -11518.91449        50.000  
 16 04 02 14 21 44.8000000  0  4G04G30G26G07                                    
  23184348.49249 121834573.56249      2636.05949        50.000  
  25952746.82049 136382603.20749       289.56249        48.000  
  22632368.14849 118933896.69949     -4511.26249        50.000  
  23254547.56249 122203470.16449    -11523.26649        50.000  
 16 04 02 14 21 44.9000000  0  4G04G30G26G07                                    
  23184298.35249 121834310.07049      2633.28149        50.000  
  25952741.32049 136382574.32449       287.35949        48.000  
  22632454.01649 118934347.94549     -4514.34049        50.000  
  23254766.86749 122204622.63749    -11527.06649        50.000  
 16 04 02 14 21 45.0000000  0  4G04G30G26G07                                    
  23184248.27349 121834046.88749      2630.48049        50.000  
  25952735.87549 136382545.71949       284.86749        48.000  
  22632539.95349 118934799.55949     -4517.75049        50.000  
  23254986.25849 122205775.55549    -11531.19149        50.000  
 16 04 02 14 21 45.1000000  0  4G04G30G26G07                                    
  23184198.22749 121833783.89149      2628.28149        50.000  
  25952730.46149 136382517.25449       283.27749        48.000  
  22632625.93849 118935251.39549     -4520.19149        50.000  
  23255205.71949 122206928.78949    -11534.60549        49.000  
 16 04 02 14 21 45.2000000  0  4G04G30G26G07                                    
  23184148.25049 121833521.27049      2624.80549        50.000  
  25952725.10949 136382489.11749       280.26249        48.000  
  22632712.00049 118935703.63749     -4523.89549        50.000  
  23255425.26649 122208082.52749    -11539.44149        49.000  
 16 04 02 14 21 45.3000000  0  4G04G30G26G07                                    
  23184098.32849 121833258.93449      2621.72349        50.000  
  25952719.79749 136382461.22349       277.55149        48.000  
  22632798.11749 118936156.21149     -4527.56649        50.000  
  23255644.89149 122209236.66049    -11543.69949        49.000  
 16 04 02 14 21 45.4000000  0  4G04G30G26G07                                    
  23184048.45349 121832996.85949      2619.07849        50.000  
  25952714.53149 136382433.54349       275.50049        48.000  
  22632884.29749 118936609.07849     -4530.42649        50.000  
  23255864.59449 122210391.18849    -11547.53549        49.000  
 16 04 02 14 21 45.5000000  0  4G04G30G26G07                                    
  23183998.64849 121832735.12549      2615.66049        50.000  
  25952709.32049 136382406.14849       272.41849        48.000  
  22632970.54749 118937062.32849     -4534.38749        50.000  
  23256084.37549 122211546.17649    -11552.31249        49.000  
 16 04 02 14 21 45.6000000  0  4G04G30G26G07                                    
  23183948.90649 121832473.72749      2612.22349        50.000  
  25952704.16449 136382379.04749       269.50449        48.000  
  22633056.86749 118937515.94949     -4538.08649        50.000  
  23256304.25049 122212701.62149    -11556.81249        49.000  
 16 04 02 14 21 45.7000000  0  4G04G30G26G07                                    
  23183899.21949 121832212.62149      2609.32049        50.000  
  25952699.05549 136382352.20349       267.01249        48.000  
  22633143.25049 118937969.90649     -4541.40249        50.000  
  23256524.21149 122213857.50049    -11561.03149        50.000  
 16 04 02 14 21 45.8000000  0  4G04G30G26G07                                    
  23183849.58649 121831951.77749      2606.82449        50.000  
  25952693.98449 136382325.54749       265.28149        48.000  
  22633229.69549 118938424.15649     -4544.23049        50.000  
  23256744.23449 122215013.74249    -11564.73449        50.000  
 16 04 02 14 21 45.9000000  0  4G04G30G26G07                                    
  23183800.00049 121831691.17249      2604.50849        50.000  
  25952688.95349 136382299.11749       263.19949        48.000  
  22633316.18849 118938878.69549     -4546.98449        50.000  
  23256964.33649 122216170.35949    -11568.37549        49.000  
 16 04 02 14 21 46.0000000  0  4G04G30G26G07                                    
  23183750.46149 121831430.86749      2601.52049        50.000  
  25952683.96949 136382272.93449       260.61749        48.000  
  22633402.75049 118939333.56649     -4550.36749        50.000  
  23257184.50849 122217327.39549    -11572.54749        50.000  
 16 04 02 14 21 46.1000000  0  4G04G30G26G07                                    
  23183700.99249 121831170.92649      2597.89549        50.000  
  25952679.04749 136382247.05149       257.64149        48.000  
  22633489.38349 118939788.83649     -4554.30949        50.000  
  23257404.78149 122218484.93049    -11577.50849        49.000  
 16 04 02 14 21 46.2000000  0  4G04G30G26G07                                    
  23183651.57849 121830911.23849      2595.23449        50.000  
  25952674.17249 136382221.39849       255.19549        48.000  
  22633576.07849 118940244.41449     -4557.57049        50.000  
  23257625.12549 122219642.84449    -11581.46949        50.000  
 16 04 02 14 21 46.3000000  0  4G04G30G26G07                                    
  23183602.22749 121830651.89149      2591.89549        50.000  
  25952669.34449 136382196.02349       252.34049        48.000  
  22633662.83649 118940700.34849     -4561.20749        50.000  
  23257845.55549 122220801.19549    -11585.81249        50.000  
 16 04 02 14 21 46.4000000  0  4G04G30G26G07                                    
  23183552.92249 121830392.78949      2589.26649        50.000  
  25952664.55549 136382170.85249       250.32449        48.000  
  22633749.65649 118941156.57449     -4564.09449        50.000  
  23258066.05549 122221959.93449    -11589.73849        49.000  
 16 04 02 14 21 46.5000000  0  4G04G30G26G07                                    
  23183503.68049 121830134.02049      2586.11349        50.000  
  25952659.82049 136382145.96549       247.50449        48.000  
  22633836.53949 118941613.17249     -4567.69549        50.000  
  23258286.64149 122223119.12949    -11594.19549        49.000  
 16 04 02 14 21 46.6000000  0  4G04G30G26G07                                    
  23183454.47749 121829875.48849      2583.85949        50.000  
  25952655.12549 136382121.27049       245.64149        48.000  
  22633923.48449 118942070.05149     -4570.36749        50.000  
  23258507.29749 122224278.68849    -11597.78949        49.000  
 16 04 02 14 21 46.7000000  0  4G04G30G26G07                                    
  23183405.34449 121829617.26649      2580.65649        50.000  
  25952650.47749 136382096.84849       242.92249        48.000  
  22634010.49249 118942527.27349     -4573.91049        50.000  
  23258728.03949 122225438.67649    -11602.12549        49.000  
 16 04 02 14 21 46.8000000  0  4G04G30G26G07                                    
  23183356.26649 121829359.34449      2577.87149        50.000  
  25952645.87549 136382072.66449       240.57449        48.000  
  22634097.56249 118942984.82449     -4577.07849        50.000  
  23258948.85949 122226599.08649    -11606.17249        50.000  
 16 04 02 14 21 46.9000000  0  4G04G30G26G07                                    
  23183307.23449 121829101.68849      2574.92649        50.000  
  25952641.32049 136382048.71149       238.24649        48.000  
  22634184.68849 118943442.69549     -4580.37949        50.000  
  23259169.75049 122227759.88749    -11610.26649        50.000  
 16 04 02 14 21 47.0000000  0  4G04G30G26G07                                    
  23183258.25849 121828844.30549      2572.39149        50.000  
  25952636.80549 136382024.98049       236.09049        48.000  
  22634271.87549 118943900.87149     -4583.38349        50.000  
  23259390.71949 122228921.08649    -11614.15649        50.000  
 16 04 02 14 21 47.1000000  0  4G04G30G26G07                                    
  23183209.32049 121828587.14849      2570.09449        50.000  
  25952632.32049 136382001.43049       234.33249        48.000  
  22634359.10949 118944359.30949     -4586.03949        50.000  
  23259611.75849 122230082.62949    -11617.57049        50.000  
 16 04 02 14 21 47.2000000  0  4G04G30G26G07                                    
  23183160.46149 121828330.36349      2566.37949        50.000  
  25952627.90649 136381978.20749       230.96949        48.000  
  22634446.43049 118944818.16049     -4590.10249        50.000  
  23259832.89149 122231244.67649    -11622.59049        50.000  
 16 04 02 14 21 47.3000000  0  4G04G30G26G07                                    
  23183111.64849 121828073.86349      2563.33249        50.000  
  25952623.53149 136381955.23049       228.32849        48.000  
  22634533.80549 118945277.34049     -4593.68849        50.000  
  23260054.09449 122232407.12949    -11626.89149        50.000  
 16 04 02 14 21 47.4000000  0  4G04G30G26G07                                    
  23183062.89849 121827817.68449      2560.05949        50.000  
  25952619.21149 136381932.52049       225.59849        48.000  
  22634621.25849 118945736.87149     -4597.26249        50.000  
  23260275.39149 122233570.02749    -11631.40249        50.000  
 16 04 02 14 21 47.5000000  0  4G04G30G26G07                                    
  23183014.21149 121827561.82049      2557.08249        50.000  
  25952614.93049 136381910.07849       223.09049        48.000  
  22634708.76649 118946196.75049     -4600.58249        50.000  
  23260496.76649 122234733.36749    -11635.61349        50.000  
 16 04 02 14 21 47.6000000  0  4G04G30G26G07                                    
  23182965.57849 121827306.23049      2554.39549        50.000  
  25952610.70349 136381887.85549       220.91049        48.000  
  22634796.34449 118946656.94949     -4603.63349        50.000  
  23260718.21949 122235897.09049    -11639.48849        50.000  
 16 04 02 14 21 47.7000000  0  4G04G30G26G07                                    
  23182916.98449 121827050.88749      2551.93049        50.000  
  25952606.51649 136381865.85549       218.85549        48.000  
  22634883.96949 118947117.43449     -4606.39149        50.000  
  23260939.73449 122237061.20749    -11643.18849        50.000  
 16 04 02 14 21 47.8000000  0  4G04G30G26G07                                    
  23182868.44549 121826795.84049      2548.91049        50.000  
  25952602.37549 136381844.09049       216.33649        48.000  
  22634971.66449 118947578.25049     -4609.81649        50.000  
  23261161.34449 122238225.72749    -11647.50849        50.000  
 16 04 02 14 21 47.9000000  0  4G04G30G26G07                                    
  23182819.97749 121826541.10949      2545.76649        50.000  
  25952598.28149 136381822.59449       213.64149        48.000  
  22635059.42249 118948039.42249     -4613.46949        50.000  
  23261383.02349 122239390.68449    -11651.82449        50.000  
 16 04 02 14 21 48.0000000  0  4G04G30G26G07                                    
  23182771.55549 121826286.65649      2543.02349        50.000  
  25952594.24249 136381801.35249       211.17649        48.000  
  22635147.24249 118948500.91449     -4616.60249        50.000  
  23261604.78949 122240556.05549    -11655.96149        50.000  
 16 04 02 14 21 48.1000000  0  4G04G30G26G07                                    
  23182723.18849 121826032.48449      2540.04349        50.000  
  25952590.24249 136381780.32049       208.88749        48.000  
  22635235.12549 118948962.71949     -4619.82849        50.000  
  23261826.62549 122241721.82049    -11660.02349        50.000  
 16 04 02 14 21 48.2000000  0  4G04G30G26G07                                    
  23182674.86749 121825778.58249      2537.39549        50.000  
  25952586.28149 136381759.52049       206.66449        48.000  
  22635323.06249 118949424.82849     -4622.86749        50.000  
  23262048.53949 122242887.98849    -11663.95349        50.000  
 16 04 02 14 21 48.3000000  0  4G04G30G26G07                                    
  23182626.62549 121825525.04749      2533.96149        50.000  
  25952582.39149 136381739.04349       203.58649        48.000  
  22635411.07849 118949887.35549     -4626.80949        50.000  
  23262270.54749 122244054.64549    -11668.65649        50.000  
 16 04 02 14 21 48.4000000  0  4G04G30G26G07                                    
  23182578.41449 121825271.71149      2531.85949        50.000  
  25952578.52349 136381718.71549       201.98049        48.000  
  22635499.14149 118950350.10949     -4629.27049        50.000  
  23262492.60949 122245221.61749    -11672.06649        50.000  
 16 04 02 14 21 48.5000000  0  4G04G30G26G07                                    
  23182530.27349 121825018.71949      2528.37149        50.000  
  25952574.70349 136381698.68849       198.96149        48.000  
  22635587.27349 118950813.25049     -4633.05149        50.000  
  23262714.76649 122246389.05949    -11676.69149        50.000  
 16 04 02 14 21 48.6000000  0  4G04G30G26G07                                    
  23182482.18849 121824766.01249      2525.41049        50.000  
  25952570.93849 136381678.89849       196.59049        48.000  
  22635675.46149 118951276.71149     -4636.35949        50.000  
  23262937.00849 122247556.91049    -11680.80149        50.000  
 16 04 02 14 21 48.7000000  0  4G04G30G26G07                                    
  23182434.14849 121824513.60949      2522.27349        50.000  
  25952567.21949 136381659.37149       193.82449        48.000  
  22635763.72749 118951740.52049     -4640.03949        50.000  
  23263159.32049 122248725.19549    -11685.26249        50.000  
 16 04 02 14 21 48.8000000  0  4G04G30G26G07                                    
  23182386.17249 121824261.47349      2519.87949        50.000  
  25952563.54749 136381640.06249       191.85549        48.000  
  22635852.04749 118952204.62549     -4642.73449        50.000  
  23263381.70349 122249893.85949    -11688.87949        49.000  
 16 04 02 14 21 48.9000000  0  4G04G30G26G07                                    
  23182338.25049 121824009.67649      2516.34049        50.000  
  25952559.93849 136381621.04749       188.80549        48.000  
  22635940.43849 118952669.10949     -4646.59049        50.000  
  23263604.18849 122251062.99649    -11693.60249        49.000  
 16 04 02 14 21 49.0000000  0  4G04G30G26G07                                    
  23182290.38349 121823758.12949      2513.91049        50.000  
  25952556.35249 136381602.23049       186.84049        48.000  
  22636028.87549 118953133.88749     -4649.48449        50.000  
  23263826.73449 122252232.50449    -11697.31649        50.000  
 16 04 02 14 21 49.1000000  0  4G04G30G26G07                                    
  23182242.56249 121823506.82849      2511.48049        50.000  
  25952552.81249 136381583.61749       184.87549        48.000  
  22636117.37549 118953598.94149     -4652.24649        50.000  
  23264049.35949 122253402.37149    -11700.82849        50.000  
 16 04 02 14 21 49.2000000  0  4G04G30G26G07                                    
  23182194.80549 121823255.86349      2508.08249        50.000  
  25952549.32849 136381565.30949       181.88749        48.000  
  22636205.94549 118954064.37549     -4656.00449        50.000  
  23264272.06249 122254572.70749    -11705.59849        50.000  
 16 04 02 14 21 49.3000000  0  4G04G30G26G07                                    
  23182147.10249 121823005.16449      2505.58249        50.000  
  25952545.87549 136381547.20349       179.85249        48.000  
  22636294.57049 118954530.11349     -4658.94149        50.000  
  23264494.84449 122255743.43449    -11709.39549        50.000  
 16 04 02 14 21 49.4000000  0  4G04G30G26G07                                    
  23182099.44549 121822754.74249      2502.55949        50.000  
  25952542.47749 136381529.33649       177.22749        48.000  
  22636383.25849 118954996.16049     -4662.20749        50.000  
  23264717.70349 122256914.55549    -11713.59049        50.000  
 16 04 02 14 21 49.5000000  0  4G04G30G26G07                                    
  23182051.86749 121822504.72349      2498.71949        50.000  
  25952539.14149 136381511.82849       173.84849        48.000  
  22636472.03149 118955462.66049     -4666.61749        50.000  
  23264940.66449 122258086.20749    -11718.64549        50.000  
 16 04 02 14 21 49.6000000  0  4G04G30G26G07                                    
  23182004.34449 121822254.96549      2495.82449        50.000  
  25952535.85249 136381494.52049       171.54749        48.000  
  22636560.85249 118955929.44149     -4669.73049        50.000  
  23265163.68849 122259258.23049    -11722.64849        50.000  
 16 04 02 14 21 49.7000000  0  4G04G30G26G07                                    
  23181956.86749 121822005.48049      2493.39849        50.000  
  25952532.60249 136381477.46149       169.56649        48.000  
  22636649.74249 118956396.55149     -4672.58649        50.000  
  23265386.80549 122260430.68049    -11726.39849        50.000  
 16 04 02 14 21 49.8000000  0  4G04G30G26G07                                    
  23181909.43849 121821756.22349      2491.02049        50.000  
  25952529.39149 136381460.57049       167.51649        48.000  
  22636738.68049 118956863.91849     -4675.44149        50.000  
  23265609.97749 122261603.45349    -11730.16049        50.000  
 16 04 02 14 21 49.9000000  0  4G04G30G26G07                                    
  23181862.07849 121821507.34449      2487.44149        50.000  
  25952526.25049 136381444.02049       164.42249        48.000  
  22636827.69549 118957331.69949     -4679.39849        50.000  
  23265833.24249 122262776.73849    -11734.84849        50.000  
 16 04 02 14 21 50.0000000  0  4G04G30G26G07                                    
  23181814.76649 121821258.72349      2484.84849        50.000  
  25952523.13349 136381427.66849       162.42649        48.000  
  22636916.76649 118957799.77749     -4682.26249        50.000  
  23266056.58649 122263950.40249    -11738.72349        49.000  
 16 04 02 14 21 50.1000000  0  4G04G30G26G07                                    
  23181767.50049 121821010.31249      2482.52049        50.000  
  25952520.06249 136381411.49249       160.43049        48.000  
  22637005.89149 118958268.10949     -4685.01649        50.000  
  23266279.99249 122265124.39549    -11742.22749        49.000  
 16 04 02 14 21 50.2000000  0  4G04G30G26G07                                    
  23181720.29749 121820762.27049      2478.99649        50.000  
  25952517.04749 136381395.64549       157.32849        48.000  
  22637095.08649 118958736.84449     -4688.91849        50.000  
  23266503.49249 122266298.89549    -11747.08249        50.000  
 16 04 02 14 21 50.3000000  0  4G04G30G26G07                                    
  23181673.15649 121820514.52349      2475.84449        50.000  
  25952514.08649 136381380.04749       154.68049        48.000  
  22637184.35249 118959205.91849     -4692.53149        50.000  
  23266727.07049 122267473.80949    -11751.44949        50.000  
 16 04 02 14 21 50.4000000  0  4G04G30G26G07                                    
  23181626.05549 121820267.03149      2473.41849        50.000  
  25952511.14849 136381364.64149       152.64149        48.000  
  22637273.66449 118959675.26249     -4695.19549        50.000  
  23266950.71949 122268649.08249    -11754.99249        50.000  
 16 04 02 14 21 50.5000000  0  4G04G30G26G07                                    
  23181579.02349 121820019.86749      2470.00849        50.000  
  25952508.27349 136381349.52749       149.82049        48.000  
  22637363.04749 118960144.99249     -4698.97349        50.000  
  23267174.45349 122269824.81649    -11759.65249        50.000  
 16 04 02 14 21 50.6000000  0  4G04G30G26G07                                    
  23181532.04749 121819772.98849      2467.35249        50.000  
  25952505.44549 136381334.65649       147.63349        48.000  
  22637452.50049 118960615.04749     -4702.06649        50.000  
  23267398.26649 122271000.96949    -11763.47749        50.000  
 16 04 02 14 21 50.7000000  0  4G04G30G26G07                                    
  23181485.11749 121819526.37149      2464.60549        50.000  
  25952502.65649 136381320.00049       145.22349        48.000  
  22637542.00049 118961085.39549     -4705.16849        50.000  
  23267622.15649 122272177.49249    -11767.43449        50.000  
 16 04 02 14 21 50.8000000  0  4G04G30G26G07                                    
  23181438.24249 121819280.06649      2461.39149        50.000  
  25952499.91449 136381305.59849       142.69949        48.000  
  22637631.57049 118961556.08649     -4708.68049        50.000  
  23267846.12549 122273354.46149    -11771.94549        50.000  
 16 04 02 14 21 50.9000000  0  4G04G30G26G07                                    
  23181391.42249 121819034.01649      2459.03149        50.000  
  25952497.21949 136381291.42649       140.46549        48.000  
  22637721.20349 118962027.09049     -4711.70749        50.000  
  23268070.17249 122274531.81249    -11775.73049        50.000  
 16 04 02 14 21 51.0000000  0  4G04G30G26G07                                    
  23181344.64149 121818788.18049      2456.97749        50.000  
  25952494.55549 136381277.41049       139.07049        48.000  
  22637810.87549 118962498.32449     -4713.89549        50.000  
  23268294.27349 122275709.49249    -11778.84449        49.000  
 16 04 02 14 21 51.1000000  0  4G04G30G26G07                                    
  23181297.93049 121818542.71949      2453.05549        50.000  
  25952491.95349 136381263.73049       135.46149        48.000  
  22637900.62549 118962969.97749     -4718.22749        50.000  
  23268518.47749 122276887.66449    -11783.96149        49.000  
 16 04 02 14 21 51.2000000  0  4G04G30G26G07                                    
  23181251.26649 121818297.52349      2450.50049        50.000  
  25952489.39149 136381250.26649       133.45749        48.000  
  22637990.43849 118963441.94149     -4721.21149        50.000  
  23268742.75049 122278066.24249    -11787.85949        49.000  
 16 04 02 14 21 51.3000000  0  4G04G30G26G07                                    
  23181204.65649 121818052.59849      2447.52349        50.000  
  25952486.87549 136381237.02349       131.02349        48.000  
  22638080.30549 118963914.20749     -4724.51649        50.000  
  23268967.10249 122279245.20349    -11792.03149        49.000  
 16 04 02 14 21 51.4000000  0  4G04G30G26G07                                    
  23181158.10249 121817807.95349      2445.02749        50.000  
  25952484.40649 136381224.03149       128.75849        48.000  
  22638170.24249 118964386.79349     -4727.42649        50.000  
  23269191.52349 122280424.56249    -11795.74249        49.000  
 16 04 02 14 21 51.5000000  0  4G04G30G26G07                                    
  23181111.60949 121817563.63349      2441.60549        50.000  
  25952481.98449 136381211.29349       125.87949        48.000  
  22638260.23449 118964859.73449     -4731.23449        50.000  
  23269416.03949 122281604.37549    -11800.39549        49.000  
 16 04 02 14 21 51.6000000  0  4G04G30G26G07                                    
  23181065.17249 121817319.59849      2438.84849        50.000  
  25952479.60949 136381198.81649       123.65249        48.000  
  22638350.29749 118965333.00449     -4734.30549        50.000  
  23269640.62549 122282784.59449    -11804.37549        49.000  
 16 04 02 14 21 51.7000000  0  4G04G30G26G07                                    
  23181018.78149 121817075.83249      2436.06249        50.000  
  25952477.27349 136381186.55149       121.34449        48.000  
  22638440.41449 118965806.59049     -4737.57449        50.000  
  23269865.28949 122283965.21149    -11808.35949        49.000  
 16 04 02 14 21 51.8000000  0  4G04G30G26G07                                    
  23180972.46149 121816832.39549      2432.88749        50.000  
  25952474.99249 136381174.57849       118.47349        48.000  
  22638530.60249 118966280.52349     -4741.06649        50.000  
  23270090.03949 122285146.27049    -11812.85949        49.000  
 16 04 02 14 21 51.9000000  0  4G04G30G26G07                                    
  23180926.19549 121816589.25449      2429.81649        50.000  
  25952472.76649 136381162.84849       115.93849        48.000  
  22638620.85949 118966754.80149     -4744.44149        50.000  
  23270314.87549 122286327.75449    -11817.02349        49.000  
 16 04 02 14 21 52.0000000  0  4G04G30G26G07                                    
  23180879.97749 121816346.39849      2426.96549        50.000  
  25952470.57849 136381151.35549       113.50449        48.000  
  22638711.17249 118967229.40249     -4747.78149        50.000  
  23270539.78149 122287509.64149    -11821.18449        49.000  
 16 04 02 14 21 52.1000000  0  4G04G30G26G07                                    
  23180833.82049 121816103.81249      2424.39149        50.000  
  25952468.43049 136381140.09849       111.43049        48.000  
  22638801.53949 118967704.31249     -4750.68049        50.000  
  23270764.76649 122288691.93449    -11825.00049        49.000  
 16 04 02 14 21 52.2000000  0  4G04G30G26G07                                    
  23180787.71149 121815861.50449      2421.62949        50.000  
  25952466.33649 136381129.07049       109.09049        48.000  
  22638891.97749 118968179.52749     -4753.74249        50.000  
  23270989.82049 122289874.61349    -11828.97749        49.000  
 16 04 02 14 21 52.3000000  0  4G04G30G26G07                                    
  23180741.64849 121815619.46949      2418.70749        50.000  
  25952464.27349 136381118.26249       106.69549        48.000  
  22638982.46949 118968655.06249     -4757.02749        50.000  
  23271214.95349 122291057.69149    -11833.00849        49.000  
 16 04 02 14 21 52.4000000  0  4G04G30G26G07                                    
  23180695.65649 121815377.76249      2415.59849        50.000  
  25952462.27349 136381107.73449       104.04349        48.000  
  22639073.02349 118969130.96549     -4760.64149        50.000  
  23271440.17249 122292241.22349    -11837.52049        49.000  
 16 04 02 14 21 52.5000000  0  4G04G30G26G07                                    
  23180649.71949 121815136.35249      2412.42249        50.000  
  25952460.32049 136381097.48049       101.16049        48.000  
  22639163.65649 118969607.19949     -4764.16049        50.000  
  23271665.47749 122293425.18049    -11841.92249        49.000  
 16 04 02 14 21 52.6000000  0  4G04G30G26G07                                    
  23180603.84449 121814895.25449      2409.59849        50.000  
  25952458.42249 136381087.47749        98.75449        48.000  
  22639254.34449 118970083.78149     -4767.41049        50.000  
  23271890.85949 122294609.56249    -11845.87949        49.000  
 16 04 02 14 21 52.7000000  0  4G04G30G26G07                                    
  23180558.01649 121814654.43849      2406.56649        50.000  
  25952456.56249 136381077.70749        96.21549        48.000  
  22639345.09449 118970560.68449     -4770.84849        50.000  
  23272116.32049 122295794.35549    -11850.28149        49.000  
 16 04 02 14 21 52.8000000  0  4G04G30G26G07                                    
  23180512.24249 121814413.89849      2403.84849        50.000  
  25952454.75049 136381068.17649        94.03149        48.000  
  22639435.90649 118971037.89849     -4773.79749        50.000  
  23272341.85249 122296979.53949    -11854.09049        49.000  
 16 04 02 14 21 52.9000000  0  4G04G30G26G07                                    
  23180466.51649 121814173.61349      2401.52049        50.000  
  25952452.97749 136381058.85249        92.08249        48.000  
  22639526.77349 118971515.41049     -4776.53149        50.000  
  23272567.46149 122298165.11349    -11857.83249        49.000  
 16 04 02 14 21 53.0000000  0  4G04G30G26G07                                    
  23180420.84449 121813933.61349      2398.35949        50.000  
  25952451.25049 136381049.77049        89.55549        48.000  
  22639617.70349 118971993.24649     -4780.05549        50.000  
  23272793.14849 122299351.08249    -11861.94149        49.000  
 16 04 02 14 21 53.1000000  0  4G04G30G26G07                                    
  23180375.23449 121813693.94549      2395.39149        50.000  
  25952449.57849 136381040.97749        86.84449        48.000  
  22639708.70349 118972471.44549     -4783.53949        50.000  
  23273018.92249 122300537.51649    -11866.25849        49.000  
 16 04 02 14 21 53.2000000  0  4G04G30G26G07                                    
  23180329.66449 121813454.47349      2393.16049        50.000  
  25952447.93049 136381032.32449        85.24249        48.000  
  22639799.75049 118972949.87949     -4786.01249        50.000  
  23273244.75049 122301724.27049    -11869.66049        49.000  
 16 04 02 14 21 53.3000000  0  4G04G30G26G07                                    
  23180284.15649 121813215.29749      2390.63749        50.000  
  25952446.32849 136381023.92649        83.16049        48.000  
  22639890.85949 118973428.64549     -4789.01649        50.000  
  23273470.65649 122302911.43449    -11873.54349        49.000  
 16 04 02 14 21 53.4000000  0  4G04G30G26G07                                    
  23180238.69549 121812976.39549      2387.59449        50.000  
  25952444.77349 136381015.75449        80.53549        48.000  
  22639982.02349 118973907.72349     -4792.46549        50.000  
  23273696.64849 122304098.99249    -11877.88749        49.000  
 16 04 02 14 21 53.5000000  0  4G04G30G26G07                                    
  23180193.29749 121812737.84449      2383.97349        50.000  
  25952443.28149 136381007.90249        77.30949        48.000  
  22640073.25849 118974387.18849     -4796.32049        50.000  
  23273922.71949 122305287.02049    -11882.45349        49.000  
 16 04 02 14 21 53.6000000  0  4G04G30G26G07                                    
  23180147.96149 121812499.57449      2380.97749        50.000  
  25952441.82849 136381000.27049        74.91449        48.000  
  22640164.55549 118974866.97749     -4799.71549        50.000  
  23274148.87549 122306475.47349    -11886.87149        50.000  
 16 04 02 14 21 53.7000000  0  4G04G30G26G07                                    
  23180102.67249 121812261.58649      2378.44149        50.000  
  25952440.43049 136380992.87949        72.62549        48.000  
  22640255.91449 118975347.07449     -4802.62949        50.000  
  23274375.10249 122307664.31249    -11890.56249        49.000  
 16 04 02 14 21 53.8000000  0  4G04G30G26G07                                    
  23180057.43049 121812023.87149      2375.58249        50.000  
  25952439.06249 136380985.73049        70.23449        48.000  
  22640347.33649 118975827.50449     -4805.90649        50.000  
  23274601.40649 122308853.55949    -11894.64149        49.000  
 16 04 02 14 21 53.9000000  0  4G04G30G26G07                                    
  23180012.26649 121811786.51249      2371.96549        50.000  
  25952437.75849 136380978.87149        67.09449        48.000  
  22640438.82849 118976308.30949     -4809.84449        50.000  
  23274827.80549 122310043.27349    -11899.46549        50.000  
 16 04 02 14 21 54.0000000  0  4G04G30G26G07                                    
  23179967.14849 121811549.44149      2369.36349        50.000  
  25952436.50049 136380972.27049        64.78149        48.000  
  22640530.38349 118976789.43849     -4812.96149        50.000  
  23275054.28149 122311233.39849    -11903.36349        50.000  
 16 04 02 14 21 54.1000000  0  4G04G30G26G07                                    
  23179922.07849 121811312.59449      2366.89549        50.000  
  25952435.27349 136380965.82449        63.16449        48.000  
  22640621.99249 118977270.83249     -4815.61349        50.000  
  23275280.82049 122312423.87549    -11906.87149        49.000  
 16 04 02 14 21 54.2000000  0  4G04G30G26G07                                    
  23179877.06249 121811076.05549      2363.75849        50.000  
  25952434.10249 136380959.66449        60.28549        48.000  
  22640713.67249 118977752.57449     -4819.21149        50.000  
  23275507.44549 122313614.79349    -11911.39549        49.000  
 16 04 02 14 21 54.3000000  0  4G04G30G26G07                                    
  23179832.10949 121810839.80949      2360.94549        50.000  
  25952432.97749 136380953.75449        57.93049        48.000  
  22640805.39849 118978234.64549     -4822.24649        50.000  
  23275734.14849 122314806.10949    -11915.27049        49.000  
 16 04 02 14 21 54.4000000  0  4G04G30G26G07                                    
  23179787.21949 121810603.88349      2357.80149        50.000  
  25952431.90649 136380948.10949        55.20749        48.000  
  22640897.20349 118978717.07449     -4825.91849        50.000  
  23275960.93849 122315997.87549    -11919.82049        49.000  
 16 04 02 14 21 54.5000000  0  4G04G30G26G07                                    
  23179742.36749 121810368.20749      2355.11749        50.000  
  25952430.85949 136380942.66849        53.02749        48.000  
  22640989.06249 118979199.79349     -4828.99249        50.000  
  23276187.79749 122317190.02049    -11923.80149        49.000  
 16 04 02 14 21 54.6000000  0  4G04G30G26G07                                    
  23179697.58649 121810132.86349      2351.88749        50.000  
  25952429.88349 136380937.52349        50.15649        48.000  
  22641080.99249 118979682.87949     -4832.60249        50.000  
  23276414.73449 122318382.60949    -11928.19549        50.000  
 16 04 02 14 21 54.7000000  0  4G04G30G26G07                                    
  23179652.85249 121809897.82449      2348.90649        50.000  
  25952428.94549 136380932.62549        47.63749        48.000  
  22641172.98449 118980166.30549     -4835.93849        50.000  
  23276641.75849 122319575.62149    -11932.24649        50.000  
 16 04 02 14 21 54.8000000  0  4G04G30G26G07                                    
  23179608.18049 121809663.04349      2346.36749        50.000  
  25952428.06249 136380927.96149        45.46949        48.000  
  22641265.03149 118980650.02349     -4838.78949        50.000  
  23276868.85249 122320769.02349    -11936.09449        50.000  
 16 04 02 14 21 54.9000000  0  4G04G30G26G07                                    
  23179563.55549 121809428.53949      2343.53949        50.000  
  25952427.21149 136380923.50849        43.25049        48.000  
  22641357.14149 118981134.06249     -4842.01249        50.000  
  23277096.03149 122321962.82849    -11940.19949        50.000  
 16 04 02 14 21 55.0000000  0  4G04G30G26G07                                    
  23179518.98449 121809194.33249      2340.68049        50.000  
  25952426.41449 136380919.30549        40.89849        48.000  
  22641449.31249 118981618.43849     -4845.27049        50.000  
  23277323.28949 122323157.05149    -11944.32449        50.000  
 16 04 02 14 21 55.1000000  0  4G04G30G26G07                                    
  23179474.46949 121808960.41449      2337.57049        50.000  
  25952425.66449 136380915.36349        38.12149        48.000  
  22641541.55549 118982103.13349     -4848.67649        50.000  
  23277550.61749 122324351.67249    -11948.55549        50.000  
 16 04 02 14 21 55.2000000  0  4G04G30G26G07                                    
  23179430.01649 121808726.78949      2334.76249        50.000  
  25952424.96149 136380911.66449        35.69149        48.000  
  22641633.85249 118982588.16049     -4851.92249        50.000  
  23277778.02349 122325546.72349    -11952.58649        50.000  
 16 04 02 14 21 55.3000000  0  4G04G30G26G07                                    
  23179385.60949 121808493.43849      2332.03949        50.000  
  25952424.29749 136380908.18049        33.60549        48.000  
  22641726.21149 118983073.49649     -4854.98849        50.000  
  23278005.51649 122326742.16449    -11956.55149        50.000  
 16 04 02 14 21 55.4000000  0  4G04G30G26G07                                    
  23179341.26649 121808260.39549      2328.82049        50.000  
  25952423.68849 136380904.97349        30.75849        48.000  
  22641818.63349 118983559.18849     -4858.61349        50.000  
  23278233.07849 122327938.03949    -11961.03149        50.000  
 16 04 02 14 21 55.5000000  0  4G04G30G26G07                                    
  23179296.97749 121808027.64149      2325.98049        50.000  
  25952423.11749 136380902.01249        28.22749        48.000  
  22641911.11749 118984045.19549     -4861.73049        50.000  
  23278460.72749 122329134.31649    -11964.96549        50.000  
 16 04 02 14 21 55.6000000  0  4G04G30G26G07                                    
  23179252.73449 121807795.14549      2323.33249        50.000  
  25952422.59449 136380899.26249        26.21149        48.000  
  22642003.66449 118984531.50849     -4864.86749        50.000  
  23278688.44549 122330330.98849    -11968.95749        49.000  
 16 04 02 14 21 55.7000000  0  4G04G30G26G07                                    
  23179208.56249 121807563.01249      2319.80549        50.000  
  25952422.13349 136380896.83649        22.86749        48.000  
  22642096.27349 118985018.20349     -4868.67649        50.000  
  23278916.25849 122331528.12149    -11973.60249        49.000  
 16 04 02 14 21 55.8000000  0  4G04G30G26G07                                    
  23179164.43849 121807331.14849      2317.18049        50.000  
  25952421.70349 136380894.59449        21.24249        48.000  
  22642188.94549 118985505.21149     -4871.68849        50.000  
  23279144.14149 122332725.67649    -11977.56649        50.000  
 16 04 02 14 21 55.9000000  0  4G04G30G26G07                                    
  23179120.35949 121807099.49649      2314.94949        50.000  
  25952421.32049 136380892.56649        19.10949        48.000  
  22642281.67249 118985992.48049     -4874.34049        50.000  
  23279372.09449 122333923.55149    -11980.95349        50.000  
 16 04 02 14 21 56.0000000  0  4G04G30G26G07                                    
  23179076.34449 121806868.16449      2311.93849        50.000  
  25952420.98449 136380890.79749        16.57449        48.000  
  22642374.46149 118986480.09849     -4877.70349        50.000  
  23279600.12549 122335121.85949    -11985.16449        49.000  
 16 04 02 14 21 56.1000000  0  4G04G30G26G07                                    
  23179032.36749 121806637.08249      2309.25049        50.000  
  25952420.68849 136380889.24249        14.18049        48.000  
  22642467.31249 118986968.01249     -4880.87949        50.000  
  23279828.22749 122336320.56649    -11989.31249        49.000  
 16 04 02 14 21 56.2000000  0  4G04G30G26G07                                    
  23178988.45349 121806406.29749      2306.41849        50.000  
  25952420.43849 136380887.92649        11.81249        48.000  
  22642560.21949 118987456.24249     -4884.06249        50.000  
  23280056.40649 122337519.66449    -11993.22349        49.000  
 16 04 02 14 21 56.3000000  0  4G04G30G26G07                                    
  23178944.58649 121806175.76649      2303.97349        50.000  
  25952420.23449 136380886.82849         9.84049        48.000  
  22642653.18049 118987944.76649     -4886.74249        50.000  
  23280284.66449 122338719.14549    -11996.81649        49.000  
 16 04 02 14 21 56.4000000  0  4G04G30G26G07                                    
  23178900.77349 121805945.54749      2300.57449        50.000  
  25952420.07049 136380885.98849         6.96549        48.000  
  22642746.21149 118988433.65249     -4890.59049        50.000  
  23280513.00049 122339919.06249    -12001.48049        49.000  
 16 04 02 14 21 56.5000000  0  4G04G30G26G07                                    
  23178857.03149 121805715.64849      2297.48449        50.000  
  25952419.96949 136380885.42249         4.46949        48.000  
  22642839.31249 118988922.88349     -4893.93849        50.000  
  23280741.42249 122341119.41849    -12005.69949        50.000  
 16 04 02 14 21 56.6000000  0  4G04G30G26G07                                    
  23178813.32849 121805486.00849      2294.70749        50.000  
  25952419.90649 136380885.09049         1.88349        48.000  
  22642932.46149 118989412.42249     -4897.26249        50.000  
  23280969.91449 122342320.16849    -12009.83249        49.000  
 16 04 02 14 21 56.7000000  0  4G04G30G26G07                                    
  23178769.69549 121805256.69149      2291.74249        50.000  
  25952419.89149 136380885.01249        -0.53549        48.000  
  22643025.68849 118989902.31249     -4900.59849        50.000  
  23281198.49249 122343521.35249    -12014.05549        49.000  
 16 04 02 14 21 56.8000000  0  4G04G30G26G07                                    
  23178726.10249 121805027.61749      2289.21549        50.000  
  25952419.91449 136380885.14549        -2.57849        48.000  
  22643118.96149 118990392.47749     -4903.27749        50.000  
  23281427.14149 122344722.89849    -12017.69549        49.000  
 16 04 02 14 21 56.9000000  0  4G04G30G26G07                                    
  23178682.57849 121804798.87149      2285.78549        50.000  
  25952419.99249 136380885.56249        -5.58249        48.000  
  22643212.31249 118990883.02049     -4907.19549        50.000  
  23281655.87549 122345924.90649    -12022.34049        49.000  
 16 04 02 14 21 57.0000000  0  4G04G30G26G07                                    
  23178639.10949 121804570.43849      2282.81249        50.000  
  25952420.12549 136380886.25449        -8.15249        48.000  
  22643305.72749 118991373.91849     -4910.61349        50.000  
  23281884.69549 122347127.34449    -12026.52349        49.000  
 16 04 02 14 21 57.1000000  0  4G04G30G26G07                                    
  23178595.68049 121804342.20349      2281.00449        50.000  
  25952420.27349 136380887.07849        -9.41049        48.000  
  22643399.18049 118991865.02349     -4912.70749        50.000  
  23282113.57049 122348330.09849    -12029.60549        49.000  
 16 04 02 14 21 57.2000000  0  4G04G30G26G07                                    
  23178552.30549 121804114.26649      2277.90249        50.000  
  25952420.48449 136380888.16449       -12.08249        48.000  
  22643492.70349 118992356.48449     -4916.13749        50.000  
  23282342.52349 122349533.27749    -12033.94549        49.000  
 16 04 02 14 21 57.3000000  0  4G04G30G26G07                                    
  23178509.00049 121803886.69149      2274.14849        50.000  
  25952420.74249 136380889.57049       -15.34849        48.000  
  22643586.29749 118992848.34449     -4920.30149        50.000  
  23282571.57049 122350736.93449    -12038.82049        49.000  
 16 04 02 14 21 57.4000000  0  4G04G30G26G07                                    
  23178465.73449 121803659.35249      2271.78549        50.000  
  25952421.04749 136380891.17249       -17.37549        48.000  
  22643679.94549 118993340.46949     -4923.05149        50.000  
  23282800.68849 122351940.95349    -12042.39549        49.000  
 16 04 02 14 21 57.5000000  0  4G04G30G26G07                                    
  23178422.53149 121803432.34049      2268.55549        50.000  
  25952421.40649 136380893.05549       -20.18049        48.000  
  22643773.66449 118993832.96549     -4926.60549        50.000  
  23283029.89849 122353145.42649    -12047.00849        49.000  
 16 04 02 14 21 57.6000000  0  4G04G30G26G07                                    
  23178379.39849 121803205.66449      2265.16849        50.000  
  25952421.82049 136380895.23049       -23.14549        48.000  
  22643867.45349 118994325.83249     -4930.42649        50.000  
  23283259.18849 122354350.35949    -12051.55549        49.000  
 16 04 02 14 21 57.7000000  0  4G04G30G26G07                                    
  23178336.32049 121802979.29349      2262.24249        50.000  
  25952422.28149 136380897.65249       -25.47749        48.000  
  22643961.31249 118994819.03949     -4933.74649        50.000  
  23283488.56249 122355555.70349    -12055.66849        50.000  
 16 04 02 14 21 57.8000000  0  4G04G30G26G07                                    
  23178293.28949 121802753.13749      2259.85949        50.000  
  25952422.77349 136380900.26249       -27.43049        48.000  
  22644055.21949 118995312.50049     -4936.37949        50.000  
  23283717.99249 122356761.39149    -12059.20349        50.000  
 16 04 02 14 21 57.9000000  0  4G04G30G26G07                                    
  23178250.31249 121802527.28549      2257.14849        50.000  
  25952423.31249 136380903.12549       -29.86749        48.000  
  22644149.18849 118995806.30149     -4939.55949        50.000  
  23283947.50849 122357967.51649    -12063.27349        50.000  
 16 04 02 14 21 58.0000000  0  4G04G30G26G07                                    
  23178207.39149 121802301.75049      2253.86349        50.000  
  25952423.91449 136380906.25849       -32.60549        48.000  
  22644243.21949 118996300.44949     -4943.05949        50.000  
  23284177.10949 122359174.05949    -12067.61349        49.000  
 16 04 02 14 21 58.1000000  0  4G04G30G26G07                                    
  23178164.51649 121802076.44549      2251.44149        50.000  
  25952424.54749 136380909.58649       -34.63349        48.000  
  22644337.31249 118996794.88349     -4946.02749        50.000  
  23284406.78149 122360380.97749    -12071.30549        49.000  
 16 04 02 14 21 58.2000000  0  4G04G30G26G07                                    
  23178121.71149 121801851.49249      2247.94549        50.000  
  25952425.23449 136380913.20349       -37.57049        48.000  
  22644431.46949 118997289.69149     -4949.79749        50.000  
  23284636.53949 122361588.35549    -12076.06649        49.000  
 16 04 02 14 21 58.3000000  0  4G04G30G26G07                                    
  23178078.94549 121801626.75049      2245.96949        50.000  
  25952425.95349 136380917.00049       -39.22749        48.000  
  22644525.67249 118997784.75049     -4952.32449        50.000  
  23284866.35949 122362796.06649    -12079.35249        49.000  
 16 04 02 14 21 58.4000000  0  4G04G30G26G07                                    
  23178036.23449 121801402.29749      2243.28949        50.000  
  25952426.72749 136380921.04349       -41.56249        48.000  
  22644619.93849 118998280.13349     -4955.32449        50.000  
  23285096.25849 122364004.19149    -12083.28949        49.000  
 16 04 02 14 21 58.5000000  0  4G04G30G26G07                                    
  23177993.57049 121801178.11349      2240.50449        50.000  
  25952427.53949 136380925.29349       -43.63749        48.000  
  22644714.26649 118998775.81649     -4958.31249        50.000  
  23285326.22749 122365212.70349    -12087.07849        49.000  
 16 04 02 14 21 58.6000000  0  4G04G30G26G07                                    
  23177950.96949 121800954.23049      2237.23849        50.000  
  25952428.39849 136380929.82049       -46.45749        48.000  
  22644808.65649 118999271.85949     -4962.13349        50.000  
  23285556.28949 122366421.64849    -12091.64549        49.000  
 16 04 02 14 21 58.7000000  0  4G04G30G26G07                                    
  23177908.43049 121800730.68849      2233.57049        50.000  
  25952429.31249 136380934.62149       -49.59449        48.000  
  22644903.11749 118999768.25049     -4965.90249        50.000  
  23285786.43049 122367631.03949    -12096.39149        49.000  
 16 04 02 14 21 58.8000000  0  4G04G30G26G07                                    
  23177865.94549 121800507.44149      2230.88749        50.000  
  25952430.27349 136380939.69549       -51.98449        48.000  
  22644997.64149 119000264.98849     -4969.10549        50.000  
  23286016.64849 122368840.85949    -12100.42249        49.000  
 16 04 02 14 21 58.9000000  0  4G04G30G26G07                                    
  23177823.51649 121800284.43449      2228.43449        50.000  
  25952431.27349 136380944.95349       -53.99649        48.000  
  22645092.21949 119000762.00849     -4971.96549        50.000  
  23286246.93849 122370051.03549    -12104.10949        49.000  
 16 04 02 14 21 59.0000000  0  4G04G30G26G07                                    
  23177781.14849 121800061.80549      2224.77349        50.000  
  25952432.33649 136380950.54349       -57.10949        48.000  
  22645186.87549 119001259.42249     -4975.81649        50.000  
  23286477.32049 122371261.70749    -12108.80549        49.000  
 16 04 02 14 21 59.1000000  0  4G04G30G26G07                                    
  23177738.82049 121799839.38349      2222.64849        50.000  
  25952433.43049 136380956.30149       -58.93449        48.000  
  22645281.57849 119001757.09849     -4978.41449        50.000  
  23286707.76649 122372472.71549    -12112.37549        49.000  
 16 04 02 14 21 59.2000000  0  4G04G30G26G07                                    
  23177696.55549 121799617.27049      2219.60249        50.000  
  25952434.57849 136380962.34049       -61.59449        48.000  
  22645376.35249 119002255.12549     -4981.85949        50.000  
  23286938.29749 122373684.16049    -12116.55949        49.000  
 16 04 02 14 21 59.3000000  0  4G04G30G26G07                                    
  23177654.34449 121799395.44949      2216.58249        50.000  
  25952435.76649 136380968.59449       -63.88349        48.000  
  22645471.18849 119002753.46949     -4985.19949        50.000  
  23287168.90649 122374896.01649    -12120.91449        49.000  
 16 04 02 14 21 59.4000000  0  4G04G30G26G07                                    
  23177612.19549 121799173.94549      2213.86349        50.000  
  25952437.01649 136380975.14549       -66.39149        48.000  
  22645566.08649 119003252.16849     -4988.40649        50.000  
  23287399.59449 122376108.30149    -12124.69149        49.000  
 16 04 02 14 21 59.5000000  0  4G04G30G26G07                                    
  23177570.06249 121798952.56249      2212.33249        50.000  
  25952438.27349 136380981.75849       -67.36749        48.000  
  22645661.00849 119003751.02749     -4990.17649        50.000  
  23287630.32849 122377320.83249    -12127.49249        49.000  
 16 04 02 14 21 59.6000000  0  4G04G30G26G07                                    
  23177528.00849 121798731.56249      2208.60249        50.000  
  25952439.60249 136380988.71949       -70.67649        48.000  
  22645756.02349 119004250.30549     -4994.27749        50.000  
  23287861.16449 122378533.87549    -12132.48849        49.000  
 16 04 02 14 21 59.7000000  0  4G04G30G26G07                                    
  23177486.00849 121798510.81649      2205.90249        50.000  
  25952440.96949 136380995.89149       -73.01649        48.000  
  22645851.08649 119004749.87549     -4997.37949        50.000  
  23288092.07049 122379747.28549    -12136.29749        49.000  
 16 04 02 14 21 59.8000000  0  4G04G30G26G07                                    
  23177444.05549 121798290.35549      2202.94149        50.000  
  25952442.37549 136381003.29749       -75.56649        48.000  
  22645946.21149 119005249.76249     -5000.64149        50.000  
  23288323.05549 122380961.10549    -12140.50049        49.000  
 16 04 02 14 21 59.9000000  0  4G04G30G26G07                                    
  23177402.16449 121798070.24249      2199.87949        50.000  
  25952443.84449 136381011.00049       -78.12149        48.000  
  22646041.41449 119005750.03949     -5004.19149        50.000  
  23288554.12549 122382175.39149    -12144.78149        49.000  
 16 04 02 14 22  0.0000000  0  4G04G30G26G07                                    
  23177360.32049 121797850.37549      2196.99649        50.000  
  25952445.34449 136381018.90249       -80.38349        48.000  
  22646136.66449 119006250.58649     -5007.39849        50.000  
  23288785.26649 122383390.05549    -12149.02749        49.000  
 16 04 02 14 22  0.1000000  0  4G04G30G26G07                                    
  23177318.53949 121797630.80549      2193.96949        50.000  
  25952446.89849 136381027.08249       -83.10249        48.000  
  22646231.97749 119006751.48449     -5010.75049        50.000  
  23289016.48449 122384605.12949    -12153.04749        49.000  
 16 04 02 14 22  0.2000000  0  4G04G30G26G07                                    
  23177276.81249 121797411.51649      2191.46549        50.000  
  25952448.50049 136381035.48449       -85.28949        48.000  
  22646327.35949 119007252.68849     -5013.62149        50.000  
  23289247.78149 122385820.59849    -12156.87949        49.000  
 16 04 02 14 22  0.3000000  0  4G04G30G26G07                                    
  23177235.13349 121797192.48849      2188.73449        50.000  
  25952450.14149 136381044.09849       -87.46149        48.000  
  22646422.79749 119007754.19549     -5016.71949        50.000  
  23289479.15649 122387036.46149    -12160.74249        49.000  
 16 04 02 14 22  0.4000000  0  4G04G30G26G07                                    
  23177193.52349 121796973.82449      2185.09449        50.000  
  25952451.84449 136381053.03949       -90.72749        48.000  
  22646518.30549 119008256.09849     -5020.73849        50.000  
  23289710.61749 122388252.80549    -12165.68449        49.000  
 16 04 02 14 22  0.5000000  0  4G04G30G26G07                                    
  23177151.95349 121796755.35949      2183.25449        50.000  
  25952453.57049 136381062.12949       -92.05949        48.000  
  22646613.85949 119008758.25049     -5023.08249        50.000  
  23289942.14149 122389469.48049    -12168.74649        49.000  
 16 04 02 14 22  0.6000000  0  4G04G30G26G07                                    
  23177110.44549 121796537.22349      2179.73849        50.000  
  25952455.35249 136381071.50849       -95.07849        48.000  
  22646709.48449 119009260.75449     -5026.80549        50.000  
  23290173.75049 122390686.59049    -12173.38349        49.000  
 16 04 02 14 22  0.7000000  0  4G04G30G26G07                                    
  23177068.99249 121796319.42249      2176.28949        50.000  
  25952457.19549 136381081.18049       -98.25849        48.000  
  22646805.18049 119009763.63349     -5030.60549        50.000  
  23290405.45349 122391904.16449    -12178.12549        49.000  
 16 04 02 14 22  0.8000000  0  4G04G30G26G07                                    
  23177027.60949 121796101.94149      2173.34049        50.000  
  25952459.08649 136381091.12149      -100.69949        48.000  
  22646900.93849 119010266.86349     -5033.99649        50.000  
  23290637.22749 122393122.17249    -12182.23849        49.000  
 16 04 02 14 22  0.9000000  0  4G04G30G26G07                                    
  23176986.26649 121795884.66449      2171.34849        50.000  
  25952461.01649 136381101.23449      -102.23049        48.000  
  22646996.75049 119010770.35249     -5036.37949        50.000  
  23290869.07849 122394340.52349    -12185.51649        49.000  
 16 04 02 14 22  1.0000000  0  4G04G30G26G07                                    
  23176944.97749 121795667.68449      2168.22749        50.000  
  25952462.97749 136381111.57049      -104.74249        48.000  
  22647092.61749 119011274.14549     -5039.66449        50.000  
  23291100.99249 122395559.26649    -12189.64549        49.000  
 16 04 02 14 22  1.1000000  0  4G04G30G26G07                                    
  23176903.75049 121795451.01649      2165.08249        50.000  
  25952465.00849 136381122.20749      -107.65249        48.000  
  22647188.56249 119011778.30949     -5043.34049        50.000  
  23291333.00049 122396778.46949    -12194.25449        49.000  
 16 04 02 14 22  1.2000000  0  4G04G30G26G07                                    
  23176862.57049 121795234.63749      2162.36749        50.000  
  25952467.07849 136381133.08249      -109.94549        48.000  
  22647284.56249 119012282.79749     -5046.44149        50.000  
  23291565.08649 122397998.07449    -12198.14149        49.000  
 16 04 02 14 22  1.3000000  0  4G04G30G26G07                                    
  23176821.44549 121795018.50049      2159.72749        50.000  
  25952469.18049 136381144.13749      -111.96549        48.000  
  22647380.60949 119012787.55549     -5049.32449        50.000  
  23291797.23449 122399218.02749    -12201.79349        49.000  
 16 04 02 14 22  1.4000000  0  4G04G30G26G07                                    
  23176780.37549 121794802.67649      2156.93049        50.000  
  25952471.34449 136381155.48049      -114.57049        48.000  
  22647476.73449 119013292.67249     -5052.68849        50.000  
  23292029.46949 122400438.43849    -12206.18049        49.000  
 16 04 02 14 22  1.5000000  0  4G04G30G26G07                                    
  23176739.35949 121794587.14849      2153.56649        50.000  
  25952473.54749 136381167.06649      -117.31249        48.000  
  22647572.91449 119013798.10949     -5056.20749        50.000  
  23292261.78949 122401659.25449    -12210.55149        49.000  
 16 04 02 14 22  1.6000000  0  4G04G30G26G07                                    
  23176698.39849 121794371.91849      2150.66049        50.000  
  25952475.79749 136381178.91049      -119.73049        48.000  
  22647669.16449 119014303.89549     -5059.55549        50.000  
  23292494.18049 122402880.48849    -12214.64849        49.000  
 16 04 02 14 22  1.7000000  0  4G04G30G26G07                                    
  23176657.49249 121794156.96149      2148.12549        50.000  
  25952478.09449 136381190.97349      -121.87549        48.000  
  22647765.46149 119014809.97349     -5062.39849        50.000  
  23292726.64849 122404102.11349    -12218.35549        49.000  
 16 04 02 14 22  1.8000000  0  4G04G30G26G07                                    
  23176616.63349 121793942.24249      2145.68849        50.000  
  25952480.43049 136381203.24649      -123.98049        48.000  
  22647861.82049 119015316.33649     -5065.17649        50.000  
  23292959.18849 122405324.10549    -12222.04349        49.000  
 16 04 02 14 22  1.9000000  0  4G04G30G26G07                                    
  23176575.82849 121793727.81649      2142.78549        50.000  
  25952482.81249 136381215.75449      -126.31249        48.000  
  22647958.24249 119015823.03149     -5068.57849        50.000  
  23293191.80549 122406546.50849    -12226.19949        49.000  
