     2.10           OBSERVATION DATA    G (GPS)             RINEX VERSION / TYPE
Convert v1.8.0                          09-Jun-2016 14:46   PGM / RUN BY / DATE 
Signal Strength values S1,S2 are in dBHz                    COMMENT             
                                                            MARKER NAME         
                                                            MARKER NUMBER       
                                                            OBSERVER / AGENCY   
                    NovAtel GPSCard                         REC # / TYPE / VERS 
                                                            ANT # / TYPE        
0.0000        0.0000        0.0000                          APPROX POSITION XYZ 
        0.0000        0.0000        0.0000                  ANTENNA: DELTA H/E/N
     1     0                                                WAVELENGTH FACT L1/2
     1     0     3   G07   G09   G16                        WAVELENGTH FACT L1/2
                                                            COMMENT             
                                                            COMMENT             
                                                            COMMENT             
                                                            COMMENT             
                                                            COMMENT             
                                                            COMMENT             
     4    C1    L1    D1    S1                              # / TYPES OF OBSERV 
     0.100                                                  INTERVAL            
  2016    04    02    14    10    37.1000000    GPS         TIME OF FIRST OBS   
  2016    04    02    14    12     1.7000000    GPS         TIME OF LAST OBS    
Leap Seconds Unknown                                        COMMENT             
                                                            END OF HEADER       
 16 04 02 14 10 37.1000000  0  1G09                                             
  22422378.13349 117830391.16059      5177.26249        49.000  
 16 04 02 14 10 37.2000000  0  1G09                                             
  22422279.65649 117829873.66049      5171.69949        49.000  
 16 04 02 14 10 37.3000000  0  1G09                                             
  22422181.32049 117829356.87949      5164.77749        49.000  
 16 04 02 14 10 37.4000000  0  1G09                                             
  22422083.09449 117828840.69949      5158.37549        49.000  
 16 04 02 14 10 37.5000000  0  1G09                                             
  22421984.98449 117828325.17249      5152.05549        49.000  
 16 04 02 14 10 37.6000000  0  1G09                                             
  22421887.00049 117827810.26249      5145.90649        49.000  
 16 04 02 14 10 37.7000000  0  1G09                                             
  22421789.14149 117827296.02749      5139.18049        49.000  
 16 04 02 14 10 37.8000000  0  1G09                                             
  22421691.41449 117826782.43449      5132.55549        49.000  
 16 04 02 14 10 37.9000000  0  1G09                                             
  22421593.77349 117826269.42249      5126.88749        49.000  
 16 04 02 14 10 38.0000000  0  1G09                                             
  22421496.28949 117825757.10549      5119.80949        49.000  
 16 04 02 14 10 38.1000000  0  1G09                                             
  22421398.93849 117825245.49649      5112.66049        49.000  
 16 04 02 14 10 38.2000000  0  1G09                                             
  22421301.71149 117824734.56649      5105.90249        49.000  
 16 04 02 14 10 38.3000000  0  1G09                                             
  22421204.60949 117824224.27349      5099.43049        49.000  
 16 04 02 14 10 38.4000000  0  1G09                                             
  22421107.63349 117823714.63349      5093.14849        49.000  
 16 04 02 14 10 38.5000000  0  1G09                                             
  22421010.77349 117823205.59849      5086.99649        49.000  
 16 04 02 14 10 38.6000000  0  1G09                                             
  22420914.04749 117822697.28949      5079.77049        49.000  
 16 04 02 14 10 38.7000000  0  1G09                                             
  22420817.42249 117822189.57449      5074.01249        49.000  
 16 04 02 14 10 38.8000000  0  1G09                                             
  22420720.93849 117821682.53149      5067.24649        49.000  
 16 04 02 14 10 38.9000000  0  1G09                                             
  22420624.56249 117821176.08649      5061.19149        49.000  
 16 04 02 14 10 39.0000000  0  1G09                                             
  22420528.32049 117820670.34049      5054.23449        49.000  
 16 04 02 14 10 39.1000000  0  1G09                                             
  22420432.21949 117820165.25849      5047.45349        49.000  
 16 04 02 14 10 39.2000000  0  1G09                                             
  22420336.22749 117819660.78949      5041.31649        49.000  
 16 04 02 14 10 39.3000000  0  1G09                                             
  22420240.32849 117819156.98049      5034.81649        49.000  
 16 04 02 14 10 39.4000000  0  1G09                                             
  22420144.59449 117818653.86349      5027.73849        49.000  
 16 04 02 14 10 39.5000000  0  1G09                                             
  22420048.96949 117818151.37949      5021.53549        49.000  
 16 04 02 14 10 39.6000000  0  1G09                                             
  22419953.47749 117817649.54349      5015.05549        49.000  
 16 04 02 14 10 39.7000000  0  1G09                                             
  22419858.10249 117817148.37549      5008.46549        49.000  
 16 04 02 14 10 39.8000000  0  1G09                                             
  22419762.86749 117816647.88349      5001.53549        49.000  
 16 04 02 14 10 39.9000000  0  1G09                                             
  22419667.75049 117816148.02049      4995.22749        49.000  
 16 04 02 14 10 40.0000000  0  1G09                                             
  22419572.75049 117815648.78149      4989.18049        49.000  
 16 04 02 14 10 40.1000000  0  1G09                                             
  22419477.87549 117815150.18849      4982.70749        49.000  
 16 04 02 14 10 40.2000000  0  1G09                                             
  22419383.11749 117814652.25849      4975.89849        49.000  
 16 04 02 14 10 40.3000000  0  1G09                                             
  22419288.50049 117814155.03549      4968.88749        49.000  
 16 04 02 14 10 40.4000000  0  1G09                                             
  22419194.00049 117813658.41849      4963.00049        50.000  
 16 04 02 14 10 40.5000000  0  1G09                                             
  22419099.59449 117813162.35949      4957.19549        50.000  
 16 04 02 14 10 40.6000000  0  1G09                                             
  22419005.33649 117812667.03949      4950.04349        50.000  
 16 04 02 14 10 40.7000000  0  1G09                                             
  22418911.21949 117812172.35549      4943.48849        50.000  
 16 04 02 14 10 40.8000000  0  1G09                                             
  22418817.20349 117811678.30949      4937.35949        50.000  
 16 04 02 14 10 40.9000000  0  1G09                                             
  22418723.30549 117811184.85249      4931.23449        50.000  
 16 04 02 14 10 41.0000000  0  1G09                                             
  22418629.54749 117810692.14149      4923.91849        50.000  
 16 04 02 14 10 41.1000000  0  1G09                                             
  22418535.90649 117810200.03949      4917.51249        50.000  
 16 04 02 14 10 41.2000000  0  1G09                                             
  22418442.39849 117809708.64849      4910.55149        50.000  
 16 04 02 14 10 41.3000000  0  1G09                                             
  22418349.00849 117809217.90249      4903.99649        50.000  
 16 04 02 14 10 41.4000000  0  1G09                                             
  22418255.75049 117808727.82449      4897.57849        50.000  
 16 04 02 14 10 41.5000000  0  1G09                                             
  22418162.60249 117808238.36349      4891.33649        50.000  
 16 04 02 14 10 41.6000000  0  1G09                                             
  22418069.58649 117807749.55149      4884.90649        50.000  
 16 04 02 14 10 41.7000000  0  1G09                                             
  22417976.69549 117807261.45749      4877.38749        50.000  
 16 04 02 14 10 41.8000000  0  1G09                                             
  22417883.93849 117806774.02049      4870.93049        50.000  
 16 04 02 14 10 41.9000000  0  1G09                                             
  22417791.29749 117806287.23849      4864.30149        50.000  
 16 04 02 14 10 42.0000000  0  1G09                                             
  22417698.78149 117805801.07449      4858.38749        50.000  
 16 04 02 14 10 42.1000000  0  1G09                                             
  22417606.38349 117805315.55149      4851.94149        50.000  
 16 04 02 14 10 42.2000000  0  1G09                                             
  22417514.10949 117804830.63749      4845.91449        50.000  
 16 04 02 14 10 42.3000000  0  1G09                                             
  22417421.96949 117804346.37149      4839.46949        50.000  
 16 04 02 14 10 42.4000000  0  1G09                                             
  22417329.93849 117803862.77749      4832.75849        49.000  
 16 04 02 14 10 42.5000000  0  1G09                                             
  22417238.06249 117803379.89149      4825.38349        49.000  
 16 04 02 14 10 42.6000000  0  1G09                                             
  22417146.28949 117802897.62949      4819.25449        49.000  
 16 04 02 14 10 42.7000000  0  1G09                                             
  22417054.62549 117802415.98849      4813.23049        50.000  
 16 04 02 14 10 42.8000000  0  1G09                                             
  22416963.08649 117801934.95349      4806.89149        50.000  
 16 04 02 14 10 42.9000000  0  1G09                                             
  22416871.68049 117801454.59449      4800.38349        50.000  
 16 04 02 14 10 43.0000000  0  1G09                                             
  22416780.38349 117800974.82849      4794.35549        50.000  
 16 04 02 14 10 43.1000000  0  1G09                                             
  22416689.21949 117800495.79349      4787.05149        50.000  
 16 04 02 14 10 43.2000000  0  1G09                                             
  22416598.19549 117800017.44549      4780.21149        50.000  
 16 04 02 14 10 43.3000000  0  1G09                                             
  22416507.28149 117799539.69949      4774.02749        49.000  
 16 04 02 14 10 43.4000000  0  1G09                                             
  22416416.50049 117799062.62949      4767.25849        49.000  
 16 04 02 14 10 43.5000000  0  1G09                                             
  22416325.82049 117798586.17249      4761.31649        49.000  
 16 04 02 14 10 43.6000000  0  1G09                                             
  22416235.27349 117798110.35949      4754.96149        49.000  
 16 04 02 14 10 43.7000000  0  1G09                                             
  22416144.85949 117797635.16849      4748.77349        49.000  
 16 04 02 14 10 43.8000000  0  1G09                                             
  22416054.55549 117797160.62549      4742.31649        49.000  
 16 04 02 14 10 43.9000000  0  1G09                                             
  22415964.36749 117796686.71149      4735.85249        49.000  
 16 04 02 14 10 44.0000000  0  1G09                                             
  22415874.31249 117796213.49249      4728.78549        49.000  
 16 04 02 14 10 44.1000000  0  1G09                                             
  22415784.38349 117795740.90649      4722.39549        49.000  
 16 04 02 14 10 44.2000000  0  1G09                                             
  22415694.57049 117795268.94149      4716.38749        49.000  
 16 04 02 14 10 44.3000000  0  1G09                                             
  22415604.86749 117794797.61349      4710.02349        49.000  
 16 04 02 14 10 44.4000000  0  1G09                                             
  22415515.30549 117794326.95349      4703.57049        49.000  
 16 04 02 14 10 44.5000000  0  1G09                                             
  22415425.84449 117793856.86349      4697.52049        49.000  
 16 04 02 14 10 44.6000000  0  1G09                                             
  22415336.53149 117793387.52049      4690.31649        49.000  
 16 04 02 14 10 44.7000000  0  1G09                                             
  22415247.33649 117792918.80949      4683.64149        50.000  
 16 04 02 14 10 44.8000000  0  1G09                                             
  22415158.26649 117792450.76649      4676.94549        49.000  
 16 04 02 14 10 44.9000000  0  1G09                                             
  22415069.32849 117791983.38349      4670.46949        49.000  
 16 04 02 14 10 45.0000000  0  1G09                                             
  22414980.50849 117791516.60249      4664.44949        49.000  
 16 04 02 14 10 45.1000000  0  1G09                                             
  22414891.79749 117791050.42649      4658.65649        50.000  
 16 04 02 14 10 45.2000000  0  1G09                                             
  22414803.21149 117790584.89549      4651.98449        50.000  
 16 04 02 14 10 45.3000000  0  1G09                                             
  22414714.75849 117790120.02749      4645.36749        50.000  
 16 04 02 14 10 45.4000000  0  1G09                                             
  22414626.42249 117789655.78549      4639.02749        50.000  
 16 04 02 14 10 45.5000000  0  1G09                                             
  22414538.20349 117789192.23849      4631.98849        50.000  
 16 04 02 14 10 45.6000000  0  1G09                                             
  22414450.13349 117788729.39849      4625.02349        50.000  
 16 04 02 14 10 45.7000000  0  1G09                                             
  22414362.18049 117788267.20349      4618.61749        50.000  
 16 04 02 14 10 45.8000000  0  1G09                                             
  22414274.34449 117787805.63349      4612.21149        50.000  
 16 04 02 14 10 45.9000000  0  1G09                                             
  22414186.63349 117787344.73049      4605.62149        50.000  
 16 04 02 14 10 46.0000000  0  1G09                                             
  22414099.04749 117786884.45749      4599.56649        50.000  
 16 04 02 14 10 46.1000000  0  1G09                                             
  22414011.57849 117786424.83249      4593.12149        50.000  
 16 04 02 14 10 46.2000000  0  1G09                                             
  22413924.22749 117785965.77749      4587.20349        50.000  
 16 04 02 14 10 46.3000000  0  1G09                                             
  22413837.00849 117785507.43849      4580.23449        50.000  
 16 04 02 14 10 46.4000000  0  1G09                                             
  22413749.90649 117785049.71549      4573.85549        50.000  
 16 04 02 14 10 46.5000000  0  1G09                                             
  22413662.93849 117784592.66849      4567.10549        50.000  
 16 04 02 14 10 46.6000000  0  1G09                                             
  22413576.08649 117784136.27749      4560.62549        50.000  
 16 04 02 14 10 46.7000000  0  1G09                                             
  22413489.36749 117783680.55149      4553.64549        50.000  
 16 04 02 14 10 46.8000000  0  1G09                                             
  22413402.77349 117783225.49649      4547.17249        50.000  
 16 04 02 14 10 46.9000000  0  1G09                                             
  22413316.30549 117782771.09849      4540.48849        50.000  
 16 04 02 14 10 47.0000000  0  1G09                                             
  22413229.95349 117782317.34049      4534.58249        50.000  
 16 04 02 14 10 47.1000000  0  1G09                                             
  22413143.71949 117781864.17249      4528.30949        50.000  
 16 04 02 14 10 47.2000000  0  1G09                                             
  22413057.61749 117781411.71149      4521.50849        49.000  
 16 04 02 14 10 47.3000000  0  1G09                                             
  22412971.64849 117780959.87549      4515.01249        49.000  
 16 04 02 14 10 47.4000000  0  1G09                                             
  22412885.78949 117780508.68449      4508.64549        49.000  
 16 04 02 14 10 47.5000000  0  1G09                                             
  22412800.06249 117780058.15249      4501.80149        49.000  
 16 04 02 14 10 47.6000000  0  1G09                                             
  22412714.46149 117779608.29749      4495.32049        50.000  
 16 04 02 14 10 47.7000000  0  1G09                                             
  22412628.98449 117779159.11749      4488.50449        50.000  
 16 04 02 14 10 47.8000000  0  1G09                                             
  22412543.63349 117778710.60949      4481.60549        50.000  
 16 04 02 14 10 47.9000000  0  1G09                                             
  22412458.39849 117778262.71149      4475.83249        50.000  
 16 04 02 14 10 48.0000000  0  1G09                                             
  22412373.28149 117777815.42649      4469.69149        50.000  
 16 04 02 14 10 48.1000000  0  1G09                                             
  22412288.29749 117777368.81649      4462.91049        50.000  
 16 04 02 14 10 48.2000000  0  1G09                                             
  22412203.43849 117776922.84849      4456.44149        49.000  
 16 04 02 14 10 48.3000000  0  1G09                                             
  22412118.68849 117776477.48049      4450.50849        49.000  
 16 04 02 14 10 48.4000000  0  1G09                                             
  22412034.05549 117776032.76249      4444.04749        50.000  
 16 04 02 14 10 48.5000000  0  1G09                                             
  22411949.55549 117775588.69549      4437.20749        49.000  
 16 04 02 14 10 48.6000000  0  1G09                                             
  22411865.19549 117775145.37549      4429.93449        50.000  
 16 04 02 14 10 48.7000000  0  1G09                                             
  22411780.95349 117774702.64549      4424.00449        50.000  
 16 04 02 14 10 48.8000000  0  1G09                                             
  22411696.82049 117774260.49249      4418.19549        49.000  
 16 04 02 14 10 48.9000000  0  1G09                                             
  22411612.81249 117773819.04749      4411.22749        49.000  
 16 04 02 14 10 49.0000000  0  1G09                                             
  22411528.92249 117773378.20349      4405.06249        49.000  
 16 04 02 14 10 49.1000000  0  1G09                                             
  22411445.14849 117772938.02749      4398.55949        50.000  
 16 04 02 14 10 49.2000000  0  1G09                                             
  22411361.50849 117772498.49249      4392.00449        50.000  
 16 04 02 14 10 49.3000000  0  1G09                                             
  22411278.00049 117772059.65649      4384.94149        50.000  
 16 04 02 14 10 49.4000000  0  1G09                                             
  22411194.60949 117771621.46549      4378.68849        50.000  
 16 04 02 14 10 49.5000000  0  1G09                                             
  22411111.34449 117771183.89149      4372.28549        50.000  
 16 04 02 14 10 49.6000000  0  2G09G16                                          
  22411028.21149 117770747.02349      4365.42249        50.000  
  22101832.95349 116145914.60959     10861.05549        49.000  
 16 04 02 14 10 49.7000000  0  2G09G16                                          
  22410945.19549 117770310.77349      4359.12949        50.000  
  22101626.32049 116144828.73449     10856.37949        49.000  
 16 04 02 14 10 49.8000000  0  2G09G16                                          
  22410862.30549 117769875.19549      4352.48449        50.000  
  22101419.78949 116143743.32049     10851.79749        49.000  
 16 04 02 14 10 49.9000000  0  3G07G09G16                                       
  24247939.84449 127423782.98059     14437.00849        49.000  
  22410779.53149 117769440.21549      4346.51249        50.000  
  22101213.32049 116142658.34049     10847.56649        49.000  
 16 04 02 14 10 50.0000000  0  3G07G09G16                                       
  24247665.15649 127422339.49649     14433.38349        49.000  
  22410696.89149 117769005.92249      4339.77049        50.000  
  22101006.91449 116141573.85949     10842.57049        49.000  
 16 04 02 14 10 50.1000000  0  3G07G09G16                                       
  24247390.56249 127420896.30549     14430.34849        49.000  
  22410614.35249 117768572.24649      4333.48049        50.000  
  22100800.62549 116140489.81249     10838.18049        49.000  
 16 04 02 14 10 50.2000000  0  3G07G09G16                                       
  24247116.00049 127419453.46149     14427.06649        49.000  
  22410531.95349 117768139.24649      4326.88749        50.000  
  22100594.44549 116139406.23449     10833.64149        49.000  
 16 04 02 14 10 50.3000000  0  3G07G09G16                                       
  24246841.46149 127418010.91849     14423.91449        49.000  
  22410449.66449 117767706.84049      4320.66449        50.000  
  22100388.32849 116138323.09449     10828.96949        49.000  
 16 04 02 14 10 50.4000000  0  3G07G09G16                                       
  24246567.01649 127416568.71149     14420.67249        49.000  
  22410367.50849 117767275.11349      4314.11349        50.000  
  22100182.33649 116137240.42249     10824.45349        49.000  
 16 04 02 14 10 50.5000000  0  3G07G09G16                                       
  24246292.71149 127415126.89849     14416.49649        49.000  
  22410285.49249 117766844.07449      4306.84449        50.000  
  22099976.40649 116136158.28549     10818.91449        49.000  
 16 04 02 14 10 50.6000000  0  3G07G09G16                                       
  24246018.40649 127413685.41449     14413.09449        49.000  
  22410203.58649 117766413.68849      4300.34849        50.000  
  22099770.60249 116135076.59449     10814.43049        49.000  
 16 04 02 14 10 50.7000000  0  3G07G09G16                                       
  24245744.21149 127412244.25849     14409.96949        49.000  
  22410121.82049 117765983.95349      4293.98849        50.000  
  22099564.85249 116133995.37949     10809.77049        49.000  
 16 04 02 14 10 50.8000000  0  3G07G09G16                                       
  24245470.02349 127410803.38749     14407.27349        49.000  
  22410040.15649 117765554.81249      4288.18449        50.000  
  22099359.18849 116132914.56249     10805.85549        49.000  
 16 04 02 14 10 50.9000000  0  3G07G09G16                                       
  24245195.94549 127409362.89149     14403.49649        49.000  
  22409958.61749 117765126.36749      4281.24249        50.000  
  22099153.60949 116131834.27349     10800.69549        49.000  
 16 04 02 14 10 51.0000000  0  3G07G09G16                                       
  24244921.87549 127407922.66849     14400.69149        49.000  
  22409877.20349 117764698.50849      4275.35249        50.000  
  22098948.10249 116130754.37949     10796.60549        49.000  
 16 04 02 14 10 51.1000000  0  3G07G09G16                                       
  24244647.87549 127406482.80549     14397.08649        49.000  
  22409795.91449 117764271.33649      4268.49649        50.000  
  22098742.69549 116129674.98049     10791.69549        49.000  
 16 04 02 14 10 51.2000000  0  3G07G09G16                                       
  24244373.94549 127405043.25449     14394.02349        49.000  
  22409714.74249 117763844.78949      4262.34449        50.000  
  22098537.38349 116128596.03549     10787.35549        49.000  
 16 04 02 14 10 51.3000000  0  3G07G09G16                                       
  24244100.06249 127403604.02049     14390.80549        49.000  
  22409633.69549 117763418.87949      4255.68049        50.000  
  22098332.14849 116127517.52349     10782.80149        49.000  
 16 04 02 14 10 51.4000000  0  3G07G09G16                                       
  24243826.25049 127402165.12549     14387.55949        49.000  
  22409552.77349 117762993.61349      4249.46549        50.000  
  22098127.00849 116126439.49649     10778.04349        49.000  
 16 04 02 14 10 51.5000000  0  3G07G09G16                                       
  24243552.46949 127400726.60249     14383.82849        49.000  
  22409471.97749 117762569.05149      4242.49249        50.000  
  22097921.96149 116125361.97349     10773.03149        49.000  
 16 04 02 14 10 51.6000000  0  3G07G09G16                                       
  24243278.78949 127399288.41049     14380.28949        49.000  
  22409391.31249 117762145.13349      4235.80949        49.000  
  22097717.01649 116124284.91049     10768.22349        49.000  
 16 04 02 14 10 51.7000000  0  3G07G09G16                                       
  24243005.17249 127397850.52349     14377.27749        49.000  
  22409310.75849 117761721.82449      4229.73049        49.000  
  22097512.14149 116123208.27749     10763.93849        49.000  
 16 04 02 14 10 51.8000000  0  3G07G09G16                                       
  24242731.60949 127396412.93049     14374.57049        49.000  
  22409230.32849 117761299.14549      4223.79349        49.000  
  22097307.35949 116122132.08249     10759.90649        49.000  
 16 04 02 14 10 51.9000000  0  3G07G09G16                                       
  24242458.07049 127394975.68449     14370.93849        49.000  
  22409150.00849 117760877.11749      4217.05149        49.000  
  22097102.65649 116121056.35949     10755.00849        49.000  
 16 04 02 14 10 52.0000000  0  3G07G09G16                                       
  24242184.63349 127393538.77349     14367.52349        49.000  
  22409069.82849 117760455.75049      4210.41849        49.000  
  22096897.99249 116119981.11749     10750.06649        49.000  
 16 04 02 14 10 52.1000000  0  3G07G09G16                                       
  24241911.31249 127392102.22349     14363.92249        49.000  
  22408989.76649 117760035.05149      4203.75849        49.000  
  22096693.46949 116118906.34449     10745.46549        49.000  
 16 04 02 14 10 52.2000000  0  3G07G09G16                                       
  24241638.00849 127390665.98049     14360.76249        49.000  
  22408909.83649 117759614.98449      4197.25449        49.000  
  22096489.03949 116117832.03549     10740.67249        49.000  
 16 04 02 14 10 52.3000000  0  3G07G09G16                                       
  24241364.73449 127389230.05149     14357.64549        49.000  
  22408830.02349 117759195.55149      4190.87949        49.000  
  22096284.68849 116116758.16449     10736.22349        49.000  
 16 04 02 14 10 52.4000000  0  3G07G09G16                                       
  24241091.55549 127387794.46149     14354.30949        49.000  
  22408750.32849 117758776.76649      4184.43049        49.000  
  22096080.43049 116115684.76249     10731.69149        49.000  
 16 04 02 14 10 52.5000000  0  3G07G09G16                                       
  24240818.44549 127386359.25049     14350.54349        49.000  
  22408670.78149 117758358.68049      4177.48849        49.000  
  22095876.26649 116114611.86749     10726.50849        49.000  
 16 04 02 14 10 52.6000000  0  3G07G09G16                                       
  24240545.39849 127384924.36349     14347.25449        49.000  
  22408591.34449 117757941.23849      4170.99249        49.000  
  22095672.21949 116113539.43849     10721.89849        49.000  
 16 04 02 14 10 52.7000000  0  3G07G09G16                                       
  24240272.38349 127383489.80949     14343.97349        49.000  
  22408512.02349 117757524.44149      4164.53549        49.000  
  22095468.22749 116112467.46949     10717.33649        49.000  
 16 04 02 14 10 52.8000000  0  3G07G09G16                                       
  24239999.46949 127382055.60949     14340.60949        49.000  
  22408432.83649 117757108.30549      4158.22749        49.000  
  22095264.33649 116111395.98449     10712.70349        49.000  
 16 04 02 14 10 52.9000000  0  3G07G09G16                                       
  24239726.58649 127380621.71149     14337.45749        49.000  
  22408353.76649 117756692.80549      4151.68049        49.000  
  22095060.52349 116110324.94149     10708.10249        49.000  
 16 04 02 14 10 53.0000000  0  3G07G09G16                                       
  24239453.78949 127379188.13749     14334.18849        49.000  
  22408274.82049 117756277.93049      4145.24249        49.000  
  22094856.77349 116109254.35249     10703.44149        49.000  
 16 04 02 14 10 53.1000000  0  3G07G09G16                                       
  24239181.03949 127377754.88749     14331.03949        49.000  
  22408196.00049 117755863.70349      4139.11349        49.000  
  22094653.13349 116108184.21149     10699.21549        49.000  
 16 04 02 14 10 53.2000000  0  3G07G09G16                                       
  24238908.35249 127376321.91049     14328.36749        49.000  
  22408117.28949 117755450.07049      4133.21949        49.000  
  22094449.57049 116107114.48849     10695.13349        49.000  
 16 04 02 14 10 53.3000000  0  3G07G09G16                                       
  24238635.71949 127374889.28149     14324.77049        49.000  
  22408038.69549 117755037.09849      4126.48049        49.000  
  22094246.09449 116106045.23449     10690.21549        49.000  
 16 04 02 14 10 53.4000000  0  3G07G09G16                                       
  24238363.16449 127373456.99649     14321.28949        49.000  
  22407960.23449 117754624.78549      4119.78949        49.000  
  22094042.68049 116104976.45749     10685.47749        49.000  
 16 04 02 14 10 53.5000000  0  3G07G09G16                                       
  24238090.68849 127372025.13349     14316.89549        49.000  
  22407881.91449 117754213.20749      4112.32049        49.000  
  22093839.40649 116103908.23849     10679.69949        49.000  
 16 04 02 14 10 53.6000000  0  3G07G09G16                                       
  24237818.28149 127370593.59049     14313.78949        49.000  
  22407803.71949 117753802.28549      4105.99249        49.000  
  22093636.23449 116102840.48449     10675.25849        49.000  
 16 04 02 14 10 53.7000000  0  3G07G09G16                                       
  24237545.92249 127369162.31649     14311.30149        49.000  
  22407725.63349 117753391.92249      4100.37549        49.000  
  22093433.11749 116101773.11349     10671.50449        49.000  
 16 04 02 14 10 53.8000000  0  3G07G09G16                                       
  24237273.62549 127367731.37949     14307.77349        49.000  
  22407647.66449 117752982.21949      4093.76649        49.000  
  22093230.11749 116100706.21549     10666.59049        49.000  
 16 04 02 14 10 53.9000000  0  3G07G09G16                                       
  24237001.39149 127366300.80149     14304.25449        49.000  
  22407569.82849 117752573.20349      4086.97349        49.000  
  22093027.18849 116099639.81249     10661.73449        49.000  
 16 04 02 14 10 54.0000000  0  3G07G09G16                                       
  24236729.21949 127364870.54349     14301.10249        49.000  
  22407492.10949 117752164.82049      4080.66849        49.000  
  22092824.35249 116098573.85949     10657.30549        49.000  
 16 04 02 14 10 54.1000000  0  3G07G09G16                                       
  24236457.11749 127363440.57449     14298.19149        49.000  
  22407414.51649 117751757.03949      4074.58649        49.000  
  22092621.58649 116097508.32849     10653.05149        49.000  
 16 04 02 14 10 54.2000000  0  3G07G09G16                                       
  24236185.06249 127362010.92249     14295.02049        49.000  
  22407337.03949 117751349.89549      4068.17649        49.000  
  22092418.90649 116096443.24649     10648.60249        49.000  
 16 04 02 14 10 54.3000000  0  3G07G09G16                                       
  24235913.05549 127360581.60549     14291.67649        49.000  
  22407259.68849 117750943.39849      4061.73049        49.000  
  22092216.31249 116095378.62949     10643.95749        49.000  
 16 04 02 14 10 54.4000000  0  3G07G09G16                                       
  24235641.12549 127359152.60549     14288.38749        49.000  
  22407182.46149 117750537.53949      4055.25049        49.000  
  22092013.80549 116094314.46149     10639.31649        49.000  
 16 04 02 14 10 54.5000000  0  3G07G09G16                                       
  24235369.26649 127357723.94949     14285.04349        49.000  
  22407105.34449 117750132.33649      4048.82449        49.000  
  22091811.39149 116093250.77349     10634.68449        49.000  
 16 04 02 14 10 54.6000000  0  3G07G09G16                                       
  24235097.48449 127356295.71549     14280.65249        49.000  
  22407028.37549 117749727.87149      4041.21149        49.000  
  22091609.07049 116092187.63349     10628.96949        49.000  
 16 04 02 14 10 54.7000000  0  3G07G09G16                                       
  24234825.76649 127354867.76249     14277.79349        49.000  
  22406951.52349 117749324.00449      4035.25049        49.000  
  22091406.84449 116091124.91049     10624.78949        49.000  
 16 04 02 14 10 54.8000000  0  3G07G09G16                                       
  24234554.10249 127353440.15649     14274.37949        49.000  
  22406874.79749 117748920.80549      4028.54749        49.000  
  22091204.69549 116090062.66449     10620.00849        49.000  
 16 04 02 14 10 54.9000000  0  3G07G09G16                                       
  24234282.47749 127352012.82449     14271.97749        49.000  
  22406798.18849 117748518.19549      4022.98849        49.000  
  22091002.63349 116089000.83249     10616.16849        49.000  
 16 04 02 14 10 55.0000000  0  3G07G09G16                                       
  24234010.93849 127350585.89149     14267.97749        49.000  
  22406721.71149 117748116.29749      4015.81649        49.000  
  22090800.65649 116087939.52749     10610.91049        49.000  
 16 04 02 14 10 55.1000000  0  3G07G09G16                                       
  24233739.45349 127349159.27749     14264.57049        49.000  
  22406645.35249 117747715.03949      4009.21149        49.000  
  22090598.78149 116086878.67249     10606.19949        49.000  
 16 04 02 14 10 55.2000000  0  3G07G09G16                                       
  24233468.03149 127347732.97349     14261.59049        49.000  
  22406569.11749 117747314.39149      4003.32849        49.000  
  22090397.00849 116085818.24249     10602.24249        49.000  
 16 04 02 14 10 55.3000000  0  3G07G09G16                                       
  24233196.69549 127346307.04749     14257.66049        49.000  
  22406493.00849 117746914.45749      3996.08249        49.000  
  22090195.32049 116084758.34449     10596.76249        49.000  
 16 04 02 14 10 55.4000000  0  3G07G09G16                                       
  24232925.40649 127344881.40249     14254.93849        49.000  
  22406417.01649 117746515.10949      3990.18049        49.000  
  22089993.71949 116083698.85949     10592.61749        49.000  
 16 04 02 14 10 55.5000000  0  3G07G09G16                                       
  24232654.15649 127343456.04749     14252.11349        49.000  
  22406341.13349 117746116.37549      3984.19549        49.000  
  22089792.18049 116082639.78149     10588.65649        49.000  
 16 04 02 14 10 55.6000000  0  3G07G09G16                                       
  24232382.99249 127342031.05549     14248.50049        49.000  
  22406265.38349 117745718.30949      3977.54749        49.000  
  22089590.72749 116081581.20349     10583.67249        49.000  
 16 04 02 14 10 55.7000000  0  3G07G09G16                                       
  24232111.87549 127340606.32049     14245.77049        49.000  
  22406189.74249 117745320.82449      3971.59449        49.000  
  22089389.35949 116080523.01649     10579.64549        49.000  
 16 04 02 14 10 55.8000000  0  3G07G09G16                                       
  24231840.83649 127339181.99649     14241.62549        49.000  
  22406114.24249 117744924.06649      3964.23049        49.000  
  22089188.09449 116079465.37549     10574.02749        49.000  
 16 04 02 14 10 55.9000000  0  3G07G09G16                                       
  24231569.85249 127337758.00049     14238.30149        49.000  
  22406038.85949 117744527.94549      3957.77349        49.000  
  22088986.91449 116078408.18849     10569.55149        49.000  
 16 04 02 14 10 56.0000000  0  3G07G09G16                                       
  24231298.93849 127336334.34449     14234.99649        49.000  
  22405963.60949 117744132.48849      3951.34449        49.000  
  22088785.82849 116077351.48049     10564.87549        49.000  
 16 04 02 14 10 56.1000000  0  3G07G09G16                                       
  24231028.09449 127334910.93849     14232.49649        49.000  
  22405888.46149 117743737.59849      3945.55949        49.000  
  22088584.81249 116076295.16049     10560.84449        49.000  
 16 04 02 14 10 56.2000000  0  3G07G09G16                                       
  24230757.30549 127333487.95749     14228.25449        49.000  
  22405813.45349 117743343.43449      3938.35249        49.000  
  22088383.89849 116075239.37949     10555.39849        49.000  
 16 04 02 14 10 56.3000000  0  3G07G09G16                                       
  24230486.57849 127332065.28549     14225.03149        49.000  
  22405738.57849 117742949.91049      3931.84849        49.000  
  22088183.07049 116074184.03949     10550.95749        49.000  
 16 04 02 14 10 56.4000000  0  3G07G09G16                                       
  24230215.91449 127330642.94949     14221.74649        49.000  
  22405663.81249 117742557.03149      3925.46549        49.000  
  22087982.34449 116073129.17649     10546.33649        49.000  
 16 04 02 14 10 56.5000000  0  3G07G09G16                                       
  24229945.33649 127329220.95749     14218.27349        49.000  
  22405589.17249 117742164.82049      3918.76649        49.000  
  22087781.69549 116072074.78149     10541.59849        49.000  
 16 04 02 14 10 56.6000000  0  3G07G09G16                                       
  24229674.79749 127327799.26249     14215.55949        49.000  
  22405514.65649 117741773.21549      3912.97749        49.000  
  22087581.13349 116071020.82849     10537.39849        49.000  
 16 04 02 14 10 56.7000000  0  3G07G09G16                                       
  24229404.30549 127326377.87149     14212.34049        49.000  
  22405440.24249 117741382.23449      3906.43849        49.000  
  22087380.65649 116069967.29749     10532.89149        49.000  
 16 04 02 14 10 56.8000000  0  3G07G09G16                                       
  24229133.89849 127324956.87549     14208.48449        49.000  
  22405365.97749 117740991.96149      3899.53949        49.000  
  22087180.29749 116068914.30549     10527.71549        49.000  
 16 04 02 14 10 56.9000000  0  3G07G09G16                                       
  24228863.54749 127323536.18849     14205.27049        49.000  
  22405291.82049 117740602.31249      3893.16049        49.000  
  22086980.00049 116067861.75049     10523.10949        49.000  
 16 04 02 14 10 57.0000000  0  3G07G09G16                                       
  24228593.26649 127322115.84049     14201.84049        49.000  
  22405217.79749 117740213.31649      3886.54749        49.000  
  22086779.79749 116066809.64849     10518.49649        49.000  
 16 04 02 14 10 57.1000000  0  3G07G09G16                                       
  24228323.06249 127320695.84049     14198.45749        49.000  
  22405143.90649 117739824.96949      3880.25849        49.000  
  22086579.68049 116065758.03549     10513.89549        49.000  
 16 04 02 14 10 57.2000000  0  3G07G09G16                                       
  24228052.89849 127319276.11349     14195.82449        49.000  
  22405070.12549 117739437.25049      3874.18449        49.000  
  22086379.66449 116064706.84849     10509.73049        49.000  
 16 04 02 14 10 57.3000000  0  3G07G09G16                                       
  24227782.82049 127317856.75049     14192.18849        49.000  
  22404996.46149 117739050.18049      3867.46549        49.000  
  22086179.71949 116063656.12549     10504.95349        49.000  
 16 04 02 14 10 57.4000000  0  3G07G09G16                                       
  24227512.77349 127316437.68449     14189.16449        49.000  
  22404922.92249 117738663.73449      3861.18849        49.000  
  22085979.86749 116062605.85249     10500.50449        49.000  
 16 04 02 14 10 57.5000000  0  3G07G09G16                                       
  24227242.82049 127315019.02749     14184.95349        49.000  
  22404849.51649 117738278.00849      3853.90249        49.000  
  22085780.10949 116061556.10949     10495.09049        49.000  
 16 04 02 14 10 57.6000000  0  3G07G09G16                                       
  24226972.91449 127313600.64149     14182.24649        49.000  
  22404776.22749 117737892.87149      3848.03949        49.000  
  22085580.42249 116060506.77049     10491.05549        49.000  
 16 04 02 14 10 57.7000000  0  3G07G09G16                                       
  24226703.05549 127312182.56649     14179.26649        49.000  
  22404703.05549 117737508.35549      3841.93449        49.000  
  22085380.82049 116059457.87149     10486.80549        49.000  
 16 04 02 14 10 57.8000000  0  3G07G09G16                                       
  24226433.27349 127310764.84849     14175.86749        49.000  
  22404630.01649 117737124.51649      3835.33649        49.000  
  22085181.30549 116058409.46549     10481.93449        49.000  
 16 04 02 14 10 57.9000000  0  3G07G09G16                                       
  24226163.53149 127309347.46549     14172.29349        49.000  
  22404557.09449 117736741.33249      3828.56649        49.000  
  22084981.89149 116057361.53149     10477.06249        49.000  
 16 04 02 14 10 58.0000000  0  3G07G09G16                                       
  24225893.87549 127307930.39549     14169.10549        49.000  
  22404484.28949 117736358.76249      3822.40649        49.000  
  22084782.57049 116056314.03549     10472.56649        49.000  
 16 04 02 14 10 58.1000000  0  3G07G09G16                                       
  24225624.26649 127306513.69949     14165.36749        49.000  
  22404411.63349 117735976.89849      3815.41049        49.000  
  22084583.33649 116055267.03149     10467.77049        49.000  
 16 04 02 14 10 58.2000000  0  3G07G09G16                                       
  24225354.73449 127305097.30549     14162.43849        49.000  
  22404339.08649 117735595.64849      3809.30949        49.000  
  22084384.18049 116054220.48449     10463.34449        49.000  
 16 04 02 14 10 58.3000000  0  3G07G09G16                                       
  24225085.26649 127303681.18849     14159.69949        49.000  
  22404266.64149 117735214.99249      3803.27049        49.000  
  22084185.10249 116053174.34049     10459.19949        49.000  
 16 04 02 14 10 58.4000000  0  3G07G09G16                                       
  24224815.85249 127302265.43049     14156.20749        49.000  
  22404194.32849 117734834.99249      3796.75449        49.000  
  22083986.11749 116052128.67649     10454.39549        49.000  
 16 04 02 14 10 58.5000000  0  3G07G09G16                                       
  24224546.49249 127300850.03149     14152.36749        49.000  
  22404122.14849 117734455.68049      3789.84449        49.000  
  22083787.22749 116051083.50049     10449.37549        49.000  
 16 04 02 14 10 58.6000000  0  3G07G09G16                                       
  24224277.21149 127299434.94549     14149.21549        49.000  
  22404050.08649 117734077.00049      3783.41849        49.000  
  22083588.42249 116050038.78149     10444.89849        49.000  
 16 04 02 14 10 58.7000000  0  3G07G09G16                                       
  24224007.98449 127298020.21149     14145.85549        49.000  
  22403978.14849 117733698.98049      3777.05949        49.000  
  22083389.71149 116048994.53549     10440.25449        49.000  
 16 04 02 14 10 58.8000000  0  3G07G09G16                                       
  24223738.82849 127296605.75449     14142.93449        49.000  
  22403906.33649 117733321.56649      3770.83649        49.000  
  22083191.09449 116047950.71549     10435.91049        49.000  
 16 04 02 14 10 58.9000000  0  3G07G09G16                                       
  24223469.73449 127295191.66049     14139.50849        49.000  
  22403834.64149 117732944.81649      3764.21149        49.000  
  22082992.55549 116046907.37149     10431.12149        49.000  
 16 04 02 14 10 59.0000000  0  3G07G09G16                                       
  24223200.71949 127293777.94949     14135.53949        49.000  
  22403763.07849 117732568.75849      3757.27349        49.000  
  22082794.11749 116045864.53149     10426.03949        49.000  
 16 04 02 14 10 59.1000000  0  3G07G09G16                                       
  24222931.77349 127292364.55949     14132.19549        49.000  
  22403691.64149 117732193.35949      3750.44549        49.000  
  22082595.76649 116044822.16849     10421.12549        49.000  
 16 04 02 14 10 59.2000000  0  3G07G09G16                                       
  24222662.87549 127290951.50449     14129.08649        49.000  
  22403620.32849 117731818.59449      3744.43849        49.000  
  22082397.49249 116043780.26649     10416.80549        49.000  
 16 04 02 14 10 59.3000000  0  3G07G09G16                                       
  24222394.03949 127289538.73849     14126.20749        49.000  
  22403549.12549 117731444.42649      3738.38349        49.000  
  22082199.30549 116042738.77049     10412.62549        49.000  
 16 04 02 14 10 59.4000000  0  3G07G09G16                                       
  24222125.25849 127288126.28949     14123.16449        49.000  
  22403478.04749 117731070.91049      3732.04749        49.000  
  22082001.21149 116041697.73849     10408.22349        49.000  
 16 04 02 14 10 59.5000000  0  3G07G09G16                                       
  24221856.54749 127286714.17249     14119.60549        49.000  
  22403407.08649 117730698.02749      3725.41849        49.000  
  22081803.19549 116040657.16049     10403.41849        49.000  
 16 04 02 14 10 59.6000000  0  3G07G09G16                                       
  24221587.89849 127285302.42249     14116.08249        49.000  
  22403336.25849 117730325.82849      3718.90649        49.000  
  22081605.27349 116039617.07449     10398.66849        49.000  
 16 04 02 14 10 59.7000000  0  3G07G09G16                                       
  24221319.32849 127283890.99249     14112.68849        49.000  
  22403265.56249 117729954.27349      3712.21549        49.000  
  22081407.43849 116038577.45749     10393.80149        49.000  
 16 04 02 14 10 59.8000000  0  3G07G09G16                                       
  24221050.81249 127282479.94149     14108.76649        49.000  
  22403194.98449 117729583.39149      3705.36749        49.000  
  22081209.70349 116037538.32849     10388.80149        49.000  
 16 04 02 14 10 59.9000000  0  3G07G09G16                                       
  24220782.35949 127281069.23449     14105.34849        49.000  
  22403124.53949 117729213.19149      3698.81649        49.000  
  22081012.05549 116036499.68849     10384.18849        49.000  
 16 04 02 14 11  0.0000000  0  3G07G09G16                                       
  24220513.95349 127279658.75449     14103.29749        49.000  
  22403054.19549 117728843.53149      3693.42649        49.000  
  22080814.48449 116035461.41049     10380.59049        49.000  
 16 04 02 14 11  0.1000000  0  3G07G09G16                                       
  24220245.60949 127278248.66849     14099.42649        49.000  
  22402983.98449 117728474.57049      3686.33649        49.000  
  22080617.00049 116034423.64549     10375.48449        49.000  
 16 04 02 14 11  0.2000000  0  3G07G09G16                                       
  24219977.33649 127276838.86749     14096.52049        49.000  
  22402913.88349 117728106.21149      3680.33249        49.000  
  22080419.60949 116033386.30549     10371.16449        49.000  
 16 04 02 14 11  0.3000000  0  3G07G09G16                                       
  24219709.10949 127275429.38749     14093.27749        49.000  
  22402843.90649 117727738.49649      3673.87149        49.000  
  22080222.29749 116032349.41849     10366.62149        49.000  
 16 04 02 14 11  0.4000000  0  3G07G09G16                                       
  24219440.96949 127274020.30149     14089.25449        49.000  
  22402774.07049 117727371.48049      3666.72349        49.000  
  22080025.08649 116031313.05149     10361.25449        49.000  
 16 04 02 14 11  0.5000000  0  3G07G09G16                                       
  24219172.89849 127272611.54349     14086.11749        49.000  
  22402704.34449 117727005.10249      3660.60949        49.000  
  22079827.95349 116030277.13749     10356.85949        49.000  
 16 04 02 14 11  0.6000000  0  3G07G09G16                                       
  24218904.87549 127271203.07049     14083.01649        49.000  
  22402634.74249 117726639.34449      3654.13749        49.000  
  22079630.90649 116029241.65649     10352.31649        49.000  
 16 04 02 14 11  0.7000000  0  3G07G09G16                                       
  24218636.93049 127269794.98449     14079.46549        49.000  
  22402565.27349 117726274.26649      3647.65249        49.000  
  22079433.95349 116028206.67649     10347.64549        49.000  
 16 04 02 14 11  0.8000000  0  3G07G09G16                                       
  24218369.03949 127268387.19949     14076.28149        49.000  
  22402495.92249 117725909.81649      3641.21149        49.000  
  22079237.09449 116027172.13349     10343.12149        49.000  
 16 04 02 14 11  0.9000000  0  3G07G09G16                                       
  24218101.20349 127266979.72349     14073.31649        49.000  
  22402426.68849 117725545.98849      3635.05549        49.000  
  22079040.31249 116026138.03549     10338.68449        49.000  
 16 04 02 14 11  1.0000000  0  3G07G09G16                                       
  24217833.43849 127265572.57849     14069.98049        49.000  
  22402357.57049 117725182.79349      3628.66049        49.000  
  22078843.60949 116025104.37949     10334.30549        49.000  
 16 04 02 14 11  1.1000000  0  3G07G09G16                                       
  24217565.74249 127264165.80149     14066.07849        49.000  
  22402288.59449 117724820.29749      3621.53149        49.000  
  22078647.00849 116024071.24249     10328.88749        49.000  
 16 04 02 14 11  1.2000000  0  3G07G09G16                                       
  24217298.10949 127262759.35249     14062.92649        49.000  
  22402219.73449 117724458.44549      3615.29749        49.000  
  22078450.49249 116023038.56249     10324.52049        49.000  
 16 04 02 14 11  1.3000000  0  3G07G09G16                                       
  24217030.50849 127261353.16849     14060.30949        49.000  
  22402150.97749 117724097.16049      3609.53549        49.000  
  22078254.04749 116022006.26649     10320.66049        49.000  
 16 04 02 14 11  1.4000000  0  3G07G09G16                                       
  24216762.98449 127259947.35249     14056.69949        49.000  
  22402082.35949 117723736.57449      3602.68849        49.000  
  22078057.71149 116020974.48849     10315.55549        49.000  
 16 04 02 14 11  1.5000000  0  3G07G09G16                                       
  24216495.55549 127258541.92249     14052.66049        49.000  
  22402013.86749 117723376.67249      3595.55149        50.000  
  22077861.46149 116019943.20749     10310.38749        49.000  
 16 04 02 14 11  1.6000000  0  3G07G09G16                                       
  24216228.17249 127257136.82449     14049.29349        49.000  
  22401945.50849 117723017.42649      3589.18849        49.000  
  22077665.31249 116018912.39149     10305.85249        49.000  
 16 04 02 14 11  1.7000000  0  3G07G09G16                                       
  24215960.83649 127255732.05549     14045.92249        49.000  
  22401877.26649 117722658.80949      3582.62549        49.000  
  22077469.24249 116017882.03949     10301.07849        49.000  
 16 04 02 14 11  1.8000000  0  3G07G09G16                                       
  24215693.57849 127254327.60949     14042.93049        49.000  
  22401809.14849 117722300.86349      3576.19549        49.000  
  22077273.27349 116016852.15249     10296.69549        49.000  
 16 04 02 14 11  1.9000000  0  3G07G09G16                                       
  24215426.35949 127252923.46949     14039.97349        49.000  
  22401741.14849 117721943.49649      3570.43449        49.000  
  22077077.37549 116015822.69149     10292.37949        49.000  
 16 04 02 14 11  2.0000000  0  3G07G09G16                                       
  24215159.22749 127251519.66049     14036.59449        49.000  
  22401673.26649 117721586.79349      3563.93449        50.000  
  22076881.55549 116014793.68449     10287.89549        49.000  
 16 04 02 14 11  2.1000000  0  3G07G09G16                                       
  24214892.14149 127250116.15249     14033.64149        49.000  
  22401605.51649 117721230.71149      3557.76249        50.000  
  22076685.82849 116013765.12549     10283.44949        49.000  
 16 04 02 14 11  2.2000000  0  3G07G09G16                                       
  24214625.12549 127248712.95349     14030.43049        49.000  
  22401537.87549 117720875.25049      3551.27349        49.000  
  22076490.18049 116012736.99249     10279.00049        49.000  
 16 04 02 14 11  2.3000000  0  3G07G09G16                                       
  24214358.18049 127247310.18049     14026.23449        49.000  
  22401470.36749 117720520.52349      3543.99249        49.000  
  22076294.63349 116011709.42249     10273.46549        49.000  
 16 04 02 14 11  2.4000000  0  3G07G09G16                                       
  24214091.29749 127245907.69949     14023.12949        49.000  
  22401402.98449 117720166.41849      3537.65649        49.000  
  22076099.15649 116010682.28149     10268.93049        49.000  
 16 04 02 14 11  2.5000000  0  3G07G09G16                                       
  24213824.46149 127244505.50049     14020.41449        49.000  
  22401335.71149 117719812.88749      3532.03549        50.000  
  22075903.77349 116009655.52749     10265.21949        49.000  
 16 04 02 14 11  2.6000000  0  3G07G09G16                                       
  24213557.69549 127243103.66049     14016.82449        49.000  
  22401268.56249 117719460.04749      3525.07849        50.000  
  22075708.49249 116008629.28549     10260.14549        49.000  
 16 04 02 14 11  2.7000000  0  3G07G09G16                                       
  24213290.98449 127241702.16049     14013.59849        49.000  
  22401201.53949 117719107.84849      3518.74249        50.000  
  22075513.28949 116007603.50849     10255.57049        49.000  
 16 04 02 14 11  2.8000000  0  3G07G09G16                                       
  24213024.35249 127240300.96149     14010.41849        49.000  
  22401134.64149 117718756.27049      3512.43849        50.000  
  22075318.16449 116006578.15249     10251.22749        49.000  
 16 04 02 14 11  2.9000000  0  3G07G09G16                                       
  24212757.77349 127238900.12949     14006.74249        49.000  
  22401067.85949 117718405.37549      3505.60549        50.000  
  22075123.14849 116005553.31649     10246.05549        49.000  
 16 04 02 14 11  3.0000000  0  3G07G09G16                                       
  24212491.26649 127237499.63349     14003.42249        49.000  
  22401001.21149 117718055.12149      3499.23049        49.000  
  22074928.20349 116004528.92649     10241.64849        49.000  
 16 04 02 14 11  3.1000000  0  3G07G09G16                                       
  24212224.81249 127236099.41449     14000.57449        49.000  
  22400934.68049 117717705.47749      3493.02349        49.000  
  22074733.34449 116003504.95349     10237.31649        49.000  
 16 04 02 14 11  3.2000000  0  3G07G09G16                                       
  24211958.43849 127234699.61349     13996.50449        49.000  
  22400868.28149 117717356.55149      3486.03949        50.000  
  22074538.58649 116002481.52749     10232.09449        49.000  
 16 04 02 14 11  3.3000000  0  3G07G09G16                                       
  24211692.13349 127233300.13749     13993.23049        49.000  
  22400802.00049 117717008.25849      3479.62149        50.000  
  22074343.92249 116001458.55149     10227.42249        49.000  
 16 04 02 14 11  3.4000000  0  3G07G09G16                                       
  24211425.87549 127231900.94949     13990.35949        49.000  
  22400735.83649 117716660.58649      3473.51649        50.000  
  22074149.33649 116000435.99649     10223.30949        49.000  
 16 04 02 14 11  3.5000000  0  3G07G09G16                                       
  24211159.67249 127230502.09049     13987.18849        49.000  
  22400669.79749 117716313.54749      3467.22749        50.000  
  22073954.83649 115999413.89849     10218.89549        49.000  
 16 04 02 14 11  3.6000000  0  3G07G09G16                                       
  24210893.53949 127229103.56249     13983.59849        49.000  
  22400603.88349 117715967.14549      3460.68049        50.000  
  22073760.40649 115998392.27049     10213.95749        49.000  
 16 04 02 14 11  3.7000000  0  3G07G09G16                                       
  24210627.47749 127227705.38749     13980.16449        49.000  
  22400538.09449 117715621.42649      3453.96949        50.000  
  22073566.09449 115997371.12149     10209.23449        49.000  
 16 04 02 14 11  3.8000000  0  3G07G09G16                                       
  24210361.47749 127226307.57049     13976.45349        49.000  
  22400472.43049 117715276.36349      3447.21949        50.000  
  22073371.86749 115996350.45349     10204.28149        49.000  
 16 04 02 14 11  3.9000000  0  3G07G09G16                                       
  24210095.51649 127224910.06249     13973.47349        49.000  
  22400406.88349 117714931.93849      3441.02349        50.000  
  22073177.72749 115995330.23449     10199.88349        49.000  
 16 04 02 14 11  4.0000000  0  3G07G09G16                                       
  24209829.64149 127223512.86749     13970.45749        49.000  
  22400341.46149 117714588.13749      3434.87549        50.000  
  22072983.67249 115994310.46149     10195.55549        49.000  
 16 04 02 14 11  4.1000000  0  3G07G09G16                                       
  24209563.82849 127222116.02049     13966.96149        49.000  
  22400276.16449 117714244.98449      3428.28149        50.000  
  22072789.70349 115993291.14849     10190.83649        49.000  
 16 04 02 14 11  4.2000000  0  3G07G09G16                                       
  24209298.08649 127220719.52749     13963.50049        49.000  
  22400210.99249 117713902.50849      3421.69149        50.000  
  22072595.82849 115992272.33649     10186.04749        49.000  
 16 04 02 14 11  4.3000000  0  3G07G09G16                                       
  24209032.41449 127219323.32449     13960.23049        49.000  
  22400145.93049 117713560.63749      3415.19149        50.000  
  22072402.03149 115991253.93449     10181.42249        49.000  
 16 04 02 14 11  4.4000000  0  3G07G09G16                                       
  24208766.78949 127217927.47349     13956.94549        49.000  
  22400081.00049 117713219.43849      3408.72349        50.000  
  22072208.34449 115990236.02349     10176.79349        49.000  
 16 04 02 14 11  4.5000000  0  3G07G09G16                                       
  24208501.25049 127216532.02349     13953.00849        49.000  
  22400016.21949 117712878.94949      3401.73449        50.000  
  22072014.73449 115989218.63349     10171.78949        49.000  
 16 04 02 14 11  4.6000000  0  3G07G09G16                                       
  24208235.75049 127215136.82449     13950.28149        49.000  
  22399951.53149 117712539.01649      3395.95349        50.000  
  22071821.19549 115988201.62949     10167.66049        49.000  
 16 04 02 14 11  4.7000000  0  3G07G09G16                                       
  24207970.32849 127213741.95349     13947.27749        49.000  
  22399886.96149 117712199.73449      3389.63349        50.000  
  22071627.75849 115987185.08649     10163.21549        49.000  
 16 04 02 14 11  4.8000000  0  3G07G09G16                                       
  24207704.95349 127212347.42649     13943.77349        49.000  
  22399822.52349 117711861.11749      3383.00049        50.000  
  22071434.41449 115986169.02049     10158.44549        49.000  
 16 04 02 14 11  4.9000000  0  3G07G09G16                                       
  24207439.64149 127210953.23449     13940.39849        49.000  
  22399758.20349 117711523.11749      3376.75449        50.000  
  22071241.14849 115985153.40249     10153.92649        49.000  
 16 04 02 14 11  5.0000000  0  3G07G09G16                                       
  24207174.39849 127209559.35549     13937.24249        49.000  
  22399694.01649 117711185.78549      3370.09849        50.000  
  22071047.98449 115984138.24649     10149.27049        49.000  
 16 04 02 14 11  5.1000000  0  3G07G09G16                                       
  24206909.21949 127208165.83649     13933.65649        49.000  
  22399629.94549 117710849.10949      3363.40649        50.000  
  22070854.89849 115983123.57049     10144.38349        49.000  
 16 04 02 14 11  5.2000000  0  3G07G09G16                                       
  24206644.10949 127206772.67649     13929.91449        49.000  
  22399566.00849 117710513.09449      3356.68849        50.000  
  22070661.89849 115982109.37949     10139.47349        49.000  
 16 04 02 14 11  5.3000000  0  3G07G09G16                                       
  24206379.04749 127205379.80149     13927.18049        49.000  
  22399502.18049 117710177.69149      3350.89549        50.000  
  22070468.98449 115981095.61749     10135.37149        49.000  
 16 04 02 14 11  5.4000000  0  3G07G09G16                                       
  24206114.04749 127203987.24249     13924.16849        49.000  
  22399438.46949 117709842.91049      3344.73449        50.000  
  22070276.15649 115980082.28149     10131.12149        49.000  
 16 04 02 14 11  5.5000000  0  3G07G09G16                                       
  24205849.10249 127202594.98049     13921.16449        49.000  
  22399374.87549 117709508.74649      3338.34449        50.000  
  22070083.41449 115979069.38349     10126.74649        49.000  
 16 04 02 14 11  5.6000000  0  3G07G09G16                                       
  24205584.23449 127201203.07449     13917.48849        49.000  
  22399311.41449 117709175.25049      3331.60249        50.000  
  22069890.75849 115978056.97749     10121.69549        49.000  
 16 04 02 14 11  5.7000000  0  3G07G09G16                                       
  24205319.42249 127199811.53149     13913.87549        49.000  
  22399248.07849 117708842.43849      3324.81649        50.000  
  22069698.20349 115977045.06249     10116.77049        49.000  
 16 04 02 14 11  5.8000000  0  3G07G09G16                                       
  24205054.69549 127198420.39149     13909.94949        49.000  
  22399184.88349 117708510.32049      3317.98449        50.000  
  22069505.75049 115976033.66849     10111.72749        49.000  
 16 04 02 14 11  5.9000000  0  3G07G09G16                                       
  24204790.01649 127197029.50049     13907.25049        49.000  
  22399121.78949 117708178.78149      3312.09449        50.000  
  22069313.35949 115975022.65649     10107.67249        49.000  
 16 04 02 14 11  6.0000000  0  3G07G09G16                                       
  24204525.41449 127195639.02049     13903.19949        49.000  
  22399058.83649 117707847.97349      3304.79349        50.000  
  22069121.07049 115974012.19549     10102.28549        49.000  
 16 04 02 14 11  6.1000000  0  3G07G09G16                                       
  24204260.87549 127194248.87549     13899.86349        49.000  
  22398996.00849 117707517.79749      3298.44149        50.000  
  22068928.87549 115973002.18449     10097.82049        49.000  
 16 04 02 14 11  6.2000000  0  3G07G09G16                                       
  24203996.40649 127192859.07449     13896.28549        49.000  
  22398933.30549 117707188.28949      3291.67649        50.000  
  22068736.77349 115971992.65649     10092.84449        49.000  
 16 04 02 14 11  6.3000000  0  3G07G09G16                                       
  24203731.97749 127191469.54349     13893.74249        49.000  
  22398870.71949 117706859.35949      3285.89849        50.000  
  22068544.74249 115970983.53149     10088.93049        49.000  
 16 04 02 14 11  6.4000000  0  3G07G09G16                                       
  24203467.61749 127190080.33649     13890.65649        49.000  
  22398808.24249 117706531.06649      3279.82849        50.000  
  22068352.78949 115969974.85949     10084.58249        49.000  
 16 04 02 14 11  6.5000000  0  3G07G09G16                                       
  24203203.32049 127188691.47749     13887.15249        49.000  
  22398745.89849 117706203.43849      3273.12149        50.000  
  22068160.93849 115968966.65249     10079.80549        49.000  
 16 04 02 14 11  6.6000000  0  3G07G09G16                                       
  24202939.09449 127187302.92249     13884.03949        49.000  
  22398683.66449 117705876.43049      3266.90249        50.000  
  22067969.16449 115967958.88349     10075.53149        49.000  
 16 04 02 14 11  6.7000000  0  3G07G09G16                                       
  24202674.92249 127185914.69949     13880.78549        49.000  
  22398621.56249 117705550.05949      3260.46949        50.000  
  22067777.48449 115966951.59049     10070.73449        49.000  
 16 04 02 14 11  6.8000000  0  3G07G09G16                                       
  24202410.82049 127184526.83649     13876.95749        49.000  
  22398559.58649 117705224.36349      3253.60549        50.000  
  22067585.89149 115965944.77049     10065.75849        49.000  
 16 04 02 14 11  6.9000000  0  3G07G09G16                                       
  24202146.76649 127183139.34849     13873.20349        49.000  
  22398497.73449 117704899.36349      3246.55949        50.000  
  22067394.39849 115964938.45749     10060.62949        49.000  
 16 04 02 14 11  7.0000000  0  3G07G09G16                                       
  24201882.79749 127181752.18449     13870.12949        49.000  
  22398436.00849 117704574.98849      3240.50449        50.000  
  22067202.98449 115963932.59849     10056.37949        49.000  
 16 04 02 14 11  7.1000000  0  3G07G09G16                                       
  24201618.86749 127180365.30149     13867.18049        49.000  
  22398374.39149 117704251.21949      3234.28949        50.000  
  22067011.65649 115962927.15249     10052.09049        49.000  
 16 04 02 14 11  7.2000000  0  3G07G09G16                                       
  24201355.02349 127178978.78549     13863.43849        49.000  
  22398312.91449 117703928.12149      3227.51649        50.000  
  22066820.42249 115961922.21149     10047.09449        49.000  
 16 04 02 14 11  7.3000000  0  3G07G09G16                                       
  24201091.24249 127177592.62149     13860.11349        49.000  
  22398251.55549 117703605.69149      3221.10549        50.000  
  22066629.27349 115960917.73449     10042.55949        49.000  
 16 04 02 14 11  7.4000000  0  3G07G09G16                                       
  24200827.51649 127176206.72349     13857.44949        49.000  
  22398190.31249 117703283.85249      3215.08249        50.000  
  22066438.21949 115959913.67249     10038.33249        49.000  
 16 04 02 14 11  7.5000000  0  3G07G09G16                                       
  24200563.87549 127174821.27349     13853.10949        49.000  
  22398129.21149 117702962.75449      3207.77349        50.000  
  22066247.25849 115958910.17249     10032.87549        49.000  
 16 04 02 14 11  7.6000000  0  3G07G09G16                                       
  24200300.28149 127173436.05549     13850.54349        49.000  
  22398068.21149 117702642.21149      3202.08249        50.000  
  22066056.36749 115957907.03549     10029.02349        49.000  
 16 04 02 14 11  7.7000000  0  3G07G09G16                                       
  24200036.75049 127172051.21949     13846.75449        49.000  
  22398007.35249 117702322.35249      3195.22749        50.000  
  22065865.57049 115956904.41049     10023.94549        49.000  
 16 04 02 14 11  7.8000000  0  3G07G09G16                                       
  24199773.28149 127170666.68449     13843.85949        49.000  
  22397946.60249 117702003.12149      3189.16849        50.000  
  22065674.85249 115955902.22349     10019.72749        49.000  
 16 04 02 14 11  7.9000000  0  3G07G09G16                                       
  24199509.87549 127169282.45749     13840.86749        49.000  
  22397885.97749 117701684.51249      3182.95349        50.000  
  22065484.22749 115954900.46949     10015.34849        49.000  
 16 04 02 14 11  8.0000000  0  3G07G09G16                                       
  24199246.53149 127167898.56649     13837.48449        49.000  
  22397825.46949 117701366.54349      3176.55149        50.000  
  22065293.70349 115953899.18049     10010.71149        49.000  
 16 04 02 14 11  8.1000000  0  3G07G09G16                                       
  24198983.25049 127166514.98849     13834.20749        49.000  
  22397765.07849 117701049.20749      3170.05549        50.000  
  22065103.25049 115952898.33649     10006.07049        49.000  
 16 04 02 14 11  8.2000000  0  3G07G09G16                                       
  24198720.03149 127165131.77349     13830.64549        49.000  
  22397704.82049 117700732.53949      3163.42649        50.000  
  22064912.87549 115951897.97749     10001.38349        49.000  
 16 04 02 14 11  8.3000000  0  3G07G09G16                                       
  24198456.89149 127163748.93849     13826.68449        49.000  
  22397644.69549 117700416.56649      3156.34449        50.000  
  22064722.60949 115950898.13349      9995.95349        49.000  
 16 04 02 14 11  8.4000000  0  3G07G09G16                                       
  24198193.79749 127162366.40649     13823.73049        49.000  
  22397584.68049 117700101.21149      3150.28949        50.000  
  22064532.42249 115949898.71149      9991.93849        49.000  
 16 04 02 14 11  8.5000000  0  3G07G09G16                                       
  24197930.77349 127160984.13749     13821.16049        49.000  
  22397524.78149 117699786.43449      3144.54349        50.000  
  22064342.31249 115948899.68449      9987.97749        49.000  
 16 04 02 14 11  8.6000000  0  3G07G09G16                                       
  24197667.81249 127159602.27049     13817.22749        49.000  
  22397465.01649 117699472.37149      3137.46149        50.000  
  22064152.30549 115947901.20749      9982.63349        49.000  
 16 04 02 14 11  8.7000000  0  3G07G09G16                                       
  24197404.91449 127158220.75849     13813.50049        49.000  
  22397405.38349 117699158.97349      3130.55949        50.000  
  22063962.39149 115946903.19949      9977.64849        49.000  
 16 04 02 14 11  8.8000000  0  3G07G09G16                                       
  24197142.07849 127156839.55549     13810.44549        49.000  
  22397345.85949 117698846.18449      3124.50849        50.000  
  22063772.57049 115945905.62149      9973.37149        49.000  
 16 04 02 14 11  8.9000000  0  3G07G09G16                                       
  24196879.31249 127155458.68849     13807.30149        49.000  
  22397286.46149 117698534.06249      3118.10249        50.000  
  22063582.82849 115944908.51649      9968.93449        49.000  
 16 04 02 14 11  9.0000000  0  3G07G09G16                                       
  24196616.60249 127154078.16049     13803.64849        49.000  
  22397227.19549 117698222.60249      3111.27049        49.000  
  22063393.18049 115943911.89149      9963.85549        49.000  
 16 04 02 14 11  9.1000000  0  3G07G09G16                                       
  24196353.96149 127152698.00849     13799.91049        49.000  
  22397168.04749 117697911.80149      3104.55949        49.000  
  22063203.62549 115942915.75449      9958.97349        49.000  
 16 04 02 14 11  9.2000000  0  3G07G09G16                                       
  24196091.37549 127151318.09449     13797.59849        49.000  
  22397109.01649 117697601.57849      3099.06249        50.000  
  22063014.14149 115941919.98849      9955.36349        49.000  
 16 04 02 14 11  9.3000000  0  3G07G09G16                                       
  24195828.84449 127149938.52049     13794.35249        49.000  
  22397050.10949 117697291.99249      3092.58649        49.000  
  22062824.74249 115940924.69949      9950.75849        49.000  
 16 04 02 14 11  9.4000000  0  3G07G09G16                                       
  24195566.39149 127148559.32449     13790.37149        49.000  
  22396991.32849 117696983.09849      3085.62149        49.000  
  22062635.43849 115939929.91049      9945.51649        49.000  
 16 04 02 14 11  9.5000000  0  3G07G09G16                                       
  24195303.99249 127147180.44949     13787.14549        49.000  
  22396932.66449 117696674.82849      3079.37549        49.000  
  22062446.21949 115938935.56649      9941.10249        49.000  
 16 04 02 14 11  9.6000000  0  3G07G09G16                                       
  24195041.67249 127145801.93049     13783.64849        49.000  
  22396874.13349 117696367.24649      3072.56649        49.000  
  22062257.09449 115937941.72749      9936.14849        49.000  
 16 04 02 14 11  9.7000000  0  3G07G09G16                                       
  24194779.40649 127144423.74249     13780.24249        49.000  
  22396815.71949 117696060.29749      3066.04349        49.000  
  22062068.05549 115936948.32849      9931.50049        49.000  
 16 04 02 14 11  9.8000000  0  3G07G09G16                                       
  24194517.21949 127143045.94149     13776.48049        49.000  
  22396757.44549 117695754.03949      3059.32449        49.000  
  22061879.10949 115935955.44949      9926.49649        49.000  
 16 04 02 14 11  9.9000000  0  3G07G09G16                                       
  24194255.07049 127141668.39549     13773.75849        49.000  
  22396699.27349 117695448.36349      3053.35249        49.000  
  22061690.24249 115934962.95349      9922.53149        49.000  
 16 04 02 14 11 10.0000000  0  3G07G09G16                                       
  24193993.00849 127140291.22349     13770.14849        49.000  
  22396641.23449 117695143.36749      3046.65649        49.000  
  22061501.46949 115933970.96549      9917.59849        49.000  
 16 04 02 14 11 10.1000000  0  3G07G09G16                                       
  24193730.99249 127138914.39549     13766.74649        49.000  
  22396583.31249 117694839.02349      3040.29749        49.000  
  22061312.78949 115932979.44149      9912.93049        49.000  
 16 04 02 14 11 10.2000000  0  3G07G09G16                                       
  24193469.04749 127137537.86749     13763.61749        49.000  
  22396525.51649 117694535.30149      3033.89549        49.000  
  22061124.19549 115931988.35949      9908.43049        49.000  
 16 04 02 14 11 10.3000000  0  3G07G09G16                                       
  24193207.18849 127136161.72749     13760.03549        49.000  
  22396467.85949 117694232.28149      3027.12949        49.000  
  22060935.69549 115930997.77749      9903.75449        49.000  
 16 04 02 14 11 10.4000000  0  3G07G09G16                                       
  24192945.35949 127134785.82449     13757.41849        49.000  
  22396410.29749 117693929.80149      3021.36749        49.000  
  22060747.25849 115930007.57049      9899.84049        49.000  
 16 04 02 14 11 10.5000000  0  3G07G09G16                                       
  24192683.59449 127133410.28149     13754.03149        49.000  
  22396352.86749 117693627.99649      3014.90649        49.000  
  22060558.92249 115929017.85949      9895.03949        49.000  
 16 04 02 14 11 10.6000000  0  3G07G09G16                                       
  24192421.89149 127132035.04349     13751.00449        49.000  
  22396295.55549 117693326.80949      3008.76649        49.000  
  22060370.68849 115928028.58649      9890.65249        49.000  
 16 04 02 14 11 10.7000000  0  3G07G09G16                                       
  24192160.25049 127130660.12149     13747.69149        49.000  
  22396238.35949 117693026.24649      3002.32849        49.000  
  22060182.51649 115927039.73449      9886.12949        49.000  
 16 04 02 14 11 10.8000000  0  3G07G09G16                                       
  24191898.67249 127129285.54749     13744.21149        49.000  
  22396181.29749 117692726.34849      2995.77049        49.000  
  22059994.44549 115926051.37149      9881.42649        49.000  
 16 04 02 14 11 10.9000000  0  3G07G09G16                                       
  24191637.14849 127127911.25049     13741.42249        49.000  
  22396124.33649 117692427.04349      2989.88349        49.000  
  22059806.44549 115925063.42649      9877.23449        49.000  
 16 04 02 14 11 11.0000000  0  3G07G09G16                                       
  24191375.69549 127126537.29749     13738.08649        49.000  
  22396067.50049 117692128.37949      2983.44549        49.000  
  22059618.53149 115924075.93449      9872.67249        49.000  
 16 04 02 14 11 11.1000000  0  3G07G09G16                                       
  24191114.32049 127125163.71949     13734.22749        49.000  
  22396010.80549 117691830.41849      2976.34449        49.000  
  22059430.71949 115923088.94949      9867.52349        49.000  
 16 04 02 14 11 11.2000000  0  3G07G09G16                                       
  24190853.00049 127123790.48049     13730.83249        49.000  
  22395954.22749 117691533.10249      2969.97349        49.000  
  22059242.97749 115922102.43849      9862.82049        49.000  
 16 04 02 14 11 11.3000000  0  3G07G09G16                                       
  24190591.74249 127122417.51649     13728.02749        49.000  
  22395897.75849 117691236.37549      2964.03549        49.000  
  22059055.32849 115921116.33649      9858.75449        49.000  
 16 04 02 14 11 11.4000000  0  3G07G09G16                                       
  24190330.53149 127121044.85549     13725.05149        49.000  
  22395841.41449 117690940.26649      2957.68849        49.000  
  22058867.75049 115920130.66049      9854.37149        49.000  
 16 04 02 14 11 11.5000000  0  3G07G09G16                                       
  24190069.39849 127119672.63749     13720.73449        49.000  
  22395785.20349 117690644.89549      2950.47349        49.000  
  22058680.28949 115919145.54749      9848.87149        49.000  
 16 04 02 14 11 11.6000000  0  3G07G09G16                                       
  24189808.33649 127118300.71149     13717.62949        49.000  
  22395729.11749 117690350.14849      2944.10249        49.000  
  22058492.92249 115918160.86749      9844.51249        49.000  
 16 04 02 14 11 11.7000000  0  3G07G09G16                                       
  24189547.32049 127116929.08249     13714.75849        49.000  
  22395673.14149 117690055.99649      2938.29749        49.000  
  22058305.61749 115917176.59449      9840.49649        49.000  
 16 04 02 14 11 11.8000000  0  3G07G09G16                                       
  24189286.39149 127115557.87549     13710.39849        49.000  
  22395617.30549 117689762.57849      2930.82849        49.000  
  22058118.43049 115916192.89549      9834.62149        49.000  
 16 04 02 14 11 11.9000000  0  3G07G09G16                                       
  24189025.52349 127114186.98449     13707.31649        49.000  
  22395561.59449 117689469.80949      2924.43849        49.000  
  22057931.32049 115915209.62949      9830.28549        49.000  
 16 04 02 14 11 12.0000000  0  3G07G09G16                                       
  24188764.70349 127112816.39149     13704.49649        49.000  
  22395505.99249 117689177.62549      2918.55549        49.000  
  22057744.27349 115914226.78549      9826.23449        49.000  
 16 04 02 14 11 12.1000000  0  3G07G09G16                                       
  24188503.94549 127111446.11349     13701.27049        49.000  
  22395450.50849 117688886.07449      2912.31249        49.000  
  22057557.32849 115913244.38349      9821.75449        49.000  
 16 04 02 14 11 12.2000000  0  3G07G09G16                                       
  24188243.26649 127110076.21549     13697.48049        49.000  
  22395395.16449 117688595.22749      2905.28149        49.000  
  22057370.47749 115912262.50849      9816.53949        49.000  
 16 04 02 14 11 12.3000000  0  3G07G09G16                                       
  24187982.64849 127108706.62949     13694.25449        49.000  
  22395339.93049 117688304.98049      2899.09849        49.000  
  22057183.71149 115911281.04749      9812.32849        49.000  
 16 04 02 14 11 12.4000000  0  3G07G09G16                                       
  24187722.08649 127107337.35249     13691.21549        49.000  
  22395284.82049 117688015.37949      2892.77749        49.000  
  22056997.03949 115910300.05149      9807.69549        49.000  
 16 04 02 14 11 12.5000000  0  3G07G09G16                                       
  24187461.57849 127105968.41849     13687.75049        49.000  
  22395229.83649 117687726.41449      2886.35549        49.000  
  22056810.45349 115909319.50449      9803.12949        49.000  
 16 04 02 14 11 12.6000000  0  3G07G09G16                                       
  24187201.14849 127104599.81649     13684.35949        49.000  
  22395174.96949 117687438.10249      2879.83249        49.000  
  22056623.93849 115908339.42649      9798.39849        49.000  
 16 04 02 14 11 12.7000000  0  3G07G09G16                                       
  24186940.79749 127103231.62149     13680.41849        49.000  
  22395120.24249 117687150.51249      2872.65649        49.000  
  22056437.53949 115907359.89149      9793.05149        49.000  
 16 04 02 14 11 12.8000000  0  3G07G09G16                                       
  24186680.49249 127101863.72749     13677.23049        49.000  
  22395065.63349 117686863.52749      2866.37949        49.000  
  22056251.21949 115906380.77049      9788.65649        49.000  
 16 04 02 14 11 12.9000000  0  3G07G09G16                                       
  24186420.25049 127100496.13749     13674.42249        49.000  
  22395011.14149 117686577.16449      2860.38349        49.000  
  22056064.97749 115905402.09449      9784.50849        49.000  
 16 04 02 14 11 13.0000000  0  3G07G09G16                                       
  24186160.07049 127099128.91449     13670.74649        49.000  
  22394956.77349 117686291.46949      2853.76249        49.000  
  22055878.83649 115904423.90249      9779.65649        49.000  
 16 04 02 14 11 13.1000000  0  3G07G09G16                                       
  24185899.95349 127097762.03549     13667.13349        49.000  
  22394902.53949 117686006.43849      2846.89549        49.000  
  22055692.78149 115903446.18449      9774.78949        49.000  
 16 04 02 14 11 13.2000000  0  3G07G09G16                                       
  24185639.92249 127096395.54349     13663.30949        49.000  
  22394848.43049 117685722.10249      2840.14149        49.000  
  22055506.81249 115902468.97749      9769.80949        49.000  
 16 04 02 14 11 13.3000000  0  3G07G09G16                                       
  24185379.93049 127095029.32449     13660.57849        49.000  
  22394794.43849 117685438.35549      2834.16849        49.000  
  22055320.93049 115901492.19549      9765.48449        49.000  
 16 04 02 14 11 13.4000000  0  3G07G09G16                                       
  24185120.00849 127093663.43049     13657.43849        49.000  
  22394740.56249 117685155.23449      2827.96549        49.000  
  22055135.14849 115900515.84449      9761.22749        49.000  
 16 04 02 14 11 13.5000000  0  3G07G09G16                                       
  24184860.16449 127092297.91849     13653.64849        49.000  
  22394686.81249 117684872.82449      2820.92249        49.000  
  22054949.45349 115899540.01249      9756.08649        49.000  
 16 04 02 14 11 13.6000000  0  3G07G09G16                                       
  24184600.36749 127090932.69549     13650.57449        49.000  
  22394633.18849 117684591.00449      2814.78549        49.000  
  22054763.84449 115898564.60249      9751.60949        49.000  
 16 04 02 14 11 13.7000000  0  3G07G09G16                                       
  24184340.65649 127089567.84049     13647.13349        49.000  
  22394579.68049 117684309.85249      2808.30949        49.000  
  22054578.32049 115897589.66449      9747.14149        49.000  
 16 04 02 14 11 13.8000000  0  3G07G09G16                                       
  24184080.98449 127088203.26249     13644.14149        49.000  
  22394526.28949 117684029.30149      2802.24249        49.000  
  22054392.88349 115896615.14849      9742.93849        49.000  
 16 04 02 14 11 13.9000000  0  3G07G09G16                                       
  24183821.37549 127086839.02349     13640.78149        49.000  
  22394473.03149 117683749.40649      2795.65649        49.000  
  22054207.53149 115895641.11349      9738.05149        49.000  
 16 04 02 14 11 14.0000000  0  3G07G09G16                                       
  24183561.84449 127085475.17649     13636.75049        49.000  
  22394419.89849 117683470.20749      2788.46949        49.000  
  22054022.26649 115894667.57849      9732.76649        49.000  
 16 04 02 14 11 14.1000000  0  3G07G09G16                                       
  24183302.38349 127084111.68449     13633.27049        49.000  
  22394366.89849 117683191.67649      2781.93449        49.000  
  22053837.10249 115893694.52749      9728.11749        49.000  
 16 04 02 14 11 14.2000000  0  3G07G09G16                                       
  24183042.97749 127082748.50049     13630.12549        49.000  
  22394314.01649 117682913.76649      2775.67249        49.000  
  22053652.02349 115892721.91849      9723.68049        49.000  
 16 04 02 14 11 14.3000000  0  3G07G09G16                                       
  24182783.65649 127081385.71149     13626.21949        49.000  
  22394261.26649 117682636.54349      2768.84049        49.000  
  22053467.03949 115891749.82449      9718.58249        49.000  
 16 04 02 14 11 14.4000000  0  3G07G09G16                                       
  24182524.38349 127080023.22349     13623.24249        49.000  
  22394208.63349 117682359.95749      2762.50849        49.000  
  22053282.13349 115890778.17249      9714.16449        49.000  
 16 04 02 14 11 14.5000000  0  3G07G09G16                                       
  24182265.16449 127078661.05949     13619.98449        49.000  
  22394156.10949 117682084.00049      2756.16049        49.000  
  22053097.32049 115889806.96549      9709.62949        49.000  
 16 04 02 14 11 14.6000000  0  3G07G09G16                                       
  24182006.00849 127077299.17649     13617.41849        49.000  
  22394103.71149 117681808.62949      2750.47349        49.000  
  22052912.59449 115888836.16449      9705.82049        49.000  
 16 04 02 14 11 14.7000000  0  3G07G09G16                                       
  24181746.92249 127075937.65649     13613.69949        49.000  
  22394051.43849 117681533.92649      2743.74649        49.000  
  22052727.95349 115887865.86349      9700.78149        49.000  
 16 04 02 14 11 14.8000000  0  3G07G09G16                                       
  24181487.89849 127074576.50049     13609.82449        49.000  
  22393999.28949 117681259.91449      2736.74249        49.000  
  22052543.39849 115886896.03949      9695.77349        49.000  
 16 04 02 14 11 14.9000000  0  3G07G09G16                                       
  24181228.94549 127073215.67249     13606.69149        49.000  
  22393947.26649 117680986.53149      2730.48449        49.000  
  22052358.93849 115885926.68849      9691.18449        49.000  
 16 04 02 14 11 15.0000000  0  3G07G09G16                                       
  24180970.04749 127071855.16849     13603.42649        49.000  
  22393895.36749 117680713.78949      2724.09049        49.000  
  22052174.56249 115884957.77049      9686.75849        49.000  
 16 04 02 14 11 15.1000000  0  3G07G09G16                                       
  24180711.21949 127070495.00049     13600.06649        49.000  
  22393843.58649 117680441.69949      2717.67649        49.000  
  22051990.27349 115883989.33249      9682.08249        49.000  
 16 04 02 14 11 15.2000000  0  3G07G09G16                                       
  24180452.45349 127069135.17249     13596.81649        49.000  
  22393791.93049 117680170.24649      2711.39149        50.000  
  22051806.06249 115883021.35249      9677.67249        49.000  
 16 04 02 14 11 15.3000000  0  3G07G09G16                                       
  24180193.73449 127067775.64849     13593.69549        49.000  
  22393740.39149 117679899.40649      2705.14849        49.000  
  22051621.94549 115882053.80549      9673.21949        49.000  
 16 04 02 14 11 15.4000000  0  3G07G09G16                                       
  24179935.10249 127066416.50049     13589.98449        49.000  
  22393688.98449 117679629.27349      2698.18849        49.000  
  22051437.93849 115881086.77049      9668.15649        49.000  
 16 04 02 14 11 15.5000000  0  3G07G09G16                                       
  24179676.53149 127065057.68449     13586.52349        49.000  
  22393637.70349 117679359.77049      2691.65649        49.000  
  22051254.00049 115880120.17249      9663.52749        49.000  
 16 04 02 14 11 15.6000000  0  3G07G09G16                                       
  24179418.01649 127063699.18449     13583.56649        49.000  
  22393586.53949 117679090.89149      2685.60549        49.000  
  22051070.14849 115879154.05549      9659.25049        49.000  
 16 04 02 14 11 15.7000000  0  3G07G09G16                                       
  24179159.57849 127062341.03549     13579.92249        49.000  
  22393535.50049 117678822.68049      2678.84449        49.000  
  22050886.38349 115878188.39149      9654.32049        49.000  
 16 04 02 14 11 15.8000000  0  3G07G09G16                                       
  24178901.18849 127060983.20349     13576.90649        49.000  
  22393484.57849 117678555.08249      2672.83649        49.000  
  22050702.71149 115877223.17649      9650.04349        49.000  
 16 04 02 14 11 15.9000000  0  3G07G09G16                                       
  24178642.85249 127059625.64849     13573.95749        49.000  
  22393433.77349 117678288.09849      2666.54749        49.000  
  22050519.11749 115876258.37149      9645.74249        49.000  
 16 04 02 14 11 16.0000000  0  3G07G09G16                                       
  24178384.59449 127058268.50449     13569.90249        49.000  
  22393383.10249 117678021.80949      2659.54749        49.000  
  22050335.62549 115875294.09849      9640.52049        49.000  
 16 04 02 14 11 16.1000000  0  3G07G09G16                                       
  24178126.40649 127056911.69149     13566.39149        49.000  
  22393332.54749 117677756.19549      2652.75049        49.000  
  22050152.21949 115874330.29349      9635.48849        49.000  
 16 04 02 14 11 16.2000000  0  3G07G09G16                                       
  24177868.28949 127055555.27749     13562.65649        49.000  
  22393282.13349 117677491.25049      2646.10549        49.000  
  22049968.91449 115873366.98849      9630.67649        49.000  
 16 04 02 14 11 16.3000000  0  3G07G09G16                                       
  24177610.22749 127054199.11349     13559.98849        49.000  
  22393231.82849 117677226.89549      2640.23049        49.000  
  22049785.68049 115872404.08649      9626.72349        49.000  
 16 04 02 14 11 16.4000000  0  3G07G09G16                                       
  24177352.22749 127052843.31649     13556.46949        49.000  
  22393181.64849 117676963.20349      2633.69549        49.000  
  22049602.52349 115871441.68049      9621.77349        49.000  
 16 04 02 14 11 16.5000000  0  3G07G09G16                                       
  24177094.28949 127051487.82449     13553.30149        49.000  
  22393131.58649 117676700.13749      2627.27049        49.000  
  22049419.46949 115870479.69549      9617.41449        49.000  
 16 04 02 14 11 16.6000000  0  3G07G09G16                                       
  24176836.41449 127050132.69149     13549.98849        49.000  
  22393081.64849 117676437.73449      2620.89849        50.000  
  22049236.50849 115869518.19949      9612.81249        49.000  
 16 04 02 14 11 16.7000000  0  3G07G09G16                                       
  24176578.58649 127048777.83249     13547.05549        49.000  
  22393031.82849 117676175.91449      2614.90649        50.000  
  22049053.61749 115868557.09849      9608.73049        49.000  
 16 04 02 14 11 16.8000000  0  3G07G09G16                                       
  24176320.83649 127047423.34049     13543.45349        49.000  
  22392982.13349 117675914.77349      2608.21549        49.000  
  22048870.81249 115867596.50049      9603.73449        49.000  
 16 04 02 14 11 16.9000000  0  3G07G09G16                                       
  24176063.14849 127046069.20749     13539.75449        49.000  
  22392932.56249 117675654.29749      2601.56249        49.000  
  22048688.10949 115866636.38349      9598.92249        49.000  
 16 04 02 14 11 17.0000000  0  3G07G09G16                                       
  24175805.53149 127044715.39849     13536.39549        49.000  
  22392883.11749 117675394.46149      2594.99249        49.000  
  22048505.49249 115865676.71549      9594.29749        49.000  
 16 04 02 14 11 17.1000000  0  3G07G09G16                                       
  24175547.96149 127043361.87149     13533.84449        49.000  
  22392833.78949 117675135.22349      2589.15249        49.000  
  22048322.95349 115864717.47349      9590.25849        49.000  
 16 04 02 14 11 17.2000000  0  3G07G09G16                                       
  24175290.46149 127042008.71149     13530.17249        49.000  
  22392784.58649 117674876.65649      2582.30549        49.000  
  22048140.50849 115863758.70749      9585.44149        49.000  
 16 04 02 14 11 17.3000000  0  3G07G09G16                                       
  24175033.03949 127040655.94549     13525.89549        49.000  
  22392735.51649 117674618.79349      2575.12549        49.000  
  22047958.16449 115862800.46949      9579.92649        49.000  
 16 04 02 14 11 17.4000000  0  3G07G09G16                                       
  24174775.67249 127039303.51249     13522.70349        49.000  
  22392686.56249 117674361.57049      2568.92649        49.000  
  22047775.89149 115861842.71149      9575.18449        49.000  
 16 04 02 14 11 17.5000000  0  3G07G09G16                                       
  24174518.36749 127037951.34449     13520.14849        49.000  
  22392637.73449 117674104.93849      2563.15649        49.000  
  22047593.70349 115860885.30149      9571.84049        49.000  
 16 04 02 14 11 17.6000000  0  3G07G09G16                                       
  24174261.12549 127036599.52749     13516.74649        49.000  
  22392589.01649 117673848.94949      2556.57049        49.000  
  22047411.61749 115859928.39849      9566.98049        49.000  
 16 04 02 14 11 17.7000000  0  3G07G09G16                                       
  24174003.93849 127035248.04349     13513.37949        49.000  
  22392540.43049 117673593.60549      2550.16449        49.000  
  22047229.60949 115858971.96149      9562.07449        49.000  
 16 04 02 14 11 17.8000000  0  3G07G09G16                                       
  24173746.81249 127033896.85549     13510.26249        49.000  
  22392491.96149 117673338.87949      2543.94549        50.000  
  22047047.68049 115858015.93049      9557.95349        49.000  
 16 04 02 14 11 17.9000000  0  3G07G09G16                                       
  24173489.76649 127032546.08649     13505.99649        49.000  
  22392443.61749 117673084.86749      2536.75049        49.000  
  22046865.85949 115857060.46949      9552.26649        49.000  
 16 04 02 14 11 18.0000000  0  3G07G09G16                                       
  24173232.78149 127031195.63749     13502.78149        49.000  
  22392395.39849 117672831.48449      2530.45349        49.000  
  22046684.11749 115856105.42249      9548.09049        49.000  
 16 04 02 14 11 18.1000000  0  3G07G09G16                                       
  24172975.84449 127029845.46149     13500.08249        49.000  
  22392347.29749 117672578.70749      2524.46949        49.000  
  22046502.45349 115855150.80149      9543.86349        49.000  
 16 04 02 14 11 18.2000000  0  3G07G09G16                                       
  24172718.99249 127028495.67649     13496.40649        49.000  
  22392299.32849 117672326.61349      2517.92249        49.000  
  22046320.89149 115854196.68049      9539.10249        49.000  
 16 04 02 14 11 18.3000000  0  3G07G09G16                                       
  24172462.18049 127027146.12949     13493.85549        49.000  
  22392251.46149 117672075.08249      2512.02049        49.000  
  22046139.39849 115853242.94949      9534.98449        49.000  
 16 04 02 14 11 18.4000000  0  3G07G09G16                                       
  24172205.44549 127025797.00049     13489.75849        49.000  
  22392203.72749 117671824.26249      2504.82449        49.000  
  22045958.00849 115852289.74249      9529.71149        49.000  
 16 04 02 14 11 18.5000000  0  3G07G09G16                                       
  24171948.78949 127024448.24249     13485.97349        49.000  
  22392156.13349 117671574.12949      2498.10949        49.000  
  22045776.71949 115851337.03549      9524.69949        49.000  
 16 04 02 14 11 18.6000000  0  3G07G09G16                                       
  24171692.18049 127023099.75049     13483.21549        49.000  
  22392108.64149 117671324.57049      2492.24249        49.000  
  22045595.48449 115850384.72749      9520.68449        49.000  
 16 04 02 14 11 18.7000000  0  3G07G09G16                                       
  24171435.63349 127021751.61349     13479.84449        49.000  
  22392061.28149 117671075.68049      2485.64149        49.000  
  22045414.35249 115849432.89149      9516.11749        49.000  
 16 04 02 14 11 18.8000000  0  3G07G09G16                                       
  24171179.15649 127020403.79749     13476.63749        49.000  
  22392014.03949 117670827.41849      2479.41049        49.000  
  22045233.31249 115848481.52049      9511.59049        49.000  
 16 04 02 14 11 18.9000000  0  3G07G09G16                                       
  24170922.72749 127019056.27349     13473.79349        49.000  
  22391966.91449 117670579.76649      2473.28549        49.000  
  22045052.35249 115847530.55949      9507.35249        49.000  
 16 04 02 14 11 19.0000000  0  3G07G09G16                                       
  24170666.37549 127017709.10549     13470.18849        49.000  
  22391919.91449 117670332.77349      2466.57449        49.000  
  22044871.47749 115846580.07449      9502.58249        49.000  
 16 04 02 14 11 19.1000000  0  3G07G09G16                                       
  24170410.07849 127016362.25449     13467.06249        49.000  
  22391873.03149 117670086.40649      2460.50049        50.000  
  22044690.68849 115845630.05149      9497.97349        49.000  
 16 04 02 14 11 19.2000000  0  3G07G09G16                                       
  24170153.85249 127015015.78549     13462.98449        49.000  
  22391826.28149 117669840.71949      2453.48849        49.000  
  22044509.99249 115844680.50849      9493.02049        49.000  
 16 04 02 14 11 19.3000000  0  3G07G09G16                                       
  24169897.68049 127013669.59049     13460.37949        49.000  
  22391779.64149 117669595.64149      2447.61749        49.000  
  22044329.38349 115843731.39549      9488.82449        49.000  
 16 04 02 14 11 19.4000000  0  3G07G09G16                                       
  24169641.57849 127012323.76649     13456.57049        49.000  
  22391733.13349 117669351.22749      2440.79349        49.000  
  22044148.85949 115842782.76649      9483.84049        49.000  
 16 04 02 14 11 19.5000000  0  3G07G09G16                                       
  24169385.56249 127010978.33249     13452.75849        49.000  
  22391686.75849 117669107.52749      2433.55149        49.000  
  22043968.44549 115841834.66049      9478.64849        49.000  
 16 04 02 14 11 19.6000000  0  3G07G09G16                                       
  24169129.59449 127009633.22349     13449.48449        49.000  
  22391640.50049 117668864.44149      2427.56649        50.000  
  22043788.10949 115840886.99649      9474.31249        49.000  
 16 04 02 14 11 19.7000000  0  3G07G09G16                                       
  24168873.69549 127008288.43849     13446.32849        49.000  
  22391594.35949 117668621.99649      2421.15649        50.000  
  22043607.85949 115839939.78549      9469.70349        49.000  
 16 04 02 14 11 19.8000000  0  3G07G09G16                                       
  24168617.85249 127006943.95749     13443.28949        49.000  
  22391548.34449 117668380.18449      2414.89149        49.000  
  22043427.69549 115838993.01249      9465.36349        49.000  
 16 04 02 14 11 19.9000000  0  3G07G09G16                                       
  24168362.08649 127005599.89149     13439.14549        49.000  
  22391502.46149 117668139.07049      2407.84049        49.000  
  22043247.63349 115838046.77349      9460.12949        49.000  
 16 04 02 14 11 20.0000000  0  3G07G09G16                                       
  24168106.37549 127004256.15249     13435.63749        49.000  
  22391456.69549 117667898.59849      2401.20349        49.000  
  22043067.65649 115837100.98849      9455.31649        49.000  
 16 04 02 14 11 20.1000000  0  3G07G09G16                                       
  24167850.73449 127002912.77049     13432.12549        49.000  
  22391411.06249 117667658.80149      2394.58649        49.000  
  22042887.77349 115836155.69149      9450.66449        49.000  
 16 04 02 14 11 20.2000000  0  3G07G09G16                                       
  24167595.16449 127001569.73849     13428.73449        49.000  
  22391365.56249 117667419.66049      2388.16049        49.000  
  22042707.97749 115835210.87549      9445.85249        49.000  
 16 04 02 14 11 20.3000000  0  3G07G09G16                                       
  24167339.65649 127000227.05949     13425.15649        49.000  
  22391320.17249 117667181.17249      2381.60949        49.000  
  22042528.27349 115834266.52049      9441.20349        49.000  
 16 04 02 14 11 20.4000000  0  3G07G09G16                                       
  24167084.21149 126998884.66049     13422.46949        49.000  
  22391274.90649 117666943.29749      2375.67649        49.000  
  22042348.64849 115833322.59449      9437.09449        49.000  
 16 04 02 14 11 20.5000000  0  3G07G09G16                                       
  24166828.82049 126997542.62949     13418.75049        49.000  
  22391229.77349 117666706.08649      2368.88349        49.000  
  22042169.12549 115832379.15649      9432.13749        49.000  
 16 04 02 14 11 20.6000000  0  3G07G09G16                                       
  24166573.49249 126996200.86349     13416.16049        49.000  
  22391184.74249 117666469.44549      2363.20349        49.000  
  22041989.66449 115831436.10949      9428.25449        49.000  
 16 04 02 14 11 20.7000000  0  3G07G09G16                                       
  24166318.23449 126994859.50449     13411.93449        49.000  
  22391139.84449 117666233.52349      2355.91049        49.000  
  22041810.31249 115830493.59449      9422.75449        49.000  
 16 04 02 14 11 20.8000000  0  3G07G09G16                                       
  24166063.05549 126993518.52049     13408.34849        49.000  
  22391095.07849 117665998.29349      2349.07049        49.000  
  22041631.05549 115829551.58249      9417.79349        49.000  
 16 04 02 14 11 20.9000000  0  3G07G09G16                                       
  24165807.93049 126992177.79349     13405.85549        49.000  
  22391050.43049 117665763.63349      2343.38749        49.000  
  22041451.87549 115828609.96949      9413.78549        49.000  
 16 04 02 14 11 21.0000000  0  3G07G09G16                                       
  24165552.86749 126990837.43049     13402.20349        49.000  
  22391005.89849 117665529.62549      2336.77749        49.000  
  22041272.77349 115827668.80149      9409.19949        49.000  
 16 04 02 14 11 21.1000000  0  3G07G09G16                                       
  24165297.86749 126989497.40249     13398.75049        49.000  
  22390961.50049 117665296.27349      2330.21549        49.000  
  22041093.76649 115826728.12549      9404.58649        49.000  
 16 04 02 14 11 21.2000000  0  3G07G09G16                                       
  24165042.92249 126988157.68049     13395.75449        49.000  
  22390917.21149 117665063.53149      2324.21149        49.000  
  22040914.84449 115825787.88749      9400.18049        49.000  
 16 04 02 14 11 21.3000000  0  3G07G09G16                                       
  24164788.05549 126986818.35249     13391.72749        49.000  
  22390873.05549 117664831.49649      2317.10549        49.000  
  22040736.02349 115824848.15649      9395.05149        49.000  
 16 04 02 14 11 21.4000000  0  3G07G09G16                                       
  24164533.25849 126985479.37549     13388.12149        49.000  
  22390829.02349 117664600.11749      2310.48849        49.000  
  22040557.28149 115823908.89849      9390.20349        49.000  
 16 04 02 14 11 21.5000000  0  3G07G09G16                                       
  24164278.50049 126984140.64149     13385.78949        49.000  
  22390785.10249 117664369.29749      2305.06649        49.000  
  22040378.61749 115822970.02049      9386.66449        49.000  
 16 04 02 14 11 21.6000000  0  3G07G09G16                                       
  24164023.81249 126982802.24649     13382.59849        49.000  
  22390741.29749 117664139.12949      2298.68049        49.000  
  22040200.04749 115822031.61749      9382.00049        49.000  
 16 04 02 14 11 21.7000000  0  3G07G09G16                                       
  24163769.18849 126981464.21149     13378.80149        49.000  
  22390697.62549 117663909.62949      2291.70749        49.000  
  22040021.57049 115821093.69549      9376.85549        49.000  
 16 04 02 14 11 21.8000000  0  3G07G09G16                                       
  24163514.64149 126980126.56249     13374.95349        49.000  
  22390654.08649 117663680.80949      2285.07449        49.000  
  22039843.18849 115820156.27349      9371.91449        49.000  
 16 04 02 14 11 21.9000000  0  3G07G09G16                                       
  24163260.14849 126978789.21949     13371.67249        49.000  
  22390610.66449 117663452.61749      2278.44549        49.000  
  22039664.88349 115819219.28549      9367.41449        49.000  
 16 04 02 14 11 22.0000000  0  3G07G09G16                                       
  24163005.73449 126977452.25449     13368.16449        49.000  
  22390567.36749 117663225.10949      2271.94949        49.000  
  22039486.67249 115818282.81249      9362.53949        49.000  
 16 04 02 14 11 22.1000000  0  3G07G09G16                                       
  24162751.35949 126976115.56649     13365.29349        49.000  
  22390524.19549 117662998.19549      2265.95749        49.000  
  22039308.54749 115817346.74249      9358.46949        49.000  
 16 04 02 14 11 22.2000000  0  3G07G09G16                                       
  24162497.07049 126974779.25449     13361.53949        49.000  
  22390481.14149 117662771.96149      2259.02349        49.000  
  22039130.50849 115816411.16449      9353.40649        49.000  
 16 04 02 14 11 22.3000000  0  3G07G09G16                                       
  24162242.83649 126973443.27749     13358.20749        49.000  
  22390438.21149 117662546.35549      2252.82849        49.000  
  22038952.56249 115815476.06249      9348.78549        49.000  
 16 04 02 14 11 22.4000000  0  3G07G09G16                                       
  24161988.65649 126972107.55949     13355.59849        49.000  
  22390395.39149 117662321.33249      2247.03149        49.000  
  22038774.69549 115814541.32849      9344.95349        49.000  
 16 04 02 14 11 22.5000000  0  3G07G09G16                                       
  24161734.54749 126970772.15649     13352.45749        49.000  
  22390352.68849 117662096.93849      2240.69949        49.000  
  22038596.90649 115813607.05149      9340.45349        49.000  
 16 04 02 14 11 22.6000000  0  3G07G09G16                                       
  24161480.50849 126969437.20349     13347.88349        49.000  
  22390310.13349 117661873.28949      2233.02749        49.000  
  22038419.21949 115812673.32449      9334.84849        49.000  
 16 04 02 14 11 22.7000000  0  3G07G09G16                                       
  24161226.54749 126968102.57449     13344.52049        49.000  
  22390267.69549 117661650.28549      2226.65649        49.000  
  22038241.62549 115811740.07049      9330.02749        49.000  
 16 04 02 14 11 22.8000000  0  3G07G09G16                                       
  24160972.62549 126966768.23449     13341.70349        49.000  
  22390225.36749 117661427.87549      2220.66049        49.000  
  22038064.11749 115810807.23449      9325.96149        49.000  
 16 04 02 14 11 22.9000000  0  3G07G09G16                                       
  24160718.78149 126965434.25849     13338.35549        49.000  
  22390183.17249 117661206.12949      2214.37149        49.000  
  22037886.69549 115809874.87949      9321.39549        49.000  
 16 04 02 14 11 23.0000000  0  3G07G09G16                                       
  24160465.00049 126964100.63749     13334.51249        49.000  
  22390141.10249 117660985.06649      2207.32449        49.000  
  22037709.36749 115808943.00449      9316.35949        49.000  
 16 04 02 14 11 23.1000000  0  3G07G09G16                                       
  24160211.28149 126962767.36749     13331.16449        49.000  
  22390099.16449 117660764.64549      2200.79749        49.000  
  22037532.12549 115808011.61749      9311.51249        49.000  
 16 04 02 14 11 23.2000000  0  3G07G09G16                                       
  24159957.64149 126961434.46149     13327.50049        49.000  
  22390057.35249 117660544.90249      2194.09449        49.000  
  22037354.98449 115807080.69149      9306.91849        49.000  
 16 04 02 14 11 23.3000000  0  3G07G09G16                                       
  24159704.07049 126960101.90649     13323.89149        49.000  
  22390015.65649 117660325.81249      2187.47749        49.000  
  22037177.93049 115806150.26649      9301.96949        49.000  
 16 04 02 14 11 23.4000000  0  3G07G09G16                                       
  24159450.53949 126958769.62549     13321.27349        49.000  
  22389974.07849 117660107.31249      2181.84449        49.000  
  22037000.96149 115805220.24249      9298.00449        49.000  
 16 04 02 14 11 23.5000000  0  3G07G09G16                                       
  24159197.07849 126957437.67649     13317.94549        49.000  
  22389932.61749 117659889.46149      2175.28149        49.000  
  22036824.07049 115804290.68049      9293.28949        49.000  
 16 04 02 14 11 23.6000000  0  3G07G09G16                                       
  24158943.69549 126956106.12549     13313.98449        49.000  
  22389891.28949 117659672.30149      2168.36749        49.000  
  22036647.27349 115803361.61349      9288.37949        49.000  
 16 04 02 14 11 23.7000000  0  3G07G09G16                                       
  24158690.36749 126954774.87949     13310.80149        49.000  
  22389850.07849 117659455.76249      2161.98449        49.000  
  22036470.56249 115802433.00849      9283.78149        49.000  
 16 04 02 14 11 23.8000000  0  3G07G09G16                                       
  24158437.10249 126953443.98049     13307.32849        49.000  
  22389809.00049 117659239.87949      2155.49249        49.000  
  22036293.94549 115801504.86749      9279.11749        49.000  
 16 04 02 14 11 23.9000000  0  3G07G09G16                                       
  24158183.89849 126952113.38349     13304.40249        49.000  
  22389768.03949 117659024.60549      2149.52749        49.000  
  22036117.40649 115800577.14849      9274.94949        49.000  
 16 04 02 14 11 24.0000000  0  3G07G09G16                                       
  24157930.76649 126950783.14849     13300.75449        49.000  
  22389727.19549 117658810.00049      2142.75449        49.000  
  22035940.96149 115799649.91849      9270.14149        49.000  
 16 04 02 14 11 24.1000000  0  3G07G09G16                                       
  24157677.68849 126949453.23049     13297.71549        49.000  
  22389686.48449 117658596.02749      2136.55949        49.000  
  22035764.60249 115798723.14849      9265.53949        49.000  
 16 04 02 14 11 24.2000000  0  3G07G09G16                                       
  24157424.68849 126948123.69149     13293.93049        49.000  
  22389645.89149 117658382.73849      2129.65649        49.000  
  22035588.32849 115797796.85949      9260.57449        49.000  
 16 04 02 14 11 24.3000000  0  3G07G09G16                                       
  24157171.72749 126946794.41449     13291.22749        49.000  
  22389605.40649 117658170.00449      2124.15649        49.000  
  22035412.14149 115796870.96949      9256.71949        49.000  
 16 04 02 14 11 24.4000000  0  3G07G09G16                                       
  24156918.84449 126945465.46549     13288.02749        49.000  
  22389565.05549 117657957.93049      2117.62949        49.000  
  22035236.03149 115795945.53949      9252.07049        49.000  
 16 04 02 14 11 24.5000000  0  3G07G09G16                                       
  24156666.01649 126944136.90249     13284.12149        49.000  
  22389524.82049 117657746.53949      2110.85249        49.000  
  22035060.02349 115795020.60549      9247.12149        49.000  
 16 04 02 14 11 24.6000000  0  3G07G09G16                                       
  24156413.26649 126942808.69549     13280.45749        49.000  
  22389484.72749 117657535.82049      2103.81649        49.000  
  22034884.10249 115794096.16049      9242.10549        49.000  
 16 04 02 14 11 24.7000000  0  3G07G09G16                                       
  24156160.59449 126941480.81249     13277.09849        49.000  
  22389444.74249 117657325.71949      2097.50849        49.000  
  22034708.26649 115793172.16449      9237.45349        49.000  
 16 04 02 14 11 24.8000000  0  3G07G09G16                                       
  24155907.96949 126940153.27349     13273.84449        49.000  
  22389404.89149 117657116.27349      2091.21549        49.000  
  22034532.53149 115792248.63749      9233.01249        49.000  
 16 04 02 14 11 24.9000000  0  3G07G09G16                                       
  24155655.40649 126938826.05149     13270.70749        49.000  
  22389365.15649 117656907.45349      2085.11349        50.000  
  22034356.86749 115791325.54749      9228.76649        49.000  
 16 04 02 14 11 25.0000000  0  3G07G09G16                                       
  24155402.90649 126937499.14849     13267.34849        49.000  
  22389325.53949 117656699.27049      2078.46949        49.000  
  22034181.30549 115790402.92249      9223.91049        49.000  
 16 04 02 14 11 25.1000000  0  3G07G09G16                                       
  24155150.48449 126936172.66049     13263.45749        49.000  
  22389286.06249 117656491.81249      2071.40249        50.000  
  22034005.83649 115789480.82849      9218.64549        49.000  
 16 04 02 14 11 25.2000000  0  3G07G09G16                                       
  24154898.11749 126934846.47349     13260.29749        49.000  
  22389246.69549 117656284.95349      2065.30949        50.000  
  22033830.45349 115788559.14849      9214.52749        49.000  
 16 04 02 14 11 25.3000000  0  3G07G09G16                                       
  24154645.81249 126933520.58649     13257.39149        49.000  
  22389207.44549 117656078.70749      2059.23849        50.000  
  22033655.14149 115787637.90649      9210.22349        49.000  
 16 04 02 14 11 25.4000000  0  3G07G09G16                                       
  24154393.57849 126932195.10249     13253.32049        49.000  
  22389168.33649 117655873.16849      2052.09849        50.000  
  22033479.93049 115786717.18849      9204.88349        49.000  
 16 04 02 14 11 25.5000000  0  3G07G09G16                                       
  24154141.39849 126930869.87149     13250.75449        49.000  
  22389129.32849 117655668.18449      2046.51249        50.000  
  22033304.79749 115785796.84449      9201.22349        49.000  
 16 04 02 14 11 25.6000000  0  3G07G09G16                                       
  24153889.28949 126929545.03149     13246.86349        49.000  
  22389090.46149 117655463.91449      2039.56649        49.000  
  22033129.75849 115784877.02749      9195.98449        49.000  
 16 04 02 14 11 25.7000000  0  3G07G09G16                                       
  24153637.23449 126928220.48049     13243.95749        49.000  
  22389051.70349 117655260.23049      2033.54349        49.000  
  22032954.80549 115783957.61749      9191.76249        49.000  
 16 04 02 14 11 25.8000000  0  3G07G09G16                                       
  24153385.24249 126926896.27049     13240.40249        49.000  
  22389013.06249 117655057.19549      2027.00049        49.000  
  22032779.93849 115783038.67649      9186.95749        49.000  
 16 04 02 14 11 25.9000000  0  3G07G09G16                                       
  24153133.32049 126925572.46149     13236.30949        49.000  
  22388974.56249 117654854.87149      2019.89849        49.000  
  22032605.17249 115782120.26249      9181.69949        49.000  
 16 04 02 14 11 26.0000000  0  3G07G09G16                                       
  24152881.46949 126924248.95349     13233.44149        49.000  
  22388936.18049 117654653.15649      2013.84849        49.000  
  22032430.48449 115781202.27749      9177.48049        49.000  
 16 04 02 14 11 26.1000000  0  3G07G09G16                                       
  24152629.68049 126922925.79749     13229.93049        49.000  
  22388897.91449 117654452.10249      2007.18449        49.000  
  22032255.88349 115780284.76649      9172.76249        49.000  
 16 04 02 14 11 26.2000000  0  3G07G09G16                                       
  24152377.95349 126921602.98449     13226.57849        49.000  
  22388859.78149 117654251.70349      2000.76649        49.000  
  22032081.38349 115779367.73049      9168.03149        49.000  
 16 04 02 14 11 26.3000000  0  3G07G09G16                                       
  24152126.28949 126920280.48049     13223.52049        49.000  
  22388821.76649 117654051.92249      1994.47349        49.000  
  22031906.95349 115778451.11349      9163.91449        49.000  
 16 04 02 14 11 26.4000000  0  3G07G09G16                                       
  24151874.69549 126918958.32449     13219.98849        49.000  
  22388783.86749 117653852.78149      1988.12149        49.000  
  22031732.62549 115777534.98049      9159.10249        49.000  
 16 04 02 14 11 26.5000000  0  3G07G09G16                                       
  24151623.14849 126917636.47349     13216.93049        49.000  
  22388746.09449 117653654.26249      1981.97749        49.000  
  22031558.36749 115776619.27049      9154.87549        49.000  
 16 04 02 14 11 26.6000000  0  3G07G09G16                                       
  24151371.68849 126916315.01249     13213.00049        49.000  
  22388708.45349 117653456.45349      1974.86349        49.000  
  22031384.21149 115775704.09449      9149.51649        49.000  
 16 04 02 14 11 26.7000000  0  3G07G09G16                                       
  24151120.28149 126914993.92249     13209.42249        49.000  
  22388670.93849 117653259.30949      1968.20349        49.000  
  22031210.14849 115774789.39849      9144.60549        49.000  
 16 04 02 14 11 26.8000000  0  3G07G09G16                                       
  24150868.95349 126913673.14849     13206.00849        49.000  
  22388633.53949 117653062.78149      1961.78149        49.000  
  22031036.17249 115773875.13349      9140.15249        49.000  
 16 04 02 14 11 26.9000000  0  3G07G09G16                                       
  24150617.68049 126912352.72749     13202.66449        49.000  
  22388596.27349 117652866.91849      1955.47349        49.000  
  22030862.28949 115772961.35549      9135.75449        49.000  
 16 04 02 14 11 27.0000000  0  3G07G09G16                                       
  24150366.45349 126911032.53949     13200.22749        49.000  
  22388559.10949 117652671.61349      1949.84049        49.000  
  22030688.47749 115772047.95349      9131.79349        49.000  
 16 04 02 14 11 27.1000000  0  3G07G09G16                                       
  24150115.29749 126909712.72749     13196.71549        49.000  
  22388522.07049 117652476.98049      1943.14549        49.000  
  22030514.75049 115771135.03549      9127.06249        49.000  
 16 04 02 14 11 27.2000000  0  3G07G09G16                                       
  24149864.21149 126908393.25049     13193.23849        49.000  
  22388485.15649 117652282.98849      1936.68849        49.000  
  22030341.11749 115770222.59049      9122.16449        49.000  
 16 04 02 14 11 27.3000000  0  3G07G09G16                                       
  24149613.19549 126907074.14149     13189.51249        49.000  
  22388448.36749 117652089.66049      1930.05949        49.000  
  22030167.57049 115769310.61349      9117.46149        49.000  
 16 04 02 14 11 27.4000000  0  3G07G09G16                                       
  24149362.22749 126905755.30149     13186.85249        49.000  
  22388411.69549 117651896.93849      1923.93449        49.000  
  22029994.10949 115768399.06249      9113.24649        49.000  
 16 04 02 14 11 27.5000000  0  3G07G09G16                                       
  24149111.33649 126904436.85249     13183.09849        49.000  
  22388375.14849 117651704.87549      1917.43049        49.000  
  22029820.74249 115767487.99649      9108.43049        49.000  
 16 04 02 14 11 27.6000000  0  3G07G09G16                                       
  24148860.50849 126903118.76249     13179.24249        49.000  
  22388338.73449 117651513.51649      1910.35949        49.000  
  22029647.46149 115766577.43849      9103.29749        49.000  
 16 04 02 14 11 27.7000000  0  3G07G09G16                                       
  24148609.76649 126901801.03149     13175.50449        49.000  
  22388302.43849 117651322.80149      1903.67249        49.000  
  22029474.28149 115765667.35249      9098.44949        49.000  
 16 04 02 14 11 27.8000000  0  3G07G09G16                                       
  24148359.06249 126900483.58649     13172.89149        49.000  
  22388266.26649 117651132.69149      1897.93449        49.000  
  22029301.17249 115764757.69149      9094.42649        49.000  
 16 04 02 14 11 27.9000000  0  3G07G09G16                                       
  24148108.43849 126899166.52049     13168.98049        49.000  
  22388230.21149 117650943.25849      1890.91049        49.000  
  22029128.16449 115763848.51649      9089.26649        49.000  
 16 04 02 14 11 28.0000000  0  3G07G09G16                                       
  24147857.87549 126897849.80949     13165.44949        49.000  
  22388194.28949 117650754.49649      1884.26249        49.000  
  22028955.25049 115762939.82849      9084.55549        49.000  
 16 04 02 14 11 28.1000000  0  3G07G09G16                                       
  24147607.36749 126896533.39849     13162.50849        49.000  
  22388158.47749 117650566.33249      1878.32849        49.000  
  22028782.41449 115762031.56249      9080.40249        49.000  
 16 04 02 14 11 28.2000000  0  3G07G09G16                                       
  24147356.93049 126895217.33249     13159.25049        49.000  
  22388122.80549 117650378.84049      1871.72749        49.000  
  22028609.67249 115761123.78549      9075.58649        49.000  
 16 04 02 14 11 28.3000000  0  3G07G09G16                                       
  24147106.56249 126893901.57849     13156.14849        49.000  
  22388087.24249 117650191.94549      1865.81649        49.000  
  22028437.00849 115760216.42249      9071.42649        49.000  
 16 04 02 14 11 28.4000000  0  3G07G09G16                                       
  24146856.23449 126892586.10249     13153.46949        49.000  
  22388051.78949 117650005.63749      1860.07049        49.000  
  22028264.41449 115759309.46949      9067.52349        49.000  
 16 04 02 14 11 28.5000000  0  3G07G09G16                                       
  24146605.96949 126891270.98449     13149.63749        49.000  
  22388016.46149 117649820.00049      1853.12149        49.000  
  22028091.91449 115758403.00449      9062.37149        49.000  
 16 04 02 14 11 28.6000000  0  3G07G09G16                                       
  24146355.78949 126889956.25849     13145.59049        49.000  
  22387981.26649 117649635.06249      1845.92649        49.000  
  22027919.52349 115757497.04749      9057.04349        49.000  
 16 04 02 14 11 28.7000000  0  3G07G09G16                                       
  24146105.66449 126888641.88749     13142.17249        49.000  
  22387946.20349 117649450.77749      1839.60949        49.000  
  22027747.21949 115756591.57049      9052.49649        49.000  
 16 04 02 14 11 28.8000000  0  3G07G09G16                                       
  24145855.59449 126887327.79349     13139.28549        49.000  
  22387911.25049 117649267.09049      1833.58649        49.000  
  22027574.99249 115755686.50049      9048.31649        49.000  
 16 04 02 14 11 28.9000000  0  3G07G09G16                                       
  24145605.61749 126886014.12549     13134.98849        49.000  
  22387876.43049 117649084.13349      1826.28949        49.000  
  22027402.85949 115754781.96549      9042.96949        49.000  
 16 04 02 14 11 29.0000000  0  3G07G09G16                                       
  24145355.68049 126884700.70349     13132.44549        49.000  
  22387841.71949 117648901.72349      1820.68849        49.000  
  22027230.81249 115753877.82049      9039.07849        49.000  
 16 04 02 14 11 29.1000000  0  3G07G09G16                                       
  24145105.81249 126883387.67249     13128.93049        49.000  
  22387807.14149 117648720.01649      1813.91449        49.000  
  22027058.85949 115752974.19149      9034.17249        49.000  
 16 04 02 14 11 29.2000000  0  3G07G09G16                                       
  24144856.02349 126882075.00849     13125.09849        49.000  
  22387772.68849 117648538.97349      1807.27349        49.000  
  22026887.00049 115752071.03949      9029.30949        49.000  
 16 04 02 14 11 29.3000000  0  3G07G09G16                                       
  24144606.28949 126880762.62149     13122.30949        49.000  
  22387738.35249 117648358.53149      1801.20349        49.000  
  22026715.21149 115751168.30949      9025.07849        49.000  
 16 04 02 14 11 29.4000000  0  3G07G09G16                                       
  24144356.60949 126879450.56649     13118.93049        49.000  
  22387704.14149 117648178.72349      1794.64549        49.000  
  22026543.51649 115750266.03549      9020.29749        49.000  
 16 04 02 14 11 29.5000000  0  3G07G09G16                                       
  24144107.00849 126878138.93049     13114.84049        49.000  
  22387670.06249 117647999.62549      1787.68849        49.000  
  22026371.92249 115749364.27349      9015.26249        49.000  
 16 04 02 14 11 29.6000000  0  3G07G09G16                                       
  24143857.46949 126876827.60249     13111.66049        49.000  
  22387636.10249 117647821.16049      1781.45349        49.000  
  22026200.40649 115748462.97349      9010.81249        49.000  
 16 04 02 14 11 29.7000000  0  3G07G09G16                                       
  24143608.00049 126875516.59849     13108.44549        49.000  
  22387602.25849 117647643.32449      1775.02349        49.000  
  22026028.97749 115747562.12549      9006.19549        49.000  
 16 04 02 14 11 29.8000000  0  3G07G09G16                                       
  24143358.58649 126874205.92649     13105.32449        49.000  
  22387568.53949 117647466.12149      1768.78949        49.000  
  22025857.64149 115746661.71949      9001.78549        49.000  
 16 04 02 14 11 29.9000000  0  3G07G09G16                                       
  24143109.24249 126872895.61349     13101.61749        49.000  
  22387534.93849 117647289.57049      1762.43449        49.000  
  22025686.39149 115745761.78549      8997.23449        49.000  
 16 04 02 14 11 30.0000000  0  3G07G09G16                                       
  24142859.94549 126871585.55149     13099.05949        49.000  
  22387501.45349 117647113.60249      1756.40649        49.000  
  22025515.21149 115744862.25049      8993.10949        49.000  
 16 04 02 14 11 30.1000000  0  3G07G09G16                                       
  24142610.72749 126870275.91449     13094.74649        49.000  
  22387468.10249 117646938.35549      1749.21949        49.000  
  22025344.13349 115743963.24649      8987.79349        49.000  
 16 04 02 14 11 30.2000000  0  3G07G09G16                                       
  24142361.57849 126868966.65649     13090.95749        49.000  
  22387434.89149 117646763.79749      1742.28149        49.000  
  22025173.15649 115743064.76649      8982.54349        49.000  
 16 04 02 14 11 30.3000000  0  3G07G09G16                                       
  24142112.48449 126867657.66049     13088.33649        49.000  
  22387401.77349 117646589.80549      1736.60549        49.000  
  22025002.25849 115742166.66049      8978.64149        49.000  
 16 04 02 14 11 30.4000000  0  3G07G09G16                                       
  24141863.46149 126866349.02749     13084.72749        49.000  
  22387368.78949 117646416.46949      1730.10949        49.000  
  22024831.44549 115741269.04349      8973.87549        49.000  
 16 04 02 14 11 30.5000000  0  3G07G09G16                                       
  24141614.50049 126865040.72349     13081.53949        49.000  
  22387335.93049 117646243.78949      1723.63749        49.000  
  22024660.71949 115740371.87549      8969.44549        49.000  
 16 04 02 14 11 30.6000000  0  3G07G09G16                                       
  24141365.60249 126863732.77749     13077.80949        49.000  
  22387303.19549 117646071.76249      1716.93049        49.000  
  22024490.08649 115739475.19549      8964.57049        49.000  
 16 04 02 14 11 30.7000000  0  3G07G09G16                                       
  24141116.76649 126862425.14149     13074.77749        49.000  
  22387270.57849 117645900.36349      1710.64549        49.000  
  22024319.53949 115738578.95749      8960.09849        49.000  
 16 04 02 14 11 30.8000000  0  3G07G09G16                                       
  24140868.00049 126861117.85949     13071.24249        49.000  
  22387238.08649 117645729.62149      1704.07449        49.000  
  22024149.07049 115737683.19149      8955.39549        49.000  
 16 04 02 14 11 30.9000000  0  3G07G09G16                                       
  24140619.30549 126859810.97349     13067.21949        49.000  
  22387205.72749 117645559.56249      1697.06249        49.000  
  22023978.71149 115736787.93049      8950.10949        49.000  
 16 04 02 14 11 31.0000000  0  3G07G09G16                                       
  24140370.68049 126858504.40249     13064.05549        49.000  
  22387173.49249 117645390.14849      1690.72749        49.000  
  22023808.43849 115735893.12549      8945.66849        49.000  
 16 04 02 14 11 31.1000000  0  3G07G09G16                                       
  24140122.10249 126857198.18049     13060.73049        49.000  
  22387141.36749 117645221.37149      1684.59049        49.000  
  22023638.25049 115734998.78549      8941.22749        49.000  
 16 04 02 14 11 31.2000000  0  3G07G09G16                                       
  24139873.58649 126855892.22749     13057.74249        49.000  
  22387109.35949 117645053.18449      1678.47749        49.000  
  22023468.13349 115734104.84849      8936.98449        49.000  
 16 04 02 14 11 31.3000000  0  3G07G09G16                                       
  24139625.13349 126854586.59049     13054.99649        49.000  
  22387077.47749 117644885.61349      1672.59449        49.000  
  22023298.10949 115733211.35549      8932.79349        49.000  
 16 04 02 14 11 31.4000000  0  3G07G09G16                                       
  24139376.75049 126853281.33649     13051.03949        49.000  
  22387045.71949 117644718.72749      1665.66049        49.000  
  22023128.17249 115732318.34449      8927.82449        49.000  
 16 04 02 14 11 31.5000000  0  3G07G09G16                                       
  24139128.43049 126851976.42249     13047.43449        49.000  
  22387014.07849 117644552.49649      1658.94149        49.000  
  22022958.32849 115731425.82449      8922.87949        49.000  
 16 04 02 14 11 31.6000000  0  3G07G09G16                                       
  24138880.18049 126850671.82849     13044.26249        49.000  
  22386982.57049 117644386.89149      1652.68449        49.000  
  22022788.57049 115730533.73849      8918.50049        49.000  
 16 04 02 14 11 31.7000000  0  3G07G09G16                                       
  24138631.99249 126849367.60249     13040.82049        49.000  
  22386951.18049 117644221.95749      1646.21149        49.000  
  22022618.90649 115729642.14549      8913.79749        49.000  
 16 04 02 14 11 31.8000000  0  3G07G09G16                                       
  24138383.87549 126848063.73449     13037.03949        49.000  
  22386919.92249 117644057.68449      1639.32449        49.000  
  22022449.32849 115728751.02749      8908.81249        49.000  
 16 04 02 14 11 31.9000000  0  3G07G09G16                                       
  24138135.80549 126846760.14149     13034.42649        49.000  
  22386888.76649 117643894.00449      1633.57849        49.000  
  22022279.83649 115727860.32049      8904.78149        49.000  
 16 04 02 14 11 32.0000000  0  3G07G09G16                                       
  24137887.79749 126845456.87549     13031.21549        49.000  
  22386857.73449 117643730.93449      1627.53549        49.000  
  22022110.41449 115726970.05149      8900.61749        49.000  
 16 04 02 14 11 32.1000000  0  3G07G09G16                                       
  24137639.84449 126844153.88749     13028.27749        49.000  
  22386826.82049 117643568.46949      1621.34449        49.000  
  22021941.07849 115726080.18849      8896.35949        49.000  
 16 04 02 14 11 32.2000000  0  3G07G09G16                                       
  24137391.96949 126842851.30949     13024.39549        49.000  
  22386796.03949 117643406.70749      1614.42249        49.000  
  22021771.85249 115725190.86749      8891.06649        49.000  
 16 04 02 14 11 32.3000000  0  3G07G09G16                                       
  24137144.14849 126841549.04349     13021.05949        49.000  
  22386765.37549 117643245.57849      1608.02049        49.000  
  22021602.70349 115724301.98049      8886.49249        49.000  
 16 04 02 14 11 32.4000000  0  3G07G09G16                                       
  24136896.39849 126840247.10949     13017.82849        49.000  
  22386734.82849 117643085.07449      1601.76249        49.000  
  22021433.63349 115723413.54749      8882.04749        49.000  
 16 04 02 14 11 32.5000000  0  3G07G09G16                                       
  24136648.71149 126838945.56249     13013.87949        49.000  
  22386704.41449 117642925.25449      1594.94949        49.000  
  22021264.66449 115722525.60249      8877.21149        49.000  
 16 04 02 14 11 32.6000000  0  3G07G09G16                                       
  24136401.10249 126837644.34049     13010.57049        49.000  
  22386674.12549 117642766.09049      1588.27749        49.000  
  22021095.78949 115721638.15249      8872.15249        49.000  
 16 04 02 14 11 32.7000000  0  3G07G09G16                                       
  24136153.55549 126836343.47749     13007.16849        49.000  
  22386643.96149 117642607.57849      1581.97349        49.000  
  22020927.00049 115720751.15649      8867.73849        49.000  
 16 04 02 14 11 32.8000000  0  3G07G09G16                                       
  24135906.06249 126835042.89549     13004.19549        49.000  
  22386613.90649 117642449.64849      1576.02349        49.000  
  22020758.28949 115719864.56649      8863.60249        49.000  
 16 04 02 14 11 32.9000000  0  3G07G09G16                                       
  24135658.63349 126833742.66049     13000.84849        49.000  
  22386583.98449 117642292.38349      1569.51249        49.000  
  22020589.67249 115718978.46149      8858.88749        49.000  
 16 04 02 14 11 33.0000000  0  3G07G09G16                                       
  24135411.27349 126832442.75849     12997.50449        49.000  
  22386554.18049 117642135.75449      1563.09449        49.000  
  22020421.12549 115718092.80549      8854.31649        49.000  
 16 04 02 14 11 33.1000000  0  3G07G09G16                                       
  24135163.96949 126831143.25449     12993.40249        49.000  
  22386524.50849 117641979.81249      1556.03949        49.000  
  22020252.68849 115717207.65649      8849.11349        49.000  
 16 04 02 14 11 33.2000000  0  3G07G09G16                                       
  24134916.75049 126829844.10949     12989.59849        49.000  
  22386494.96149 117641824.54749      1549.26249        49.000  
  22020084.34449 115716323.00449      8844.12949        49.000  
 16 04 02 14 11 33.3000000  0  3G07G09G16                                       
  24134669.59449 126828545.32449     12986.30949        49.000  
  22386465.53949 117641669.95749      1542.73849        49.000  
  22019916.09449 115715438.84049      8839.43449        49.000  
 16 04 02 14 11 33.4000000  0  3G07G09G16                                       
  24134422.51649 126827246.88349     12982.66049        49.000  
  22386436.24249 117641516.00449      1536.12949        49.000  
  22019747.93849 115714555.13749      8834.58249        49.000  
 16 04 02 14 11 33.5000000  0  3G07G09G16                                       
  24134175.48449 126825948.75049     12979.61349        49.000  
  22386407.07049 117641362.67249      1529.85949        49.000  
  22019579.85249 115713671.85949      8830.32449        49.000  
 16 04 02 14 11 33.6000000  0  3G07G09G16                                       
  24133928.53949 126824651.02349     12975.81249        49.000  
  22386378.02349 117641210.04749      1523.21549        49.000  
  22019411.87549 115712789.12549      8825.27049        49.000  
 16 04 02 14 11 33.7000000  0  3G07G09G16                                       
  24133681.64149 126823353.58649     12972.60949        49.000  
  22386349.09449 117641058.01249      1516.84849        49.000  
  22019243.97749 115711906.80149      8820.70349        49.000  
 16 04 02 14 11 33.8000000  0  3G07G09G16                                       
  24133434.81249 126822056.48449     12969.57849        49.000  
  22386320.28949 117640906.63749      1510.75849        49.000  
  22019076.16449 115711024.93849      8816.55549        49.000  
 16 04 02 14 11 33.9000000  0  3G07G09G16                                       
  24133188.04749 126820759.71149     12966.23049        49.000  
  22386291.59449 117640755.86749      1504.40649        49.000  
  22018908.43049 115710143.50849      8812.00449        49.000  
 16 04 02 14 11 34.0000000  0  3G07G09G16                                       
  24132941.32849 126819463.19549     12963.68049        49.000  
  22386263.01649 117640605.69149      1498.61349        49.000  
  22018740.78149 115709262.49249      8807.99249        49.000  
 16 04 02 14 11 34.1000000  0  3G07G09G16                                       
  24132694.66449 126818166.97349     12960.99249        49.000  
  22386234.54749 117640456.09049      1493.02049        49.000  
  22018573.20349 115708381.86349      8804.26649        49.000  
 16 04 02 14 11 34.2000000  0  3G07G09G16                                       
  24132448.08649 126816871.19149     12956.35249        49.000  
  22386206.21949 117640307.24249      1485.31249        49.000  
  22018405.73449 115707501.80949      8798.39849        49.000  
 16 04 02 14 11 34.3000000  0  3G07G09G16                                       
  24132201.57049 126815575.74649     12952.81249        49.000  
  22386178.02349 117640159.05549      1478.54749        49.000  
  22018238.35949 115706622.22349      8793.56649        49.000  
 16 04 02 14 11 34.4000000  0  3G07G09G16                                       
  24131955.10949 126814280.60249     12949.84449        49.000  
  22386149.93849 117640011.44949      1472.63749        49.000  
  22018071.05549 115705743.05549      8789.30149        49.000  
 16 04 02 14 11 34.5000000  0  3G07G09G16                                       
  24131708.71949 126812985.82049     12946.40249        49.000  
  22386121.97749 117639864.51249      1466.14549        49.000  
  22017903.84449 115704864.36749      8784.69949        49.000  
 16 04 02 14 11 34.6000000  0  3G07G09G16                                       
  24131462.39149 126811691.38749     12942.64149        49.000  
  22386094.14149 117639718.22749      1459.45749        49.000  
  22017736.72749 115703986.15249      8779.74249        49.000  
 16 04 02 14 11 34.7000000  0  3G07G09G16                                       
  24131216.14849 126810397.33649     12938.96949        49.000  
  22386066.43849 117639572.64549      1452.70749        49.000  
  22017569.71149 115703108.44549      8774.93849        49.000  
 16 04 02 14 11 34.8000000  0  3G07G09G16                                       
  24130969.94549 126809103.54349     12936.22349        49.000  
  22386038.84449 117639427.62149      1446.87149        49.000  
  22017402.76649 115702231.12949      8770.78149        49.000  
 16 04 02 14 11 34.9000000  0  3G07G09G16                                       
  24130723.81249 126807810.12149     12932.72349        49.000  
  22386011.37549 117639283.26649      1440.32449        49.000  
  22017235.90649 115701354.29349      8766.10249        49.000  
 16 04 02 14 11 35.0000000  0  3G07G09G16                                       
  24130477.74249 126806517.02049     12929.51649        49.000  
  22385984.02349 117639139.53949      1434.12949        49.000  
  22017069.13349 115700477.90649      8761.70749        49.000  
 16 04 02 14 11 35.1000000  0  3G07G09G16                                       
  24130231.74249 126805224.28949     12925.70349        49.000  
  22385956.80549 117638996.49649      1427.21549        49.000  
  22016902.46149 115699602.02349      8756.65249        49.000  
 16 04 02 14 11 35.2000000  0  3G07G09G16                                       
  24129985.81249 126803931.93449     12921.84849        49.000  
  22385929.71149 117638854.12549      1420.30949        49.000  
  22016735.87549 115698726.63349      8751.41049        49.000  
 16 04 02 14 11 35.3000000  0  3G07G09G16                                       
  24129739.93049 126802639.81249     12919.68049        49.000  
  22385902.71949 117638712.30549      1415.01649        49.000  
  22016569.36749 115697851.59849      8748.13349        49.000  
 16 04 02 14 11 35.4000000  0  3G07G09G16                                       
  24129494.11749 126801348.07449     12915.89849        49.000  
  22385875.85949 117638571.16049      1408.25849        49.000  
  22016402.94549 115696977.07049      8742.99649        49.000  
 16 04 02 14 11 35.5000000  0  3G07G09G16                                       
  24129248.37549 126800056.72749     12911.82049        49.000  
  22385849.13349 117638430.71549      1401.09449        49.000  
  22016236.62549 115696103.04749      8737.85949        49.000  
 16 04 02 14 11 35.6000000  0  3G07G09G16                                       
  24129002.70349 126798765.67649     12908.83249        49.000  
  22385822.52349 117638290.87149      1395.10549        49.000  
  22016070.39149 115695229.46149      8733.55149        49.000  
 16 04 02 14 11 35.7000000  0  3G07G09G16                                       
  24128757.08649 126797474.98449     12905.37149        49.000  
  22385796.03949 117638151.70349      1388.48849        49.000  
  22015904.24249 115694356.35949      8728.85249        49.000  
 16 04 02 14 11 35.8000000  0  3G07G09G16                                       
  24128511.53149 126796184.60949     12902.21549        49.000  
  22385769.67249 117638013.13349      1382.41449        49.000  
  22015738.17249 115693483.66849      8724.56249        49.000  
 16 04 02 14 11 35.9000000  0  3G07G09G16                                       
  24128266.05549 126794894.60249     12898.38349        49.000  
  22385743.43049 117637875.25049      1375.55949        49.000  
  22015572.20349 115692611.50049      8719.36749        49.000  
 16 04 02 14 11 36.0000000  0  3G07G09G16                                       
  24128020.64149 126793604.92249     12895.23849        49.000  
  22385717.31249 117637738.00049      1369.32049        49.000  
  22015406.32849 115691739.77049      8714.99649        49.000  
 16 04 02 14 11 36.1000000  0  3G07G09G16                                       
  24127775.29749 126792315.62549     12891.26649        49.000  
  22385691.32049 117637601.43049      1362.40249        49.000  
  22015240.53149 115690868.53949      8709.96149        49.000  
 16 04 02 14 11 36.2000000  0  3G07G09G16                                       
  24127530.00849 126791026.61749     12888.44149        49.000  
  22385665.44549 117637465.46149      1356.44149        49.000  
  22015074.82049 115689997.73049      8705.82849        49.000  
 16 04 02 14 11 36.3000000  0  3G07G09G16                                       
  24127284.78149 126789737.93449     12885.25049        49.000  
  22385639.69549 117637330.12149      1350.07849        49.000  
  22014909.20349 115689127.37149      8701.19549        49.000  
 16 04 02 14 11 36.4000000  0  3G07G09G16                                       
  24127039.61749 126788449.60549     12881.91049        49.000  
  22385614.06249 117637195.43049      1343.88749        49.000  
  22014743.65649 115688257.47349      8696.96149        49.000  
 16 04 02 14 11 36.5000000  0  3G07G09G16                                       
  24126794.51649 126787161.56649     12878.89149        49.000  
  22385588.55549 117637061.35249      1337.58249        49.000  
  22014578.21149 115687388.01649      8692.39849        49.000  
 16 04 02 14 11 36.6000000  0  3G07G09G16                                       
  24126549.48449 126785873.93049     12874.78549        49.000  
  22385563.17249 117636927.96949      1330.54749        49.000  
  22014412.85249 115686519.06249      8687.25049        49.000  
 16 04 02 14 11 36.7000000  0  3G07G09G16                                       
  24126304.51649 126784586.63349     12871.21149        49.000  
  22385537.90649 117636795.23049      1323.96549        49.000  
  22014247.58649 115685650.57049      8682.48049        49.000  
 16 04 02 14 11 36.8000000  0  3G07G09G16                                       
  24126059.60249 126783299.58649     12868.97349        49.000  
  22385512.75849 117636663.05949      1318.54349        49.000  
  22014082.39149 115684782.46949      8678.79349        49.000  
 16 04 02 14 11 36.9000000  0  3G07G09G16                                       
  24125814.75849 126782012.93849     12864.98449        49.000  
  22385487.74249 117636531.57849      1311.37549        49.000  
  22013917.29749 115683914.87549      8673.55949        49.000  
 16 04 02 14 11 37.0000000  0  3G07G09G16                                       
  24125569.99249 126780726.68849     12860.92649        49.000  
  22385462.85249 117636400.79349      1304.43449        49.000  
  22013752.29749 115683047.80149      8668.35249        49.000  
 16 04 02 14 11 37.1000000  0  3G07G09G16                                       
  24125325.28949 126779440.78949     12857.23449        49.000  
  22385438.08649 117636270.66849      1297.86349        49.000  
  22013587.39149 115682181.20349      8663.48049        49.000  
 16 04 02 14 11 37.2000000  0  3G07G09G16                                       
  24125080.64149 126778155.15249     12854.69549        49.000  
  22385413.43849 117636141.12149      1292.27749        49.000  
  22013422.55549 115681314.99249      8659.90249        49.000  
 16 04 02 14 11 37.3000000  0  3G07G09G16                                       
  24124836.06249 126776869.88749     12851.00049        49.000  
  22385388.91449 117636012.23449      1285.57049        49.000  
  22013257.81249 115680449.27749      8654.83249        49.000  
 16 04 02 14 11 37.4000000  0  3G07G09G16                                       
  24124591.55549 126775585.00849     12847.19949        49.000  
  22385364.52349 117635884.05549      1278.54349        49.000  
  22013093.17249 115679584.07449      8649.68449        49.000  
 16 04 02 14 11 37.5000000  0  3G07G09G16                                       
  24124347.10249 126774300.41049     12844.43449        49.000  
  22385340.23449 117635756.45349      1272.85949        49.000  
  22012928.60949 115678719.27349      8645.81649        49.000  
 16 04 02 14 11 37.6000000  0  3G07G09G16                                       
  24124102.71949 126773016.14849     12841.03549        49.000  
  22385316.07849 117635629.48049      1266.47349        49.000  
  22012764.12549 115677854.91049      8641.30549        49.000  
 16 04 02 14 11 37.7000000  0  3G07G09G16                                       
  24123858.39849 126771732.20349     12837.90649        49.000  
  22385292.03149 117635503.14149      1260.28949        49.000  
  22012599.73449 115676991.01649      8636.80949        49.000  
 16 04 02 14 11 37.8000000  0  3G07G09G16                                       
  24123614.13349 126770448.57849     12834.68849        49.000  
  22385268.10949 117635377.44149      1253.73449        49.000  
  22012435.42249 115676127.57449      8632.18449        49.000  
 16 04 02 14 11 37.9000000  0  3G07G09G16                                       
  24123369.93849 126769165.30949     12831.26649        49.000  
  22385244.31249 117635252.37149      1247.55549        49.000  
  22012271.20349 115675264.57449      8627.88749        49.000  
 16 04 02 14 11 38.0000000  0  3G07G09G16                                       
  24123125.81249 126767882.42649     12827.19149        49.000  
  22385220.64849 117635128.01649      1240.25849        49.000  
  22012107.08649 115674402.11349      8622.23849        49.000  
 16 04 02 14 11 38.1000000  0  3G07G09G16                                       
  24122881.76649 126766599.90249     12823.41849        49.000  
  22385197.10249 117635004.30949      1233.59449        49.000  
  22011943.04749 115673540.10549      8617.51649        49.000  
 16 04 02 14 11 38.2000000  0  3G07G09G16                                       
  24122637.76649 126765317.68049     12820.54349        49.000  
  22385173.68049 117634881.21549      1227.48449        49.000  
  22011779.10249 115672678.54749      8613.10549        49.000  
 16 04 02 14 11 38.3000000  0  3G07G09G16                                       
  24122393.82849 126764035.78949     12817.31649        49.000  
  22385150.37549 117634758.75049      1221.46549        49.000  
  22011615.23449 115671817.42649      8608.96549        49.000  
 16 04 02 14 11 38.4000000  0  3G07G09G16                                       
  24122149.95349 126762754.21149     12814.25049        49.000  
  22385127.18849 117634636.90649      1215.26249        49.000  
  22011451.45349 115670956.75449      8604.54349        49.000  
 16 04 02 14 11 38.5000000  0  3G07G09G16                                       
  24121906.14849 126761473.02049     12810.23449        49.000  
  22385104.13349 117634515.75449      1208.13349        49.000  
  22011287.76649 115670096.57849      8599.34849        49.000  
 16 04 02 14 11 38.6000000  0  3G07G09G16                                       
  24121662.42249 126760192.20749     12806.43449        49.000  
  22385081.21149 117634395.27349      1201.52749        49.000  
  22011124.18049 115669236.90649      8594.49649        49.000  
 16 04 02 14 11 38.7000000  0  3G07G09G16                                       
  24121418.73449 126758911.62949     12804.09049        49.000  
  22385058.39149 117634275.35949      1195.80949        49.000  
  22010960.65649 115668377.60949      8590.60249        49.000  
 16 04 02 14 11 38.8000000  0  3G07G09G16                                       
  24121175.11749 126757631.41849     12800.75849        49.000  
  22385035.70349 117634156.10249      1189.45349        49.000  
  22010797.23449 115667518.79349      8586.02749        49.000  
 16 04 02 14 11 38.9000000  0  3G07G09G16                                       
  24120931.57849 126756351.57849     12796.82449        49.000  
  22385013.13349 117634037.50449      1182.67649        49.000  
  22010633.89849 115666660.45349      8581.06249        49.000  
 16 04 02 14 11 39.0000000  0  3G07G09G16                                       
  24120688.10249 126755072.10949     12792.93449        49.000  
  22384990.69549 117633919.59449      1175.64849        49.000  
  22010470.65649 115665802.62149      8576.02349        49.000  
 16 04 02 14 11 39.1000000  0  3G07G09G16                                       
  24120444.68849 126753792.99249     12789.48049        49.000  
  22384968.38349 117633802.33249      1169.20349        49.000  
  22010307.50849 115664945.26649      8571.07049        49.000  
 16 04 02 14 11 39.2000000  0  3G07G09G16                                       
  24120201.33649 126752514.17649     12786.54749        49.000  
  22384946.18849 117633685.68849      1163.09449        49.000  
  22010144.44549 115664088.33249      8566.92649        49.000  
 16 04 02 14 11 39.3000000  0  3G07G09G16                                       
  24119958.05549 126751235.72749     12783.00849        49.000  
  22384924.11749 117633569.70749      1156.60249        49.000  
  22009981.46949 115663231.89549      8562.17649        49.000  
 16 04 02 14 11 39.4000000  0  3G07G09G16                                       
  24119714.83649 126749957.59849     12779.87149        49.000  
  22384902.16449 117633454.35549      1150.41849        49.000  
  22009818.57849 115662375.88749      8557.89849        49.000  
 16 04 02 14 11 39.5000000  0  3G07G09G16                                       
  24119471.68049 126748679.80149     12776.46549        49.000  
  22384880.32849 117633339.63349      1143.90249        49.000  
  22009655.77349 115661520.34049      8553.12149        49.000  
 16 04 02 14 11 39.6000000  0  3G07G09G16                                       
  24119228.59449 126747402.37149     12772.64149        49.000  
  22384858.62549 117633225.58249      1137.27049        49.000  
  22009493.06249 115660665.27349      8548.33249        49.000  
 16 04 02 14 11 39.7000000  0  3G07G09G16                                       
  24118985.57049 126746125.27349     12769.44149        49.000  
  22384837.04749 117633112.16449      1130.97349        49.000  
  22009330.43049 115659810.66449      8543.78949        49.000  
 16 04 02 14 11 39.8000000  0  3G07G09G16                                       
  24118742.60249 126744848.47349     12766.37949        49.000  
  22384815.57849 117632999.35249      1124.72749        49.000  
  22009167.88349 115658956.48049      8539.55149        49.000  
 16 04 02 14 11 39.9000000  0  3G07G09G16                                       
  24118499.70349 126743572.07849     12762.43049        49.000  
  22384794.24249 117632887.25449      1117.75849        49.000  
  22009005.43849 115658102.82449      8534.29749        49.000  
 16 04 02 14 11 40.0000000  0  3G07G09G16                                       
  24118256.86749 126742295.95749     12759.62149        49.000  
  22384773.02349 117632775.73049      1111.92649        49.000  
  22008843.07849 115657249.56649      8530.29749        49.000  
 16 04 02 14 11 40.1000000  0  3G07G09G16                                       
  24118014.10249 126741020.21949     12755.80949        49.000  
  22384751.93049 117632664.88749      1105.19949        49.000  
  22008680.80549 115656396.81249      8525.30149        49.000  
 16 04 02 14 11 40.2000000  0  3G07G09G16                                       
  24117771.40649 126739744.83649     12752.36349        49.000  
  22384730.96149 117632554.71149      1098.51649        49.000  
  22008518.61749 115655544.53949      8520.36349        49.000  
 16 04 02 14 11 40.3000000  0  3G07G09G16                                       
  24117528.77349 126738469.83249     12748.42249        49.000  
  22384710.11749 117632445.19549      1091.78549        49.000  
  22008356.53149 115654692.73849      8515.62149        49.000  
 16 04 02 14 11 40.4000000  0  3G07G09G16                                       
  24117286.21149 126737195.17249     12744.95749        49.000  
  22384689.40649 117632336.35949      1085.12949        49.000  
  22008194.53149 115653841.44149      8510.75049        49.000  
 16 04 02 14 11 40.5000000  0  3G07G09G16                                       
  24117043.70349 126735920.81649     12742.09049        49.000  
  22384668.81249 117632228.10249      1079.48449        49.000  
  22008032.60949 115652990.55149      8506.71949        49.000  
 16 04 02 14 11 40.6000000  0  3G07G09G16                                       
  24116801.26649 126734646.77749     12738.73849        49.000  
  22384648.32849 117632120.48449      1072.85249        49.000  
  22007870.77349 115652140.10549      8502.09449        49.000  
 16 04 02 14 11 40.7000000  0  3G07G09G16                                       
  24116558.90649 126733373.15649     12734.57449        49.000  
  22384627.99249 117632013.58249      1065.77349        49.000  
  22007709.04749 115651290.20349      8496.72749        49.000  
 16 04 02 14 11 40.8000000  0  3G07G09G16                                       
  24116316.59449 126732099.82449     12731.58649        49.000  
  22384607.75849 117631907.27049      1059.73049        49.000  
  22007547.39149 115650440.70349      8492.58249        49.000  
 16 04 02 14 11 40.9000000  0  3G07G09G16                                       
  24116074.35249 126730826.85949     12728.01249        49.000  
  22384587.65649 117631801.63749      1053.02049        49.000  
  22007385.82849 115649591.70349      8487.68049        49.000  
 16 04 02 14 11 41.0000000  0  3G07G09G16                                       
  24115832.18849 126729554.29349     12724.00049        49.000  
  22384567.68849 117631696.68849      1046.23449        49.000  
  22007224.36749 115648743.20749      8482.63749        49.000  
 16 04 02 14 11 41.1000000  0  3G07G09G16                                       
  24115590.07849 126728282.00449     12721.11749        49.000  
  22384547.82849 117631592.34849      1040.00849        49.000  
  22007062.98449 115647895.13349      8478.37149        49.000  
 16 04 02 14 11 41.2000000  0  3G07G09G16                                       
  24115348.03949 126727010.07449     12717.60549        49.000  
  22384528.09449 117631488.64549      1033.61749        49.000  
  22006901.69549 115647047.52349      8473.68449        49.000  
 16 04 02 14 11 41.3000000  0  3G07G09G16                                       
  24115106.05549 126725738.44549     12714.76649        49.000  
  22384508.47749 117631385.56249      1027.60249        49.000  
  22006740.48449 115646200.35249      8469.52349        49.000  
 16 04 02 14 11 41.4000000  0  3G07G09G16                                       
  24114864.14149 126724467.19949     12711.02049        49.000  
  22384488.98449 117631283.15649      1020.77049        49.000  
  22006579.36749 115645353.67649      8464.52749        49.000  
 16 04 02 14 11 41.5000000  0  3G07G09G16                                       
  24114622.29749 126723196.32849     12707.14149        49.000  
  22384469.63349 117631181.42249      1014.07049        49.000  
  22006418.34449 115644507.49249      8459.55549        49.000  
 16 04 02 14 11 41.6000000  0  3G07G09G16                                       
  24114380.51649 126721925.72749     12704.34049        49.000  
  22384450.38349 117631080.27749      1008.14549        49.000  
  22006257.39149 115643661.69949      8455.59449        49.000  
 16 04 02 14 11 41.7000000  0  3G07G09G16                                       
  24114138.78949 126720655.48449     12701.00049        49.000  
  22384431.25849 117630979.78549      1001.82849        49.000  
  22006096.53949 115642816.40249      8450.84449        49.000  
 16 04 02 14 11 41.8000000  0  3G07G09G16                                       
  24113897.12549 126719385.55149     12697.85949        49.000  
  22384412.25049 117630879.90249       995.64849        49.000  
  22005935.76649 115641971.51249      8446.64849        49.000  
 16 04 02 14 11 41.9000000  0  3G07G09G16                                       
  24113655.53149 126718115.93849     12694.56249        49.000  
  22384393.35949 117630780.64549       989.32849        49.000  
  22005775.07049 115641127.07849      8442.18849        49.000  
 16 04 02 14 11 42.0000000  0  3G07G09G16                                       
  24113414.00849 126716846.74249     12690.27749        49.000  
  22384374.60949 117630682.10249       982.04749        49.000  
  22005614.49249 115640283.18449      8436.68049        49.000  
 16 04 02 14 11 42.1000000  0  3G07G09G16                                       
  24113172.55549 126715577.88749     12686.86349        49.000  
  22384355.98449 117630584.20749       975.69549        49.000  
  22005453.99249 115639439.75849      8431.96549        49.000  
 16 04 02 14 11 42.2000000  0  3G07G09G16                                       
  24112931.15649 126714309.33249     12683.98049        49.000  
  22384337.47749 117630486.93449       969.55149        49.000  
  22005293.57049 115638596.75049      8427.82449        49.000  
 16 04 02 14 11 42.3000000  0  3G07G09G16                                       
  24112689.81249 126713041.09849     12680.87149        49.000  
  22384319.07849 117630390.27049       963.44949        49.000  
  22005133.23449 115637754.17649      8423.55149        49.000  
 16 04 02 14 11 42.4000000  0  3G07G09G16                                       
  24112448.54749 126711773.25449     12676.97349        49.000  
  22384300.81249 117630294.27749       956.89849        49.000  
  22004973.00049 115636912.11749      8418.47749        49.000  
 16 04 02 14 11 42.5000000  0  3G07G09G16                                       
  24112207.34449 126710505.68449     12674.02049        49.000  
  22384282.66449 117630198.89849       950.52349        49.000  
  22004812.83649 115636070.46549      8414.16449        49.000  
 16 04 02 14 11 42.6000000  0  3G07G09G16                                       
  24111966.20349 126709238.47349     12670.54749        49.000  
  22384264.63349 117630104.16449       944.03149        49.000  
  22004652.76649 115635229.29349      8409.46549        49.000  
 16 04 02 14 11 42.7000000  0  3G07G09G16                                       
  24111725.13349 126707971.68049     12666.27049        49.000  
  22384246.74249 117630010.14549       936.78549        49.000  
  22004492.79749 115634388.64549      8404.02049        49.000  
 16 04 02 14 11 42.8000000  0  3G07G09G16                                       
  24111484.13349 126706705.21149     12662.94549        49.000  
  22384228.96949 117629916.75849       930.57849        49.000  
  22004332.92249 115633548.46549      8399.35249        49.000  
 16 04 02 14 11 42.9000000  0  3G07G09G16                                       
  24111243.20349 126705439.10549     12659.39149        49.000  
  22384211.32849 117629824.04349       923.75449        49.000  
  22004173.12549 115632708.74649      8394.67649        49.000  
 16 04 02 14 11 43.0000000  0  3G07G09G16                                       
  24111002.32849 126704173.32849     12655.99649        49.000  
  22384193.80549 117629731.94949       917.41449        49.000  
  22004013.42249 115631869.48049      8390.14149        49.000  
 16 04 02 14 11 43.1000000  0  3G07G09G16                                       
  24110761.51649 126702907.85949     12653.24649        49.000  
  22384176.39849 117629640.47349       911.60549        49.000  
  22003853.80549 115631030.66049      8386.02349        49.000  
 16 04 02 14 11 43.2000000  0  3G07G09G16                                       
  24110520.76649 126701642.70349     12650.09449        49.000  
  22384159.10949 117629549.61349       905.46149        49.000  
  22003694.25849 115630192.26249      8381.79349        49.000  
 16 04 02 14 11 43.3000000  0  3G07G09G16                                       
  24110280.08649 126700377.93849     12646.16049        49.000  
  22384141.94549 117629459.44549       898.39549        49.000  
  22003534.81249 115629354.38349      8376.59049        49.000  
 16 04 02 14 11 43.4000000  0  3G07G09G16                                       
  24110039.47749 126699113.50849     12642.77349        49.000  
  22384124.91449 117629369.91049       892.18049        49.000  
  22003375.46149 115628516.96949      8371.85549        49.000  
 16 04 02 14 11 43.5000000  0  3G07G09G16                                       
  24109798.93049 126697849.40249     12639.46149        49.000  
  22384107.99249 117629281.00049       885.79349        49.000  
  22003216.18849 115627679.98049      8367.50049        49.000  
 16 04 02 14 11 43.6000000  0  3G07G09G16                                       
  24109558.46149 126696585.72349     12635.03149        49.000  
  22384091.21149 117629192.81649       878.41049        49.000  
  22003057.01649 115626843.53949      8361.91849        49.000  
 16 04 02 14 11 43.7000000  0  3G07G09G16                                       
  24109318.03149 126695322.34049     12632.25049        49.000  
  22384074.54749 117629105.23849       872.72349        49.000  
  22002897.92249 115626007.52049      8358.01649        49.000  
 16 04 02 14 11 43.8000000  0  3G07G09G16                                       
  24109077.68849 126694059.28949     12628.95749        49.000  
  22384058.00049 117629018.31249       866.09449        49.000  
  22002738.92249 115625171.97749      8353.35249        49.000  
 16 04 02 14 11 43.9000000  0  3G07G09G16                                       
  24108837.40649 126692796.64149     12624.83649        49.000  
  22384041.59449 117628932.05949       859.11749        49.000  
  22002580.01649 115624336.92649      8348.10249        49.000  
 16 04 02 14 11 44.0000000  0  3G07G09G16                                       
  24108597.19549 126691534.31249     12621.58649        49.000  
  22384025.30549 117628846.45349       852.70749        49.000  
  22002421.20349 115623502.34849      8343.41049        49.000  
 16 04 02 14 11 44.1000000  0  3G07G09G16                                       
  24108357.04749 126690272.30549     12618.49249        49.000  
  22384009.12549 117628761.45749       846.77749        49.000  
  22002262.46949 115622668.19149      8339.32449        49.000  
 16 04 02 14 11 44.2000000  0  3G07G09G16                                       
  24108116.95349 126689010.60949     12615.50449        49.000  
  22383993.07049 117628677.07849       840.67249        49.000  
  22002103.81249 115621834.46549      8335.12149        49.000  
 16 04 02 14 11 44.3000000  0  3G07G09G16                                       
  24107876.92249 126687749.27749     12611.77049        49.000  
  22383977.14149 117628593.36749       833.85249        49.000  
  22001945.25049 115621001.24249      8329.99249        49.000  
 16 04 02 14 11 44.4000000  0  3G07G09G16                                       
  24107636.96949 126686488.30149     12608.08649        49.000  
  22383961.33649 117628510.30949       827.17649        49.000  
  22001786.78149 115620168.48049      8325.25049        49.000  
 16 04 02 14 11 44.5000000  0  3G07G09G16                                       
  24107397.08649 126685227.69149     12604.46949        49.000  
  22383945.66449 117628427.92649       820.55149        49.000  
  22001628.40649 115619336.21549      8320.31649        49.000  
 16 04 02 14 11 44.6000000  0  3G07G09G16                                       
  24107157.25049 126683967.36349     12601.56649        49.000  
  22383930.09449 117628346.11749       814.66849        49.000  
  22001470.10249 115618504.34449      8316.32449        49.000  
 16 04 02 14 11 44.7000000  0  3G07G09G16                                       
  24106917.50049 126682707.44549     12597.62949        49.000  
  22383914.66449 117628265.03149       807.64849        49.000  
  22001311.90649 115617673.01249      8311.09449        49.000  
 16 04 02 14 11 44.8000000  0  3G07G09G16                                       
  24106677.81249 126681447.87949     12593.89849        49.000  
  22383899.35249 117628184.58249       801.17249        49.000  
  22001153.80549 115616842.14149      8306.27349        49.000  
 16 04 02 14 11 44.9000000  0  3G07G09G16                                       
  24106438.18049 126680188.62149     12590.81249        49.000  
  22383884.16449 117628104.76249       794.92249        49.000  
  22000995.77349 115616011.70749      8301.94149        49.000  
 16 04 02 14 11 45.0000000  0  3G07G09G16                                       
  24106198.60949 126678929.68849     12587.83249        49.000  
  22383869.09449 117628025.57049       788.68449        49.000  
  22000837.83649 115615181.72749      8297.60949        49.000  
 16 04 02 14 11 45.1000000  0  3G07G09G16                                       
  24105959.11749 126677671.14849     12583.66849        49.000  
  22383854.15649 117627947.06249       781.63749        49.000  
  22000679.99249 115614352.25849      8292.32849        49.000  
 16 04 02 14 11 45.2000000  0  3G07G09G16                                       
  24105719.69549 126676412.94149     12580.60949        49.000  
  22383839.33649 117627869.19949       775.59449        49.000  
  22000522.24249 115613523.24249      8288.00849        49.000  
 16 04 02 14 11 45.3000000  0  3G07G09G16                                       
  24105480.31249 126675155.01649     12577.72749        49.000  
  22383824.62549 117627791.91849       769.54749        49.000  
  22000364.55549 115612694.62949      8283.85249        49.000  
 16 04 02 14 11 45.4000000  0  3G07G09G16                                       
  24105241.01649 126673897.48049     12573.91049        49.000  
  22383810.05549 117627715.31649       762.82449        50.000  
  22000206.96949 115611866.51649      8278.98449        49.000  
 16 04 02 14 11 45.5000000  0  3G07G09G16                                       
  24105001.77349 126672640.25049     12570.83249        49.000  
  22383795.58649 117627639.32449       756.84849        49.000  
  22000049.46949 115611038.84449      8274.62949        49.000  
 16 04 02 14 11 45.6000000  0  3G07G09G16                                       
  24104762.59449 126671383.34849     12567.53549        49.000  
  22383781.25049 117627563.97749       750.32049        49.000  
  21999892.05549 115610211.62149      8270.02349        49.000  
 16 04 02 14 11 45.7000000  0  3G07G09G16                                       
  24104523.47749 126670126.78949     12563.91849        49.000  
  22383767.03149 117627489.26249       743.71949        49.000  
  21999734.72749 115609384.85249      8265.27349        49.000  
 16 04 02 14 11 45.8000000  0  3G07G09G16                                       
  24104284.43849 126668870.64549     12559.82849        49.000  
  22383752.94549 117627415.26249       736.63749        49.000  
  21999577.50049 115608558.62149      8259.99249        49.000  
 16 04 02 14 11 45.9000000  0  3G07G09G16                                       
  24104045.46149 126667614.80549     12556.76249        49.000  
  22383738.97749 117627341.87149       730.69549        49.000  
  21999420.35249 115607732.80949      8255.89849        49.000  
 16 04 02 14 11 46.0000000  0  3G07G09G16                                       
  24103806.53149 126666359.23449     12554.25449        49.000  
  22383725.12549 117627269.05549       725.07849        49.000  
  21999263.28949 115606907.41049      8251.89149        49.000  
 16 04 02 14 11 46.1000000  0  3G07G09G16                                       
  24103567.68049 126665104.06249     12550.21949        49.000  
  22383711.40649 117627196.94149       718.00449        49.000  
  21999106.31249 115606082.51649      8246.73449        49.000  
 16 04 02 14 11 46.2000000  0  3G07G09G16                                       
  24103328.89149 126663849.23449     12546.69149        49.000  
  22383697.79749 117627125.46149       711.54349        49.000  
  21998949.43049 115605258.08649      8241.94149        49.000  
 16 04 02 14 11 46.3000000  0  3G07G09G16                                       
  24103090.18049 126662594.77049     12543.01649        49.000  
  22383684.32849 117627054.66049       704.74649        49.000  
  21998792.64149 115604434.13349      8237.19949        49.000  
 16 04 02 14 11 46.4000000  0  3G07G09G16                                       
  24102851.52349 126661340.65249     12539.55149        49.000  
  22383670.97749 117626984.50049       698.36749        49.000  
  21998635.93849 115603610.66049      8232.44549        49.000  
 16 04 02 14 11 46.5000000  0  3G07G09G16                                       
  24102612.93049 126660086.86749     12536.25049        49.000  
  22383657.75049 117626914.97749       691.90249        50.000  
  21998479.32049 115602787.63749      8227.90649        49.000  
 16 04 02 14 11 46.6000000  0  3G07G09G16                                       
  24102374.39849 126658833.38349     12533.38349        49.000  
  22383644.63349 117626846.04749       686.18449        50.000  
  21998322.78949 115601965.03549      8223.89549        49.000  
 16 04 02 14 11 46.7000000  0  3G07G09G16                                       
  24102135.93849 126657580.23849     12529.84449        49.000  
  22383631.63349 117626777.77049       679.54349        50.000  
  21998166.33649 115601142.89849      8219.06249        49.000  
 16 04 02 14 11 46.8000000  0  3G07G09G16                                       
  24101897.55549 126656327.52349     12525.48849        49.000  
  22383618.78149 117626710.21549       672.17249        49.000  
  21998009.99249 115600321.29749      8213.63749        49.000  
 16 04 02 14 11 46.9000000  0  3G07G09G16                                       
  24101659.22749 126655075.11749     12522.32849        49.000  
  22383606.04749 117626643.27349       666.01249        49.000  
  21997853.73449 115599500.14149      8209.09449        49.000  
 16 04 02 14 11 47.0000000  0  3G07G09G16                                       
  24101420.96949 126653823.07849     12518.67249        49.000  
  22383593.43849 117626577.00049       659.24649        49.000  
  21997697.57049 115598679.46549      8204.28149        49.000  
 16 04 02 14 11 47.1000000  0  3G07G09G16                                       
  24101182.78149 126652571.40649     12515.20349        49.000  
  22383580.95349 117626511.40249       652.75849        49.000  
  21997541.50049 115597859.28949      8199.55549        49.000  
 16 04 02 14 11 47.2000000  0  3G07G09G16                                       
  24100944.65649 126651320.05549     12511.81649        49.000  
  22383568.58649 117626446.41449       646.44149        49.000  
  21997385.50049 115597039.53549      8195.09849        49.000  
 16 04 02 14 11 47.3000000  0  3G07G09G16                                       
  24100706.60249 126650069.05149     12508.44149        49.000  
  22383556.34449 117626382.07449       640.30549        49.000  
  21997229.60249 115596220.25849      8190.56649        49.000  
 16 04 02 14 11 47.4000000  0  3G07G09G16                                       
  24100468.60249 126648818.36749     12505.24649        49.000  
  22383544.21949 117626318.37149       633.72749        49.000  
  21997073.78949 115595401.42649      8185.94949        49.000  
 16 04 02 14 11 47.5000000  0  3G07G09G16                                       
  24100230.68049 126647568.04749     12501.63349        49.000  
  22383532.21949 117626255.32049       627.27049        49.000  
  21996918.06249 115594583.07049      8181.27349        49.000  
 16 04 02 14 11 47.6000000  0  3G07G09G16                                       
  24099992.80549 126646318.02049     12498.60549        49.000  
  22383520.33649 117626192.87149       621.13749        49.000  
  21996762.42249 115593765.14549      8176.91049        49.000  
 16 04 02 14 11 47.7000000  0  3G07G09G16                                       
  24099755.01649 126645068.39149     12494.78549        49.000  
  22383508.58649 117626131.12549       614.30549        49.000  
  21996606.86749 115592947.72349      8171.99249        49.000  
 16 04 02 14 11 47.8000000  0  3G07G09G16                                       
  24099517.28949 126643819.12549     12491.06649        49.000  
  22383496.96149 117626070.02349       607.78549        49.000  
  21996451.40649 115592130.77749      8167.24649        49.000  
 16 04 02 14 11 47.9000000  0  3G07G09G16                                       
  24099279.60949 126642570.11749     12488.43449        49.000  
  22383485.44549 117626009.50449       601.93849        49.000  
  21996296.02349 115591314.23049      8163.15249        49.000  
 16 04 02 14 11 48.0000000  0  3G07G09G16                                       
  24099042.00849 126641321.51249     12484.53149        49.000  
  22383474.06249 117625949.67649       595.04749        49.000  
  21996140.73449 115590498.19549      8158.11349        49.000  
 16 04 02 14 11 48.1000000  0  3G07G09G16                                       
  24098804.46949 126640073.27749     12480.57849        49.000  
  22383462.79749 117625890.50449       588.30149        49.000  
  21995985.53949 115589682.64549      8153.09049        49.000  
 16 04 02 14 11 48.2000000  0  3G07G09G16                                       
  24098567.00849 126638825.39849     12477.02349        49.000  
  22383451.67249 117625832.03549       581.35949        49.000  
  21995830.44549 115588867.59849      8148.06249        49.000  
 16 04 02 14 11 48.3000000  0  3G07G09G16                                       
  24098329.60249 126637577.84049     12474.17249        49.000  
  22383440.64849 117625774.12949       575.89149        49.000  
  21995675.42249 115588052.95349      8144.29749        49.000  
 16 04 02 14 11 48.4000000  0  3G07G09G16                                       
  24098092.25849 126636330.59449     12470.97749        49.000  
  22383429.75849 117625716.87949       569.37149        49.000  
  21995520.48449 115587238.77049      8139.59449        49.000  
 16 04 02 14 11 48.5000000  0  3G07G09G16                                       
  24097854.97749 126635083.72349     12467.08249        49.000  
  22383418.98449 117625660.29749       562.36749        49.000  
  21995365.64149 115586425.07449      8134.57849        49.000  
 16 04 02 14 11 48.6000000  0  3G07G09G16                                       
  24097617.78149 126633837.23849     12463.21549        49.000  
  22383408.34449 117625604.39149       555.77349        49.000  
  21995210.89149 115585611.87949      8129.61749        49.000  
 16 04 02 14 11 48.7000000  0  3G07G09G16                                       
  24097380.64849 126632591.09049     12459.85949        49.000  
  22383397.82849 117625549.12149       549.38749        49.000  
  21995056.23449 115584799.14549      8124.99649        49.000  
 16 04 02 14 11 48.8000000  0  3G07G09G16                                       
  24097143.57049 126631345.22749     12457.08649        49.000  
  22383387.42249 117625494.45349       543.48849        49.000  
  21994901.64849 115583986.82049      8121.08649        49.000  
 16 04 02 14 11 48.9000000  0  3G07G09G16                                       
  24096906.54749 126630099.66849     12454.02049        49.000  
  22383377.13349 117625440.37149       537.51249        49.000  
  21994747.14849 115583174.91849      8116.71149        49.000  
 16 04 02 14 11 49.0000000  0  3G07G09G16                                       
  24096669.59449 126628854.48449     12450.59449        49.000  
  22383366.97749 117625386.97749       531.12949        49.000  
  21994592.74249 115582363.50849      8112.12949        49.000  
 16 04 02 14 11 49.1000000  0  3G07G09G16                                       
  24096432.70349 126627609.62549     12446.99249        49.000  
  22383356.93849 117625334.20349       524.50049        49.000  
  21994438.42249 115581552.54349      8107.41449        49.000  
 16 04 02 14 11 49.2000000  0  3G07G09G16                                       
  24096195.87549 126626365.07849     12443.91449        49.000  
  22383347.00849 117625282.04349       518.39149        49.000  
  21994284.18849 115580742.01249      8103.13349        49.000  
 16 04 02 14 11 49.3000000  0  3G07G09G16                                       
  24095959.10949 126625120.90249     12440.18049        49.000  
  22383337.21149 117625230.56249       511.57049        49.000  
  21994130.03949 115579931.97349      8098.10549        49.000  
 16 04 02 14 11 49.4000000  0  3G07G09G16                                       
  24095722.43049 126623877.10949     12436.31249        49.000  
  22383327.53949 117625179.75849       504.79749        49.000  
  21993975.99249 115579122.43849      8093.05149        49.000  
 16 04 02 14 11 49.5000000  0  3G07G09G16                                       
  24095485.80549 126622633.64849     12432.85949        49.000  
  22383318.00049 117625129.58649       498.28149        49.000  
  21993822.02349 115578313.35249      8088.43849        49.000  
 16 04 02 14 11 49.6000000  0  3G07G09G16                                       
  24095249.24249 126621390.52749     12429.69949        49.000  
  22383308.57049 117625080.06249       492.13349        49.000  
  21993668.14849 115577504.72749      8084.10549        49.000  
 16 04 02 14 11 49.7000000  0  3G07G09G16                                       
  24095012.75849 126620147.75849     12426.03949        49.000  
  22383299.26649 117625031.16849       485.51249        49.000  
  21993514.35949 115576696.56649      8079.26649        49.000  
 16 04 02 14 11 49.8000000  0  3G07G09G16                                       
  24094776.33649 126618905.35949     12422.40249        49.000  
  22383290.09449 117624982.97749       478.76249        49.000  
  21993360.67249 115575888.91849      8074.30549        49.000  
 16 04 02 14 11 49.9000000  0  3G07G09G16                                       
  24094539.98449 126617663.32849     12418.60549        49.000  
  22383281.04749 117624935.42649       472.09449        49.000  
  21993207.06249 115575081.73849      8069.45349        49.000  
 16 04 02 14 11 50.0000000  0  3G07G09G16                                       
  24094303.69549 126616421.59449     12415.68449        49.000  
  22383272.11749 117624888.49249       466.00049        49.000  
  21993053.54749 115574274.98849      8065.13749        49.000  
 16 04 02 14 11 50.1000000  0  3G07G09G16                                       
  24094067.46949 126615180.23849     12411.98849        49.000  
  22383263.31249 117624842.23049       459.41449        49.000  
  21992900.11749 115573468.73049      8060.28149        49.000  
 16 04 02 14 11 50.2000000  0  3G07G09G16                                       
  24093831.31249 126613939.22749     12408.43849        49.000  
  22383254.63349 117624796.61349       452.71949        49.000  
  21992746.78149 115572662.93849      8055.54349        49.000  
 16 04 02 14 11 50.3000000  0  3G07G09G16                                       
  24093595.22749 126612698.59849     12404.77349        49.000  
  22383246.08649 117624751.67249       446.23849        49.000  
  21992593.53949 115571857.63749      8050.77349        49.000  
 16 04 02 14 11 50.4000000  0  3G07G09G16                                       
  24093359.19549 126611458.25049     12401.88749        49.000  
  22383237.64149 117624707.31249       440.31649        49.000  
  21992440.37549 115571052.75849      8046.50849        49.000  
 16 04 02 14 11 50.5000000  0  3G07G09G16                                       
  24093123.24249 126610218.30949     12397.93449        49.000  
  22383229.33649 117624663.66449       433.32049        49.000  
  21992287.30549 115570248.38749      8041.44949        49.000  
 16 04 02 14 11 50.6000000  0  3G07G09G16                                       
  24092887.35249 126608978.71549     12394.28949        49.000  
  22383221.15649 117624620.66849       426.67249        49.000  
  21992134.32849 115569444.49249      8036.59049        49.000  
 16 04 02 14 11 50.7000000  0  3G07G09G16                                       
  24092651.53949 126607739.49249     12390.59849        49.000  
  22383213.09449 117624578.33249       420.09449        49.000  
  21991981.44549 115568641.08249      8031.74649        49.000  
 16 04 02 14 11 50.8000000  0  3G07G09G16                                       
  24092415.78949 126606500.59849     12387.23449        49.000  
  22383205.16449 117624536.63349       413.63349        49.000  
  21991828.64149 115567838.11749      8027.18449        49.000  
 16 04 02 14 11 50.9000000  0  3G07G09G16                                       
  24092180.10249 126605262.06249     12383.83649        49.000  
  22383197.35249 117624495.59049       407.21149        49.000  
  21991675.93849 115567035.64549      8022.53549        49.000  
 16 04 02 14 11 51.0000000  0  3G07G09G16                                       
  24091944.47749 126604023.84849     12380.64849        49.000  
  22383189.66449 117624455.17649       401.06649        49.000  
  21991523.31249 115566233.60949      8018.10549        49.000  
 16 04 02 14 11 51.1000000  0  3G07G09G16                                       
  24091708.90649 126602785.92249     12377.62949        49.000  
  22383182.08649 117624415.33649       395.16849        49.000  
  21991370.76649 115565431.97349      8014.10249        49.000  
 16 04 02 14 11 51.2000000  0  3G07G09G16                                       
  24091473.40649 126601548.37549     12374.01649        49.000  
  22383174.63349 117624376.19149       388.34849        49.000  
  21991218.32049 115564630.84849      8009.12549        49.000  
 16 04 02 14 11 51.3000000  0  3G07G09G16                                       
  24091237.96949 126600311.16849     12370.36349        49.000  
  22383167.30549 117624337.68049       381.73449        49.000  
  21991065.95349 115563830.17649      8004.37949        49.000  
 16 04 02 14 11 51.4000000  0  3G07G09G16                                       
  24091002.59449 126599074.30149     12367.19149        49.000  
  22383160.09449 117624299.79749       375.69549        49.000  
  21990913.68049 115563029.95749      8000.05149        49.000  
 16 04 02 14 11 51.5000000  0  3G07G09G16                                       
  24090767.28949 126597837.77349     12363.47749        49.000  
  22383153.01649 117624262.56249       368.95349        49.000  
  21990761.49249 115562230.21549      7994.96549        49.000  
 16 04 02 14 11 51.6000000  0  3G07G09G16                                       
  24090532.06249 126596601.62949     12359.79349        49.000  
  22383146.06249 117624226.02049       362.19149        49.000  
  21990609.39849 115561430.96149      7990.22349        49.000  
 16 04 02 14 11 51.7000000  0  3G07G09G16                                       
  24090296.89149 126595365.84449     12356.28149        49.000  
  22383139.23449 117624190.13749       355.59449        49.000  
  21990457.39849 115560632.19549      7985.42249        49.000  
 16 04 02 14 11 51.8000000  0  3G07G09G16                                       
  24090061.78949 126594130.38349     12352.85949        49.000  
  22383132.51649 117624154.85249       349.45749        50.000  
  21990305.48449 115559833.86349      7980.90249        49.000  
 16 04 02 14 11 51.9000000  0  3G07G09G16                                       
  24089826.77349 126592895.36349     12348.61349        49.000  
  22383125.95349 117624120.34049       341.69949        49.000  
  21990153.68049 115559036.10949      7975.23049        49.000  
 16 04 02 14 11 52.0000000  0  3G07G09G16                                       
  24089591.80549 126591660.62149     12345.73849        49.000  
  22383119.48449 117624086.37949       336.17249        49.000  
  21990001.93849 115558238.73049      7971.28949        49.000  
 16 04 02 14 11 52.1000000  0  3G07G09G16                                       
  24089356.90649 126590426.25049     12342.18449        49.000  
  22383113.15649 117624053.09449       329.81649        49.000  
  21989850.29749 115557441.85549      7966.64849        49.000  
 16 04 02 14 11 52.2000000  0  3G07G09G16                                       
  24089122.07849 126589192.19949     12338.81249        49.000  
  22383106.93849 117624020.44149       323.24649        49.000  
  21989698.74249 115556645.42249      7961.94949        49.000  
 16 04 02 14 11 52.3000000  0  3G07G09G16                                       
  24088887.32049 126587958.52049     12335.23449        49.000  
  22383100.85249 117623988.45349       316.65649        49.000  
  21989547.27349 115555849.46549      7957.22349        49.000  
 16 04 02 14 11 52.4000000  0  3G07G09G16                                       
  24088652.60949 126586725.12549     12332.27749        49.000  
  22383094.88349 117623957.05949       310.58649        49.000  
  21989395.88349 115555053.92249      7953.09049        49.000  
 16 04 02 14 11 52.5000000  0  3G07G09G16                                       
  24088417.97749 126585492.09049     12328.99249        49.000  
  22383089.03149 117623926.30549       304.44149        49.000  
  21989244.58649 115554258.86349      7948.60949        49.000  
 16 04 02 14 11 52.6000000  0  3G07G09G16                                       
  24088183.39149 126584259.33249     12325.96949        49.000  
  22383083.28949 117623896.14549       298.31649        49.000  
  21989093.36749 115553464.19549      7944.31649        49.000  
 16 04 02 14 11 52.7000000  0  3G07G09G16                                       
  24087948.86749 126583026.93449     12322.46149        49.000  
  22383077.67249 117623866.62149       292.02749        49.000  
  21988942.23449 115552670.00049      7939.78149        49.000  
 16 04 02 14 11 52.8000000  0  3G07G09G16                                       
  24087714.43049 126581794.92649     12318.59449        49.000  
  22383072.18849 117623837.80949       284.96549        49.000  
  21988791.20349 115551876.33249      7934.51249        49.000  
 16 04 02 14 11 52.9000000  0  3G07G09G16                                       
  24087480.04749 126580563.27049     12314.89549        49.000  
  22383066.82849 117623809.63349       278.54349        49.000  
  21988640.25849 115551083.11349      7929.81249        49.000  
 16 04 02 14 11 53.0000000  0  3G07G09G16                                       
  24087245.73449 126579331.94949     12311.47349        49.000  
  22383061.58649 117623782.11349       271.83649        50.000  
  21988489.39849 115550290.37149      7925.16849        49.000  
 16 04 02 14 11 53.1000000  0  3G07G09G16                                       
  24087011.48449 126578100.97749     12308.17649        49.000  
  22383056.46949 117623755.21949       265.80549        49.000  
  21988338.63349 115549498.08249      7920.66449        49.000  
 16 04 02 14 11 53.2000000  0  3G07G09G16                                       
  24086777.29749 126576870.31249     12305.16449        49.000  
  22383051.46949 117623728.94149       259.70349        49.000  
  21988187.94549 115548706.21949      7916.46149        49.000  
 16 04 02 14 11 53.3000000  0  3G07G09G16                                       
  24086543.17249 126575639.96549     12301.88749        49.000  
  22383046.59449 117623703.29349       253.21149        49.000  
  21988037.34449 115547914.80949      7911.87149        49.000  
 16 04 02 14 11 53.4000000  0  3G07G09G16                                       
  24086309.13349 126574410.07849     12297.24249        49.000  
  22383041.85249 117623678.37549       245.75849        49.000  
  21987886.85249 115547123.95349      7906.12149        49.000  
 16 04 02 14 11 53.5000000  0  3G07G09G16                                       
  24086075.16449 126573180.56249     12293.37949        49.000  
  22383037.24249 117623654.14849       238.82449        49.000  
  21987736.45349 115546333.61349      7900.94149        49.000  
 16 04 02 14 11 53.6000000  0  3G07G09G16                                       
  24085841.25049 126571951.36349     12290.30149        49.000  
  22383032.75049 117623630.52749       232.89849        50.000  
  21987586.14149 115545543.69149      7896.80149        49.000  
 16 04 02 14 11 53.7000000  0  3G07G09G16                                       
  24085607.39849 126570722.49649     12287.05549        49.000  
  22383028.37549 117623607.54749       226.56249        50.000  
  21987435.90649 115544754.22749      7892.34049        49.000  
 16 04 02 14 11 53.8000000  0  3G07G09G16                                       
  24085373.62549 126569493.99249     12283.49649        49.000  
  22383024.12549 117623585.22349       220.19149        49.000  
  21987285.77349 115543965.24649      7887.75849        49.000  
 16 04 02 14 11 53.9000000  0  3G07G09G16                                       
  24085139.88349 126568265.72749     12281.07049        49.000  
  22383019.98449 117623563.44949       214.43449        49.000  
  21987135.70349 115543176.63749      7883.80149        49.000  
 16 04 02 14 11 54.0000000  0  3G07G09G16                                       
  24084906.24249 126567037.92649     12276.55949        49.000  
  22383015.98449 117623542.41449       207.23449        49.000  
  21986985.74249 115542388.57849      7878.39149        49.000  
 16 04 02 14 11 54.1000000  0  3G07G09G16                                       
  24084672.65649 126565810.40249     12273.50849        49.000  
  22383012.09449 117623521.97749       200.95349        49.000  
  21986835.85949 115541600.94549      7873.87149        49.000  
 16 04 02 14 11 54.2000000  0  3G07G09G16                                       
  24084439.14149 126564583.29749     12269.46549        49.000  
  22383008.33649 117623502.24649       194.02049        49.000  
  21986686.07849 115540813.83249      7868.85549        49.000  
 16 04 02 14 11 54.3000000  0  3G07G09G16                                       
  24084205.68849 126563356.50049     12266.28149        49.000  
  22383004.70349 117623483.12549       187.95749        49.000  
  21986536.38349 115540027.15649      7864.46549        49.000  
 16 04 02 14 11 54.4000000  0  3G07G09G16                                       
  24083972.30549 126562130.02749     12263.01649        49.000  
  22383001.18049 117623464.63349       181.55149        49.000  
  21986386.75849 115539240.92249      7859.96549        49.000  
 16 04 02 14 11 54.5000000  0  3G07G09G16                                       
  24083738.97749 126560903.89849     12259.77749        49.000  
  22382997.78149 117623446.77349       175.45349        49.000  
  21986237.22749 115538455.14549      7855.58249        49.000  
 16 04 02 14 11 54.6000000  0  3G07G09G16                                       
  24083505.71949 126559678.13349     12255.93849        49.000  
  22382994.50849 117623429.57849       168.65649        49.000  
  21986087.78949 115537669.85549      7850.57049        49.000  
 16 04 02 14 11 54.7000000  0  3G07G09G16                                       
  24083272.53149 126558452.70349     12252.76249        49.000  
  22382991.35249 117623413.02049       162.51249        49.000  
  21985938.43849 115536885.02049      7846.19949        49.000  
 16 04 02 14 11 54.8000000  0  3G07G09G16                                       
  24083039.42249 126557227.69949     12248.28149        49.000  
  22382988.34449 117623397.19949       154.69549        49.000  
  21985789.19549 115536100.73449      7840.34849        49.000  
 16 04 02 14 11 54.9000000  0  3G07G09G16                                       
  24082806.36749 126556003.02349     12245.06649        49.000  
  22382985.45349 117623381.98049       148.66849        49.000  
  21985640.03149 115535316.88349      7836.09849        49.000  
 16 04 02 14 11 55.0000000  0  3G07G09G16                                       
  24082573.39149 126554778.70349     12241.56649        49.000  
  22382982.68049 117623367.43849       142.23049        50.000  
  21985490.96949 115534533.52049      7831.38749        49.000  
 16 04 02 14 11 55.1000000  0  3G07G09G16                                       
  24082340.46949 126553554.70349     12238.53549        49.000  
  22382980.03149 117623353.50449       136.18449        50.000  
  21985341.98449 115533750.58649      7827.10949        49.000  
 16 04 02 14 11 55.2000000  0  3G07G09G16                                       
  24082107.61749 126552331.04349     12234.92649        49.000  
  22382977.49249 117623340.19549       129.61749        50.000  
  21985193.07849 115532968.10949      7822.37149        49.000  
 16 04 02 14 11 55.3000000  0  3G07G09G16                                       
  24081874.83649 126551107.76249     12231.21149        49.000  
  22382975.10249 117623327.59449       122.77349        50.000  
  21985044.27349 115532186.15249      7817.32049        49.000  
 16 04 02 14 11 55.4000000  0  3G07G09G16                                       
  24081642.11749 126549884.83249     12227.68449        49.000  
  22382972.82049 117623315.62149       116.25049        50.000  
  21984895.56249 115531404.63749      7812.66449        49.000  
 16 04 02 14 11 55.5000000  0  3G07G09G16                                       
  24081409.46949 126548662.23849     12224.40249        49.000  
  22382970.65649 117623304.28149       110.23449        50.000  
  21984746.93849 115530623.59049      7808.28149        49.000  
 16 04 02 14 11 55.6000000  0  3G07G09G16                                       
  24081176.86749 126547439.93449     12221.46949        49.000  
  22382968.61749 117623293.53949       104.28149        50.000  
  21984598.38349 115529842.94949      7804.11349        49.000  
 16 04 02 14 11 55.7000000  0  3G07G09G16                                       
  24080944.35249 126546218.05549     12217.11749        49.000  
  22382966.71149 117623283.51649        96.87949        50.000  
  21984449.93849 115529062.84449      7798.60549        49.000  
 16 04 02 14 11 55.8000000  0  3G07G09G16                                       
  24080711.89849 126544996.52349     12213.59049        49.000  
  22382964.92249 117623274.14849        90.29749        49.000  
  21984301.57849 115528283.22349      7793.81249        49.000  
 16 04 02 14 11 55.9000000  0  3G07G09G16                                       
  24080479.51649 126543775.35249     12210.06649        49.000  
  22382963.26649 117623265.42649        83.86749        49.000  
  21984153.30549 115527504.06249      7789.18849        49.000  
 16 04 02 14 11 56.0000000  0  3G07G09G16                                       
  24080247.18849 126542554.48049     12207.23849        49.000  
  22382961.71949 117623257.31249        77.94949        49.000  
  21984005.12549 115526725.33649      7785.09049        49.000  
 16 04 02 14 11 56.1000000  0  3G07G09G16                                       
  24080014.93849 126541333.96949     12203.52749        49.000  
  22382960.29749 117623249.84449        71.40249        50.000  
  21983857.02349 115525947.07049      7780.42249        49.000  
 16 04 02 14 11 56.2000000  0  3G07G09G16                                       
  24079782.75049 126540113.83649     12199.69549        49.000  
  22382959.00849 117623243.06649        64.55149        50.000  
  21983709.02349 115525169.32449      7775.27349        49.000  
 16 04 02 14 11 56.3000000  0  3G07G09G16                                       
  24079550.61749 126538893.98849     12196.93049        49.000  
  22382957.83649 117623236.87149        58.75849        50.000  
  21983561.10249 115524391.97349      7771.22749        49.000  
 16 04 02 14 11 56.4000000  0  3G07G09G16                                       
  24079318.56249 126537674.52349     12192.98849        49.000  
  22382956.78149 117623231.34849        51.80549        50.000  
  21983413.27349 115523615.12149      7766.12149        49.000  
 16 04 02 14 11 56.5000000  0  3G07G09G16                                       
  24079086.57849 126536455.44949     12189.14549        49.000  
  22382955.86749 117623226.52049        45.01649        49.000  
  21983265.53949 115522838.77749      7761.04749        49.000  
 16 04 02 14 11 56.6000000  0  3G07G09G16                                       
  24078854.64849 126535236.64149     12186.48849        49.000  
  22382955.05549 117623222.25049        39.46549        49.000  
  21983117.88349 115522062.82049      7757.26249        49.000  
 16 04 02 14 11 56.7000000  0  3G07G09G16                                       
  24078622.77349 126534018.16849     12183.26249        49.000  
  22382954.36749 117623218.62149        33.05949        49.000  
  21982970.30549 115521287.31649      7752.74649        49.000  
 16 04 02 14 11 56.8000000  0  3G07G09G16                                       
  24078390.98449 126532800.09049     12179.34849        49.000  
  22382953.80549 117623215.68049        26.28149        50.000  
  21982822.82849 115520512.32049      7747.76649        49.000  
 16 04 02 14 11 56.9000000  0  3G07G09G16                                       
  24078159.25849 126531582.34449     12175.96149        49.000  
  22382953.36749 117623213.36749        19.98049        50.000  
  21982675.43849 115519737.77749      7743.28549        49.000  
 16 04 02 14 11 57.0000000  0  3G07G09G16                                       
  24077927.60249 126530364.98449     12171.73049        49.000  
  22382953.05549 117623211.74249        12.70749        50.000  
  21982528.14149 115518963.74649      7737.78949        49.000  
 16 04 02 14 11 57.1000000  0  3G07G09G16                                       
  24077696.01649 126529147.98449     12168.26249        49.000  
  22382952.87549 117623210.78149         6.21949        49.000  
  21982380.93849 115518190.18849      7733.11749        49.000  
 16 04 02 14 11 57.2000000  0  3G07G09G16                                       
  24077464.49249 126527931.30549     12165.19949        49.000  
  22382952.80549 117623210.43449         0.16849        50.000  
  21982233.82049 115517417.07049      7728.80549        49.000  
 16 04 02 14 11 57.3000000  0  3G07G09G16                                       
  24077233.03149 126526714.99249     12161.56649        49.000  
  22382952.86749 117623210.74649        -6.36749        50.000  
  21982086.78949 115516644.43049      7724.11349        49.000  
 16 04 02 14 11 57.4000000  0  3G07G09G16                                       
  24077001.64149 126525499.05949     12157.73049        49.000  
  22382953.05549 117623211.73449       -13.10249        50.000  
  21981939.85249 115515872.30149      7719.03549        49.000  
 16 04 02 14 11 57.5000000  0  3G07G09G16                                       
  24076770.32849 126524283.46949     12154.29749        49.000  
  22382953.36749 117623213.37149       -19.71549        50.000  
  21981793.00849 115515100.62549      7714.42249        49.000  
 16 04 02 14 11 57.6000000  0  3G07G09G16                                       
  24076539.07849 126523068.24249     12150.66049        49.000  
  22382953.79749 117623215.66849       -26.27349        50.000  
  21981646.25049 115514329.43049      7709.68049        49.000  
 16 04 02 14 11 57.7000000  0  3G07G09G16                                       
  24076307.89149 126521853.35549     12147.10549        49.000  
  22382954.35949 117623218.60249       -32.77749        50.000  
  21981499.58649 115513558.69549      7704.90649        49.000  
 16 04 02 14 11 57.8000000  0  3G07G09G16                                       
  24076076.76649 126520638.80549     12143.97349        49.000  
  22382955.03949 117623222.16449       -38.71149        50.000  
  21981353.00849 115512788.41449      7700.72749        49.000  
 16 04 02 14 11 57.9000000  0  3G07G09G16                                       
  24075845.69549 126519424.53149     12141.12149        49.000  
  22382955.82849 117623226.31649       -44.78949        50.000  
  21981206.50849 115512018.53549      7696.45349        49.000  
 16 04 02 14 11 58.0000000  0  3G07G09G16                                       
  24075614.70349 126518210.63749     12137.52049        49.000  
  22382956.74249 117623231.12549       -51.14849        50.000  
  21981060.08649 115511249.14549      7691.73849        49.000  
 16 04 02 14 11 58.1000000  0  3G07G09G16                                       
  24075383.75849 126516997.03149     12134.53549        49.000  
  22382957.76649 117623236.53149       -57.11349        50.000  
  21980913.75849 115510480.16049      7687.62949        49.000  
 16 04 02 14 11 58.2000000  0  3G07G09G16                                       
  24075152.88349 126515783.77349     12131.00049        49.000  
  22382958.92249 117623242.59049       -63.85549        50.000  
  21980767.51649 115509711.64849      7682.78949        49.000  
 16 04 02 14 11 58.3000000  0  3G07G09G16                                       
  24074922.07849 126514570.87549     12127.45749        49.000  
  22382960.19549 117623249.30149       -70.35249        50.000  
  21980621.35949 115508943.61749      7678.07849        49.000  
 16 04 02 14 11 58.4000000  0  3G07G09G16                                       
  24074691.34449 126513358.34849     12123.79349        49.000  
  22382961.60249 117623256.67249       -76.88349        50.000  
  21980475.29749 115508176.07049      7673.27349        49.000  
 16 04 02 14 11 58.5000000  0  3G07G09G16                                       
  24074460.66449 126512146.15249     12120.36349        49.000  
  22382963.12549 117623264.68449       -83.38749        50.000  
  21980329.32049 115507408.96949      7668.76649        49.000  
 16 04 02 14 11 58.6000000  0  3G07G09G16                                       
  24074230.06249 126510934.30549     12116.87949        49.000  
  22382964.76649 117623273.33649       -89.86349        49.000  
  21980183.44549 115506642.33249      7664.07849        49.000  
 16 04 02 14 11 58.7000000  0  3G07G09G16                                       
  24073999.51649 126509722.78949     12113.53949        49.000  
  22382966.53149 117623282.60249       -95.95749        50.000  
  21980037.64149 115505876.15649      7659.50849        49.000  
 16 04 02 14 11 58.8000000  0  3G07G09G16                                       
  24073769.04749 126508511.66849     12109.57449        49.000  
  22382968.43049 117623292.57449      -102.94549        50.000  
  21979891.93849 115505110.48449      7654.47349        49.000  
 16 04 02 14 11 58.9000000  0  3G07G09G16                                       
  24073538.64849 126507300.87549     12106.29749        49.000  
  22382970.44549 117623303.17249      -109.29349        50.000  
  21979746.32049 115504345.25849      7649.94549        49.000  
 16 04 02 14 11 59.0000000  0  3G07G09G16                                       
  24073308.30549 126506090.43849     12102.78949        49.000  
  22382972.58649 117623314.43049      -115.68449        50.000  
  21979600.79749 115503580.52349      7645.06249        49.000  
 16 04 02 14 11 59.1000000  0  3G07G09G16                                       
  24073078.03149 126504880.36749     12099.12549        49.000  
  22382974.85949 117623326.34049      -122.34849        50.000  
  21979455.35949 115502816.24249      7640.54749        49.000  
 16 04 02 14 11 59.2000000  0  3G07G09G16                                       
  24072847.82049 126503670.59049     12096.07449        49.000  
  22382977.23449 117623338.84849      -128.35949        50.000  
  21979310.00849 115502052.40249      7636.05549        49.000  
 16 04 02 14 11 59.3000000  0  3G07G09G16                                       
  24072617.68849 126502461.20349     12092.33649        49.000  
  22382979.74249 117623352.03949      -135.18849        50.000  
  21979164.74249 115501289.05149      7631.19949        49.000  
 16 04 02 14 11 59.4000000  0  3G07G09G16                                       
  24072387.60949 126501252.14849     12089.03549        49.000  
  22382982.37549 117623365.86349      -141.42649        50.000  
  21979019.57049 115500526.15249      7626.76249        49.000  
 16 04 02 14 11 59.5000000  0  3G07G09G16                                       
  24072157.60249 126500043.46949     12085.15649        49.000  
  22382985.13349 117623380.35549      -148.21949        50.000  
  21978874.49249 115499763.75449      7621.66049        49.000  
 16 04 02 14 11 59.6000000  0  3G07G09G16                                       
  24071927.65649 126498835.09049     12082.17649        49.000  
  22382988.00849 117623395.44549      -154.06649        50.000  
  21978729.49249 115499001.76649      7617.61349        49.000  
 16 04 02 14 11 59.7000000  0  3G07G09G16                                       
  24071697.76649 126497627.01649     12079.28149        49.000  
  22382990.99249 117623411.14549      -160.02349        50.000  
  21978584.57049 115498240.21149      7613.43849        49.000  
 16 04 02 14 11 59.8000000  0  3G07G09G16                                       
  24071467.95349 126496419.31249     12075.45349        49.000  
  22382994.10249 117623427.50849      -166.94549        50.000  
  21978439.74249 115497479.13749      7608.44549        49.000  
 16 04 02 14 11 59.9000000  0  3G07G09G16                                       
  24071238.20349 126495211.98049     12071.78149        49.000  
  22382997.34449 117623444.54749      -173.61749        50.000  
  21978295.01649 115496718.55949      7603.56249        49.000  
 16 04 02 14 12  0.0000000  0  3G07G09G16                                       
  24071008.52349 126494005.00849     12068.04349        49.000  
  22383000.71149 117623462.22349      -180.14849        50.000  
  21978150.36749 115495958.44149      7598.69149        49.000  
 16 04 02 14 12  0.1000000  0  3G07G09G16                                       
  24070778.91449 126492798.40649     12064.26649        49.000  
  22383004.20349 117623480.58249      -186.96949        50.000  
  21978005.82049 115495198.83249      7593.77349        49.000  
 16 04 02 14 12  0.2000000  0  3G07G09G16                                       
  24070549.37549 126491592.14549     12061.05149        49.000  
  22383007.81249 117623499.56249      -192.96949        50.000  
  21977861.35249 115494439.66449      7589.45349        49.000  
 16 04 02 14 12  0.3000000  0  3G07G09G16                                       
  24070319.87549 126490386.12949     12058.53549        49.000  
  22383011.53949 117623519.10949      -198.65649        50.000  
  21977716.96149 115493680.87549      7585.58649        49.000  
 16 04 02 14 12  0.4000000  0  3G07G09G16                                       
  24070090.46149 126489180.55949     12054.23449        49.000  
  22383015.39849 117623539.38349      -205.90249        50.000  
  21977572.67249 115492922.63749      7580.18449        49.000  
 16 04 02 14 12  0.5000000  0  3G07G09G16                                       
  24069861.10949 126487975.32849     12050.54349        49.000  
  22383019.37549 117623560.30149      -212.60249        50.000  
  21977428.46949 115492164.86749      7575.31249        49.000  
 16 04 02 14 12  0.6000000  0  3G07G09G16                                       
  24069631.84449 126486770.51649     12046.44149        49.000  
  22383023.49249 117623581.91849      -219.50049        50.000  
  21977284.36749 115491407.62149      7570.13349        49.000  
 16 04 02 14 12  0.7000000  0  3G07G09G16                                       
  24069402.63349 126485566.00849     12043.40649        49.000  
  22383027.71949 117623604.15249      -225.64149        50.000  
  21977140.35249 115490650.80949      7565.71949        49.000  
 16 04 02 14 12  0.8000000  0  3G07G09G16                                       
  24069173.48449 126484361.85549     12039.98049        49.000  
  22383032.07849 117623627.03949      -232.03949        50.000  
  21976996.42249 115489894.46549      7561.21149        49.000  
 16 04 02 14 12  0.9000000  0  3G07G09G16                                       
  24068944.39849 126483157.98049     12037.05149        49.000  
  22383036.53949 117623650.49249      -237.77349        50.000  
  21976852.57049 115489138.51249      7557.20749        49.000  
 16 04 02 14 12  1.0000000  0  3G07G09G16                                       
  24068715.37549 126481954.44949     12033.76249        49.000  
  22383041.12549 117623674.58649      -244.20349        50.000  
  21976708.80549 115488383.02349      7552.64849        49.000  
 16 04 02 14 12  1.1000000  0  3G07G09G16                                       
  24068486.42249 126480751.28949     12029.99649        49.000  
  22383045.83649 117623699.35249      -250.92649        49.000  
  21976565.13349 115487628.02349      7547.69549        49.000  
 16 04 02 14 12  1.2000000  0  3G07G09G16                                       
  24068257.53149 126479548.44549     12027.00449        49.000  
  22383050.66449 117623724.72749      -256.82849        49.000  
  21976421.53949 115486873.46149      7543.45349        49.000  
 16 04 02 14 12  1.3000000  0  3G07G09G16                                       
  24068028.69549 126478345.95349     12023.36749        49.000  
  22383055.61749 117623750.75049      -263.38749        50.000  
  21976278.03949 115486119.35249      7538.95749        49.000  
 16 04 02 14 12  1.4000000  0  3G07G09G16                                       
  24067799.93049 126477143.78549     12020.05949        49.000  
  22383060.68849 117623777.39849      -269.80949        50.000  
  21976134.62549 115485365.69949      7534.19949        49.000  
 16 04 02 14 12  1.5000000  0  3G07G09G16                                       
  24067571.23449 126475941.99649     12016.26249        49.000  
  22383065.89149 117623804.72349      -276.45349        50.000  
  21975991.30549 115484612.54749      7529.33649        49.000  
 16 04 02 14 12  1.6000000  0  3G07G09G16                                       
  24067342.60949 126474740.55949     12012.73049        49.000  
  22383071.21149 117623832.68449      -282.87949        50.000  
  21975848.07049 115483859.84849      7524.69949        49.000  
 16 04 02 14 12  1.7000000  0  3G07G09G16                                       
  24067114.05549 126473539.49249     12009.00049        49.000  
  22383076.66449 117623861.32449      -289.69149        50.000  
  21975704.93049 115483107.64849      7519.65249        49.000  
