     2.10           OBSERVATION DATA    G (GPS)             RINEX VERSION / TYPE
Convert v1.8.0                          09-Jun-2016 14:45   PGM / RUN BY / DATE 
Signal Strength values S1,S2 are in dBHz                    COMMENT             
                                                            MARKER NAME         
                                                            MARKER NUMBER       
                                                            OBSERVER / AGENCY   
                    NovAtel GPSCard                         REC # / TYPE / VERS 
                                                            ANT # / TYPE        
0.0000        0.0000        0.0000                          APPROX POSITION XYZ 
        0.0000        0.0000        0.0000                  ANTENNA: DELTA H/E/N
     1     0                                                WAVELENGTH FACT L1/2
     1     0     2   G02   G05                              WAVELENGTH FACT L1/2
                                                            COMMENT             
                                                            COMMENT             
                                                            COMMENT             
                                                            COMMENT             
                                                            COMMENT             
                                                            COMMENT             
     4    C1    L1    D1    S1                              # / TYPES OF OBSERV 
     0.100                                                  INTERVAL            
  2016    04    02    13    00    36.6000000    GPS         TIME OF FIRST OBS   
  2016    04    02    13    02     1.8000000    GPS         TIME OF LAST OBS    
Leap Seconds Unknown                                        COMMENT             
                                                            END OF HEADER       
 16 04 02 13 00 36.6000000  0  1G05                                             
  19614707.26649 103075981.62159      3267.85249        49.000  
 16 04 02 13 00 36.7000000  0  1G05                                             
  19614645.15649 103075655.21149      3260.43849        49.000  
 16 04 02 13 00 36.8000000  0  1G05                                             
  19614583.16449 103075329.46549      3253.85549        49.000  
 16 04 02 13 00 36.9000000  0  1G05                                             
  19614521.28949 103075004.30549      3248.37149        49.000  
 16 04 02 13 00 37.0000000  0  1G05                                             
  19614459.55549 103074679.84049      3241.19149        49.000  
 16 04 02 13 00 37.1000000  0  1G05                                             
  19614397.94549 103074356.08249      3234.06249        49.000  
 16 04 02 13 00 37.2000000  0  1G05                                             
  19614336.46949 103074032.99249      3227.39849        49.000  
 16 04 02 13 00 37.3000000  0  1G05                                             
  19614275.11749 103073710.58649      3220.55149        49.000  
 16 04 02 13 00 37.4000000  0  1G05                                             
  19614213.87549 103073388.89549      3213.41049        49.000  
 16 04 02 13 00 37.5000000  0  1G05                                             
  19614152.77349 103073067.79349      3207.37949        49.000  
 16 04 02 13 00 37.6000000  0  1G05                                             
  19614091.82049 103072747.50849      3199.35249        49.000  
 16 04 02 13 00 37.7000000  0  1G05                                             
  19614030.98449 103072427.83649      3193.17649        49.000  
 16 04 02 13 00 37.8000000  0  1G05                                             
  19613970.31249 103072108.90249      3186.02749        49.000  
 16 04 02 13 00 37.9000000  0  1G05                                             
  19613909.74249 103071790.62149      3179.41849        49.000  
 16 04 02 13 00 38.0000000  0  1G05                                             
  19613849.28149 103071472.95349      3173.25449        49.000  
 16 04 02 13 00 38.1000000  0  1G05                                             
  19613788.96949 103071156.01249      3165.89149        49.000  
 16 04 02 13 00 38.2000000  0  1G05                                             
  19613728.79749 103070839.80549      3158.43449        49.000  
 16 04 02 13 00 38.3000000  0  1G05                                             
  19613668.76649 103070524.32449      3151.08249        49.000  
 16 04 02 13 00 38.4000000  0  1G05                                             
  19613608.86749 103070209.50449      3144.57049        49.000  
 16 04 02 13 00 38.5000000  0  1G05                                             
  19613549.08649 103069895.34449      3138.02749        49.000  
 16 04 02 13 00 38.6000000  0  1G05                                             
  19613489.43049 103069581.87949      3131.07049        49.000  
 16 04 02 13 00 38.7000000  0  1G05                                             
  19613429.90649 103069269.09049      3124.32449        49.000  
 16 04 02 13 00 38.8000000  0  1G05                                             
  19613370.51649 103068957.01249      3117.36349        49.000  
 16 04 02 13 00 38.9000000  0  1G05                                             
  19613311.26649 103068645.63749      3110.23049        49.000  
 16 04 02 13 00 39.0000000  0  1G05                                             
  19613252.12549 103068334.89149      3104.01649        49.000  
 16 04 02 13 00 39.1000000  0  1G05                                             
  19613193.12549 103068024.85549      3096.87149        49.000  
 16 04 02 13 00 39.2000000  0  1G05                                             
  19613134.26649 103067715.55149      3089.68049        49.000  
 16 04 02 13 00 39.3000000  0  1G05                                             
  19613075.53949 103067406.94949      3082.23449        49.000  
 16 04 02 13 00 39.4000000  0  1G05                                             
  19613016.93849 103067099.02349      3075.55149        49.000  
 16 04 02 13 00 39.5000000  0  1G05                                             
  19612958.47749 103066791.81649      3068.33649        49.000  
 16 04 02 13 00 39.6000000  0  1G05                                             
  19612900.15649 103066485.32049      3061.44949        49.000  
 16 04 02 13 00 39.7000000  0  1G05                                             
  19612841.94549 103066179.43049      3055.47749        49.000  
 16 04 02 13 00 39.8000000  0  1G05                                             
  19612783.88349 103065874.25849      3048.34449        49.000  
 16 04 02 13 00 39.9000000  0  1G05                                             
  19612725.93849 103065569.75049      3041.49649        49.000  
 16 04 02 13 00 40.0000000  0  1G05                                             
  19612668.14149 103065265.98849      3034.07049        49.000  
 16 04 02 13 00 40.1000000  0  1G05                                             
  19612610.46149 103064962.86749      3027.60949        49.000  
 16 04 02 13 00 40.2000000  0  1G05                                             
  19612552.89149 103064660.37149      3021.37549        49.000  
 16 04 02 13 00 40.3000000  0  1G05                                             
  19612495.47749 103064358.63349      3013.87149        49.000  
 16 04 02 13 00 40.4000000  0  1G05                                             
  19612438.19549 103064057.59049      3006.80149        49.000  
 16 04 02 13 00 40.5000000  0  1G05                                             
  19612381.03149 103063757.19949      3000.39149        49.000  
 16 04 02 13 00 40.6000000  0  1G05                                             
  19612324.02349 103063457.53549      2993.02049        49.000  
 16 04 02 13 00 40.7000000  0  1G05                                             
  19612267.13349 103063158.60949      2985.78549        49.000  
 16 04 02 13 00 40.8000000  0  1G05                                             
  19612210.35249 103062860.23449      2980.34449        49.000  
 16 04 02 13 00 40.9000000  0  1G05                                             
  19612153.71949 103062562.61349      2972.62949        49.000  
 16 04 02 13 00 41.0000000  0  1G05                                             
  19612097.21949 103062265.73449      2965.25449        49.000  
 16 04 02 13 00 41.1000000  0  1G05                                             
  19612040.82849 103061969.40249      2959.63349        49.000  
 16 04 02 13 00 41.2000000  0  1G05                                             
  19611984.57849 103061673.82849      2952.37149        49.000  
 16 04 02 13 00 41.3000000  0  1G05                                             
  19611928.46949 103061378.93849      2945.32449        49.000  
 16 04 02 13 00 41.4000000  0  1G05                                             
  19611872.48449 103061084.76249      2938.17649        49.000  
 16 04 02 13 00 41.5000000  0  1G05                                             
  19611816.63349 103060791.27349      2931.21549        49.000  
 16 04 02 13 00 41.6000000  0  1G05                                             
  19611760.90649 103060498.45749      2924.52049        49.000  
 16 04 02 13 00 41.7000000  0  1G05                                             
  19611705.32049 103060206.33249      2917.76249        49.000  
 16 04 02 13 00 41.8000000  0  1G05                                             
  19611649.85949 103059914.86749      2911.20349        49.000  
 16 04 02 13 00 41.9000000  0  1G05                                             
  19611594.52349 103059624.10249      2904.05549        49.000  
 16 04 02 13 00 42.0000000  0  1G05                                             
  19611539.31249 103059334.01649      2897.26249        49.000  
 16 04 02 13 00 42.1000000  0  1G05                                             
  19611484.25049 103059044.65649      2890.10549        49.000  
 16 04 02 13 00 42.2000000  0  1G05                                             
  19611429.29749 103058755.88749      2884.33249        49.000  
 16 04 02 13 00 42.3000000  0  1G05                                             
  19611374.46949 103058467.76649      2877.80149        49.000  
 16 04 02 13 00 42.4000000  0  1G05                                             
  19611319.78149 103058180.37949      2870.37549        49.000  
 16 04 02 13 00 42.5000000  0  1G05                                             
  19611265.22749 103057893.68449      2863.45349        49.000  
 16 04 02 13 00 42.6000000  0  1G05                                             
  19611210.80549 103057607.68049      2856.32449        49.000  
 16 04 02 13 00 42.7000000  0  1G05                                             
  19611156.51649 103057322.38749      2849.51649        49.000  
 16 04 02 13 00 42.8000000  0  1G05                                             
  19611102.35949 103057037.78549      2842.29349        49.000  
 16 04 02 13 00 42.9000000  0  1G05                                             
  19611048.32849 103056753.83249      2836.00849        49.000  
 16 04 02 13 00 43.0000000  0  1G05                                             
  19610994.43049 103056470.59449      2828.78949        49.000  
 16 04 02 13 00 43.1000000  0  1G05                                             
  19610940.66449 103056188.05149      2821.93449        49.000  
 16 04 02 13 00 43.2000000  0  1G05                                             
  19610887.02349 103055906.15249      2815.28949        49.000  
 16 04 02 13 00 43.3000000  0  1G05                                             
  19610833.51649 103055624.98849      2808.15249        49.000  
 16 04 02 13 00 43.4000000  0  1G05                                             
  19610780.14149 103055344.46949      2801.48849        49.000  
 16 04 02 13 00 43.5000000  0  1G05                                             
  19610726.89849 103055064.66449      2794.81249        49.000  
 16 04 02 13 00 43.6000000  0  2G05G02                                          
  19610673.77349 103054785.50049      2788.03149        49.000  
  19441598.12549 102166286.82059     -8661.09049        49.000  
 16 04 02 13 00 43.7000000  0  2G05G02                                          
  19610620.78149 103054507.04749      2781.09049        49.000  
  19441762.99249 102167153.21149     -8666.44949        49.000  
 16 04 02 13 00 43.8000000  0  2G05G02                                          
  19610567.92249 103054229.30549      2773.86749        49.000  
  19441927.93849 102168020.11749     -8671.70349        49.000  
 16 04 02 13 00 43.9000000  0  2G05G02                                          
  19610515.20349 103053952.24649      2767.00449        49.000  
  19442093.00849 102168887.55949     -8677.04749        49.000  
 16 04 02 13 00 44.0000000  0  2G05G02                                          
  19610462.60249 103053675.82849      2760.80949        49.000  
  19442258.14849 102169755.45749     -8681.47349        49.000  
 16 04 02 13 00 44.1000000  0  2G05G02                                          
  19610410.13349 103053400.07449      2754.19149        49.000  
  19442423.39849 102170623.85249     -8686.42249        49.000  
 16 04 02 13 00 44.2000000  0  2G05G02                                          
  19610357.78149 103053125.04349      2746.66449        49.000  
  19442588.74249 102171492.78549     -8692.15649        49.000  
 16 04 02 13 00 44.3000000  0  2G05G02                                          
  19610305.57849 103052850.69949      2739.94149        49.000  
  19442754.19549 102172362.23849     -8697.14149        49.000  
 16 04 02 13 00 44.4000000  0  2G05G02                                          
  19610253.51649 103052577.03149      2733.15649        49.000  
  19442919.75049 102173232.19949     -8702.22749        49.000  
 16 04 02 13 00 44.5000000  0  2G05G02                                          
  19610201.56249 103052304.05549      2726.25449        49.000  
  19443085.39849 102174102.67649     -8707.42649        49.000  
 16 04 02 13 00 44.6000000  0  2G05G02                                          
  19610149.75049 103052031.74249      2719.52749        49.000  
  19443251.14849 102174973.64549     -8712.41849        49.000  
 16 04 02 13 00 44.7000000  0  2G05G02                                          
  19610098.06249 103051760.15649      2712.40649        49.000  
  19443416.99249 102175845.15649     -8717.62149        49.000  
 16 04 02 13 00 44.8000000  0  2G05G02                                          
  19610046.52349 103051489.22349      2705.85249        49.000  
  19443582.91449 102176717.16449     -8722.57849        49.000  
 16 04 02 13 00 44.9000000  0  2G05G02                                          
  19609995.09449 103051218.95749      2699.09449        49.000  
  19443748.94549 102177589.65649     -8727.53549        49.000  
 16 04 02 13 00 45.0000000  0  2G05G02                                          
  19609943.80549 103050949.44549      2691.60949        49.000  
  19443915.09449 102178462.72749     -8733.26249        49.000  
 16 04 02 13 00 45.1000000  0  2G05G02                                          
  19609892.64849 103050680.60249      2684.69949        49.000  
  19444081.33649 102179336.30549     -8738.54749        49.000  
 16 04 02 13 00 45.2000000  0  2G05G02                                          
  19609841.62549 103050412.45749      2677.87549        49.000  
  19444247.64149 102180210.39849     -8743.65649        49.000  
 16 04 02 13 00 45.3000000  0  2G05G02                                          
  19609790.71949 103050144.94149      2671.76649        49.000  
  19444414.06249 102181084.95349     -8748.01249        49.000  
 16 04 02 13 00 45.4000000  0  2G05G02                                          
  19609739.93049 103049878.09049      2664.98449        49.000  
  19444580.56249 102181959.99649     -8753.01249        49.000  
 16 04 02 13 00 45.5000000  0  2G05G02                                          
  19609689.28149 103049611.93449      2658.21549        49.000  
  19444747.18049 102182835.55549     -8758.00849        49.000  
 16 04 02 13 00 45.6000000  0  2G05G02                                          
  19609638.77349 103049346.45749      2651.33649        49.000  
  19444913.91449 102183711.62549     -8763.22349        49.000  
 16 04 02 13 00 45.7000000  0  2G05G02                                          
  19609588.38349 103049081.67649      2644.17249        49.000  
  19445080.71949 102184588.22349     -8768.64849        49.000  
 16 04 02 13 00 45.8000000  0  2G05G02                                          
  19609538.13349 103048817.60549      2637.19949        49.000  
  19445247.62549 102185465.35549     -8773.97749        49.000  
 16 04 02 13 00 45.9000000  0  2G05G02                                          
  19609488.01649 103048554.24649      2630.16049        49.000  
  19445414.64149 102186343.02349     -8779.24649        49.000  
 16 04 02 13 00 46.0000000  0  2G05G02                                          
  19609438.03149 103048291.57449      2623.05149        49.000  
  19445581.73449 102187221.19549     -8784.45749        49.000  
 16 04 02 13 00 46.1000000  0  2G05G02                                          
  19609388.17249 103048029.56249      2616.62549        49.000  
  19445748.93849 102188099.87149     -8789.30549        49.000  
 16 04 02 13 00 46.2000000  0  2G05G02                                          
  19609338.43849 103047768.28549      2609.21549        49.000  
  19445916.24249 102188979.11349     -8795.06249        49.000  
 16 04 02 13 00 46.3000000  0  2G05G02                                          
  19609288.82849 103047507.60549      2603.22349        49.000  
  19446083.63349 102189858.75849     -8799.07049        49.000  
 16 04 02 13 00 46.4000000  0  2G05G02                                          
  19609239.35249 103047247.63349      2596.39849        49.000  
  19446251.12549 102190738.94149     -8804.25849        49.000  
 16 04 02 13 00 46.5000000  0  2G05G02                                          
  19609190.00849 103046988.32049      2589.69149        49.000  
  19446418.71149 102191619.62949     -8809.41049        49.000  
 16 04 02 13 00 46.6000000  0  2G05G02                                          
  19609140.78949 103046729.71549      2582.55949        49.000  
  19446586.40649 102192500.82449     -8814.58649        49.000  
 16 04 02 13 00 46.7000000  0  2G05G02                                          
  19609091.70349 103046471.78149      2575.84449        49.000  
  19446754.18849 102193382.53549     -8819.69149        49.000  
 16 04 02 13 00 46.8000000  0  2G05G02                                          
  19609042.75049 103046214.50449      2569.17649        49.000  
  19446922.06249 102194264.70749     -8824.39149        49.000  
 16 04 02 13 00 46.9000000  0  2G05G02                                          
  19608993.92249 103045957.91849      2562.39549        49.000  
  19447090.03949 102195147.43449     -8829.80549        49.000  
 16 04 02 13 00 47.0000000  0  2G05G02                                          
  19608945.24249 103045702.05549      2555.07049        49.000  
  19447258.13349 102196030.67649     -8835.14149        49.000  
 16 04 02 13 00 47.1000000  0  2G05G02                                          
  19608896.68049 103045446.87149      2548.37549        49.000  
  19447426.30549 102196914.43449     -8840.15249        49.000  
 16 04 02 13 00 47.2000000  0  2G05G02                                          
  19608848.25849 103045192.39549      2541.27049        49.000  
  19447594.57849 102197798.72749     -8845.50849        49.000  
 16 04 02 13 00 47.3000000  0  2G05G02                                          
  19608799.96149 103044938.60249      2534.39149        49.000  
  19447762.95349 102198683.52349     -8850.55549        49.000  
 16 04 02 13 00 47.4000000  0  2G05G02                                          
  19608751.80549 103044685.51249      2527.19549        49.000  
  19447931.43849 102199568.85549     -8856.09849        49.000  
 16 04 02 13 00 47.5000000  0  2G05G02                                          
  19608703.78149 103044433.15649      2519.91049        49.000  
  19448100.01649 102200454.75049     -8861.57449        49.000  
 16 04 02 13 00 47.6000000  0  2G05G02                                          
  19608655.89149 103044181.44549      2513.51649        49.000  
  19448268.67249 102201341.10549     -8866.28549        49.000  
 16 04 02 13 00 47.7000000  0  2G05G02                                          
  19608608.12549 103043930.42249      2506.69549        49.000  
  19448437.43849 102202227.98449     -8871.42649        49.000  
 16 04 02 13 00 47.8000000  0  2G05G02                                          
  19608560.46949 103043680.05549      2500.21149        49.000  
  19448606.28149 102203115.34449     -8876.09049        49.000  
 16 04 02 13 00 47.9000000  0  2G05G02                                          
  19608512.95349 103043430.35549      2493.69549        49.000  
  19448775.23449 102204003.19949     -8880.95349        49.000  
 16 04 02 13 00 48.0000000  0  2G05G02                                          
  19608465.57049 103043181.33649      2486.93049        49.000  
  19448944.28149 102204891.54749     -8885.94949        49.000  
 16 04 02 13 00 48.1000000  0  2G05G02                                          
  19608418.30549 103042932.95349      2480.03549        49.000  
  19449113.42249 102205780.37149     -8891.07449        49.000  
 16 04 02 13 00 48.2000000  0  2G05G02                                          
  19608371.18849 103042685.35249      2472.65249        49.000  
  19449282.67249 102206669.79349     -8896.66849        49.000  
 16 04 02 13 00 48.3000000  0  2G05G02                                          
  19608324.19549 103042438.38349      2465.98049        49.000  
  19449452.00849 102207559.67649     -8901.60549        49.000  
 16 04 02 13 00 48.4000000  0  2G05G02                                          
  19608277.32049 103042192.06249      2459.90649        49.000  
  19449621.43849 102208450.04349     -8906.02349        49.000  
 16 04 02 13 00 48.5000000  0  2G05G02                                          
  19608230.58649 103041946.44949      2452.63349        49.000  
  19449790.96949 102209340.93049     -8911.49649        49.000  
 16 04 02 13 00 48.6000000  0  2G05G02                                          
  19608183.98449 103041701.57049      2445.28949        49.000  
  19449960.59449 102210232.39149     -8917.24649        49.000  
 16 04 02 13 00 48.7000000  0  2G05G02                                          
  19608137.50849 103041457.30549      2439.10249        49.000  
  19450130.31249 102211124.27349     -8921.44949        49.000  
 16 04 02 13 00 48.8000000  0  2G05G02                                          
  19608091.16449 103041213.75849      2432.12549        49.000  
  19450300.14149 102212016.70349     -8926.73049        49.000  
 16 04 02 13 00 48.9000000  0  2G05G02                                          
  19608044.94549 103040970.88349      2425.18449        49.000  
  19450470.06249 102212909.63349     -8931.93849        49.000  
 16 04 02 13 00 49.0000000  0  2G05G02                                          
  19607998.86749 103040728.76249      2417.88349        49.000  
  19450640.08649 102213803.13749     -8937.43049        49.000  
 16 04 02 13 00 49.1000000  0  2G05G02                                          
  19607952.90649 103040487.22749      2411.88349        49.000  
  19450810.19549 102214697.06649     -8941.84449        49.000  
 16 04 02 13 00 49.2000000  0  2G05G02                                          
  19607907.08649 103040246.39149      2404.92249        49.000  
  19450980.39849 102215591.51649     -8946.93849        49.000  
 16 04 02 13 00 49.3000000  0  2G05G02                                          
  19607861.39149 103040006.25849      2397.98449        49.000  
  19451150.71149 102216486.48449     -8952.16449        49.000  
 16 04 02 13 00 49.4000000  0  2G05G02                                          
  19607815.82049 103039766.77749      2391.18849        49.000  
  19451321.09449 102217381.93849     -8957.22749        49.000  
 16 04 02 13 00 49.5000000  0  2G05G02                                          
  19607770.39149 103039528.02749      2383.97349        49.000  
  19451491.59449 102218277.94549     -8962.68849        49.000  
 16 04 02 13 00 49.6000000  0  2G05G02                                          
  19607725.09449 103039290.02349      2376.34849        49.000  
  19451662.20349 102219174.51649     -8968.52049        49.000  
 16 04 02 13 00 49.7000000  0  2G05G02                                          
  19607679.92249 103039052.61349      2370.47349        49.000  
  19451832.89849 102220071.52749     -8972.68849        49.000  
 16 04 02 13 00 49.8000000  0  2G05G02                                          
  19607634.88349 103038815.96549      2363.02749        49.000  
  19452003.69549 102220969.10549     -8978.40249        49.000  
 16 04 02 13 00 49.9000000  0  2G05G02                                          
  19607589.96949 103038579.96949      2356.57449        49.000  
  19452174.59449 102221867.17649     -8983.17249        49.000  
 16 04 02 13 00 50.0000000  0  2G05G02                                          
  19607545.18849 103038344.60249      2350.24649        49.000  
  19452345.57049 102222765.68049     -8987.63349        49.000  
 16 04 02 13 00 50.1000000  0  2G05G02                                          
  19607500.52349 103038109.88749      2343.65249        49.000  
  19452516.64149 102223664.66849     -8992.46549        49.000  
 16 04 02 13 00 50.2000000  0  2G05G02                                          
  19607456.00849 103037875.90249      2336.35549        49.000  
  19452687.80549 102224564.22349     -8998.03549        49.000  
 16 04 02 13 00 50.3000000  0  2G05G02                                          
  19607411.60949 103037642.59449      2329.63349        49.000  
  19452859.07849 102225464.28149     -9003.16849        49.000  
 16 04 02 13 00 50.4000000  0  2G05G02                                          
  19607367.35249 103037409.93849      2323.06249        49.000  
  19453030.46149 102226364.80149     -9007.77749        49.000  
 16 04 02 13 00 50.5000000  0  2G05G02                                          
  19607323.21949 103037178.02049      2315.71149        49.000  
  19453201.93049 102227265.89549     -9013.50049        49.000  
 16 04 02 13 00 50.6000000  0  2G05G02                                          
  19607279.21949 103036946.77049      2309.05149        49.000  
  19453373.49249 102228167.46549     -9018.25849        49.000  
 16 04 02 13 00 50.7000000  0  2G05G02                                          
  19607235.34449 103036716.21549      2301.98849        49.000  
  19453545.15649 102229069.56249     -9023.57849        49.000  
 16 04 02 13 00 50.8000000  0  2G05G02                                          
  19607191.59449 103036486.31649      2295.39149        49.000  
  19453716.90649 102229972.16049     -9028.56249        49.000  
 16 04 02 13 00 50.9000000  0  2G05G02                                          
  19607147.97749 103036257.09049      2288.96149        49.000  
  19453888.75049 102230875.22749     -9033.02349        49.000  
 16 04 02 13 00 51.0000000  0  2G05G02                                          
  19607104.48449 103036028.52349      2282.27749        49.000  
  19454060.71949 102231778.79749     -9038.16449        49.000  
 16 04 02 13 00 51.1000000  0  2G05G02                                          
  19607061.11749 103035800.64849      2275.28149        49.000  
  19454232.75849 102232682.88349     -9043.43449        49.000  
 16 04 02 13 00 51.2000000  0  2G05G02                                          
  19607017.89849 103035573.51249      2267.73449        49.000  
  19454404.89849 102233587.50849     -9049.06649        49.000  
 16 04 02 13 00 51.3000000  0  2G05G02                                          
  19606974.79749 103035347.00849      2261.38749        49.000  
  19454577.14149 102234492.62149     -9053.76649        49.000  
 16 04 02 13 00 51.4000000  0  2G05G02                                          
  19606931.82849 103035121.20749      2254.27049        49.000  
  19454749.47749 102235398.25849     -9059.12949        49.000  
 16 04 02 13 00 51.5000000  0  2G05G02                                          
  19606888.99249 103034896.11749      2247.51249        49.000  
  19454921.91449 102236304.40649     -9064.07449        49.000  
 16 04 02 13 00 51.6000000  0  2G05G02                                          
  19606846.28949 103034671.67249      2240.75849        49.000  
  19455094.43849 102237211.04749     -9069.23449        49.000  
 16 04 02 13 00 51.7000000  0  2G05G02                                          
  19606803.71149 103034447.94549      2234.08249        49.000  
  19455267.07049 102238118.21149     -9073.91849        49.000  
 16 04 02 13 00 51.8000000  0  2G05G02                                          
  19606761.25049 103034224.80549      2227.80149        49.000  
  19455439.78949 102239025.80149     -9078.62549        49.000  
 16 04 02 13 00 51.9000000  0  2G05G02                                          
  19606718.93849 103034002.43849      2220.09049        49.000  
  19455612.60949 102239933.98849     -9084.48449        49.000  
 16 04 02 13 00 52.0000000  0  2G05G02                                          
  19606676.75849 103033780.76249      2213.16049        49.000  
  19455785.54749 102240842.68849     -9089.66849        49.000  
 16 04 02 13 00 52.1000000  0  2G05G02                                          
  19606634.69549 103033559.75049      2206.55549        49.000  
  19455958.55549 102241751.87149     -9094.43449        49.000  
 16 04 02 13 00 52.2000000  0  2G05G02                                          
  19606592.76649 103033339.40249      2199.92649        49.000  
  19456131.66449 102242661.54749     -9099.35949        49.000  
 16 04 02 13 00 52.3000000  0  2G05G02                                          
  19606550.97749 103033119.77749      2192.66849        49.000  
  19456304.87549 102243571.76649     -9104.79349        49.000  
 16 04 02 13 00 52.4000000  0  2G05G02                                          
  19606509.31249 103032900.81249      2185.99649        49.000  
  19456478.19549 102244482.48449     -9109.85949        49.000  
 16 04 02 13 00 52.5000000  0  2G05G02                                          
  19606467.78149 103032682.54349      2179.30949        49.000  
  19456651.59449 102245393.70349     -9114.75849        49.000  
 16 04 02 13 00 52.6000000  0  2G05G02                                          
  19606426.35949 103032464.89549      2173.12549        49.000  
  19456825.06249 102246305.37149     -9119.04749        49.000  
 16 04 02 13 00 52.7000000  0  2G05G02                                          
  19606385.07049 103032247.93049      2166.23449        49.000  
  19456998.64849 102247217.55149     -9124.25049        49.000  
 16 04 02 13 00 52.8000000  0  2G05G02                                          
  19606343.92249 103032031.68849      2158.87949        49.000  
  19457172.31249 102248130.26649     -9129.73449        49.000  
 16 04 02 13 00 52.9000000  0  2G05G02                                          
  19606302.88349 103031816.04749      2153.04749        49.000  
  19457346.07849 102249043.42649     -9133.93849        49.000  
 16 04 02 13 00 53.0000000  0  2G05G02                                          
  19606261.98449 103031601.15249      2145.54749        49.000  
  19457519.94549 102249957.14549     -9139.81649        49.000  
 16 04 02 13 00 53.1000000  0  2G05G02                                          
  19606221.21949 103031386.90649      2139.02349        49.000  
  19457693.90649 102250871.33249     -9144.41049        49.000  
 16 04 02 13 00 53.2000000  0  2G05G02                                          
  19606180.55549 103031173.28949      2132.62549        49.000  
  19457867.97749 102251785.98049     -9149.09049        49.000  
 16 04 02 13 00 53.3000000  0  2G05G02                                          
  19606140.04749 103030960.41449      2125.25849        49.000  
  19458042.13349 102252701.19949     -9154.76649        49.000  
 16 04 02 13 00 53.4000000  0  2G05G02                                          
  19606099.68049 103030748.23049      2118.39149        49.000  
  19458216.39849 102253616.91449     -9159.65249        49.000  
 16 04 02 13 00 53.5000000  0  2G05G02                                          
  19606059.43049 103030536.69949      2111.71149        49.000  
  19458390.74249 102254533.12549     -9164.74649        49.000  
 16 04 02 13 00 53.6000000  0  2G05G02                                          
  19606019.30549 103030325.85549      2104.89549        49.000  
  19458565.18049 102255449.83249     -9169.66449        49.000  
 16 04 02 13 00 53.7000000  0  2G05G02                                          
  19605979.32849 103030115.80149      2097.02049        49.000  
  19458739.74249 102256367.16049     -9175.88749        49.000  
 16 04 02 13 00 53.8000000  0  2G05G02                                          
  19605939.46949 103029906.35549      2090.82849        49.000  
  19458914.38349 102257284.91849     -9180.25049        49.000  
 16 04 02 13 00 53.9000000  0  2G05G02                                          
  19605899.75049 103029697.61749      2083.91449        49.000  
  19459089.13349 102258203.19949     -9185.23449        49.000  
 16 04 02 13 00 54.0000000  0  2G05G02                                          
  19605860.14849 103029489.52749      2077.41049        49.000  
  19459263.97749 102259121.96149     -9190.09849        49.000  
 16 04 02 13 00 54.1000000  0  2G05G02                                          
  19605820.67249 103029282.04349      2071.54749        49.000  
  19459438.89149 102260041.16849     -9194.48449        49.000  
 16 04 02 13 00 54.2000000  0  2G05G02                                          
  19605781.33649 103029075.32449      2063.55949        49.000  
  19459613.93049 102260960.94549     -9200.51249        49.000  
 16 04 02 13 00 54.3000000  0  2G05G02                                          
  19605742.13349 103028869.30949      2056.70749        49.000  
  19459789.05549 102261881.24649     -9205.58249        49.000  
 16 04 02 13 00 54.4000000  0  2G05G02                                          
  19605703.04749 103028663.92649      2050.36349        49.000  
  19459964.25049 102262802.00449     -9210.14549        49.000  
 16 04 02 13 00 54.5000000  0  2G05G02                                          
  19605664.09449 103028459.24649      2043.33649        49.000  
  19460139.57049 102263723.30549     -9215.58649        49.000  
 16 04 02 13 00 54.6000000  0  2G05G02                                          
  19605625.28149 103028255.30149      2035.96949        49.000  
  19460314.98449 102264645.14149     -9221.01249        49.000  
 16 04 02 13 00 54.7000000  0  2G05G02                                          
  19605586.58649 103028051.94949      2030.09449        49.000  
  19460490.48449 102265567.41049     -9225.12549        49.000  
 16 04 02 13 00 54.8000000  0  2G05G02                                          
  19605548.00849 103027849.25449      2023.73449        49.000  
  19460666.06249 102266490.14849     -9229.73449        49.000  
 16 04 02 13 00 54.9000000  0  2G05G02                                          
  19605509.57049 103027647.25049      2016.55549        49.000  
  19460841.75049 102267413.40249     -9235.04349        49.000  
 16 04 02 13 00 55.0000000  0  2G05G02                                          
  19605471.26649 103027445.98449      2009.04749        49.000  
  19461017.53949 102268337.21949     -9240.87949        49.000  
 16 04 02 13 00 55.1000000  0  2G05G02                                          
  19605433.09449 103027245.39849      2002.33649        49.000  
  19461193.43849 102269261.54349     -9245.81249        49.000  
 16 04 02 13 00 55.2000000  0  2G05G02                                          
  19605395.05549 103027045.43449      1996.07849        49.000  
  19461369.41449 102270186.31249     -9250.34049        49.000  
 16 04 02 13 00 55.3000000  0  2G05G02                                          
  19605357.14849 103026846.24649      1988.66049        49.000  
  19461545.50849 102271111.67649     -9255.93449        49.000  
 16 04 02 13 00 55.4000000  0  2G05G02                                          
  19605319.36749 103026647.73049      1981.40649        49.000  
  19461721.68849 102272037.52049     -9261.23849        49.000  
 16 04 02 13 00 55.5000000  0  2G05G02                                          
  19605281.72749 103026449.90249      1974.73849        49.000  
  19461897.96949 102272963.91049     -9266.48449        49.000  
 16 04 02 13 00 55.6000000  0  2G05G02                                          
  19605244.21149 103026252.77749      1967.53549        49.000  
  19462074.35949 102273890.79749     -9271.62149        49.000  
 16 04 02 13 00 55.7000000  0  2G05G02                                          
  19605206.81249 103026056.25049      1961.88749        49.000  
  19462250.82849 102274818.12949     -9275.82849        49.000  
 16 04 02 13 00 55.8000000  0  2G05G02                                          
  19605169.55549 103025860.42649      1954.75449        49.000  
  19462427.39149 102275745.96149     -9281.04749        49.000  
 16 04 02 13 00 55.9000000  0  2G05G02                                          
  19605132.43049 103025665.32849      1947.42249        49.000  
  19462604.05549 102276674.34849     -9286.52049        49.000  
 16 04 02 13 00 56.0000000  0  2G05G02                                          
  19605095.42249 103025470.88749      1940.70349        49.000  
  19462780.82049 102277603.22349     -9291.40649        49.000  
 16 04 02 13 00 56.1000000  0  2G05G02                                          
  19605058.56249 103025277.16849      1933.73049        49.000  
  19462957.68049 102278532.64849     -9296.76649        49.000  
 16 04 02 13 00 56.2000000  0  2G05G02                                          
  19605021.81249 103025084.06249      1927.54749        49.000  
  19463134.63349 102279462.50049     -9301.10249        49.000  
 16 04 02 13 00 56.3000000  0  2G05G02                                          
  19604985.20349 103024891.69549      1920.16449        49.000  
  19463311.68049 102280392.90649     -9306.67249        49.000  
 16 04 02 13 00 56.4000000  0  2G05G02                                          
  19604948.69549 103024699.91449      1914.35949        49.000  
  19463488.81249 102281323.72749     -9310.70749        49.000  
 16 04 02 13 00 56.5000000  0  2G05G02                                          
  19604912.33649 103024508.82849      1907.66849        49.000  
  19463666.04749 102282255.07849     -9315.75449        49.000  
 16 04 02 13 00 56.6000000  0  2G05G02                                          
  19604876.09449 103024318.37149      1901.06649        49.000  
  19463843.36749 102283186.86349     -9320.44549        49.000  
 16 04 02 13 00 56.7000000  0  2G05G02                                          
  19604839.98449 103024128.61749      1894.20749        49.000  
  19464020.78149 102284119.18449     -9325.63349        49.000  
 16 04 02 13 00 56.8000000  0  2G05G02                                          
  19604804.00849 103023939.53149      1887.36749        49.000  
  19464198.29749 102285051.99249     -9330.73449        49.000  
 16 04 02 13 00 56.9000000  0  2G05G02                                          
  19604768.15649 103023751.14849      1880.26249        49.000  
  19464375.89849 102285985.31649     -9335.88349        49.000  
 16 04 02 13 00 57.0000000  0  2G05G02                                          
  19604732.43849 103023563.44549      1873.41449        49.000  
  19464553.59449 102286919.16049     -9341.04349        49.000  
 16 04 02 13 00 57.1000000  0  2G05G02                                          
  19604696.85249 103023376.44149      1866.52349        49.000  
  19464731.39849 102287853.50849     -9346.02749        49.000  
 16 04 02 13 00 57.2000000  0  2G05G02                                          
  19604661.39149 103023190.10549      1859.83249        49.000  
  19464909.29749 102288788.36349     -9351.12549        49.000  
 16 04 02 13 00 57.3000000  0  2G05G02                                          
  19604626.07049 103023004.48449      1852.63349        49.000  
  19465087.29749 102289723.74249     -9356.48449        49.000  
 16 04 02 13 00 57.4000000  0  2G05G02                                          
  19604590.87549 103022819.50449      1846.30549        49.000  
  19465265.38349 102290659.58649     -9361.00449        49.000  
 16 04 02 13 00 57.5000000  0  2G05G02                                          
  19604555.81249 103022635.24249      1839.04749        49.000  
  19465443.57049 102291595.97349     -9366.44549        49.000  
 16 04 02 13 00 57.6000000  0  2G05G02                                          
  19604520.87549 103022451.64549      1832.52049        49.000  
  19465621.85249 102292532.85549     -9371.33249        49.000  
 16 04 02 13 00 57.7000000  0  2G05G02                                          
  19604486.06249 103022268.70349      1825.91849        49.000  
  19465800.22749 102293470.21549     -9376.16849        49.000  
 16 04 02 13 00 57.8000000  0  2G05G02                                          
  19604451.39849 103022086.54749      1818.00449        49.000  
  19465978.70349 102294408.16849     -9382.11349        49.000  
 16 04 02 13 00 57.9000000  0  2G05G02                                          
  19604416.85249 103021904.98449      1812.26249        49.000  
  19466157.26649 102295346.53949     -9386.16449        49.000  
 16 04 02 13 00 58.0000000  0  2G05G02                                          
  19604382.43849 103021724.08649      1805.45749        49.000  
  19466335.93049 102296285.40649     -9391.19549        49.000  
 16 04 02 13 00 58.1000000  0  2G05G02                                          
  19604348.14149 103021543.87949      1798.62149        49.000  
  19466514.68049 102297224.78149     -9396.33249        49.000  
 16 04 02 13 00 58.2000000  0  2G05G02                                          
  19604313.98449 103021364.40249      1791.30149        49.000  
  19466693.53949 102298164.71149     -9401.79349        49.000  
 16 04 02 13 00 58.3000000  0  2G05G02                                          
  19604279.96149 103021185.58649      1784.77349        49.000  
  19466872.49249 102299105.11749     -9406.59849        49.000  
 16 04 02 13 00 58.4000000  0  2G05G02                                          
  19604246.06249 103021007.48049      1777.50049        49.000  
  19467051.54749 102300046.05949     -9411.99649        49.000  
 16 04 02 13 00 58.5000000  0  2G05G02                                          
  19604212.30549 103020830.04749      1770.99649        49.000  
  19467230.69549 102300987.50049     -9416.85549        49.000  
 16 04 02 13 00 58.6000000  0  2G05G02                                          
  19604178.66449 103020653.25049      1764.44949        49.000  
  19467409.93849 102301929.38749     -9421.49249        49.000  
 16 04 02 13 00 58.7000000  0  2G05G02                                          
  19604145.14849 103020477.12549      1757.75449        49.000  
  19467589.26649 102302871.77749     -9426.42249        49.000  
 16 04 02 13 00 58.8000000  0  2G05G02                                          
  19604111.77349 103020301.74249      1750.26649        49.000  
  19467768.71149 102303814.74249     -9432.35949        49.000  
 16 04 02 13 00 58.9000000  0  2G05G02                                          
  19604078.51649 103020126.97749      1744.34849        49.000  
  19467948.23449 102304758.11749     -9436.31249        49.000  
 16 04 02 13 00 59.0000000  0  2G05G02                                          
  19604045.39149 103019952.90249      1737.21549        49.000  
  19468127.85949 102305702.02749     -9441.59849        49.000  
 16 04 02 13 00 59.1000000  0  2G05G02                                          
  19604012.39149 103019779.49249      1730.80149        49.000  
  19468307.57049 102306646.41449     -9446.29349        49.000  
 16 04 02 13 00 59.2000000  0  2G05G02                                          
  19603979.53149 103019606.78149      1723.51649        49.000  
  19468487.37549 102307591.32849     -9451.81249        49.000  
 16 04 02 13 00 59.3000000  0  2G05G02                                          
  19603946.78949 103019434.73449      1716.99649        49.000  
  19468667.27349 102308536.71549     -9456.43849        49.000  
 16 04 02 13 00 59.4000000  0  2G05G02                                          
  19603914.18849 103019263.39549      1709.81649        49.000  
  19468847.27349 102309482.64149     -9461.77349        49.000  
 16 04 02 13 00 59.5000000  0  2G05G02                                          
  19603881.70349 103019092.68049      1703.73449        49.000  
  19469027.35949 102310429.01649     -9466.14549        49.000  
 16 04 02 13 00 59.6000000  0  2G05G02                                          
  19603849.35249 103018922.67649      1696.41049        49.000  
  19469207.53949 102311375.91049     -9471.53549        49.000  
 16 04 02 13 00 59.7000000  0  2G05G02                                          
  19603817.13349 103018753.39549      1689.22349        49.000  
  19469387.83649 102312323.36349     -9477.09849        49.000  
 16 04 02 13 00 59.8000000  0  2G05G02                                          
  19603785.04749 103018584.75449      1682.88749        49.000  
  19469568.21949 102313271.28149     -9481.80549        49.000  
 16 04 02 13 00 59.9000000  0  2G05G02                                          
  19603753.08649 103018416.79349      1676.04749        49.000  
  19469748.69549 102314219.68849     -9486.78149        49.000  
 16 04 02 13 01  0.0000000  0  2G05G02                                          
  19603721.26649 103018249.53949      1669.02049        49.000  
  19469929.27349 102315168.62949     -9492.04349        49.000  
 16 04 02 13 01  0.1000000  0  2G05G02                                          
  19603689.56249 103018082.96549      1662.24249        49.000  
  19470109.94549 102316118.05949     -9496.79749        49.000  
 16 04 02 13 01  0.2000000  0  2G05G02                                          
  19603657.99249 103017917.07049      1655.32449        49.000  
  19470290.71149 102317068.00849     -9502.17649        49.000  
 16 04 02 13 01  0.3000000  0  2G05G02                                          
  19603626.55549 103017751.82849      1648.97349        49.000  
  19470471.57049 102318018.41049     -9506.50049        49.000  
 16 04 02 13 01  0.4000000  0  2G05G02                                          
  19603595.21949 103017587.18849      1643.03149        49.000  
  19470652.50849 102318969.25849     -9510.89149        49.000  
 16 04 02 13 01  0.5000000  0  2G05G02                                          
  19603564.03149 103017423.30149      1635.56249        49.000  
  19470833.54749 102319920.66849     -9516.41049        49.000  
 16 04 02 13 01  0.6000000  0  2G05G02                                          
  19603532.98449 103017260.13349      1628.07049        49.000  
  19471014.71149 102320872.61349     -9522.04349        49.000  
 16 04 02 13 01  0.7000000  0  2G05G02                                          
  19603502.07849 103017097.69549      1620.62549        49.000  
  19471195.96949 102321825.12549     -9527.89849        49.000  
 16 04 02 13 01  0.8000000  0  2G05G02                                          
  19603471.28149 103016935.86749      1614.73049        49.000  
  19471377.31249 102322778.05949     -9531.96149        49.000  
 16 04 02 13 01  0.9000000  0  2G05G02                                          
  19603440.61749 103016774.74649      1607.82449        49.000  
  19471558.75049 102323731.51649     -9537.06649        49.000  
 16 04 02 13 01  1.0000000  0  2G05G02                                          
  19603410.10249 103016614.37149      1600.18849        49.000  
  19471740.28949 102324685.54349     -9542.91449        49.000  
 16 04 02 13 01  1.1000000  0  2G05G02                                          
  19603379.71149 103016454.65249      1593.57849        49.000  
  19471921.92249 102325640.04349     -9547.67249        49.000  
 16 04 02 13 01  1.2000000  0  2G05G02                                          
  19603349.43849 103016295.60249      1587.10949        49.000  
  19472103.65649 102326595.03549     -9552.45349        49.000  
 16 04 02 13 01  1.3000000  0  2G05G02                                          
  19603319.30549 103016137.23449      1579.97349        49.000  
  19472285.48449 102327550.53949     -9557.73049        49.000  
 16 04 02 13 01  1.4000000  0  2G05G02                                          
  19603289.30549 103015979.57849      1573.15249        49.000  
  19472467.40649 102328506.56249     -9562.62549        49.000  
 16 04 02 13 01  1.5000000  0  2G05G02                                          
  19603259.43849 103015822.60949      1566.02349        49.000  
  19472649.43049 102329463.10949     -9568.03149        49.000  
 16 04 02 13 01  1.6000000  0  2G05G02                                          
  19603229.69549 103015666.35549      1559.16449        49.000  
  19472831.55549 102330420.18449     -9573.16049        49.000  
 16 04 02 13 01  1.7000000  0  2G05G02                                          
  19603200.07049 103015510.67649      1553.22349        49.000  
  19473013.75849 102331377.64849     -9577.27049        49.000  
 16 04 02 13 01  1.8000000  0  2G05G02                                          
  19603170.59449 103015355.73449      1546.08649        49.000  
  19473196.05549 102332335.67649     -9582.58249        49.000  
 16 04 02 13 01  1.9000000  0  2G05G02                                          
  19603141.22749 103015201.42649      1539.58649        49.000  
  19473378.44549 102333294.16449     -9587.42649        49.000  
 16 04 02 13 01  2.0000000  0  2G05G02                                          
  19603111.98449 103015047.77349      1533.15249        49.000  
  19473560.93849 102334253.11749     -9592.05949        49.000  
 16 04 02 13 01  2.1000000  0  2G05G02                                          
  19603082.88349 103014894.80949      1526.01249        49.000  
  19473743.51649 102335212.57849     -9597.16049        49.000  
 16 04 02 13 01  2.2000000  0  2G05G02                                          
  19603053.89849 103014742.53149      1519.26649        49.000  
  19473926.20349 102336172.55949     -9602.32849        49.000  
 16 04 02 13 01  2.3000000  0  2G05G02                                          
  19603025.05549 103014590.95349      1512.09849        49.000  
  19474108.97749 102337133.05149     -9607.63349        49.000  
 16 04 02 13 01  2.4000000  0  2G05G02                                          
  19602996.34449 103014440.03949      1505.55949        49.000  
  19474291.85949 102338094.02349     -9612.34849        49.000  
 16 04 02 13 01  2.5000000  0  2G05G02                                          
  19602967.76649 103014289.83649      1498.53949        49.000  
  19474474.82849 102339055.53149     -9617.53549        49.000  
 16 04 02 13 01  2.6000000  0  2G05G02                                          
  19602939.30549 103014140.26649      1492.17249        49.000  
  19474657.88349 102340017.50049     -9622.15649        49.000  
 16 04 02 13 01  2.7000000  0  2G05G02                                          
  19602910.97749 103013991.37949      1485.39149        49.000  
  19474841.03149 102340979.96149     -9627.10249        49.000  
 16 04 02 13 01  2.8000000  0  2G05G02                                          
  19602882.78149 103013843.19149      1478.31649        49.000  
  19475024.28949 102341942.95749     -9632.49649        49.000  
 16 04 02 13 01  2.9000000  0  2G05G02                                          
  19602854.71149 103013695.68049      1471.73449        49.000  
  19475207.63349 102342906.43849     -9637.23049        49.000  
 16 04 02 13 01  3.0000000  0  2G05G02                                          
  19602826.75849 103013548.78549      1465.48849        49.000  
  19475391.05549 102343870.35549     -9641.60949        49.000  
 16 04 02 13 01  3.1000000  0  2G05G02                                          
  19602798.93849 103013402.62149      1458.19549        49.000  
  19475574.58649 102344834.82849     -9647.20749        49.000  
 16 04 02 13 01  3.2000000  0  2G05G02                                          
  19602771.25049 103013257.11349      1451.69149        49.000  
  19475758.20349 102345799.77349     -9651.98849        49.000  
 16 04 02 13 01  3.3000000  0  2G05G02                                          
  19602743.70349 103013112.35549      1443.87949        49.000  
  19475941.93049 102346765.27749     -9657.82449        49.000  
 16 04 02 13 01  3.4000000  0  2G05G02                                          
  19602716.28149 103012968.25849      1437.29749        49.000  
  19476125.75849 102347731.27749     -9662.65649        49.000  
 16 04 02 13 01  3.5000000  0  2G05G02                                          
  19602688.98449 103012824.80149      1431.00449        49.000  
  19476309.67249 102348697.74249     -9667.29749        49.000  
 16 04 02 13 01  3.6000000  0  2G05G02                                          
  19602661.82049 103012682.05149      1424.19549        49.000  
  19476493.68849 102349664.71949     -9672.12549        49.000  
 16 04 02 13 01  3.7000000  0  2G05G02                                          
  19602634.77349 103012539.94149      1417.72349        49.000  
  19476677.78949 102350632.17249     -9676.93449        49.000  
 16 04 02 13 01  3.8000000  0  2G05G02                                          
  19602607.86749 103012398.53549      1410.54349        49.000  
  19476861.98449 102351600.12149     -9682.16049        49.000  
 16 04 02 13 01  3.9000000  0  2G05G02                                          
  19602581.08649 103012257.80949      1403.89549        49.000  
  19477046.28149 102352568.60249     -9687.23849        49.000  
 16 04 02 13 01  4.0000000  0  2G05G02                                          
  19602554.43849 103012117.74249      1397.14149        49.000  
  19477230.66449 102353537.55149     -9692.07449        49.000  
 16 04 02 13 01  4.1000000  0  2G05G02                                          
  19602527.91449 103011978.37149      1390.05549        49.000  
  19477415.14849 102354507.00449     -9697.24649        49.000  
 16 04 02 13 01  4.2000000  0  2G05G02                                          
  19602501.53949 103011839.72749      1383.00449        49.000  
  19477599.73449 102355477.02049     -9702.53149        49.000  
 16 04 02 13 01  4.3000000  0  2G05G02                                          
  19602475.25849 103011701.63749      1377.46949        49.000  
  19477784.39149 102356447.39549     -9706.30949        49.000  
 16 04 02 13 01  4.4000000  0  2G05G02                                          
  19602449.11749 103011564.27749      1370.34449        49.000  
  19477969.14849 102357418.33649     -9711.78949        49.000  
 16 04 02 13 01  4.5000000  0  2G05G02                                          
  19602423.10249 103011427.57049      1363.49249        49.000  
  19478154.00049 102358389.73449     -9716.55149        49.000  
 16 04 02 13 01  4.6000000  0  2G05G02                                          
  19602397.21949 103011291.53149      1356.98449        49.000  
  19478338.94549 102359361.63349     -9721.41849        49.000  
 16 04 02 13 01  4.7000000  0  2G05G02                                          
  19602371.46949 103011156.19949      1349.82849        49.000  
  19478523.99249 102360334.04749     -9726.67249        49.000  
 16 04 02 13 01  4.8000000  0  2G05G02                                          
  19602345.84449 103011021.57849      1342.76249        49.000  
  19478709.14149 102361306.99249     -9731.98449        49.000  
 16 04 02 13 01  4.9000000  0  2G05G02                                          
  19602320.35249 103010887.58649      1336.33249        49.000  
  19478894.37549 102362280.40249     -9736.77049        49.000  
 16 04 02 13 01  5.0000000  0  2G05G02                                          
  19602294.99249 103010754.31249      1329.14149        49.000  
  19479079.71149 102363254.32849     -9741.92649        49.000  
 16 04 02 13 01  5.1000000  0  2G05G02                                          
  19602269.75849 103010621.73049      1322.26249        49.000  
  19479265.14149 102364228.78549     -9747.19949        49.000  
 16 04 02 13 01  5.2000000  0  2G05G02                                          
  19602244.67249 103010489.87149      1315.32849        49.000  
  19479450.67249 102365203.76249     -9752.21549        49.000  
 16 04 02 13 01  5.3000000  0  2G05G02                                          
  19602219.70349 103010358.64149      1308.52349        49.000  
  19479636.28949 102366179.20749     -9757.16849        49.000  
 16 04 02 13 01  5.4000000  0  2G05G02                                          
  19602194.85949 103010228.11349      1301.81249        49.000  
  19479822.01649 102367155.16449     -9762.10549        49.000  
 16 04 02 13 01  5.5000000  0  2G05G02                                          
  19602170.14849 103010098.25049      1295.09849        49.000  
  19480007.82049 102368131.60249     -9766.96949        49.000  
 16 04 02 13 01  5.6000000  0  2G05G02                                          
  19602145.57049 103009969.10549      1288.03549        49.000  
  19480193.73449 102369108.59849     -9772.32849        49.000  
 16 04 02 13 01  5.7000000  0  2G05G02                                          
  19602121.11749 103009840.61349      1281.41049        49.000  
  19480379.73449 102370086.03949     -9776.89849        49.000  
 16 04 02 13 01  5.8000000  0  2G05G02                                          
  19602096.79749 103009712.81249      1274.51649        49.000  
  19480565.84449 102371064.00849     -9782.25849        49.000  
 16 04 02 13 01  5.9000000  0  2G05G02                                          
  19602072.60949 103009585.71549      1267.46949        49.000  
  19480752.03949 102372042.49249     -9787.48449        49.000  
 16 04 02 13 01  6.0000000  0  2G05G02                                          
  19602048.54749 103009459.26249      1260.88349        49.000  
  19480938.32049 102373021.43849     -9792.12549        49.000  
 16 04 02 13 01  6.1000000  0  2G05G02                                          
  19602024.61749 103009333.49649      1254.16849        49.000  
  19481124.70349 102374000.89849     -9797.19149        49.000  
 16 04 02 13 01  6.2000000  0  2G05G02                                          
  19602000.81249 103009208.37949      1247.89549        49.000  
  19481311.17249 102374980.81649     -9801.52049        49.000  
 16 04 02 13 01  6.3000000  0  2G05G02                                          
  19601977.12549 103009083.90649      1241.32849        49.000  
  19481497.73449 102375961.20749     -9806.35549        49.000  
 16 04 02 13 01  6.4000000  0  2G05G02                                          
  19601953.58649 103008960.16449      1233.90649        49.000  
  19481684.39849 102376942.14149     -9811.94949        49.000  
 16 04 02 13 01  6.5000000  0  2G05G02                                          
  19601930.17249 103008837.12149      1226.85249        49.000  
  19481871.16449 102377923.58649     -9817.06249        49.000  
 16 04 02 13 01  6.6000000  0  2G05G02                                          
  19601906.89149 103008714.74649      1220.00449        49.000  
  19482058.02349 102378905.53549     -9822.18849        49.000  
 16 04 02 13 01  6.7000000  0  2G05G02                                          
  19601883.73449 103008593.08649      1213.10949        49.000  
  19482244.98449 102379888.00849     -9827.33249        49.000  
 16 04 02 13 01  6.8000000  0  2G05G02                                          
  19601860.70349 103008472.02349      1207.22749        49.000  
  19482432.02349 102380870.89849     -9831.37149        49.000  
 16 04 02 13 01  6.9000000  0  2G05G02                                          
  19601837.80549 103008351.71549      1199.73049        49.000  
  19482619.17249 102381854.35549     -9837.04749        49.000  
 16 04 02 13 01  7.0000000  0  2G05G02                                          
  19601815.04749 103008232.08649      1192.73049        49.000  
  19482806.41449 102382838.33249     -9842.22349        49.000  
 16 04 02 13 01  7.1000000  0  2G05G02                                          
  19601792.41449 103008113.15649      1185.69949        49.000  
  19482993.75849 102383822.80949     -9847.50449        49.000  
 16 04 02 13 01  7.2000000  0  2G05G02                                          
  19601769.88349 103007994.82849      1179.89549        49.000  
  19483181.18049 102384807.70749     -9851.49649        49.000  
 16 04 02 13 01  7.3000000  0  2G05G02                                          
  19601747.50049 103007877.18849      1173.20349        49.000  
  19483368.69549 102385793.10949     -9856.39849        49.000  
 16 04 02 13 01  7.4000000  0  2G05G02                                          
  19601725.23449 103007760.20349      1166.50449        49.000  
  19483556.30549 102386778.99649     -9861.18049        49.000  
 16 04 02 13 01  7.5000000  0  2G05G02                                          
  19601703.10949 103007643.90649      1159.35549        49.000  
  19483744.00849 102387765.37549     -9866.39549        49.000  
 16 04 02 13 01  7.6000000  0  2G05G02                                          
  19601681.11749 103007528.33249      1152.17649        49.000  
  19483931.81249 102388752.30549     -9871.81649        49.000  
 16 04 02 13 01  7.7000000  0  2G05G02                                          
  19601659.25049 103007413.41449      1145.54349        49.000  
  19484119.71149 102389739.71949     -9876.71149        49.000  
 16 04 02 13 01  7.8000000  0  2G05G02                                          
  19601637.50849 103007299.15649      1138.94949        49.000  
  19484307.70349 102390727.59449     -9881.37549        49.000  
 16 04 02 13 01  7.9000000  0  2G05G02                                          
  19601615.89849 103007185.62549      1131.82449        49.000  
  19484495.78949 102391716.02349     -9886.82049        49.000  
 16 04 02 13 01  8.0000000  0  2G05G02                                          
  19601594.41449 103007072.74249      1125.43049        49.000  
  19484683.98449 102392704.91449     -9891.30149        49.000  
 16 04 02 13 01  8.1000000  0  2G05G02                                          
  19601573.07849 103006960.60249      1117.82449        49.000  
  19484872.26649 102393694.36349     -9897.24249        49.000  
 16 04 02 13 01  8.2000000  0  2G05G02                                          
  19601551.86749 103006849.10249      1111.42649        49.000  
  19485060.64149 102394684.26249     -9901.57449        49.000  
 16 04 02 13 01  8.3000000  0  2G05G02                                          
  19601530.77349 103006738.28949      1104.50449        49.000  
  19485249.10949 102395674.69149     -9906.68849        49.000  
 16 04 02 13 01  8.4000000  0  2G05G02                                          
  19601509.81249 103006628.11749      1098.38349        49.000  
  19485437.66449 102396665.58249     -9911.26249        49.000  
 16 04 02 13 01  8.5000000  0  2G05G02                                          
  19601488.97749 103006518.62149      1091.50449        49.000  
  19485626.31249 102397656.94549     -9916.16849        49.000  
 16 04 02 13 01  8.6000000  0  2G05G02                                          
  19601468.26649 103006409.77049      1085.06649        49.000  
  19485815.05549 102398648.78949     -9920.90649        49.000  
 16 04 02 13 01  8.7000000  0  2G05G02                                          
  19601447.68049 103006301.57849      1078.42649        49.000  
  19486003.89149 102399641.09049     -9925.50449        49.000  
 16 04 02 13 01  8.8000000  0  2G05G02                                          
  19601427.22749 103006194.11349      1071.23849        49.000  
  19486192.82049 102400633.95749     -9931.05549        49.000  
 16 04 02 13 01  8.9000000  0  2G05G02                                          
  19601406.90649 103006087.32849      1064.36349        49.000  
  19486381.84449 102401627.30949     -9936.19149        49.000  
 16 04 02 13 01  9.0000000  0  2G05G02                                          
  19601386.71949 103005981.23049      1057.35549        49.000  
  19486570.96949 102402621.16449     -9941.11349        49.000  
 16 04 02 13 01  9.1000000  0  2G05G02                                          
  19601366.66449 103005875.83649      1050.35249        49.000  
  19486760.19549 102403615.55149     -9946.54749        49.000  
 16 04 02 13 01  9.2000000  0  2G05G02                                          
  19601346.74249 103005771.14149      1043.54749        49.000  
  19486949.50849 102404610.44549     -9951.26649        49.000  
 16 04 02 13 01  9.3000000  0  2G05G02                                          
  19601326.93049 103005667.00849      1037.87949        49.000  
  19487138.89849 102405605.73049     -9955.28949        49.000  
 16 04 02 13 01  9.4000000  0  2G05G02                                          
  19601307.25049 103005563.59449      1030.78549        49.000  
  19487328.40649 102406601.53949     -9960.55949        49.000  
 16 04 02 13 01  9.5000000  0  2G05G02                                          
  19601287.70349 103005460.90649      1023.09449        49.000  
  19487518.00849 102407597.90249     -9966.35949        49.000  
 16 04 02 13 01  9.6000000  0  2G05G02                                          
  19601268.28149 103005358.83649      1017.30949        49.000  
  19487707.69549 102408594.70349     -9970.42649        49.000  
 16 04 02 13 01  9.7000000  0  2G05G02                                          
  19601249.00049 103005257.50449      1009.64849        49.000  
  19487897.48449 102409592.05149     -9976.15649        49.000  
 16 04 02 13 01  9.8000000  0  2G05G02                                          
  19601229.83649 103005156.84449      1002.96949        49.000  
  19488087.36749 102410589.89149     -9980.99649        49.000  
 16 04 02 13 01  9.9000000  0  2G05G02                                          
  19601210.82049 103005056.90649       995.91849        49.000  
  19488277.35249 102411588.27749     -9986.40249        49.000  
 16 04 02 13 01 10.0000000  0  2G05G02                                          
  19601191.92249 103004957.60949       989.37549        49.000  
  19488467.43049 102412587.11349     -9990.93049        49.000  
 16 04 02 13 01 10.1000000  0  2G05G02                                          
  19601173.14149 103004858.93049       983.46149        49.000  
  19488657.58649 102413586.39549     -9995.26649        49.000  
 16 04 02 13 01 10.2000000  0  2G05G02                                          
  19601154.50049 103004760.93449       976.69549        49.000  
  19488847.83649 102414586.16449    -10000.08249        49.000  
 16 04 02 13 01 10.3000000  0  2G05G02                                          
  19601135.97749 103004663.62149       969.49649        49.000  
  19489038.18849 102415586.44549    -10005.48849        49.000  
 16 04 02 13 01 10.4000000  0  2G05G02                                          
  19601117.60249 103004567.05549       962.16849        49.000  
  19489228.64149 102416587.28549    -10010.93049        49.000  
 16 04 02 13 01 10.5000000  0  2G05G02                                          
  19601099.34449 103004471.09849       956.21549        49.000  
  19489419.17249 102417588.54749    -10015.14549        49.000  
 16 04 02 13 01 10.6000000  0  2G05G02                                          
  19601081.21149 103004375.83649       949.07849        49.000  
  19489609.81249 102418590.32849    -10020.34449        49.000  
 16 04 02 13 01 10.7000000  0  2G05G02                                          
  19601063.21949 103004281.28549       942.10249        49.000  
  19489800.53949 102419592.62949    -10025.57449        49.000  
 16 04 02 13 01 10.8000000  0  2G05G02                                          
  19601045.34449 103004187.32049       936.12949        49.000  
  19489991.35249 102420595.34849    -10029.67249        49.000  
 16 04 02 13 01 10.9000000  0  2G05G02                                          
  19601027.59449 103004094.05149       929.30949        49.000  
  19490182.25849 102421598.56649    -10034.56249        49.000  
 16 04 02 13 01 11.0000000  0  2G05G02                                          
  19601009.96949 103004001.44949       922.55549        49.000  
  19490373.25849 102422602.28549    -10039.66849        49.000  
 16 04 02 13 01 11.1000000  0  2G05G02                                          
  19600992.47749 103003909.51249       915.96949        49.000  
  19490564.34449 102423606.47349    -10044.45349        49.000  
 16 04 02 13 01 11.2000000  0  2G05G02                                          
  19600975.10949 103003818.26649       908.99249        49.000  
  19490755.54749 102424611.18049    -10049.49249        49.000  
 16 04 02 13 01 11.3000000  0  2G05G02                                          
  19600957.87549 103003727.68449       902.39849        49.000  
  19490946.82049 102425616.35549    -10054.19549        49.000  
 16 04 02 13 01 11.4000000  0  2G05G02                                          
  19600940.76649 103003637.74649       895.90249        49.000  
  19491138.18849 102426622.00049    -10058.97349        49.000  
 16 04 02 13 01 11.5000000  0  2G05G02                                          
  19600923.78949 103003548.53149       888.69949        49.000  
  19491329.65649 102427628.17249    -10064.26649        49.000  
 16 04 02 13 01 11.6000000  0  2G05G02                                          
  19600906.93849 103003459.98449       881.89549        49.000  
  19491521.21949 102428634.84049    -10069.23049        49.000  
 16 04 02 13 01 11.7000000  0  2G05G02                                          
  19600890.21949 103003372.09849       875.35949        49.000  
  19491712.87549 102429641.98849    -10073.98049        49.000  
 16 04 02 13 01 11.8000000  0  2G05G02                                          
  19600873.63349 103003284.95749       867.94149        49.000  
  19491904.64149 102430649.69549    -10079.50449        49.000  
 16 04 02 13 01 11.9000000  0  2G05G02                                          
  19600857.18049 103003198.49249       861.03549        49.000  
  19492096.49249 102431657.91049    -10084.84849        49.000  
 16 04 02 13 01 12.0000000  0  2G05G02                                          
  19600840.85249 103003112.64549       855.23449        49.000  
  19492288.43849 102432666.53949    -10088.59049        49.000  
 16 04 02 13 01 12.1000000  0  2G05G02                                          
  19600824.63349 103003027.44549       848.65249        49.000  
  19492480.46149 102433675.62949    -10093.27049        49.000  
 16 04 02 13 01 12.2000000  0  2G05G02                                          
  19600808.57049 103002942.98849       840.88349        49.000  
  19492672.59449 102434685.29349    -10099.31649        49.000  
 16 04 02 13 01 12.3000000  0  2G05G02                                          
  19600792.63349 103002859.23049       834.22749        49.000  
  19492864.82849 102435695.46549    -10104.10549        49.000  
 16 04 02 13 01 12.4000000  0  2G05G02                                          
  19600776.80549 103002776.07849       827.98449        49.000  
  19493057.13349 102436706.06649    -10108.57049        49.000  
 16 04 02 13 01 12.5000000  0  2G05G02                                          
  19600761.11749 103002693.63349       821.06249        49.000  
  19493249.53949 102437717.19149    -10113.75049        49.000  
 16 04 02 13 01 12.6000000  0  2G05G02                                          
  19600745.57049 103002611.91049       813.80949        49.000  
  19493442.05549 102438728.84849    -10119.07449        49.000  
 16 04 02 13 01 12.7000000  0  2G05G02                                          
  19600730.13349 103002530.82049       807.39549        49.000  
  19493634.64849 102439740.95749    -10123.71949        49.000  
 16 04 02 13 01 12.8000000  0  2G05G02                                          
  19600714.84449 103002450.40649       800.70349        49.000  
  19493827.34449 102440753.55949    -10128.52349        49.000  
 16 04 02 13 01 12.9000000  0  2G05G02                                          
  19600699.67249 103002370.68449       793.64849        49.000  
  19494020.13349 102441766.66849    -10133.70749        49.000  
 16 04 02 13 01 13.0000000  0  2G05G02                                          
  19600684.63349 103002291.68449       786.37549        49.000  
  19494213.01649 102442780.32849    -10139.18049        49.000  
 16 04 02 13 01 13.1000000  0  2G05G02                                          
  19600669.72749 103002213.37549       779.44549        49.000  
  19494406.00049 102443794.47749    -10144.23849        49.000  
 16 04 02 13 01 13.2000000  0  2G05G02                                          
  19600654.95349 103002135.71149       773.17649        49.000  
  19494599.07849 102444809.10249    -10148.81249        49.000  
 16 04 02 13 01 13.3000000  0  2G05G02                                          
  19600640.30549 103002058.73449       766.34849        49.000  
  19494792.25049 102445824.21949    -10153.66849        49.000  
 16 04 02 13 01 13.4000000  0  2G05G02                                          
  19600625.77349 103001982.37949       760.24649        49.000  
  19494985.50049 102446839.78149    -10157.96549        49.000  
 16 04 02 13 01 13.5000000  0  2G05G02                                          
  19600611.37549 103001906.71949       753.04749        49.000  
  19495178.85249 102447855.84849    -10163.20749        49.000  
 16 04 02 13 01 13.6000000  0  2G05G02                                          
  19600597.11749 103001831.76649       745.98849        49.000  
  19495372.32049 102448872.44949    -10168.61349        49.000  
 16 04 02 13 01 13.7000000  0  2G05G02                                          
  19600582.98449 103001757.50849       739.05949        49.000  
  19495565.86749 102449889.55549    -10173.52049        49.000  
 16 04 02 13 01 13.8000000  0  2G05G02                                          
  19600568.97749 103001683.90649       732.56249        49.000  
  19495759.51649 102450907.14149    -10178.35549        49.000  
 16 04 02 13 01 13.9000000  0  2G05G02                                          
  19600555.10249 103001610.99649       725.52749        49.000  
  19495953.25049 102451925.21949    -10183.37549        49.000  
 16 04 02 13 01 14.0000000  0  2G05G02                                          
  19600541.35949 103001538.77349       718.68449        49.000  
  19496147.09449 102452943.82049    -10188.58249        49.000  
 16 04 02 13 01 14.1000000  0  2G05G02                                          
  19600527.74249 103001467.23849       711.91049        49.000  
  19496341.01649 102453962.90649    -10193.31249        49.000  
 16 04 02 13 01 14.2000000  0  2G05G02                                          
  19600514.25849 103001396.33249       705.58249        49.000  
  19496535.03149 102454982.45349    -10198.06249        49.000  
 16 04 02 13 01 14.3000000  0  2G05G02                                          
  19600500.90649 103001326.16449       698.11749        49.000  
  19496729.14849 102456002.54349    -10203.48849        49.000  
 16 04 02 13 01 14.4000000  0  2G05G02                                          
  19600487.69549 103001256.70749       691.16049        49.000  
  19496923.36749 102457023.16849    -10208.74649        49.000  
 16 04 02 13 01 14.5000000  0  2G05G02                                          
  19600474.58649 103001187.84449       685.04349        49.000  
  19497117.66449 102458044.19549    -10212.93849        49.000  
 16 04 02 13 01 14.6000000  0  2G05G02                                          
  19600461.61749 103001119.65249       678.51649        49.000  
  19497312.04749 102459065.71549    -10217.60949        49.000  
 16 04 02 13 01 14.7000000  0  2G05G02                                          
  19600448.76649 103001052.13349       671.88349        49.000  
  19497506.52349 102460087.71549    -10222.40649        49.000  
 16 04 02 13 01 14.8000000  0  2G05G02                                          
  19600436.05549 103000985.29749       664.73449        49.000  
  19497701.10249 102461110.23449    -10227.82049        49.000  
 16 04 02 13 01 14.9000000  0  2G05G02                                          
  19600423.46949 103000919.15649       657.92649        49.000  
  19497895.77349 102462133.25049    -10232.66849        49.000  
 16 04 02 13 01 15.0000000  0  2G05G02                                          
  19600411.00049 103000853.66849       651.31649        49.000  
  19498090.53949 102463156.73849    -10237.47349        49.000  
 16 04 02 13 01 15.1000000  0  2G05G02                                          
  19600398.67249 103000788.89549       644.25049        49.000  
  19498285.39849 102464180.75049    -10242.56649        49.000  
 16 04 02 13 01 15.2000000  0  2G05G02                                          
  19600386.47749 103000724.74249       637.92249        49.000  
  19498480.33649 102465205.20349    -10247.22749        49.000  
 16 04 02 13 01 15.3000000  0  2G05G02                                          
  19600374.40649 103000661.31649       630.85549        49.000  
  19498675.38349 102466230.21149    -10252.52349        49.000  
 16 04 02 13 01 15.4000000  0  2G05G02                                          
  19600362.45349 103000598.56249       624.09449        49.000  
  19498870.53149 102467255.68849    -10257.23849        49.000  
 16 04 02 13 01 15.5000000  0  2G05G02                                          
  19600350.65649 103000536.54349       616.57849        49.000  
  19499065.78149 102468281.71949    -10262.98049        49.000  
 16 04 02 13 01 15.6000000  0  2G05G02                                          
  19600338.98449 103000475.20349       609.91049        49.000  
  19499261.12549 102469308.25049    -10267.82849        49.000  
 16 04 02 13 01 15.7000000  0  2G05G02                                          
  19600327.43049 103000414.46949       603.88349        49.000  
  19499456.54749 102470335.19949    -10272.01249        49.000  
 16 04 02 13 01 15.8000000  0  2G05G02                                          
  19600316.00849 103000354.43049       596.86349        49.000  
  19499652.07049 102471362.66449    -10277.11349        49.000  
 16 04 02 13 01 15.9000000  0  2G05G02                                          
  19600304.71949 103000295.12549       589.62149        49.000  
  19499847.69549 102472390.67249    -10282.58649        49.000  
 16 04 02 13 01 16.0000000  0  2G05G02                                          
  19600293.55549 103000236.45349       583.31649        49.000  
  19500043.39849 102473419.13749    -10287.21149        49.000  
 16 04 02 13 01 16.1000000  0  2G05G02                                          
  19600282.51649 103000178.43049       576.75849        49.000  
  19500239.19549 102474448.06249    -10291.75049        49.000  
 16 04 02 13 01 16.2000000  0  2G05G02                                          
  19600271.61749 103000121.15649       569.22749        49.000  
  19500435.10249 102475477.54749    -10297.44149        49.000  
 16 04 02 13 01 16.3000000  0  2G05G02                                          
  19600260.83649 103000064.48849       563.16049        49.000  
  19500631.08649 102476507.45749    -10301.68449        49.000  
 16 04 02 13 01 16.4000000  0  2G05G02                                          
  19600250.18049 103000008.50849       556.44149        49.000  
  19500827.15649 102477537.86749    -10306.56249        49.000  
 16 04 02 13 01 16.5000000  0  2G05G02                                          
  19600239.66449 102999953.21949       549.40649        49.000  
  19501023.32849 102478568.79349    -10311.75849        49.000  
 16 04 02 13 01 16.6000000  0  2G05G02                                          
  19600229.28149 102999898.64149       542.27349        49.000  
  19501219.60949 102479600.23449    -10317.00849        49.000  
 16 04 02 13 01 16.7000000  0  2G05G02                                          
  19600219.03149 102999844.77349       535.17249        49.000  
  19501415.98449 102480632.20749    -10322.24649        49.000  
 16 04 02 13 01 16.8000000  0  2G05G02                                          
  19600208.89849 102999791.53149       528.68449        49.000  
  19501612.45349 102481664.63349    -10326.93049        49.000  
 16 04 02 13 01 16.9000000  0  2G05G02                                          
  19600198.90649 102999739.03949       521.46149        49.000  
  19501809.02349 102482697.59849    -10332.16849        49.000  
 16 04 02 13 01 17.0000000  0  2G05G02                                          
  19600189.03149 102999687.14549       515.41849        49.000  
  19502005.67249 102483730.98049    -10336.35249        49.000  
 16 04 02 13 01 17.1000000  0  2G05G02                                          
  19600179.29749 102999635.97749       508.03949        49.000  
  19502202.42249 102484764.93049    -10342.04749        49.000  
 16 04 02 13 01 17.2000000  0  2G05G02                                          
  19600169.69549 102999585.50049       501.56649        49.000  
  19502399.26649 102485799.35949    -10346.62949        49.000  
 16 04 02 13 01 17.3000000  0  2G05G02                                          
  19600160.20349 102999535.63349       495.18449        49.000  
  19502596.19549 102486834.22749    -10351.18049        49.000  
 16 04 02 13 01 17.4000000  0  2G05G02                                          
  19600150.85249 102999486.46149       488.41049        49.000  
  19502793.21949 102487869.60549    -10356.10249        49.000  
 16 04 02 13 01 17.5000000  0  2G05G02                                          
  19600141.61749 102999437.95749       481.70749        49.000  
  19502990.33649 102488905.45749    -10360.89549        49.000  
 16 04 02 13 01 17.6000000  0  2G05G02                                          
  19600132.50849 102999390.09849       475.24249        49.000  
  19503187.54749 102489941.77749    -10365.70749        49.000  
 16 04 02 13 01 17.7000000  0  2G05G02                                          
  19600123.53149 102999342.91049       468.24249        49.000  
  19503384.84449 102490978.57849    -10370.66449        49.000  
 16 04 02 13 01 17.8000000  0  2G05G02                                          
  19600114.68049 102999296.41049       461.60249        49.000  
  19503582.23449 102492015.87549    -10375.50849        49.000  
 16 04 02 13 01 17.9000000  0  2G05G02                                          
  19600105.95349 102999250.55149       455.25049        49.000  
  19503779.71149 102493053.65249    -10380.14849        49.000  
 16 04 02 13 01 18.0000000  0  2G05G02                                          
  19600097.36749 102999205.39149       448.07049        49.000  
  19503977.29749 102494091.92249    -10385.35549        49.000  
 16 04 02 13 01 18.1000000  0  2G05G02                                          
  19600088.91449 102999160.98049       440.43449        49.000  
  19504174.97749 102495130.76249    -10391.09449        49.000  
 16 04 02 13 01 18.2000000  0  2G05G02                                          
  19600080.59449 102999117.28149       433.39849        49.000  
  19504372.76649 102496170.12549    -10396.35249        49.000  
 16 04 02 13 01 18.3000000  0  2G05G02                                          
  19600072.40649 102999074.23449       426.74649        49.000  
  19504570.64149 102497209.96149    -10401.01649        49.000  
 16 04 02 13 01 18.4000000  0  2G05G02                                          
  19600064.34449 102999031.86749       420.30949        49.000  
  19504768.60249 102498250.27749    -10405.59449        49.000  
 16 04 02 13 01 18.5000000  0  2G05G02                                          
  19600056.39149 102998990.09049       414.39149        49.000  
  19504966.64849 102499291.02049    -10409.82049        49.000  
 16 04 02 13 01 18.6000000  0  2G05G02                                          
  19600048.58649 102998949.00849       407.41849        49.000  
  19505164.79749 102500332.25449    -10414.82449        49.000  
 16 04 02 13 01 18.7000000  0  2G05G02                                          
  19600040.89149 102998908.58649       400.70749        49.000  
  19505363.03149 102501373.97749    -10419.69149        49.000  
 16 04 02 13 01 18.8000000  0  2G05G02                                          
  19600033.32849 102998868.85949       393.77049        49.000  
  19505561.35949 102502416.20349    -10424.81249        49.000  
 16 04 02 13 01 18.9000000  0  2G05G02                                          
  19600025.90649 102998829.83249       386.74649        49.000  
  19505759.78949 102503458.94149    -10429.92249        49.000  
 16 04 02 13 01 19.0000000  0  2G05G02                                          
  19600018.60949 102998791.46949       380.26249        49.000  
  19505958.30549 102504502.16049    -10434.57449        49.000  
 16 04 02 13 01 19.1000000  0  2G05G02                                          
  19600011.43049 102998753.77049       373.65649        49.000  
  19506156.91449 102505545.85949    -10439.42649        49.000  
 16 04 02 13 01 19.2000000  0  2G05G02                                          
  19600004.38349 102998716.72749       366.94949        49.000  
  19506355.60949 102506590.02349    -10444.15249        49.000  
 16 04 02 13 01 19.3000000  0  2G05G02                                          
  19599997.47749 102998680.43849       359.13349        49.000  
  19506554.41449 102507634.75849    -10450.02749        49.000  
 16 04 02 13 01 19.4000000  0  2G05G02                                          
  19599990.69549 102998644.78549       353.06649        49.000  
  19506753.30549 102508679.95349    -10454.37549        49.000  
 16 04 02 13 01 19.5000000  0  2G05G02                                          
  19599984.02349 102998609.75849       346.82449        49.000  
  19506952.28149 102509725.57449    -10458.67649        49.000  
 16 04 02 13 01 19.6000000  0  2G05G02                                          
  19599977.50049 102998575.48449       339.35249        49.000  
  19507151.37549 102510771.77049    -10464.27749        49.000  
 16 04 02 13 01 19.7000000  0  2G05G02                                          
  19599971.09449 102998541.81649       333.21549        49.000  
  19507350.53949 102511818.38749    -10468.68449        49.000  
 16 04 02 13 01 19.8000000  0  2G05G02                                          
  19599964.83649 102998508.93049       325.12149        49.000  
  19507549.81249 102512865.59449    -10474.77349        49.000  
 16 04 02 13 01 19.9000000  0  2G05G02                                          
  19599958.69549 102998476.68449       319.00849        49.000  
  19507749.18049 102513913.25849    -10479.01649        49.000  
 16 04 02 13 01 20.0000000  0  2G05G02                                          
  19599952.68849 102998445.07049       312.65649        49.000  
  19507948.63349 102514961.37949    -10483.62149        49.000  
 16 04 02 13 01 20.1000000  0  2G05G02                                          
  19599946.78949 102998414.09449       306.44949        49.000  
  19508148.16449 102516009.94149    -10487.98449        49.000  
 16 04 02 13 01 20.2000000  0  2G05G02                                          
  19599941.03149 102998383.83249       299.27749        49.000  
  19508347.80549 102517059.03149    -10493.38749        49.000  
 16 04 02 13 01 20.3000000  0  2G05G02                                          
  19599935.40649 102998354.29749       291.90249        49.000  
  19508547.53949 102518108.66049    -10498.75049        49.000  
 16 04 02 13 01 20.4000000  0  2G05G02                                          
  19599929.90649 102998325.37149       285.79349        49.000  
  19508747.35949 102519158.71549    -10502.97349        49.000  
 16 04 02 13 01 20.5000000  0  2G05G02                                          
  19599924.52349 102998297.09049       279.25449        49.000  
  19508947.26649 102520209.23449    -10507.73449        49.000  
 16 04 02 13 01 20.6000000  0  2G05G02                                          
  19599919.29749 102998269.60549       271.29349        49.000  
  19509147.28949 102521260.35249    -10513.81249        49.000  
 16 04 02 13 01 20.7000000  0  2G05G02                                          
  19599914.18049 102998242.74649       265.04749        49.000  
  19509347.39849 102522311.93049    -10518.21949        49.000  
 16 04 02 13 01 20.8000000  0  2G05G02                                          
  19599909.18849 102998216.52749       258.84449        49.000  
  19509547.58649 102523363.93449    -10522.44549        49.000  
 16 04 02 13 01 20.9000000  0  2G05G02                                          
  19599904.33649 102998191.01649       251.55149        49.000  
  19509747.87549 102524416.48449    -10528.04749        49.000  
 16 04 02 13 01 21.0000000  0  2G05G02                                          
  19599899.61749 102998166.21949       244.46949        49.000  
  19509948.26649 102525469.54749    -10533.26249        49.000  
 16 04 02 13 01 21.1000000  0  2G05G02                                          
  19599895.02349 102998142.07849       237.79749        49.000  
  19510148.75049 102526523.08649    -10537.99649        49.000  
 16 04 02 13 01 21.2000000  0  2G05G02                                          
  19599890.55549 102998118.57449       231.51249        49.000  
  19510349.32049 102527577.07849    -10542.49249        49.000  
 16 04 02 13 01 21.3000000  0  2G05G02                                          
  19599886.21949 102998095.79749       224.48849        49.000  
  19510549.99249 102528631.60949    -10547.61749        49.000  
 16 04 02 13 01 21.4000000  0  2G05G02                                          
  19599882.00049 102998073.60949       218.51249        49.000  
  19510750.74249 102529686.54349    -10551.82449        49.000  
 16 04 02 13 01 21.5000000  0  2G05G02                                          
  19599877.91449 102998052.14549       211.18849        49.000  
  19510951.58649 102530742.01649    -10557.32449        49.000  
 16 04 02 13 01 21.6000000  0  2G05G02                                          
  19599873.96949 102998031.39549       204.34449        49.000  
  19511152.53149 102531798.00449    -10562.21949        49.000  
 16 04 02 13 01 21.7000000  0  2G05G02                                          
  19599870.13349 102998011.22749       198.15649        49.000  
  19511353.56249 102532854.40249    -10566.51249        49.000  
 16 04 02 13 01 21.8000000  0  2G05G02                                          
  19599866.43049 102997991.80149       190.78949        49.000  
  19511554.69549 102533911.34449    -10571.94949        49.000  
 16 04 02 13 01 21.9000000  0  2G05G02                                          
  19599862.85949 102997973.04749       184.12549        49.000  
  19511755.91449 102534968.78149    -10576.78949        49.000  
 16 04 02 13 01 22.0000000  0  2G05G02                                          
  19599859.41449 102997954.93849       177.64149        49.000  
  19511957.22749 102536026.67249    -10581.38749        49.000  
 16 04 02 13 01 22.1000000  0  2G05G02                                          
  19599856.09449 102997937.50849       170.94549        49.000  
  19512158.62549 102537085.05949    -10586.19149        49.000  
 16 04 02 13 01 22.2000000  0  2G05G02                                          
  19599852.89849 102997920.73449       164.14549        49.000  
  19512360.12549 102538143.91849    -10591.21549        49.000  
 16 04 02 13 01 22.3000000  0  2G05G02                                          
  19599849.84449 102997904.65649       157.42249        49.000  
  19512561.71149 102539203.27749    -10596.07849        49.000  
 16 04 02 13 01 22.4000000  0  2G05G02                                          
  19599846.91449 102997889.25049       150.68849        49.000  
  19512763.39149 102540263.12549    -10600.86749        49.000  
 16 04 02 13 01 22.5000000  0  2G05G02                                          
  19599844.10249 102997874.47349       144.28549        49.000  
  19512965.15649 102541323.42249    -10605.41849        49.000  
 16 04 02 13 01 22.6000000  0  2G05G02                                          
  19599841.42249 102997860.39149       137.47349        49.000  
  19513167.02349 102542384.21949    -10610.32049        49.000  
 16 04 02 13 01 22.7000000  0  2G05G02                                          
  19599838.87549 102997847.00849       130.29349        49.000  
  19513368.98449 102543445.52749    -10615.59049        49.000  
 16 04 02 13 01 22.8000000  0  2G05G02                                          
  19599836.45349 102997834.25849       123.88349        49.000  
  19513571.03149 102544507.28949    -10620.17649        49.000  
 16 04 02 13 01 22.9000000  0  2G05G02                                          
  19599834.15649 102997822.19949       117.29749        49.000  
  19513773.17249 102545569.55549    -10625.06649        49.000  
 16 04 02 13 01 23.0000000  0  2G05G02                                          
  19599832.00049 102997810.83249       110.24249        49.000  
  19513975.40649 102546632.32049    -10630.12149        49.000  
 16 04 02 13 01 23.1000000  0  2G05G02                                          
  19599829.95349 102997800.07849       104.28549        49.000  
  19514177.72749 102547695.51649    -10634.36349        49.000  
 16 04 02 13 01 23.2000000  0  2G05G02                                          
  19599828.03949 102997790.02749        96.96149        49.000  
  19514380.14149 102548759.22349    -10639.65249        49.000  
 16 04 02 13 01 23.3000000  0  2G05G02                                          
  19599826.25049 102997780.64849        90.45349        49.000  
  19514582.65649 102549823.41449    -10644.24249        49.000  
 16 04 02 13 01 23.4000000  0  2G05G02                                          
  19599824.60249 102997771.91849        83.82449        49.000  
  19514785.25849 102550888.07449    -10649.11349        49.000  
 16 04 02 13 01 23.5000000  0  2G05G02                                          
  19599823.07049 102997763.89549        76.82849        49.000  
  19514987.95349 102551953.25049    -10654.22749        49.000  
 16 04 02 13 01 23.6000000  0  2G05G02                                          
  19599821.67249 102997756.53949        70.17649        49.000  
  19515190.73449 102553018.90249    -10658.87549        49.000  
 16 04 02 13 01 23.7000000  0  2G05G02                                          
  19599820.39149 102997749.79749        63.92249        49.000  
  19515393.60949 102554084.99649    -10663.46149        49.000  
 16 04 02 13 01 23.8000000  0  2G05G02                                          
  19599819.25049 102997743.80949        56.21549        49.000  
  19515596.58649 102555151.64149    -10669.16449        49.000  
 16 04 02 13 01 23.9000000  0  2G05G02                                          
  19599818.24249 102997738.50849        49.59049        49.000  
  19515799.65649 102556218.78949    -10673.98849        49.000  
 16 04 02 13 01 24.0000000  0  2G05G02                                          
  19599817.34449 102997733.83649        43.17649        49.000  
  19516002.81249 102557286.38349    -10678.46949        49.000  
 16 04 02 13 01 24.1000000  0  2G05G02                                          
  19599816.59449 102997729.86749        36.38749        49.000  
  19516206.07049 102558354.49249    -10683.43049        49.000  
 16 04 02 13 01 24.2000000  0  2G05G02                                          
  19599815.96149 102997726.54749        29.81649        49.000  
  19516409.40649 102559423.06649    -10688.18049        49.000  
 16 04 02 13 01 24.3000000  0  2G05G02                                          
  19599815.46149 102997723.94149        22.46549        49.000  
  19516612.85249 102560492.15649    -10693.57449        49.000  
 16 04 02 13 01 24.4000000  0  2G05G02                                          
  19599815.10249 102997722.04749        15.44549        49.000  
  19516816.39149 102561561.77349    -10698.58249        49.000  
 16 04 02 13 01 24.5000000  0  2G05G02                                          
  19599814.85249 102997720.72749         9.66049        49.000  
  19517020.00849 102562631.78949    -10702.62949        49.000  
 16 04 02 13 01 24.6000000  0  2G05G02                                          
  19599814.75049 102997720.18449         1.93049        49.000  
  19517223.72749 102563702.37949    -10708.51249        49.000  
 16 04 02 13 01 24.7000000  0  2G05G02                                          
  19599814.76649 102997720.26649        -4.19949        49.000  
  19517427.53949 102564773.42249    -10712.82849        49.000  
 16 04 02 13 01 24.8000000  0  2G05G02                                          
  19599814.90649 102997720.99249       -10.78949        49.000  
  19517631.43849 102565844.91449    -10717.44149        49.000  
 16 04 02 13 01 24.9000000  0  2G05G02                                          
  19599815.18849 102997722.46949       -18.21549        49.000  
  19517835.43849 102566916.96149    -10722.87549        49.000  
 16 04 02 13 01 25.0000000  0  2G05G02                                          
  19599815.59449 102997724.54349       -24.20349        49.000  
  19518039.51649 102567989.42649    -10727.11749        49.000  
 16 04 02 13 01 25.1000000  0  2G05G02                                          
  19599816.12549 102997727.32449       -31.48049        49.000  
  19518243.70349 102569062.41449    -10732.54749        49.000  
 16 04 02 13 01 25.2000000  0  2G05G02                                          
  19599816.78949 102997730.80549       -38.19549        49.000  
  19518447.98449 102570135.91049    -10737.41449        49.000  
 16 04 02 13 01 25.3000000  0  2G05G02                                          
  19599817.57849 102997734.96949       -45.03149        49.000  
  19518652.35949 102571209.89849    -10742.35549        49.000  
 16 04 02 13 01 25.4000000  0  2G05G02                                          
  19599818.48449 102997739.73049       -51.00449        49.000  
  19518856.81249 102572284.30549    -10746.51249        49.000  
 16 04 02 13 01 25.5000000  0  2G05G02                                          
  19599819.53149 102997745.21149       -58.32849        49.000  
  19519061.35949 102573359.23849    -10751.90249        49.000  
 16 04 02 13 01 25.6000000  0  2G05G02                                          
  19599820.71149 102997751.39549       -65.31249        49.000  
  19519266.00849 102574434.68449    -10757.05949        49.000  
 16 04 02 13 01 25.7000000  0  2G05G02                                          
  19599822.01649 102997758.27049       -72.19949        49.000  
  19519470.75849 102575510.63349    -10761.94149        49.000  
 16 04 02 13 01 25.8000000  0  2G05G02                                          
  19599823.45349 102997765.80149       -78.85949        49.000  
  19519675.59449 102576587.04749    -10766.74649        49.000  
 16 04 02 13 01 25.9000000  0  2G05G02                                          
  19599825.00849 102997773.97749       -85.23049        49.000  
  19519880.51649 102577663.93849    -10771.41049        49.000  
 16 04 02 13 01 26.0000000  0  2G05G02                                          
  19599826.70349 102997782.87149       -92.48049        49.000  
  19520085.54749 102578741.34049    -10776.59849        49.000  
 16 04 02 13 01 26.1000000  0  2G05G02                                          
  19599828.53149 102997792.46549       -99.37549        49.000  
  19520290.66449 102579819.25049    -10781.50049        49.000  
 16 04 02 13 01 26.2000000  0  2G05G02                                          
  19599830.47749 102997802.72349      -106.20749        49.000  
  19520495.87549 102580897.66049    -10786.73849        49.000  
 16 04 02 13 01 26.3000000  0  2G05G02                                          
  19599832.56249 102997813.68449      -113.04349        49.000  
  19520701.18849 102581976.55949    -10791.43049        49.000  
 16 04 02 13 01 26.4000000  0  2G05G02                                          
  19599834.75849 102997825.26249      -119.23449        49.000  
  19520906.57849 102583055.89849    -10795.90649        49.000  
 16 04 02 13 01 26.5000000  0  2G05G02                                          
  19599837.10249 102997837.57449      -126.60249        49.000  
  19521112.07049 102584135.78549    -10801.30149        49.000  
 16 04 02 13 01 26.6000000  0  2G05G02                                          
  19599839.56249 102997850.51249      -132.91849        49.000  
  19521317.64849 102585216.10949    -10805.77749        49.000  
 16 04 02 13 01 26.7000000  0  2G05G02                                          
  19599842.15649 102997864.14149      -139.57449        49.000  
  19521523.32049 102586296.92649    -10810.55949        49.000  
 16 04 02 13 01 26.8000000  0  2G05G02                                          
  19599844.87549 102997878.39849      -146.18049        49.000  
  19521729.07849 102587378.21149    -10815.42249        49.000  
 16 04 02 13 01 26.9000000  0  2G05G02                                          
  19599847.73449 102997893.41449      -153.62949        49.000  
  19521934.94549 102588460.03949    -10820.82449        49.000  
 16 04 02 13 01 27.0000000  0  2G05G02                                          
  19599850.71149 102997909.05949      -159.97749        49.000  
  19522140.89149 102589542.31249    -10825.20749        49.000  
 16 04 02 13 01 27.1000000  0  2G05G02                                          
  19599853.82049 102997925.40249      -166.80549        49.000  
  19522346.94549 102590625.11349    -10830.42649        49.000  
 16 04 02 13 01 27.2000000  0  2G05G02                                          
  19599857.04749 102997942.38749      -173.26249        49.000  
  19522553.07049 102591708.34049    -10834.76249        49.000  
 16 04 02 13 01 27.3000000  0  2G05G02                                          
  19599860.41449 102997960.07449      -180.45749        49.000  
  19522759.30549 102592792.10249    -10840.20749        49.000  
 16 04 02 13 01 27.4000000  0  2G05G02                                          
  19599863.91449 102997978.47749      -187.41849        49.000  
  19522965.64149 102593876.37949    -10845.16049        49.000  
 16 04 02 13 01 27.5000000  0  2G05G02                                          
  19599867.53149 102997997.50049      -193.77749        49.000  
  19523172.05549 102594961.09849    -10849.79749        49.000  
 16 04 02 13 01 27.6000000  0  2G05G02                                          
  19599871.28949 102998017.23849      -201.02749        49.000  
  19523378.57049 102596046.32849    -10854.95749        49.000  
 16 04 02 13 01 27.7000000  0  2G05G02                                          
  19599875.17249 102998037.66449      -207.66849        49.000  
  19523585.18049 102597132.07849    -10859.96949        49.000  
 16 04 02 13 01 27.8000000  0  2G05G02                                          
  19599879.18049 102998058.69949      -213.85549        49.000  
  19523791.86749 102598218.23849    -10864.11749        49.000  
 16 04 02 13 01 27.9000000  0  2G05G02                                          
  19599883.32049 102998080.44549      -220.81249        49.000  
  19523998.65649 102599304.91449    -10869.14849        49.000  
 16 04 02 13 01 28.0000000  0  2G05G02                                          
  19599887.57849 102998102.81649      -227.18049        49.000  
  19524205.53149 102600392.03949    -10873.74649        49.000  
 16 04 02 13 01 28.1000000  0  2G05G02                                          
  19599891.96949 102998125.91849      -234.37549        49.000  
  19524412.50049 102601479.69549    -10878.90249        49.000  
 16 04 02 13 01 28.2000000  0  2G05G02                                          
  19599896.50049 102998149.71549      -241.50849        49.000  
  19524619.57049 102602567.86349    -10884.26249        49.000  
 16 04 02 13 01 28.3000000  0  2G05G02                                          
  19599901.15649 102998174.16849      -247.98049        49.000  
  19524826.72749 102603656.49649    -10888.79349        49.000  
 16 04 02 13 01 28.4000000  0  2G05G02                                          
  19599905.92249 102998199.22749      -254.19549        49.000  
  19525033.96949 102604745.55149    -10893.15249        49.000  
 16 04 02 13 01 28.5000000  0  2G05G02                                          
  19599910.82049 102998224.95349      -260.46149        49.000  
  19525241.30549 102605835.08649    -10897.52349        49.000  
 16 04 02 13 01 28.6000000  0  2G05G02                                          
  19599915.84449 102998251.35249      -267.43449        49.000  
  19525448.72749 102606925.10249    -10902.49649        49.000  
 16 04 02 13 01 28.7000000  0  2G05G02                                          
  19599920.99249 102998278.40249      -274.08249        49.000  
  19525656.23449 102608015.57049    -10907.23849        49.000  
 16 04 02 13 01 28.8000000  0  2G05G02                                          
  19599926.28149 102998306.21149      -281.74249        49.000  
  19525863.85949 102609106.62949    -10913.28149        49.000  
 16 04 02 13 01 28.9000000  0  2G05G02                                          
  19599931.70349 102998334.68049      -288.21149        49.000  
  19526071.57049 102610198.14849    -10917.74649        49.000  
 16 04 02 13 01 29.0000000  0  2G05G02                                          
  19599937.25049 102998363.83649      -295.06249        49.000  
  19526279.36749 102611290.16449    -10922.63749        49.000  
 16 04 02 13 01 29.1000000  0  2G05G02                                          
  19599942.93049 102998393.69149      -302.12149        49.000  
  19526487.26649 102612382.68049    -10927.65649        49.000  
 16 04 02 13 01 29.2000000  0  2G05G02                                          
  19599948.74249 102998424.21149      -308.75449        49.000  
  19526695.25849 102613475.69949    -10932.72349        49.000  
 16 04 02 13 01 29.3000000  0  2G05G02                                          
  19599954.68849 102998455.45749      -316.04349        49.000  
  19526903.35249 102614569.24649    -10938.09049        49.000  
 16 04 02 13 01 29.4000000  0  2G05G02                                          
  19599960.76649 102998487.39549      -323.00849        49.000  
  19527111.54749 102615663.27749    -10943.04749        49.000  
 16 04 02 13 01 29.5000000  0  2G05G02                                          
  19599966.97749 102998520.04349      -329.94149        49.000  
  19527319.82849 102616757.83649    -10948.10249        49.000  
 16 04 02 13 01 29.6000000  0  2G05G02                                          
  19599973.32049 102998553.37149      -336.74249        49.000  
  19527528.21149 102617852.89549    -10953.02749        49.000  
 16 04 02 13 01 29.7000000  0  2G05G02                                          
  19599979.78149 102998587.34849      -343.40649        49.000  
  19527736.68849 102618948.42249    -10957.95749        49.000  
 16 04 02 13 01 29.8000000  0  2G05G02                                          
  19599986.38349 102998622.04349      -350.25849        49.000  
  19527945.25849 102620044.44949    -10962.85949        49.000  
 16 04 02 13 01 29.9000000  0  2G05G02                                          
  19599993.09449 102998657.32049      -356.14149        49.000  
  19528153.89849 102621140.89849    -10966.79349        49.000  
 16 04 02 13 01 30.0000000  0  2G05G02                                          
  19599999.93849 102998693.28149      -363.06249        49.000  
  19528362.64149 102622237.82849    -10971.82449        49.000  
 16 04 02 13 01 30.1000000  0  2G05G02                                          
  19600006.92249 102998729.97349      -370.29349        49.000  
  19528571.47749 102623335.29349    -10976.96549        49.000  
 16 04 02 13 01 30.2000000  0  2G05G02                                          
  19600014.01649 102998767.27749      -376.70349        49.000  
  19528780.39849 102624433.19149    -10981.53949        49.000  
 16 04 02 13 01 30.3000000  0  2G05G02                                          
  19600021.25049 102998805.29749      -383.48049        49.000  
  19528989.42249 102625531.61349    -10986.54749        49.000  
 16 04 02 13 01 30.4000000  0  2G05G02                                          
  19600028.61749 102998843.94949      -389.96949        49.000  
  19529198.53149 102626630.48049    -10991.09049        49.000  
 16 04 02 13 01 30.5000000  0  2G05G02                                          
  19600036.09449 102998883.23449      -396.16049        49.000  
  19529407.72749 102627729.79349    -10995.37549        49.000  
 16 04 02 13 01 30.6000000  0  2G05G02                                          
  19600043.70349 102998923.24649      -403.48049        49.000  
  19529617.01649 102628829.63349    -11000.76649        49.000  
 16 04 02 13 01 30.7000000  0  2G05G02                                          
  19600051.44549 102998963.93049      -410.48849        49.000  
  19529826.39849 102629929.97349    -11006.03149        49.000  
 16 04 02 13 01 30.8000000  0  2G05G02                                          
  19600059.32049 102999005.32849      -417.47749        49.000  
  19530035.89149 102631030.81649    -11010.86349        49.000  
 16 04 02 13 01 30.9000000  0  2G05G02                                          
  19600067.32049 102999047.35549      -423.87149        49.000  
  19530245.46149 102632132.12149    -11015.58649        49.000  
 16 04 02 13 01 31.0000000  0  2G05G02                                          
  19600075.45349 102999090.09849      -430.84849        49.000  
  19530455.12549 102633233.93449    -11020.62149        49.000  
 16 04 02 13 01 31.1000000  0  2G05G02                                          
  19600083.73449 102999133.60549      -438.71949        49.000  
  19530664.90649 102634336.33249    -11026.68049        49.000  
 16 04 02 13 01 31.2000000  0  2G05G02                                          
  19600092.13349 102999177.76649      -445.07849        49.000  
  19530874.76649 102635439.18849    -11031.12149        49.000  
 16 04 02 13 01 31.3000000  0  2G05G02                                          
  19600100.64849 102999222.52749      -450.94149        49.000  
  19531084.71149 102636542.44549    -11034.91449        49.000  
 16 04 02 13 01 31.4000000  0  2G05G02                                          
  19600109.29749 102999267.93049      -457.46949        49.000  
  19531294.73449 102637646.17649    -11039.61349        49.000  
 16 04 02 13 01 31.5000000  0  2G05G02                                          
  19600118.07849 102999314.09049      -465.05949        49.000  
  19531504.87549 102638750.45749    -11045.24249        49.000  
 16 04 02 13 01 31.6000000  0  2G05G02                                          
  19600126.99249 102999360.94149      -472.05149        49.000  
  19531715.10949 102639855.25849    -11050.52049        49.000  
 16 04 02 13 01 31.7000000  0  2G05G02                                          
  19600136.03149 102999408.46549      -478.73049        49.000  
  19531925.43049 102640960.52349    -11055.17649        49.000  
 16 04 02 13 01 31.8000000  0  2G05G02                                          
  19600145.21949 102999456.73449      -486.28149        49.000  
  19532135.86749 102642066.35249    -11060.83249        49.000  
 16 04 02 13 01 31.9000000  0  2G05G02                                          
  19600154.52349 102999505.61349      -492.37949        49.000  
  19532346.37549 102643172.60549    -11065.11749        49.000  
 16 04 02 13 01 32.0000000  0  2G05G02                                          
  19600163.96149 102999555.19549      -499.07449        49.000  
  19532556.98449 102644279.35949    -11069.79349        49.000  
 16 04 02 13 01 32.1000000  0  2G05G02                                          
  19600173.50849 102999605.39149      -505.37549        49.000  
  19532767.67249 102645386.54749    -11074.28149        49.000  
 16 04 02 13 01 32.2000000  0  2G05G02                                          
  19600183.19549 102999656.27049      -512.14149        49.000  
  19532978.46949 102646494.21949    -11079.03949        49.000  
 16 04 02 13 01 32.3000000  0  2G05G02                                          
  19600193.00849 102999707.83249      -519.09849        49.000  
  19533189.34449 102647602.39149    -11084.19949        49.000  
 16 04 02 13 01 32.4000000  0  2G05G02                                          
  19600202.93849 102999760.01249      -525.23049        49.000  
  19533400.30549 102648711.00049    -11088.47749        49.000  
 16 04 02 13 01 32.5000000  0  2G05G02                                          
  19600213.00849 102999812.91449      -532.40249        49.000  
  19533611.36749 102649820.12949    -11093.71149        49.000  
 16 04 02 13 01 32.6000000  0  2G05G02                                          
  19600223.18849 102999866.45749      -539.13749        49.000  
  19533822.51649 102650929.70749    -11098.41449        49.000  
 16 04 02 13 01 32.7000000  0  2G05G02                                          
  19600233.51649 102999920.70749      -545.93049        49.000  
  19534033.75849 102652039.81649    -11103.52349        49.000  
 16 04 02 13 01 32.8000000  0  2G05G02                                          
  19600243.96949 102999975.66049      -553.06249        49.000  
  19534245.10949 102653150.41849    -11108.58649        49.000  
 16 04 02 13 01 32.9000000  0  2G05G02                                          
  19600254.54749 103000031.21549      -558.94949        49.000  
  19534456.52349 102654261.44549    -11112.71149        49.000  
 16 04 02 13 01 33.0000000  0  2G05G02                                          
  19600265.24249 103000087.44949      -565.74249        49.000  
  19534668.03949 102655372.95349    -11117.49249        49.000  
 16 04 02 13 01 33.1000000  0  2G05G02                                          
  19600276.07049 103000144.35549      -572.68049        49.000  
  19534879.64849 102656484.94949    -11122.49249        49.000  
 16 04 02 13 01 33.2000000  0  2G05G02                                          
  19600287.03149 103000201.94549      -579.35249        49.000  
  19535091.35249 102657597.43849    -11127.32849        49.000  
 16 04 02 13 01 33.3000000  0  2G05G02                                          
  19600298.10949 103000260.14849      -585.43449        49.000  
  19535303.12549 102658710.34049    -11131.45749        49.000  
 16 04 02 13 01 33.4000000  0  2G05G02                                          
  19600309.32049 103000319.06649      -592.59449        49.000  
  19535515.00849 102659823.78549    -11136.76649        49.000  
 16 04 02 13 01 33.5000000  0  2G05G02                                          
  19600320.67249 103000378.72349      -600.48449        49.000  
  19535726.99249 102660937.77349    -11142.79349        49.000  
 16 04 02 13 01 33.6000000  0  2G05G02                                          
  19600332.16449 103000439.09849      -607.31649        49.000  
  19535939.07849 102662052.28149    -11147.52749        49.000  
 16 04 02 13 01 33.7000000  0  2G05G02                                          
  19600343.78149 103000500.14549      -614.11349        49.000  
  19536151.25849 102663167.27049    -11152.54749        49.000  
 16 04 02 13 01 33.8000000  0  2G05G02                                          
  19600355.51649 103000561.84449      -620.20749        49.000  
  19536363.51649 102664282.73449    -11156.86749        49.000  
 16 04 02 13 01 33.9000000  0  2G05G02                                          
  19600367.38349 103000624.18449      -626.84449        49.000  
  19536575.86749 102665398.63349    -11161.50449        49.000  
 16 04 02 13 01 34.0000000  0  2G05G02                                          
  19600379.38349 103000687.25449      -634.24649        49.000  
  19536788.32049 102666515.08649    -11167.10549        49.000  
 16 04 02 13 01 34.1000000  0  2G05G02                                          
  19600391.51649 103000750.97749      -640.73849        49.000  
  19537000.85949 102667631.98449    -11171.53149        49.000  
 16 04 02 13 01 34.2000000  0  2G05G02                                          
  19600403.76649 103000815.39149      -647.50449        49.000  
  19537213.49249 102668749.39849    -11176.46149        49.000  
 16 04 02 13 01 34.3000000  0  2G05G02                                          
  19600416.14849 103000880.43449      -653.92649        49.000  
  19537426.21149 102669867.25049    -11180.99249        49.000  
 16 04 02 13 01 34.4000000  0  2G05G02                                          
  19600428.65649 103000946.15649      -660.64149        49.000  
  19537639.01649 102670985.57049    -11185.79349        49.000  
 16 04 02 13 01 34.5000000  0  2G05G02                                          
  19600441.30549 103001012.62549      -668.12549        49.000  
  19537851.93849 102672104.46549    -11191.35249        49.000  
 16 04 02 13 01 34.6000000  0  2G05G02                                          
  19600454.07049 103001079.73049      -674.79349        49.000  
  19538064.93849 102673223.80549    -11196.13349        49.000  
 16 04 02 13 01 34.7000000  0  2G05G02                                          
  19600466.96949 103001147.51249      -681.27049        49.000  
  19538278.03949 102674343.62149    -11200.70349        49.000  
 16 04 02 13 01 34.8000000  0  2G05G02                                          
  19600479.99249 103001215.96549      -687.84849        49.000  
  19538491.21949 102675463.93449    -11205.55549        49.000  
 16 04 02 13 01 34.9000000  0  2G05G02                                          
  19600493.15649 103001285.12549      -694.98849        49.000  
  19538704.50049 102676584.74249    -11210.50449        49.000  
 16 04 02 13 01 35.0000000  0  2G05G02                                          
  19600506.43049 103001354.86749      -700.80549        49.000  
  19538917.85949 102677705.94549    -11214.34449        49.000  
 16 04 02 13 01 35.1000000  0  2G05G02                                          
  19600519.82849 103001425.28949      -707.74249        49.000  
  19539131.32049 102678827.66049    -11219.55949        49.000  
 16 04 02 13 01 35.2000000  0  2G05G02                                          
  19600533.36749 103001496.43449      -714.79749        49.000  
  19539344.86749 102679949.88349    -11224.66449        49.000  
 16 04 02 13 01 35.3000000  0  2G05G02                                          
  19600547.03949 103001568.27349      -721.78149        49.000  
  19539558.51649 102681072.62149    -11229.81649        49.000  
 16 04 02 13 01 35.4000000  0  2G05G02                                          
  19600560.82049 103001640.69949      -727.82449        49.000  
  19539772.24249 102682195.74649    -11233.91049        49.000  
 16 04 02 13 01 35.5000000  0  2G05G02                                          
  19600574.74249 103001713.86349      -735.14849        49.000  
  19539986.07049 102683319.43049    -11239.28549        49.000  
 16 04 02 13 01 35.6000000  0  2G05G02                                          
  19600588.79749 103001787.70349      -741.91449        49.000  
  19540199.99249 102684443.58649    -11244.18849        49.000  
 16 04 02 13 01 35.7000000  0  2G05G02                                          
  19600602.96949 103001862.19549      -748.39549        49.000  
  19540414.00049 102685568.21149    -11248.78149        49.000  
 16 04 02 13 01 35.8000000  0  2G05G02                                          
  19600617.26649 103001937.34449      -754.81649        49.000  
  19540628.10249 102686693.29349    -11253.12149        49.000  
 16 04 02 13 01 35.9000000  0  2G05G02                                          
  19600631.69549 103002013.16449      -761.84449        49.000  
  19540842.28949 102687818.87549    -11258.38349        49.000  
 16 04 02 13 01 36.0000000  0  2G05G02                                          
  19600646.27349 103002089.75849      -769.41849        49.000  
  19541056.58649 102688945.01649    -11263.98449        49.000  
 16 04 02 13 01 36.1000000  0  2G05G02                                          
  19600660.97749 103002167.01649      -776.37149        49.000  
  19541270.97749 102690071.63749    -11268.96549        49.000  
 16 04 02 13 01 36.2000000  0  2G05G02                                          
  19600675.81249 103002244.98049      -783.27349        49.000  
  19541485.46949 102691198.78549    -11274.13349        49.000  
 16 04 02 13 01 36.3000000  0  2G05G02                                          
  19600690.78149 103002323.63749      -789.97349        49.000  
  19541700.04749 102692326.41849    -11278.84049        49.000  
 16 04 02 13 01 36.4000000  0  2G05G02                                          
  19600705.86749 103002402.89549      -796.06249        49.000  
  19541914.71149 102693454.46549    -11282.94149        49.000  
 16 04 02 13 01 36.5000000  0  2G05G02                                          
  19600721.08649 103002482.88349      -803.36349        49.000  
  19542129.47749 102694583.06649    -11288.46949        49.000  
 16 04 02 13 01 36.6000000  0  2G05G02                                          
  19600736.43849 103002563.55149      -810.20749        49.000  
  19542344.32849 102695712.13749    -11293.29749        49.000  
 16 04 02 13 01 36.7000000  0  2G05G02                                          
  19600751.92249 103002644.91849      -817.09849        49.000  
  19542559.28149 102696841.71949    -11298.29749        49.000  
 16 04 02 13 01 36.8000000  0  2G05G02                                          
  19600767.52349 103002726.91449      -823.47749        49.000  
  19542774.32049 102697971.74249    -11302.71149        49.000  
 16 04 02 13 01 36.9000000  0  2G05G02                                          
  19600783.25849 103002809.60549      -830.36749        49.000  
  19542989.45349 102699102.27049    -11307.71949        49.000  
 16 04 02 13 01 37.0000000  0  2G05G02                                          
  19600799.11749 103002892.93449      -836.71949        49.000  
  19543204.66449 102700233.23449    -11312.13349        49.000  
 16 04 02 13 01 37.1000000  0  2G05G02                                          
  19600815.10249 103002976.90649      -843.05149        49.000  
  19543419.96949 102701364.65649    -11316.50049        49.000  
 16 04 02 13 01 37.2000000  0  2G05G02                                          
  19600831.20349 103003061.56249      -850.02749        49.000  
  19543635.37549 102702496.58649    -11321.67649        49.000  
 16 04 02 13 01 37.3000000  0  2G05G02                                          
  19600847.44549 103003146.91449      -857.06249        49.000  
  19543850.86749 102703629.00049    -11326.68449        49.000  
 16 04 02 13 01 37.4000000  0  2G05G02                                          
  19600863.82049 103003232.94149      -863.90649        49.000  
  19544066.45349 102704761.89849    -11331.54749        49.000  
 16 04 02 13 01 37.5000000  0  2G05G02                                          
  19600880.32049 103003319.66449      -870.75449        49.000  
  19544282.13349 102705895.33249    -11336.79749        49.000  
 16 04 02 13 01 37.6000000  0  2G05G02                                          
  19600896.94549 103003407.03149      -877.21549        49.000  
  19544497.90649 102707029.17649    -11341.00449        49.000  
 16 04 02 13 01 37.7000000  0  2G05G02                                          
  19600913.71149 103003495.14549      -884.51249        49.000  
  19544713.77349 102708163.59449    -11346.54349        49.000  
 16 04 02 13 01 37.8000000  0  2G05G02                                          
  19600930.59449 103003583.86349      -890.81649        49.000  
  19544929.72749 102709298.42249    -11350.85249        49.000  
 16 04 02 13 01 37.9000000  0  2G05G02                                          
  19600947.61749 103003673.30949      -897.98049        49.000  
  19545145.78149 102710433.78149    -11356.17649        49.000  
 16 04 02 13 01 38.0000000  0  2G05G02                                          
  19600964.76649 103003763.41849      -904.60949        49.000  
  19545361.93049 102711569.61749    -11360.84449        49.000  
 16 04 02 13 01 38.1000000  0  2G05G02                                          
  19600982.03149 103003854.18049      -911.05549        49.000  
  19545578.15649 102712705.91449    -11365.39149        49.000  
 16 04 02 13 01 38.2000000  0  2G05G02                                          
  19600999.44549 103003945.69149      -918.66049        49.000  
  19545794.48449 102713842.77049    -11371.06649        49.000  
 16 04 02 13 01 38.3000000  0  2G05G02                                          
  19601016.99249 103004037.88749      -925.38749        49.000  
  19546010.91449 102714980.10949    -11375.85949        49.000  
 16 04 02 13 01 38.4000000  0  2G05G02                                          
  19601034.65649 103004130.73849      -932.01649        49.000  
  19546227.43849 102716117.93049    -11380.67249        49.000  
 16 04 02 13 01 38.5000000  0  2G05G02                                          
  19601052.45349 103004224.24649      -938.39149        49.000  
  19546444.03949 102717256.19949    -11385.03149        49.000  
 16 04 02 13 01 38.6000000  0  2G05G02                                          
  19601070.36749 103004318.38749      -944.94549        49.000  
  19546660.72749 102718394.91449    -11389.66449        49.000  
 16 04 02 13 01 38.7000000  0  2G05G02                                          
  19601088.40649 103004413.19549      -951.41849        49.000  
  19546877.50849 102719534.10249    -11394.15649        49.000  
 16 04 02 13 01 38.8000000  0  2G05G02                                          
  19601106.58649 103004508.70349      -958.58649        49.000  
  19547094.38349 102720673.81249    -11399.59049        49.000  
 16 04 02 13 01 38.9000000  0  2G05G02                                          
  19601124.89149 103004604.89849      -965.37949        49.000  
  19547311.35249 102721814.00049    -11404.27749        49.000  
 16 04 02 13 01 39.0000000  0  2G05G02                                          
  19601143.32049 103004701.74249      -971.94149        49.000  
  19547528.40649 102722954.65249    -11409.04749        49.000  
 16 04 02 13 01 39.1000000  0  2G05G02                                          
  19601161.89149 103004799.31649      -979.21149        49.000  
  19547745.57049 102724095.84049    -11414.33649        49.000  
 16 04 02 13 01 39.2000000  0  2G05G02                                          
  19601180.57849 103004897.54349      -985.98449        49.000  
  19547962.81249 102725237.48849    -11419.07049        49.000  
 16 04 02 13 01 39.3000000  0  2G05G02                                          
  19601199.39849 103004996.45749      -992.56249        49.000  
  19548180.15649 102726379.63349    -11423.99649        49.000  
 16 04 02 13 01 39.4000000  0  2G05G02                                          
  19601218.34449 103005096.01649      -998.90249        49.000  
  19548397.58649 102727522.22749    -11428.25049        49.000  
 16 04 02 13 01 39.5000000  0  2G05G02                                          
  19601237.42249 103005196.27749     -1006.20349        49.000  
  19548615.10949 102728665.33249    -11433.62949        49.000  
 16 04 02 13 01 39.6000000  0  2G05G02                                          
  19601256.63349 103005297.24649     -1012.94549        49.000  
  19548832.73449 102729808.95749    -11438.55949        49.000  
 16 04 02 13 01 39.7000000  0  2G05G02                                          
  19601275.96949 103005398.82449     -1019.19149        49.000  
  19549050.43849 102730952.98849    -11442.73849        49.000  
 16 04 02 13 01 39.8000000  0  2G05G02                                          
  19601295.42249 103005501.05949     -1025.71549        49.000  
  19549268.22749 102732097.48849    -11447.33649        49.000  
 16 04 02 13 01 39.9000000  0  2G05G02                                          
  19601315.00049 103005603.96149     -1032.37549        49.000  
  19549486.11749 102733242.47749    -11452.16449        49.000  
 16 04 02 13 01 40.0000000  0  2G05G02                                          
  19601334.71949 103005707.58249     -1039.82449        49.000  
  19549704.10249 102734387.98049    -11457.64849        49.000  
 16 04 02 13 01 40.1000000  0  2G05G02                                          
  19601354.57849 103005811.93449     -1047.16449        49.000  
  19549922.18849 102735534.02349    -11463.07449        49.000  
 16 04 02 13 01 40.2000000  0  2G05G02                                          
  19601374.57049 103005916.99649     -1054.21949        49.000  
  19550140.36749 102736680.57449    -11468.15249        49.000  
 16 04 02 13 01 40.3000000  0  2G05G02                                          
  19601394.68049 103006022.68049     -1060.32449        49.000  
  19550358.63349 102737827.57049    -11472.40649        49.000  
 16 04 02 13 01 40.4000000  0  2G05G02                                          
  19601414.92249 103006129.02049     -1066.98849        49.000  
  19550576.98449 102738975.02349    -11477.12149        49.000  
 16 04 02 13 01 40.5000000  0  2G05G02                                          
  19601435.30549 103006236.14149     -1074.79749        49.000  
  19550795.45349 102740123.06249    -11482.98049        49.000  
 16 04 02 13 01 40.6000000  0  2G05G02                                          
  19601455.82049 103006343.94549     -1081.65249        49.000  
  19551014.01649 102741271.59849    -11487.98449        49.000  
 16 04 02 13 01 40.7000000  0  2G05G02                                          
  19601476.46949 103006452.43849     -1088.35549        49.000  
  19551232.66449 102742420.61749    -11492.66449        49.000  
 16 04 02 13 01 40.8000000  0  2G05G02                                          
  19601497.23449 103006561.57849     -1094.94949        49.000  
  19551451.39849 102743570.10249    -11497.36749        49.000  
 16 04 02 13 01 40.9000000  0  2G05G02                                          
  19601518.14149 103006671.40649     -1101.73449        49.000  
  19551670.23449 102744720.08249    -11502.27349        49.000  
 16 04 02 13 01 41.0000000  0  2G05G02                                          
  19601539.16449 103006781.87949     -1108.21549        49.000  
  19551889.15649 102745870.50849    -11506.73449        49.000  
 16 04 02 13 01 41.1000000  0  2G05G02                                          
  19601560.31249 103006893.01249     -1114.79349        49.000  
  19552108.16449 102747021.40649    -11511.44149        49.000  
 16 04 02 13 01 41.2000000  0  2G05G02                                          
  19601581.58649 103007004.83249     -1121.65649        49.000  
  19552327.26649 102748172.80549    -11516.40649        49.000  
 16 04 02 13 01 41.3000000  0  2G05G02                                          
  19601602.98449 103007117.28549     -1127.73049        49.000  
  19552546.45349 102749324.62949    -11520.55949        49.000  
 16 04 02 13 01 41.4000000  0  2G05G02                                          
  19601624.52349 103007230.43049     -1134.87549        49.000  
  19552765.72749 102750476.94949    -11525.66849        49.000  
 16 04 02 13 01 41.5000000  0  2G05G02                                          
  19601646.18049 103007344.23049     -1141.57449        49.000  
  19552985.09449 102751629.75049    -11530.64549        49.000  
 16 04 02 13 01 41.6000000  0  2G05G02                                          
  19601667.96149 103007458.71549     -1148.36749        49.000  
  19553204.56249 102752783.03149    -11535.29349        49.000  
 16 04 02 13 01 41.7000000  0  2G05G02                                          
  19601689.88349 103007573.93049     -1155.63749        49.000  
  19553424.12549 102753936.85249    -11540.63349        49.000  
 16 04 02 13 01 41.8000000  0  2G05G02                                          
  19601711.91449 103007689.74249     -1161.71149        49.000  
  19553643.77349 102755091.08249    -11544.77749        49.000  
 16 04 02 13 01 41.9000000  0  2G05G02                                          
  19601734.08649 103007806.24249     -1168.39149        49.000  
  19553863.50849 102756245.80549    -11549.78149        49.000  
 16 04 02 13 01 42.0000000  0  2G05G02                                          
  19601756.38349 103007923.43849     -1175.34849        49.000  
  19554083.34449 102757401.03149    -11554.69149        49.000  
 16 04 02 13 01 42.1000000  0  2G05G02                                          
  19601778.82049 103008041.33649     -1182.67249        49.000  
  19554303.27349 102758556.75849    -11560.00449        49.000  
 16 04 02 13 01 42.2000000  0  2G05G02                                          
  19601801.39149 103008159.93049     -1189.30949        49.000  
  19554523.29749 102759712.98849    -11564.85249        49.000  
 16 04 02 13 01 42.3000000  0  2G05G02                                          
  19601824.08649 103008279.19549     -1196.28949        49.000  
  19554743.41449 102760869.70349    -11569.80949        49.000  
 16 04 02 13 01 42.4000000  0  2G05G02                                          
  19601846.90649 103008399.12149     -1202.73449        49.000  
  19554963.61749 102762026.87949    -11574.30149        49.000  
 16 04 02 13 01 42.5000000  0  2G05G02                                          
  19601869.85249 103008519.71149     -1209.40249        49.000  
  19555183.90649 102763184.52349    -11578.89849        49.000  
 16 04 02 13 01 42.6000000  0  2G05G02                                          
  19601892.93049 103008640.98049     -1216.11349        49.000  
  19555404.28949 102764342.66449    -11583.80949        49.000  
 16 04 02 13 01 42.7000000  0  2G05G02                                          
  19601916.14149 103008762.95349     -1223.17649        49.000  
  19555624.77349 102765501.31249    -11588.96549        49.000  
 16 04 02 13 01 42.8000000  0  2G05G02                                          
  19601939.47749 103008885.57849     -1229.80949        49.000  
  19555845.35249 102766660.42649    -11593.61349        49.000  
 16 04 02 13 01 42.9000000  0  2G05G02                                          
  19601962.93049 103009008.85249     -1236.27049        49.000  
  19556066.00849 102767819.97749    -11598.04349        49.000  
 16 04 02 13 01 43.0000000  0  2G05G02                                          
  19601986.52349 103009132.82849     -1243.34849        49.000  
  19556286.75849 102768980.05549    -11603.27049        49.000  
 16 04 02 13 01 43.1000000  0  2G05G02                                          
  19602010.25049 103009257.50449     -1250.22749        49.000  
  19556507.60949 102770140.62549    -11608.24649        49.000  
 16 04 02 13 01 43.2000000  0  2G05G02                                          
  19602034.08649 103009382.79349     -1256.25049        49.000  
  19556728.53949 102771301.61349    -11612.39549        49.000  
 16 04 02 13 01 43.3000000  0  2G05G02                                          
  19602058.05549 103009508.74249     -1262.80149        49.000  
  19556949.55549 102772463.08649    -11616.99649        49.000  
 16 04 02 13 01 43.4000000  0  2G05G02                                          
  19602082.14849 103009635.35249     -1269.54349        49.000  
  19557170.66449 102773624.99649    -11621.57449        49.000  
 16 04 02 13 01 43.5000000  0  2G05G02                                          
  19602106.36749 103009762.63749     -1276.50849        49.000  
  19557391.86749 102774787.42249    -11626.77349        49.000  
 16 04 02 13 01 43.6000000  0  2G05G02                                          
  19602130.72749 103009890.62149     -1283.32049        49.000  
  19557613.15649 102775950.33649    -11631.60249        49.000  
 16 04 02 13 01 43.7000000  0  2G05G02                                          
  19602155.20349 103010019.26249     -1290.03549        49.000  
  19557834.54749 102777113.71549    -11636.37549        49.000  
 16 04 02 13 01 43.8000000  0  2G05G02                                          
  19602179.80549 103010148.57049     -1296.34449        49.000  
  19558056.01649 102778277.57449    -11640.82849        49.000  
 16 04 02 13 01 43.9000000  0  2G05G02                                          
  19602204.53949 103010278.53149     -1303.11349        49.000  
  19558277.57849 102779441.88349    -11645.73049        49.000  
 16 04 02 13 01 44.0000000  0  2G05G02                                          
  19602229.40649 103010409.21549     -1310.48049        49.000  
  19558499.24249 102780606.72349    -11651.00849        49.000  
 16 04 02 13 01 44.1000000  0  2G05G02                                          
  19602254.40649 103010540.59049     -1317.25849        49.000  
  19558720.99249 102781772.05549    -11655.83249        49.000  
 16 04 02 13 01 44.2000000  0  2G05G02                                          
  19602279.53149 103010672.63349     -1323.92649        49.000  
  19558942.84449 102782937.87949    -11660.60249        49.000  
 16 04 02 13 01 44.3000000  0  2G05G02                                          
  19602304.77349 103010805.28149     -1329.97749        49.000  
  19559164.76649 102784104.10249    -11664.72349        49.000  
 16 04 02 13 01 44.4000000  0  2G05G02                                          
  19602330.14849 103010938.60549     -1336.55949        49.000  
  19559386.78149 102785270.80549    -11669.37149        49.000  
 16 04 02 13 01 44.5000000  0  2G05G02                                          
  19602355.64149 103011072.60549     -1343.50049        49.000  
  19559608.89149 102786437.98849    -11674.30949        49.000  
 16 04 02 13 01 44.6000000  0  2G05G02                                          
  19602381.28149 103011207.36349     -1351.00049        49.000  
  19559831.10949 102787605.74649    -11679.96549        49.000  
 16 04 02 13 01 44.7000000  0  2G05G02                                          
  19602407.05549 103011342.78949     -1357.82049        49.000  
  19560053.41449 102788773.97749    -11684.81649        49.000  
 16 04 02 13 01 44.8000000  0  2G05G02                                          
  19602432.94549 103011478.85249     -1364.07049        49.000  
  19560275.81249 102789942.64849    -11689.21549        49.000  
 16 04 02 13 01 44.9000000  0  2G05G02                                          
  19602458.96949 103011615.60549     -1370.94549        49.000  
  19560498.28949 102791111.80549    -11693.97749        49.000  
 16 04 02 13 01 45.0000000  0  2G05G02                                          
  19602485.13349 103011753.03149     -1377.78949        49.000  
  19560720.87549 102792281.44949    -11699.06649        49.000  
 16 04 02 13 01 45.1000000  0  2G05G02                                          
  19602511.42249 103011891.20349     -1385.07449        49.000  
  19560943.55549 102793451.64849    -11704.30949        49.000  
 16 04 02 13 01 45.2000000  0  2G05G02                                          
  19602537.82849 103012029.99249     -1391.36349        49.000  
  19561166.31249 102794622.26649    -11708.70749        49.000  
 16 04 02 13 01 45.3000000  0  2G05G02                                          
  19602564.36749 103012169.46549     -1398.11349        49.000  
  19561389.16449 102795793.37149    -11713.41849        49.000  
 16 04 02 13 01 45.4000000  0  2G05G02                                          
  19602591.03949 103012309.58649     -1404.60949        49.000  
  19561612.10949 102796964.93049    -11718.01249        49.000  
 16 04 02 13 01 45.5000000  0  2G05G02                                          
  19602617.82849 103012450.35549     -1411.14849        49.000  
  19561835.13349 102798136.95749    -11722.73849        49.000  
 16 04 02 13 01 45.6000000  0  2G05G02                                          
  19602644.75849 103012591.89549     -1418.93049        49.000  
  19562058.27349 102799309.53549    -11728.27349        49.000  
 16 04 02 13 01 45.7000000  0  2G05G02                                          
  19602671.82049 103012734.10249     -1425.86349        49.000  
  19562281.50049 102800482.60949    -11733.37149        49.000  
 16 04 02 13 01 45.8000000  0  2G05G02                                          
  19602699.00849 103012876.98049     -1432.32049        49.000  
  19562504.82049 102801656.15649    -11737.98049        49.000  
 16 04 02 13 01 45.9000000  0  2G05G02                                          
  19602726.32849 103013020.56649     -1439.34849        49.000  
  19562728.24249 102802830.21949    -11743.11349        49.000  
 16 04 02 13 01 46.0000000  0  2G05G02                                          
  19602753.77349 103013164.75449     -1445.27349        49.000  
  19562951.73449 102804004.67649    -11747.04349        49.000  
 16 04 02 13 01 46.1000000  0  2G05G02                                          
  19602781.33649 103013309.62149     -1451.97349        49.000  
  19563175.32049 102805179.62149    -11751.83249        49.000  
 16 04 02 13 01 46.2000000  0  2G05G02                                          
  19602809.02349 103013455.12149     -1458.53149        49.000  
  19563398.98449 102806355.01249    -11756.34849        49.000  
 16 04 02 13 01 46.3000000  0  2G05G02                                          
  19602836.85949 103013601.38349     -1465.95349        49.000  
  19563622.75849 102807530.95349    -11761.83649        49.000  
 16 04 02 13 01 46.4000000  0  2G05G02                                          
  19602864.80549 103013748.24249     -1472.28549        49.000  
  19563846.61749 102808707.33649    -11766.35949        49.000  
 16 04 02 13 01 46.5000000  0  2G05G02                                          
  19602892.88349 103013895.78549     -1478.86349        49.000  
  19564070.56249 102809884.16849    -11770.85949        49.000  
 16 04 02 13 01 46.6000000  0  2G05G02                                          
  19602921.09449 103014044.03549     -1485.92649        49.000  
  19564294.60249 102811061.52349    -11776.00449        49.000  
 16 04 02 13 01 46.7000000  0  2G05G02                                          
  19602949.44549 103014193.02349     -1493.35249        49.000  
  19564518.75049 102812239.42649    -11781.61349        49.000  
 16 04 02 13 01 46.8000000  0  2G05G02                                          
  19602977.92249 103014342.66049     -1499.91049        49.000  
  19564742.98449 102813417.78149    -11786.03949        49.000  
 16 04 02 13 01 46.9000000  0  2G05G02                                          
  19603006.51649 103014492.94549     -1506.43849        49.000  
  19564967.29749 102814596.59049    -11790.67249        49.000  
 16 04 02 13 01 47.0000000  0  2G05G02                                          
  19603035.24249 103014643.88349     -1512.82449        49.000  
  19565191.70349 102815775.85949    -11795.10549        49.000  
 16 04 02 13 01 47.1000000  0  2G05G02                                          
  19603064.09449 103014795.51649     -1519.84849        49.000  
  19565416.21149 102816955.62549    -11800.15249        49.000  
 16 04 02 13 01 47.2000000  0  2G05G02                                          
  19603093.07849 103014947.81249     -1526.50449        49.000  
  19565640.79749 102818135.85549    -11804.79349        49.000  
 16 04 02 13 01 47.3000000  0  2G05G02                                          
  19603122.18049 103015100.75449     -1532.84849        49.000  
  19565865.47749 102819316.54749    -11809.27349        49.000  
 16 04 02 13 01 47.4000000  0  2G05G02                                          
  19603151.41449 103015254.35549     -1539.46949        49.000  
  19566090.24249 102820497.70749    -11814.01649        49.000  
 16 04 02 13 01 47.5000000  0  2G05G02                                          
  19603180.77349 103015408.66049     -1546.55949        49.000  
  19566315.10249 102821679.36749    -11819.05549        49.000  
 16 04 02 13 01 47.6000000  0  2G05G02                                          
  19603210.28149 103015563.69149     -1553.93049        49.000  
  19566540.06249 102822861.54749    -11824.36749        49.000  
 16 04 02 13 01 47.7000000  0  2G05G02                                          
  19603239.90649 103015719.37149     -1560.34049        49.000  
  19566765.11749 102824044.20749    -11829.05549        49.000  
 16 04 02 13 01 47.8000000  0  2G05G02                                          
  19603269.66449 103015875.74249     -1567.20749        49.000  
  19566990.25849 102825227.33649    -11833.93849        49.000  
 16 04 02 13 01 47.9000000  0  2G05G02                                          
  19603299.53949 103016032.75849     -1573.53149        49.000  
  19567215.49249 102826410.93849    -11838.32449        49.000  
 16 04 02 13 01 48.0000000  0  2G05G02                                          
  19603329.56249 103016190.48449     -1580.78549        49.000  
  19567440.82049 102827595.04349    -11843.66449        49.000  
 16 04 02 13 01 48.1000000  0  2G05G02                                          
  19603359.70349 103016348.88749     -1587.43049        49.000  
  19567666.24249 102828779.62949    -11848.17249        49.000  
 16 04 02 13 01 48.2000000  0  2G05G02                                          
  19603389.96149 103016507.87949     -1593.37949        49.000  
  19567891.74249 102829964.61749    -11852.26649        49.000  
 16 04 02 13 01 48.3000000  0  2G05G02                                          
  19603420.35249 103016667.57049     -1600.39849        49.000  
  19568117.32849 102831150.10949    -11857.42249        49.000  
 16 04 02 13 01 48.4000000  0  2G05G02                                          
  19603450.87549 103016827.98049     -1607.46549        49.000  
  19568343.01649 102832336.10949    -11862.30949        49.000  
 16 04 02 13 01 48.5000000  0  2G05G02                                          
  19603481.52349 103016989.03949     -1614.19549        49.000  
  19568568.79749 102833522.58249    -11867.30549        49.000  
 16 04 02 13 01 48.6000000  0  2G05G02                                          
  19603512.29749 103017150.78949     -1620.75449        49.000  
  19568794.66449 102834709.53949    -11871.94949        49.000  
 16 04 02 13 01 48.7000000  0  2G05G02                                          
  19603543.20349 103017313.17649     -1627.54749        49.000  
  19569020.61749 102835896.92649    -11876.50449        49.000  
 16 04 02 13 01 48.8000000  0  2G05G02                                          
  19603574.23449 103017476.27349     -1634.33649        49.000  
  19569246.67249 102837084.85549    -11881.59049        49.000  
 16 04 02 13 01 48.9000000  0  2G05G02                                          
  19603605.39149 103017640.02049     -1641.00849        49.000  
  19569472.81249 102838273.23049    -11886.18449        49.000  
 16 04 02 13 01 49.0000000  0  2G05G02                                          
  19603636.68849 103017804.46149     -1647.85249        49.000  
  19569699.03949 102839462.10249    -11891.30949        49.000  
 16 04 02 13 01 49.1000000  0  2G05G02                                          
  19603668.10949 103017969.60949     -1655.01249        49.000  
  19569925.37549 102840651.48449    -11896.32449        49.000  
 16 04 02 13 01 49.2000000  0  2G05G02                                          
  19603699.65649 103018135.38749     -1661.06249        49.000  
  19570151.78949 102841841.28549    -11900.30949        49.000  
 16 04 02 13 01 49.3000000  0  2G05G02                                          
  19603731.33649 103018301.85249     -1668.14149        49.000  
  19570378.29749 102843031.60549    -11905.55949        49.000  
 16 04 02 13 01 49.4000000  0  2G05G02                                          
  19603763.13349 103018468.95749     -1674.41049        49.000  
  19570604.89149 102844222.35949    -11909.93849        49.000  
 16 04 02 13 01 49.5000000  0  2G05G02                                          
  19603795.07049 103018636.80149     -1682.00849        49.000  
  19570831.58649 102845413.65649    -11915.42649        49.000  
 16 04 02 13 01 49.6000000  0  2G05G02                                          
  19603827.14149 103018805.32849     -1688.82849        49.000  
  19571058.36749 102846605.44149    -11920.32449        49.000  
 16 04 02 13 01 49.7000000  0  2G05G02                                          
  19603859.33649 103018974.51649     -1695.43449        49.000  
  19571285.25049 102847797.68849    -11925.05949        49.000  
 16 04 02 13 01 49.8000000  0  2G05G02                                          
  19603891.65649 103019144.34849     -1701.90249        49.000  
  19571512.21149 102848990.37549    -11929.43049        49.000  
 16 04 02 13 01 49.9000000  0  2G05G02                                          
  19603924.10949 103019314.90249     -1708.99249        49.000  
  19571739.27349 102850183.61749    -11934.87549        49.000  
 16 04 02 13 01 50.0000000  0  2G05G02                                          
  19603956.68849 103019486.10549     -1715.51649        49.000  
  19571966.42249 102851377.28149    -11939.19149        49.000  
 16 04 02 13 01 50.1000000  0  2G05G02                                          
  19603989.39149 103019657.96949     -1721.98049        49.000  
  19572193.66449 102852571.43049    -11943.82849        49.000  
 16 04 02 13 01 50.2000000  0  2G05G02                                          
  19604022.23449 103019830.56249     -1729.40649        49.000  
  19572421.00049 102853766.10949    -11949.32849        49.000  
 16 04 02 13 01 50.3000000  0  2G05G02                                          
  19604055.19549 103020003.77349     -1735.62949        49.000  
  19572648.41449 102854961.19549    -11953.32449        49.000  
 16 04 02 13 01 50.4000000  0  2G05G02                                          
  19604088.29749 103020177.70749     -1742.93849        49.000  
  19572875.93849 102856156.82449    -11958.75849        49.000  
 16 04 02 13 01 50.5000000  0  2G05G02                                          
  19604121.51649 103020352.28949     -1749.37149        49.000  
  19573103.54749 102857352.90649    -11963.30949        49.000  
 16 04 02 13 01 50.6000000  0  2G05G02                                          
  19604154.87549 103020527.57049     -1756.37149        49.000  
  19573331.25049 102858549.48849    -11968.35949        49.000  
 16 04 02 13 01 50.7000000  0  2G05G02                                          
  19604188.35949 103020703.52349     -1763.26649        49.000  
  19573559.03949 102859746.54349    -11973.28549        49.000  
 16 04 02 13 01 50.8000000  0  2G05G02                                          
  19604221.97749 103020880.18049     -1769.99249        49.000  
  19573786.93049 102860944.11749    -11978.20349        49.000  
 16 04 02 13 01 50.9000000  0  2G05G02                                          
  19604255.71149 103021057.46549     -1776.29749        49.000  
  19574014.90649 102862142.10549    -11982.37549        49.000  
 16 04 02 13 01 51.0000000  0  2G05G02                                          
  19604289.57849 103021235.43449     -1782.97349        49.000  
  19574242.96949 102863340.59049    -11987.14849        49.000  
 16 04 02 13 01 51.1000000  0  2G05G02                                          
  19604323.57049 103021414.05549     -1789.73849        49.000  
  19574471.11749 102864539.53949    -11992.01649        49.000  
 16 04 02 13 01 51.2000000  0  2G05G02                                          
  19604357.70349 103021593.38749     -1796.53949        49.000  
  19574699.36749 102865738.98049    -11996.66049        49.000  
 16 04 02 13 01 51.3000000  0  2G05G02                                          
  19604391.95349 103021773.36349     -1803.42249        49.000  
  19574927.70349 102866938.89849    -12001.73849        49.000  
 16 04 02 13 01 51.4000000  0  2G05G02                                          
  19604426.33649 103021954.07449     -1810.59049        49.000  
  19575156.14149 102868139.34049    -12006.90649        49.000  
 16 04 02 13 01 51.5000000  0  2G05G02                                          
  19604460.84449 103022135.41449     -1816.85949        49.000  
  19575384.65649 102869340.20749    -12011.17649        49.000  
 16 04 02 13 01 51.6000000  0  2G05G02                                          
  19604495.49249 103022317.46949     -1824.06249        49.000  
  19575613.28149 102870541.60949    -12016.46549        49.000  
 16 04 02 13 01 51.7000000  0  2G05G02                                          
  19604530.25849 103022500.16849     -1830.68049        49.000  
  19575841.97749 102871743.44149    -12020.95749        49.000  
 16 04 02 13 01 51.8000000  0  2G05G02                                          
  19604565.15649 103022683.54349     -1837.33649        49.000  
  19576070.78149 102872945.77749    -12025.81249        49.000  
 16 04 02 13 01 51.9000000  0  2G05G02                                          
  19604600.18849 103022867.65249     -1844.42649        49.000  
  19576299.67249 102874148.63349    -12030.94949        49.000  
 16 04 02 13 01 52.0000000  0  2G05G02                                          
  19604635.35249 103023052.40649     -1851.13349        49.000  
  19576528.66449 102875351.94149    -12035.52049        49.000  
 16 04 02 13 01 52.1000000  0  2G05G02                                          
  19604670.61749 103023237.75849     -1856.86349        49.000  
  19576757.71949 102876555.65249    -12039.46149        49.000  
 16 04 02 13 01 52.2000000  0  2G05G02                                          
  19604706.02349 103023423.79749     -1863.52349        49.000  
  19576986.87549 102877759.85249    -12044.08649        49.000  
 16 04 02 13 01 52.3000000  0  2G05G02                                          
  19604741.55549 103023610.53549     -1870.92249        49.000  
  19577216.12549 102878964.55949    -12049.52049        49.000  
 16 04 02 13 01 52.4000000  0  2G05G02                                          
  19604777.21949 103023797.94949     -1877.45349        49.000  
  19577445.46949 102880169.73449    -12054.09449        49.000  
 16 04 02 13 01 52.5000000  0  2G05G02                                          
  19604813.00849 103023986.02749     -1884.37549        49.000  
  19577674.89849 102881375.39849    -12059.19549        49.000  
 16 04 02 13 01 52.6000000  0  2G05G02                                          
  19604848.93849 103024174.84449     -1891.60949        49.000  
  19577904.43049 102882581.58649    -12064.23049        49.000  
 16 04 02 13 01 52.7000000  0  2G05G02                                          
  19604884.98449 103024364.23849     -1897.56249        49.000  
  19578134.03149 102883788.15649    -12068.24649        49.000  
 16 04 02 13 01 52.8000000  0  2G05G02                                          
  19604921.16449 103024554.36749     -1904.86749        49.000  
  19578363.73449 102884995.27349    -12073.66049        49.000  
 16 04 02 13 01 52.9000000  0  2G05G02                                          
  19604957.46949 103024745.16849     -1911.42649        49.000  
  19578593.53149 102886202.86349    -12078.32449        49.000  
 16 04 02 13 01 53.0000000  0  2G05G02                                          
  19604993.90649 103024936.62149     -1918.15249        49.000  
  19578823.41449 102887410.90649    -12082.96149        49.000  
 16 04 02 13 01 53.1000000  0  2G05G02                                          
  19605030.46149 103025128.74249     -1924.62549        49.000  
  19579053.39149 102888619.42249    -12087.57849        49.000  
 16 04 02 13 01 53.2000000  0  2G05G02                                          
  19605067.15649 103025321.56249     -1931.52049        49.000  
  19579283.45349 102889828.44549    -12092.52749        49.000  
 16 04 02 13 01 53.3000000  0  2G05G02                                          
  19605103.97749 103025515.05949     -1938.43849        49.000  
  19579513.60949 102891037.92649    -12097.27749        49.000  
 16 04 02 13 01 53.4000000  0  2G05G02                                          
  19605140.93049 103025709.23049     -1945.25849        49.000  
  19579743.85949 102892247.91449    -12102.35249        49.000  
 16 04 02 13 01 53.5000000  0  2G05G02                                          
  19605178.00849 103025904.10549     -1952.39549        49.000  
  19579974.21149 102893458.39849    -12107.44949        49.000  
 16 04 02 13 01 53.6000000  0  2G05G02                                          
  19605215.22749 103026099.66049     -1958.94549        49.000  
  19580204.64849 102894669.35949    -12112.08249        49.000  
 16 04 02 13 01 53.7000000  0  2G05G02                                          
  19605252.57049 103026295.92249     -1966.09849        49.000  
  19580435.18049 102895880.83249    -12117.14149        49.000  
 16 04 02 13 01 53.8000000  0  2G05G02                                          
  19605290.03149 103026492.79349     -1972.12149        49.000  
  19580665.80549 102897092.72749    -12121.34849        49.000  
 16 04 02 13 01 53.9000000  0  2G05G02                                          
  19605327.63349 103026690.35549     -1979.11749        49.000  
  19580896.50849 102898305.10949    -12126.33249        49.000  
 16 04 02 13 01 54.0000000  0  2G05G02                                          
  19605365.35249 103026888.57449     -1985.63749        49.000  
  19581127.30549 102899517.94949    -12130.74249        49.000  
 16 04 02 13 01 54.1000000  0  2G05G02                                          
  19605403.19549 103027087.42649     -1991.94949        49.000  
  19581358.18849 102900731.22749    -12135.20749        49.000  
 16 04 02 13 01 54.2000000  0  2G05G02                                          
  19605441.16449 103027286.95349     -1998.57049        49.000  
  19581589.16449 102901944.98849    -12139.90649        49.000  
 16 04 02 13 01 54.3000000  0  2G05G02                                          
  19605479.25049 103027487.13749     -2005.04749        49.000  
  19581820.21949 102903159.20349    -12144.47749        49.000  
 16 04 02 13 01 54.4000000  0  2G05G02                                          
  19605517.46949 103027687.96149     -2011.66049        49.000  
  19582051.35949 102904373.85949    -12149.05149        49.000  
 16 04 02 13 01 54.5000000  0  2G05G02                                          
  19605555.82049 103027889.50449     -2018.92249        49.000  
  19582282.60249 102905589.04749    -12154.31249        49.000  
 16 04 02 13 01 54.6000000  0  2G05G02                                          
  19605594.30549 103028091.71149     -2025.46949        49.000  
  19582513.93049 102906804.68449    -12158.80149        49.000  
 16 04 02 13 01 54.7000000  0  2G05G02                                          
  19605632.91449 103028294.63349     -2032.87949        49.000  
  19582745.35949 102908020.86349    -12164.34849        49.000  
 16 04 02 13 01 54.8000000  0  2G05G02                                          
  19605671.64849 103028498.18449     -2038.95749        49.000  
  19582976.87549 102909237.45749    -12168.43049        49.000  
 16 04 02 13 01 54.9000000  0  2G05G02                                          
  19605710.51649 103028702.40249     -2045.71149        49.000  
  19583208.47749 102910454.53149    -12173.26649        49.000  
 16 04 02 13 01 55.0000000  0  2G05G02                                          
  19605749.50049 103028907.27749     -2052.24249        49.000  
  19583440.16449 102911672.05949    -12177.77349        49.000  
 16 04 02 13 01 55.1000000  0  2G05G02                                          
  19605788.61749 103029112.82849     -2058.75849        49.000  
  19583671.94549 102912890.05949    -12182.27349        49.000  
 16 04 02 13 01 55.2000000  0  2G05G02                                          
  19605827.86749 103029319.08649     -2066.17249        49.000  
  19583903.82049 102914108.57849    -12187.62549        49.000  
 16 04 02 13 01 55.3000000  0  2G05G02                                          
  19605867.23449 103029525.97749     -2072.49249        49.000  
  19584135.78149 102915327.52749    -12192.10949        49.000  
 16 04 02 13 01 55.4000000  0  2G05G02                                          
  19605906.75049 103029733.59449     -2079.66049        49.000  
  19584367.84449 102916547.02049    -12197.41049        49.000  
 16 04 02 13 01 55.5000000  0  2G05G02                                          
  19605946.39149 103029941.91849     -2086.75449        49.000  
  19584600.00049 102917767.00049    -12202.27049        49.000  
 16 04 02 13 01 55.6000000  0  2G05G02                                          
  19605986.14849 103030150.85549     -2092.84049        49.000  
  19584832.23449 102918987.41449    -12206.61749        49.000  
 16 04 02 13 01 55.7000000  0  2G05G02                                          
  19606026.05549 103030360.54749     -2100.23849        49.000  
  19585064.57849 102920208.36349    -12211.91849        49.000  
 16 04 02 13 01 55.8000000  0  2G05G02                                          
  19606066.07049 103030570.84849     -2106.57049        49.000  
  19585297.00049 102921429.74649    -12216.27749        49.000  
 16 04 02 13 01 55.9000000  0  2G05G02                                          
  19606106.22749 103030781.84849     -2113.30149        49.000  
  19585529.51649 102922651.62949    -12221.09049        49.000  
 16 04 02 13 01 56.0000000  0  2G05G02                                          
  19606146.50049 103030993.48049     -2119.80549        49.000  
  19585762.11749 102923873.93849    -12225.57049        49.000  
 16 04 02 13 01 56.1000000  0  2G05G02                                          
  19606186.91449 103031205.87149     -2127.30149        49.000  
  19585994.82049 102925096.81649    -12231.10549        49.000  
 16 04 02 13 01 56.2000000  0  2G05G02                                          
  19606227.45349 103031418.93049     -2134.20349        49.000  
  19586227.61749 102926320.16049    -12236.10949        49.000  
 16 04 02 13 01 56.3000000  0  2G05G02                                          
  19606268.12549 103031632.63749     -2140.53949        49.000  
  19586460.50049 102927543.95349    -12240.37549        49.000  
 16 04 02 13 01 56.4000000  0  2G05G02                                          
  19606308.91449 103031846.98049     -2146.85249        49.000  
  19586693.46149 102928768.18449    -12244.70349        49.000  
 16 04 02 13 01 56.5000000  0  2G05G02                                          
  19606349.83649 103032062.05949     -2154.27749        49.000  
  19586926.52349 102929992.95349    -12250.18449        49.000  
 16 04 02 13 01 56.6000000  0  2G05G02                                          
  19606390.89149 103032277.80549     -2160.94549        49.000  
  19587159.68049 102931218.19549    -12254.91449        49.000  
 16 04 02 13 01 56.7000000  0  2G05G02                                          
  19606432.08649 103032494.27749     -2168.55949        49.000  
  19587392.93849 102932443.97349    -12260.53549        49.000  
 16 04 02 13 01 56.8000000  0  2G05G02                                          
  19606473.40649 103032711.42649     -2174.74649        49.000  
  19587626.28949 102933670.21549    -12264.83249        49.000  
 16 04 02 13 01 56.9000000  0  2G05G02                                          
  19606514.84449 103032929.16449     -2180.82049        49.000  
  19587859.71149 102934896.85249    -12268.74249        49.000  
 16 04 02 13 01 57.0000000  0  2G05G02                                          
  19606556.39849 103033147.53949     -2187.16449        49.000  
  19588093.21949 102936123.93449    -12273.25849        49.000  
 16 04 02 13 01 57.1000000  0  2G05G02                                          
  19606598.09449 103033366.64549     -2194.37549        49.000  
  19588326.82049 102937351.54349    -12278.34049        49.000  
 16 04 02 13 01 57.2000000  0  2G05G02                                          
  19606639.90649 103033586.41049     -2201.05549        49.000  
  19588560.51649 102938579.60949    -12283.04749        49.000  
 16 04 02 13 01 57.3000000  0  2G05G02                                          
  19606681.85949 103033806.87149     -2208.17649        49.000  
  19588794.31249 102939808.18449    -12288.23049        49.000  
 16 04 02 13 01 57.4000000  0  2G05G02                                          
  19606723.93849 103034027.97349     -2214.45349        49.000  
  19589028.18849 102941037.19549    -12292.47349        49.000  
 16 04 02 13 01 57.5000000  0  2G05G02                                          
  19606766.14149 103034249.74649     -2221.22349        49.000  
  19589262.14849 102942266.69149    -12297.42249        49.000  
 16 04 02 13 01 57.6000000  0  2G05G02                                          
  19606808.47749 103034472.23049     -2228.31649        49.000  
  19589496.21149 102943496.69149    -12302.42249        49.000  
 16 04 02 13 01 57.7000000  0  2G05G02                                          
  19606850.93849 103034695.37149     -2234.85949        49.000  
  19589730.35949 102944727.14849    -12307.08649        49.000  
 16 04 02 13 01 57.8000000  0  2G05G02                                          
  19606893.53149 103034919.19149     -2241.59049        49.000  
  19589964.60249 102945958.08649    -12311.73849        49.000  
 16 04 02 13 01 57.9000000  0  2G05G02                                          
  19606936.25049 103035143.66049     -2248.18049        49.000  
  19590198.92249 102947189.48049    -12316.38749        49.000  
 16 04 02 13 01 58.0000000  0  2G05G02                                          
  19606979.09449 103035368.79349     -2254.73049        49.000  
  19590433.33649 102948421.34049    -12320.99649        49.000  
 16 04 02 13 01 58.1000000  0  2G05G02                                          
  19607022.06249 103035594.62149     -2261.83649        49.000  
  19590667.85249 102949653.69549    -12326.07049        49.000  
 16 04 02 13 01 58.2000000  0  2G05G02                                          
  19607065.17249 103035821.13349     -2268.62549        49.000  
  19590902.44549 102950886.53549    -12330.95349        49.000  
 16 04 02 13 01 58.3000000  0  2G05G02                                          
  19607108.40649 103036048.33649     -2275.35249        49.000  
  19591137.14149 102952119.85949    -12335.57049        49.000  
 16 04 02 13 01 58.4000000  0  2G05G02                                          
  19607151.77349 103036276.20749     -2282.18449        49.000  
  19591371.93049 102953353.66449    -12340.43449        49.000  
 16 04 02 13 01 58.5000000  0  2G05G02                                          
  19607195.27349 103036504.79749     -2289.35549        49.000  
  19591606.81249 102954587.99249    -12345.80549        49.000  
 16 04 02 13 01 58.6000000  0  2G05G02                                          
  19607238.89149 103036734.02749     -2295.86749        49.000  
  19591841.78149 102955822.74649    -12350.10249        49.000  
 16 04 02 13 01 58.7000000  0  2G05G02                                          
  19607282.64149 103036963.94149     -2302.49249        49.000  
  19592076.84449 102957058.00849    -12354.86349        49.000  
 16 04 02 13 01 58.8000000  0  2G05G02                                          
  19607326.50849 103037194.46149     -2308.52749        49.000  
  19592311.97749 102958293.65649    -12358.80149        49.000  
 16 04 02 13 01 58.9000000  0  2G05G02                                          
  19607370.50849 103037425.66049     -2315.45749        49.000  
  19592547.21149 102959529.80549    -12363.84449        49.000  
 16 04 02 13 01 59.0000000  0  2G05G02                                          
  19607414.64149 103037657.57449     -2322.53949        49.000  
  19592782.53949 102960766.46549    -12368.95749        49.000  
 16 04 02 13 01 59.1000000  0  2G05G02                                          
  19607458.89849 103037890.18049     -2329.37549        49.000  
  19593017.96149 102962003.60949    -12373.86349        49.000  
 16 04 02 13 01 59.2000000  0  2G05G02                                          
  19607503.28949 103038123.45749     -2336.28549        49.000  
  19593253.46949 102963241.22749    -12378.64549        49.000  
 16 04 02 13 01 59.3000000  0  2G05G02                                          
  19607547.81249 103038357.40649     -2342.96149        49.000  
  19593489.07849 102964479.32849    -12383.41449        49.000  
 16 04 02 13 01 59.4000000  0  2G05G02                                          
  19607592.46149 103038592.03549     -2349.80949        49.000  
  19593724.76649 102965717.89849    -12388.22349        49.000  
 16 04 02 13 01 59.5000000  0  2G05G02                                          
  19607637.23449 103038827.33649     -2356.40649        49.000  
  19593960.55549 102966956.95749    -12393.02749        49.000  
 16 04 02 13 01 59.6000000  0  2G05G02                                          
  19607682.14149 103039063.33249     -2363.52049        49.000  
  19594196.43849 102968196.50049    -12398.00449        49.000  
 16 04 02 13 01 59.7000000  0  2G05G02                                          
  19607727.18049 103039300.01249     -2370.27749        49.000  
  19594432.40649 102969436.53549    -12402.91449        49.000  
 16 04 02 13 01 59.8000000  0  2G05G02                                          
  19607772.34449 103039537.37949     -2377.12149        49.000  
  19594668.46949 102970677.05149    -12407.54749        49.000  
 16 04 02 13 01 59.9000000  0  2G05G02                                          
  19607817.63349 103039775.37549     -2383.38349        49.000  
  19594904.60949 102971918.00449    -12411.93849        49.000  
 16 04 02 13 02  0.0000000  0  2G05G02                                          
  19607863.06249 103040014.06649     -2390.46949        49.000  
  19595140.85249 102973159.44549    -12416.82449        49.000  
 16 04 02 13 02  0.1000000  0  2G05G02                                          
  19607908.60949 103040253.42649     -2397.04349        49.000  
  19595377.18049 102974401.36749    -12421.77749        49.000  
 16 04 02 13 02  0.2000000  0  2G05G02                                          
  19607954.28949 103040493.45749     -2403.82849        49.000  
  19595613.60249 102975643.75849    -12426.33249        49.000  
 16 04 02 13 02  0.3000000  0  2G05G02                                          
  19608000.09449 103040734.18449     -2410.62549        49.000  
  19595850.11749 102976886.64149    -12431.12549        49.000  
 16 04 02 13 02  0.4000000  0  2G05G02                                          
  19608046.03949 103040975.59449     -2417.48049        49.000  
  19596086.72749 102978130.01649    -12436.12549        49.000  
 16 04 02 13 02  0.5000000  0  2G05G02                                          
  19608092.10249 103041217.63349     -2423.90249        49.000  
  19596323.41449 102979373.82449    -12440.63349        49.000  
 16 04 02 13 02  0.6000000  0  2G05G02                                          
  19608138.29749 103041460.38749     -2430.98849        49.000  
  19596560.20349 102980618.12949    -12445.44149        49.000  
 16 04 02 13 02  0.7000000  0  2G05G02                                          
  19608184.60949 103041703.75849     -2437.23849        49.000  
  19596797.07049 102981862.87949    -12449.94549        49.000  
 16 04 02 13 02  0.8000000  0  2G05G02                                          
  19608231.05549 103041947.85949     -2444.43049        49.000  
  19597034.03149 102983108.12949    -12454.96149        49.000  
 16 04 02 13 02  0.9000000  0  2G05G02                                          
  19608277.63349 103042192.60949     -2450.94949        49.000  
  19597271.08649 102984353.85249    -12459.65649        49.000  
 16 04 02 13 02  1.0000000  0  2G05G02                                          
  19608324.32049 103042437.95349     -2456.91849        49.000  
  19597508.21149 102985599.96149    -12463.40249        49.000  
 16 04 02 13 02  1.1000000  0  2G05G02                                          
  19608371.13349 103042683.94149     -2463.35949        49.000  
  19597745.43049 102986846.53949    -12468.19149        49.000  
 16 04 02 13 02  1.2000000  0  2G05G02                                          
  19608418.09449 103042930.75849     -2471.59449        49.000  
  19597982.75849 102988093.69949    -12473.96149        49.000  
 16 04 02 13 02  1.3000000  0  2G05G02                                          
  19608465.18049 103043178.17249     -2477.84849        49.000  
  19598220.16449 102989341.29349    -12478.60549        49.000  
 16 04 02 13 02  1.4000000  0  2G05G02                                          
  19608512.38349 103043426.22749     -2483.82449        49.000  
  19598457.65649 102990589.31249    -12482.48449        49.000  
 16 04 02 13 02  1.5000000  0  2G05G02                                          
  19608559.71949 103043674.97349     -2490.81249        49.000  
  19598695.24249 102991837.83249    -12487.58249        49.000  
 16 04 02 13 02  1.6000000  0  2G05G02                                          
  19608607.17249 103043924.34449     -2497.22349        49.000  
  19598932.91449 102993086.79749    -12492.10549        49.000  
 16 04 02 13 02  1.7000000  0  2G05G02                                          
  19608654.76649 103044174.44549     -2504.32449        49.000  
  19599170.67249 102994336.25049    -12496.92249        49.000  
 16 04 02 13 02  1.8000000  0  2G05G02                                          
  19608702.47749 103044425.19549     -2510.87149        49.000  
  19599408.53149 102995586.19949    -12501.78549        49.000  
