     2.10           OBSERVATION DATA    G (GPS)             RINEX VERSION / TYPE
Convert v1.8.0                          09-Jun-2016 14:09   PGM / RUN BY / DATE 
Signal Strength values S1,S2 are in dBHz                    COMMENT             
                                                            MARKER NAME         
                                                            MARKER NUMBER       
                                                            OBSERVER / AGENCY   
                    NovAtel GPSCard                         REC # / TYPE / VERS 
                                                            ANT # / TYPE        
0.0000        0.0000        0.0000                          APPROX POSITION XYZ 
        0.0000        0.0000        0.0000                  ANTENNA: DELTA H/E/N
     1     0                                                WAVELENGTH FACT L1/2
     1     0     3   G09   G25   G29                        WAVELENGTH FACT L1/2
                                                            COMMENT             
                                                            COMMENT             
                                                            COMMENT             
                                                            COMMENT             
                                                            COMMENT             
                                                            COMMENT             
     4    C1    L1    D1    S1                              # / TYPES OF OBSERV 
     0.100                                                  INTERVAL            
  2016    04    02    12    50    36.8000000    GPS         TIME OF FIRST OBS   
  2016    04    02    12    52     2.0000000    GPS         TIME OF LAST OBS    
Leap Seconds Unknown                                        COMMENT             
                                                            END OF HEADER       
 16 04 02 12 50 36.8000000  0  1G29                                             
  22308181.52349 117230284.15659     -3028.01249        50.000  
 16 04 02 12 50 36.9000000  0  2G09G29                                          
  23610899.71949 124076114.91059     -4486.74649        50.000  
  22308239.18049 117230587.14849     -3031.46949        50.000  
 16 04 02 12 50 37.0000000  0  2G09G29                                          
  23610985.14849 124076563.83649     -4492.26649        50.000  
  22308296.89149 117230890.46949     -3035.10949        50.000  
 16 04 02 12 50 37.1000000  0  2G09G29                                          
  23611070.68049 124077013.32049     -4497.67249        50.000  
  22308354.68849 117231194.15649     -3038.66849        50.000  
 16 04 02 12 50 37.2000000  0  2G09G29                                          
  23611156.32049 124077463.36749     -4503.39549        50.000  
  22308412.53949 117231498.22749     -3042.45349        50.000  
 16 04 02 12 50 37.3000000  0  2G09G29                                          
  23611242.08649 124077914.00849     -4509.43449        50.000  
  22308470.47749 117231802.70749     -3046.71949        50.000  
 16 04 02 12 50 37.4000000  0  2G09G29                                          
  23611327.93849 124078365.17249     -4514.76249        50.000  
  22308528.48449 117232107.52749     -3050.22749        50.000  
 16 04 02 12 50 37.5000000  0  2G09G29                                          
  23611413.90649 124078816.85949     -4519.98449        50.000  
  22308586.55549 117232412.68449     -3053.50049        50.000  
 16 04 02 12 50 37.6000000  0  2G09G29                                          
  23611499.96949 124079269.14849     -4526.07049        50.000  
  22308644.71149 117232718.27049     -3057.79349        50.000  
 16 04 02 12 50 37.7000000  0  2G09G29                                          
  23611586.16449 124079722.02349     -4531.83649        50.000  
  22308702.93849 117233024.25049     -3061.76249        50.000  
 16 04 02 12 50 37.8000000  0  2G09G29                                          
  23611672.45349 124080175.51249     -4538.17249        50.000  
  22308761.23449 117233330.64849     -3066.12149        50.000  
 16 04 02 12 50 37.9000000  0  2G09G29                                          
  23611758.83649 124080629.50049     -4542.70749        50.000  
  22308819.60949 117233637.37549     -3068.90249        50.000  
 16 04 02 12 50 38.0000000  0  2G09G29                                          
  23611845.32849 124081084.01249     -4548.27349        50.000  
  22308878.03949 117233944.44549     -3072.50849        50.000  
 16 04 02 12 50 38.1000000  0  2G09G29                                          
  23611931.93049 124081539.14849     -4554.29749        50.000  
  22308936.55549 117234251.95749     -3076.82449        50.000  
 16 04 02 12 50 38.2000000  0  2G09G29                                          
  23612018.64849 124081994.83249     -4560.13349        50.000  
  22308995.14149 117234559.83649     -3080.86749        50.000  
 16 04 02 12 50 38.3000000  0  2G09G29                                          
  23612105.47749 124082451.07849     -4565.43849        50.000  
  22309053.79749 117234868.06649     -3084.29349        50.000  
 16 04 02 12 50 38.4000000  0  2G09G29                                          
  23612192.40649 124082907.88749     -4571.26649        50.000  
  22309112.53149 117235176.70349     -3088.30149        50.000  
 16 04 02 12 50 38.5000000  0  2G09G29                                          
  23612279.43849 124083365.26649     -4576.81649        50.000  
  22309171.32849 117235485.71149     -3091.89549        50.000  
 16 04 02 12 50 38.6000000  0  2G09G29                                          
  23612366.58649 124083823.21149     -4582.71549        50.000  
  22309230.21949 117235795.12149     -3096.16449        50.000  
 16 04 02 12 50 38.7000000  0  2G09G29                                          
  23612453.85949 124084281.74649     -4588.44549        50.000  
  22309289.16449 117236104.91849     -3099.87149        50.000  
 16 04 02 12 50 38.8000000  0  2G09G29                                          
  23612541.21949 124084740.81249     -4593.75849        50.000  
  22309348.20349 117236415.07449     -3103.48449        50.000  
 16 04 02 12 50 38.9000000  0  2G09G29                                          
  23612628.68049 124085200.44149     -4599.69549        50.000  
  22309407.29749 117236725.60949     -3107.53149        50.000  
 16 04 02 12 50 39.0000000  0  2G09G29                                          
  23612716.25849 124085660.69149     -4605.47349        50.000  
  22309466.46949 117237036.57849     -3111.52349        50.000  
 16 04 02 12 50 39.1000000  0  2G09G29                                          
  23612803.92249 124086121.43049     -4610.43049        50.000  
  22309525.70349 117237347.84049     -3114.60249        50.000  
 16 04 02 12 50 39.2000000  0  2G09G29                                          
  23612891.70349 124086582.74249     -4616.12549        50.000  
  22309585.00849 117237659.51649     -3118.59049        50.000  
 16 04 02 12 50 39.3000000  0  2G09G29                                          
  23612979.60249 124087044.59449     -4621.68849        50.000  
  22309644.38349 117237971.52749     -3122.03149        50.000  
 16 04 02 12 50 39.4000000  0  2G09G29                                          
  23613067.60249 124087507.06249     -4627.80549        50.000  
  22309703.84449 117238283.97749     -3126.47749        50.000  
 16 04 02 12 50 39.5000000  0  2G09G29                                          
  23613155.71149 124087970.03949     -4632.86749        50.000  
  22309763.35949 117238596.76649     -3129.82049        50.000  
 16 04 02 12 50 39.6000000  0  2G09G29                                          
  23613243.92249 124088433.61749     -4638.79349        50.000  
  22309822.95349 117238909.95749     -3133.73849        50.000  
 16 04 02 12 50 39.7000000  0  2G09G29                                          
  23613332.24249 124088897.71549     -4644.03549        50.000  
  22309882.61749 117239223.48849     -3137.16849        50.000  
 16 04 02 12 50 39.8000000  0  2G09G29                                          
  23613420.66449 124089362.38749     -4649.66049        50.000  
  22309942.36749 117239537.41049     -3140.93449        50.000  
 16 04 02 12 50 39.9000000  0  2G09G29                                          
  23613509.18049 124089827.57849     -4654.68849        50.000  
  22310002.17249 117239851.68049     -3144.32449        50.000  
 16 04 02 12 50 40.0000000  0  2G09G29                                          
  23613597.80549 124090293.32849     -4660.60249        50.000  
  22310062.04749 117240166.30149     -3148.25849        50.000  
 16 04 02 12 50 40.1000000  0  2G09G29                                          
  23613686.52349 124090759.60949     -4665.76249        50.000  
  22310121.99249 117240481.28549     -3151.64549        50.000  
 16 04 02 12 50 40.2000000  0  2G09G29                                          
  23613775.36749 124091226.48449     -4671.87949        50.000  
  22310182.00849 117240796.67649     -3155.83649        50.000  
 16 04 02 12 50 40.3000000  0  2G09G29                                          
  23613864.32049 124091693.99649     -4678.39149        50.000  
  22310242.10949 117241112.52349     -3160.58249        50.000  
 16 04 02 12 50 40.4000000  0  2G09G29                                          
  23613953.39149 124092162.03549     -4683.69949        50.000  
  22310302.28949 117241428.71149     -3163.94949        50.000  
 16 04 02 12 50 40.5000000  0  2G09G29                                          
  23614042.55549 124092630.62549     -4688.77049        50.000  
  22310362.52349 117241745.26249     -3167.21949        50.000  
 16 04 02 12 50 40.6000000  0  2G09G29                                          
  23614131.82849 124093099.77749     -4694.67249        50.000  
  22310422.83649 117242062.20349     -3171.32449        50.000  
 16 04 02 12 50 40.7000000  0  2G09G29                                          
  23614221.21149 124093569.54349     -4700.73049        50.000  
  22310483.22749 117242379.57449     -3175.64849        50.000  
 16 04 02 12 50 40.8000000  0  2G09G29                                          
  23614310.71149 124094039.84849     -4706.01649        50.000  
  22310543.69549 117242697.29749     -3179.17649        50.000  
 16 04 02 12 50 40.9000000  0  2G09G29                                          
  23614400.32049 124094510.73849     -4712.00049        50.000  
  22310604.23449 117243015.41449     -3183.11749        50.000  
 16 04 02 12 50 41.0000000  0  2G09G29                                          
  23614490.03149 124094982.15649     -4717.11349        50.000  
  22310664.82849 117243333.88349     -3186.47349        50.000  
 16 04 02 12 50 41.1000000  0  2G09G29                                          
  23614579.81249 124095454.05549     -4721.99249        50.000  
  22310725.48449 117243652.64849     -3189.47349        50.000  
 16 04 02 12 50 41.2000000  0  2G09G29                                          
  23614669.72749 124095926.56249     -4728.14149        50.000  
  22310786.21149 117243971.84049     -3193.80149        50.000  
 16 04 02 12 50 41.3000000  0  2G09G29                                          
  23614759.75049 124096399.64149     -4733.68049        50.000  
  22310847.03149 117244291.41849     -3197.53549        50.000  
 16 04 02 12 50 41.4000000  0  2G09G29                                          
  23614849.86749 124096873.23449     -4739.10249        50.000  
  22310907.89849 117244611.33249     -3201.16849        50.000  
 16 04 02 12 50 41.5000000  0  2G09G29                                          
  23614940.11749 124097347.46149     -4745.46949        50.000  
  22310968.85949 117244931.68849     -3205.57049        50.000  
 16 04 02 12 50 41.6000000  0  2G09G29                                          
  23615030.46149 124097822.22749     -4750.78949        50.000  
  22311029.89149 117245252.41049     -3209.12149        50.000  
 16 04 02 12 50 41.7000000  0  2G09G29                                          
  23615120.90649 124098297.55149     -4756.10549        50.000  
  22311090.99249 117245573.49249     -3212.59049        50.000  
 16 04 02 12 50 41.8000000  0  2G09G29                                          
  23615211.46949 124098773.43049     -4762.05549        50.000  
  22311152.15649 117245894.95749     -3216.68449        50.000  
 16 04 02 12 50 41.9000000  0  2G09G29                                          
  23615302.11749 124099249.87549     -4767.50449        50.000  
  22311213.39849 117246216.80949     -3220.32849        50.000  
 16 04 02 12 50 42.0000000  0  2G09G29                                          
  23615392.89849 124099726.92649     -4773.49249        50.000  
  22311274.74249 117246539.06649     -3224.38349        50.000  
 16 04 02 12 50 42.1000000  0  2G09G29                                          
  23615483.78949 124100204.49249     -4778.80949        50.000  
  22311336.13349 117246861.67649     -3228.02749        50.000  
 16 04 02 12 50 42.2000000  0  2G09G29                                          
  23615574.78949 124100682.70349     -4785.25049        50.000  
  22311397.60249 117247184.73449     -3232.65249        50.000  
 16 04 02 12 50 42.3000000  0  2G09G29                                          
  23615665.88349 124101161.39849     -4789.98449        50.000  
  22311459.14149 117247508.09849     -3235.44149        50.000  
 16 04 02 12 50 42.4000000  0  2G09G29                                          
  23615757.09449 124101640.71949     -4796.39549        50.000  
  22311520.75849 117247831.90649     -3240.10249        50.000  
 16 04 02 12 50 42.5000000  0  2G09G29                                          
  23615848.41449 124102120.58249     -4801.84849        50.000  
  22311582.43849 117248156.07449     -3243.64849        50.000  
 16 04 02 12 50 42.6000000  0  2G09G29                                          
  23615939.83649 124102601.01249     -4807.30149        50.000  
  22311644.19549 117248480.61749     -3247.34449        50.000  
 16 04 02 12 50 42.7000000  0  2G09G29                                          
  23616031.36749 124103081.99249     -4812.99649        50.000  
  22311706.02349 117248805.53149     -3251.02049        50.000  
 16 04 02 12 50 42.8000000  0  2G09G29                                          
  23616123.00849 124103563.56249     -4818.63349        50.000  
  22311767.92249 117249130.85549     -3255.12949        50.000  
 16 04 02 12 50 42.9000000  0  2G09G29                                          
  23616214.75049 124104045.64549     -4823.76249        50.000  
  22311829.89149 117249456.50049     -3258.25449        50.000  
 16 04 02 12 50 43.0000000  0  2G09G29                                          
  23616306.58649 124104528.25049     -4829.16449        50.000  
  22311891.91449 117249782.48849     -3261.78549        50.000  
 16 04 02 12 50 43.1000000  0  2G09G29                                          
  23616398.53949 124105011.41049     -4834.51249        50.000  
  22311954.02349 117250108.85249     -3265.39549        50.000  
 16 04 02 12 50 43.2000000  0  2G09G29                                          
  23616490.58649 124105495.10249     -4839.99649        50.000  
  22312016.20349 117250435.57049     -3269.04349        50.000  
 16 04 02 12 50 43.3000000  0  2G09G29                                          
  23616582.75049 124105979.41049     -4846.26649        50.000  
  22312078.46149 117250762.71549     -3273.46949        50.000  
 16 04 02 12 50 43.4000000  0  2G09G29                                          
  23616675.02349 124106464.33649     -4852.28949        50.000  
  22312140.80549 117251090.29349     -3277.72749        50.000  
 16 04 02 12 50 43.5000000  0  2G09G29                                          
  23616767.39149 124106949.70349     -4856.82849        50.000  
  22312203.18849 117251418.13349     -3280.37149        50.000  
 16 04 02 12 50 43.6000000  0  2G09G29                                          
  23616859.86749 124107435.64849     -4862.50849        50.000  
  22312265.64849 117251746.36349     -3284.09849        50.000  
 16 04 02 12 50 43.7000000  0  2G09G29                                          
  23616952.45349 124107922.19949     -4868.52049        50.000  
  22312328.18849 117252075.01649     -3288.37149        50.000  
 16 04 02 12 50 43.8000000  0  2G09G29                                          
  23617045.14849 124108409.30549     -4874.21949        50.000  
  22312390.80549 117252404.04749     -3292.38349        50.000  
 16 04 02 12 50 43.9000000  0  2G09G29                                          
  23617137.94549 124108896.91049     -4878.85949        50.000  
  22312453.47749 117252733.38349     -3295.05149        50.000  
 16 04 02 12 50 44.0000000  0  2G09G29                                          
  23617230.83649 124109385.09449     -4884.80949        50.000  
  22312516.21949 117253063.12149     -3299.26249        50.000  
 16 04 02 12 50 44.1000000  0  2G09G29                                          
  23617323.85249 124109873.85949     -4890.78949        50.000  
  22312579.04749 117253393.26249     -3303.35549        50.000  
 16 04 02 12 50 44.2000000  0  2G09G29                                          
  23617416.96949 124110363.19949     -4896.54349        50.000  
  22312641.94549 117253723.78549     -3307.22749        50.000  
 16 04 02 12 50 44.3000000  0  2G09G29                                          
  23617510.17249 124110853.02749     -4901.27349        50.000  
  22312704.90649 117254054.61749     -3310.14549        50.000  
 16 04 02 12 50 44.4000000  0  2G09G29                                          
  23617603.48449 124111343.39149     -4906.38749        50.000  
  22312767.93049 117254385.80549     -3313.48049        50.000  
 16 04 02 12 50 44.5000000  0  2G09G29                                          
  23617696.90649 124111834.28949     -4912.05549        50.000  
  22312831.01649 117254717.35249     -3317.38749        50.000  
 16 04 02 12 50 44.6000000  0  2G09G29                                          
  23617790.43849 124112325.79749     -4917.68049        50.000  
  22312894.18849 117255049.30949     -3321.11749        50.000  
 16 04 02 12 50 44.7000000  0  2G09G29                                          
  23617884.07049 124112817.84049     -4923.84449        50.000  
  22312957.43049 117255381.62549     -3325.29749        50.000  
 16 04 02 12 50 44.8000000  0  2G09G29                                          
  23617977.82049 124113310.48449     -4929.48849        50.000  
  22313020.74249 117255714.36349     -3329.25849        50.000  
 16 04 02 12 50 44.9000000  0  2G09G29                                          
  23618071.68049 124113803.70349     -4935.47749        50.000  
  22313084.13349 117256047.48449     -3333.43449        50.000  
 16 04 02 12 50 45.0000000  0  2G09G29                                          
  23618165.63349 124114297.45749     -4940.52749        50.000  
  22313147.60249 117256380.97749     -3336.72349        50.000  
 16 04 02 12 50 45.1000000  0  2G09G29                                          
  23618259.68849 124114791.74649     -4945.87149        50.000  
  22313211.12549 117256714.79749     -3339.98049        50.000  
 16 04 02 12 50 45.2000000  0  2G09G29                                          
  23618353.86749 124115286.66049     -4952.25449        50.000  
  22313274.74249 117257049.07049     -3344.62549        50.000  
 16 04 02 12 50 45.3000000  0  2G09G29                                          
  23618448.16449 124115782.08249     -4957.38749        50.000  
  22313338.41449 117257383.67249     -3347.97349        50.000  
 16 04 02 12 50 45.4000000  0  2G09G29                                          
  23618542.54749 124116278.07049     -4962.76249        50.000  
  22313402.14849 117257718.65249     -3351.55949        50.000  
 16 04 02 12 50 45.5000000  0  2G09G29                                          
  23618637.01649 124116774.56649     -4967.84849        50.000  
  22313465.96149 117258053.95749     -3354.79349        50.000  
 16 04 02 12 50 45.6000000  0  2G09G29                                          
  23618731.60949 124117271.66049     -4973.91449        50.000  
  22313529.83649 117258389.68049     -3359.07849        50.000  
 16 04 02 12 50 45.7000000  0  2G09G29                                          
  23618826.32849 124117769.33649     -4979.85949        50.000  
  22313593.79749 117258725.80949     -3363.23449        50.000  
 16 04 02 12 50 45.8000000  0  2G09G29                                          
  23618921.14149 124118267.57049     -4985.42249        50.000  
  22313657.82849 117259062.29349     -3366.82049        50.000  
 16 04 02 12 50 45.9000000  0  2G09G29                                          
  23619016.06249 124118766.37549     -4991.30149        50.000  
  22313721.93049 117259399.18049     -3370.95349        50.000  
 16 04 02 12 50 46.0000000  0  2G09G29                                          
  23619111.07049 124119265.67649     -4996.06249        50.000  
  22313786.10949 117259736.37149     -3373.84849        50.000  
 16 04 02 12 50 46.1000000  0  2G09G29                                          
  23619206.19549 124119765.57049     -5001.99649        50.000  
  22313850.35249 117260073.99249     -3378.08649        50.000  
 16 04 02 12 50 46.2000000  0  2G09G29                                          
  23619301.43849 124120266.06649     -5008.04349        50.000  
  22313914.68849 117260412.01249     -3382.08249        50.000  
 16 04 02 12 50 46.3000000  0  2G09G29                                          
  23619396.78149 124120767.07849     -5013.02049        50.000  
  22313979.07849 117260750.36749     -3385.32049        50.000  
 16 04 02 12 50 46.4000000  0  2G09G29                                          
  23619492.21949 124121268.63749     -5018.50449        50.000  
  22314043.53949 117261089.09049     -3389.02749        50.000  
 16 04 02 12 50 46.5000000  0  2G09G29                                          
  23619587.76649 124121770.78949     -5024.61349        50.000  
  22314108.07849 117261428.23449     -3393.32849        50.000  
 16 04 02 12 50 46.6000000  0  2G09G29                                          
  23619683.43849 124122273.55149     -5030.82449        50.000  
  22314172.68849 117261767.79349     -3397.71549        50.000  
 16 04 02 12 50 46.7000000  0  2G09G29                                          
  23619779.21949 124122776.87549     -5036.34849        50.000  
  22314237.37549 117262107.73049     -3401.46549        50.000  
 16 04 02 12 50 46.8000000  0  2G09G29                                          
  23619875.10249 124123280.71149     -5041.43449        50.000  
  22314302.11749 117262448.00449     -3404.74649        50.000  
 16 04 02 12 50 46.9000000  0  2G09G29                                          
  23619971.07849 124123785.09449     -5046.72749        50.000  
  22314366.93849 117262788.63749     -3408.16849        50.000  
 16 04 02 12 50 47.0000000  0  2G09G29                                          
  23620067.15649 124124290.00049     -5051.96549        50.000  
  22314431.82849 117263129.60949     -3411.59849        50.000  
 16 04 02 12 50 47.1000000  0  2G09G29                                          
  23620163.34449 124124795.47749     -5057.91049        50.000  
  22314496.78149 117263470.96549     -3415.42249        50.000  
 16 04 02 12 50 47.2000000  0  2G09G29                                          
  23620259.63349 124125301.49649     -5063.11749        50.000  
  22314561.81249 117263812.69549     -3419.06249        50.000  
 16 04 02 12 50 47.3000000  0  2G09G29                                          
  23620356.04749 124125808.11349     -5069.09849        50.000  
  22314626.92249 117264154.82049     -3423.12149        50.000  
 16 04 02 12 50 47.4000000  0  2G09G29                                          
  23620452.54749 124126315.21949     -5074.22749        50.000  
  22314692.08649 117264497.27349     -3426.40249        50.000  
 16 04 02 12 50 47.5000000  0  2G09G29                                          
  23620549.15649 124126822.90649     -5079.95349        50.000  
  22314757.32849 117264840.12149     -3430.37949        50.000  
 16 04 02 12 50 47.6000000  0  2G09G29                                          
  23620645.86749 124127331.16449     -5085.56249        50.000  
  22314822.64149 117265183.34849     -3434.12949        50.000  
 16 04 02 12 50 47.7000000  0  2G09G29                                          
  23620742.70349 124127839.98849     -5091.41049        50.000  
  22314888.03149 117265526.95349     -3438.07049        50.000  
 16 04 02 12 50 47.8000000  0  2G09G29                                          
  23620839.63349 124128349.34849     -5096.60549        50.000  
  22314953.48449 117265870.92249     -3441.50449        50.000  
 16 04 02 12 50 47.9000000  0  2G09G29                                          
  23620936.66449 124128859.30149     -5102.62949        50.000  
  22315019.01649 117266215.29749     -3445.66449        50.000  
 16 04 02 12 50 48.0000000  0  2G09G29                                          
  23621033.81249 124129369.80149     -5107.99249        50.000  
  22315084.62549 117266560.04749     -3449.34849        50.000  
 16 04 02 12 50 48.1000000  0  2G09G29                                          
  23621131.05549 124129880.81649     -5113.23449        50.000  
  22315150.28949 117266905.12549     -3452.72349        50.000  
 16 04 02 12 50 48.2000000  0  2G09G29                                          
  23621228.41449 124130392.43049     -5118.99249        50.000  
  22315216.03149 117267250.60949     -3456.64149        50.000  
 16 04 02 12 50 48.3000000  0  2G09G29                                          
  23621325.85949 124130904.56249     -5124.34849        50.000  
  22315281.83649 117267596.43449     -3460.16849        50.000  
 16 04 02 12 50 48.4000000  0  2G09G29                                          
  23621423.43049 124131417.27049     -5130.19949        50.000  
  22315347.71949 117267942.64849     -3464.09049        50.000  
 16 04 02 12 50 48.5000000  0  2G09G29                                          
  23621521.10249 124131930.54349     -5135.82849        50.000  
  22315413.67249 117268289.25049     -3467.87949        50.000  
 16 04 02 12 50 48.6000000  0  2G09G29                                          
  23621618.87549 124132444.35949     -5141.34849        50.000  
  22315479.69549 117268636.22349     -3471.64149        50.000  
 16 04 02 12 50 48.7000000  0  2G09G29                                          
  23621716.75849 124132958.73449     -5146.69149        50.000  
  22315545.78949 117268983.55549     -3475.19149        50.000  
 16 04 02 12 50 48.8000000  0  2G09G29                                          
  23621814.74249 124133473.64149     -5151.83249        50.000  
  22315611.96149 117269331.24249     -3478.56249        50.000  
 16 04 02 12 50 48.9000000  0  2G09G29                                          
  23621912.83649 124133989.10949     -5157.92249        50.000  
  22315678.19549 117269679.30949     -3482.64549        50.000  
 16 04 02 12 50 49.0000000  0  2G09G29                                          
  23622011.03949 124134505.16449     -5163.45349        50.000  
  22315744.50849 117270027.78549     -3486.59849        50.000  
 16 04 02 12 50 49.1000000  0  2G09G29                                          
  23622109.35249 124135021.76249     -5169.12149        50.000  
  22315810.89149 117270376.61349     -3490.28949        50.000  
 16 04 02 12 50 49.2000000  0  2G09G29                                          
  23622207.75049 124135538.85949     -5173.87549        50.000  
  22315877.33649 117270725.75849     -3493.15649        50.000  
 16 04 02 12 50 49.3000000  0  2G09G29                                          
  23622306.26649 124136056.50849     -5179.43449        50.000  
  22315943.84449 117271075.27349     -3496.91449        50.000  
 16 04 02 12 50 49.4000000  0  2G09G29                                          
  23622404.89149 124136574.77349     -5185.58249        50.000  
  22316010.43849 117271425.22349     -3501.24249        50.000  
 16 04 02 12 50 49.5000000  0  2G09G29                                          
  23622503.60949 124137093.54749     -5191.00049        50.000  
  22316077.09449 117271775.51249     -3504.87549        50.000  
 16 04 02 12 50 49.6000000  0  2G09G29                                          
  23622602.45349 124137612.95349     -5197.03949        50.000  
  22316143.83649 117272126.23449     -3509.04349        50.000  
 16 04 02 12 50 49.7000000  0  2G09G29                                          
  23622701.38349 124138132.82849     -5201.79349        50.000  
  22316210.63349 117272477.25049     -3512.04749        50.000  
 16 04 02 12 50 49.8000000  0  2G09G29                                          
  23622800.43049 124138653.33649     -5208.22349        50.000  
  22316277.50849 117272828.71149     -3516.57049        50.000  
 16 04 02 12 50 49.9000000  0  2G09G29                                          
  23622899.58649 124139174.36749     -5213.26649        50.000  
  22316344.45349 117273180.52049     -3519.87549        50.000  
 16 04 02 12 50 50.0000000  0  2G09G29                                          
  23622998.84449 124139695.97349     -5219.13749        50.000  
  22316411.46149 117273532.72349     -3524.03949        50.000  
 16 04 02 12 50 50.1000000  0  2G09G29                                          
  23623098.18849 124140218.09049     -5224.27349        50.000  
  22316478.54749 117273885.23849     -3527.10249        50.000  
 16 04 02 12 50 50.2000000  0  2G09G29                                          
  23623197.65649 124140740.79349     -5230.23449        50.000  
  22316545.69549 117274238.16849     -3531.25049        50.000  
 16 04 02 12 50 50.3000000  0  2G09G29                                          
  23623297.22749 124141264.03149     -5235.17649        50.000  
  22316612.93049 117274591.46149     -3534.61349        50.000  
 16 04 02 12 50 50.4000000  0  2G09G29                                          
  23623396.89849 124141787.79749     -5240.66849        50.000  
  22316680.21949 117274945.08649     -3538.14149        50.000  
 16 04 02 12 50 50.5000000  0  2G09G29                                          
  23623496.67249 124142312.14549     -5246.43449        50.000  
  22316747.58649 117275299.10249     -3541.98049        50.000  
 16 04 02 12 50 50.6000000  0  2G09G29                                          
  23623596.53949 124142836.93849     -5250.88749        50.000  
  22316815.00849 117275653.40649     -3544.80149        50.000  
 16 04 02 12 50 50.7000000  0  2G09G29                                          
  23623696.53149 124143362.36749     -5257.17649        50.000  
  22316882.51649 117276008.14149     -3549.11749        50.000  
 16 04 02 12 50 50.8000000  0  2G09G29                                          
  23623796.62549 124143888.38749     -5263.25849        50.000  
  22316950.10249 117276363.30149     -3553.54349        50.000  
 16 04 02 12 50 50.9000000  0  2G09G29                                          
  23623896.84449 124144415.02749     -5269.72749        50.000  
  22317017.76649 117276718.87549     -3557.93049        50.000  
 16 04 02 12 50 51.0000000  0  2G09G29                                          
  23623997.14849 124144942.13349     -5274.17649        50.000  
  22317085.47749 117277074.76249     -3560.79749        50.000  
 16 04 02 12 50 51.1000000  0  2G09G29                                          
  23624097.55549 124145469.76649     -5279.20349        50.000  
  22317153.26649 117277430.97749     -3563.90649        50.000  
 16 04 02 12 50 51.2000000  0  2G09G29                                          
  23624198.07849 124145998.02049     -5285.58649        50.000  
  22317221.13349 117277787.63749     -3568.37149        50.000  
 16 04 02 12 50 51.3000000  0  2G09G29                                          
  23624298.71149 124146526.82049     -5291.16049        50.000  
  22317289.07049 117278144.65249     -3572.13349        50.000  
 16 04 02 12 50 51.4000000  0  2G09G29                                          
  23624399.44549 124147056.18849     -5296.85249        50.000  
  22317357.08649 117278502.06649     -3576.10249        50.000  
 16 04 02 12 50 51.5000000  0  2G09G29                                          
  23624500.28149 124147586.11349     -5302.44549        50.000  
  22317425.17249 117278859.84449     -3579.79349        50.000  
 16 04 02 12 50 51.6000000  0  2G09G29                                          
  23624601.24249 124148116.63749     -5308.20749        50.000  
  22317493.32849 117279218.04349     -3583.80949        50.000  
 16 04 02 12 50 51.7000000  0  2G09G29                                          
  23624702.28149 124148647.64149     -5313.20349        50.000  
  22317561.55549 117279576.54349     -3587.02749        50.000  
 16 04 02 12 50 51.8000000  0  2G09G29                                          
  23624803.43849 124149179.22749     -5318.64549        50.000  
  22317629.84449 117279935.42649     -3590.60249        50.000  
 16 04 02 12 50 51.9000000  0  2G09G29                                          
  23624904.70349 124149711.35249     -5324.28149        50.000  
  22317698.20349 117280294.68449     -3594.40649        50.000  
 16 04 02 12 50 52.0000000  0  2G09G29                                          
  23625006.07049 124150244.03149     -5329.95349        50.000  
  22317766.64849 117280654.30549     -3598.23449        50.000  
 16 04 02 12 50 52.1000000  0  2G09G29                                          
  23625107.54749 124150777.25849     -5335.43449        50.000  
  22317835.14849 117281014.30549     -3601.85549        50.000  
 16 04 02 12 50 52.2000000  0  2G09G29                                          
  23625209.11749 124151311.01649     -5340.38349        50.000  
  22317903.72749 117281374.64549     -3605.09849        50.000  
 16 04 02 12 50 52.3000000  0  2G09G29                                          
  23625310.80549 124151845.36749     -5346.59849        50.000  
  22317972.37549 117281735.39149     -3609.43449        50.000  
 16 04 02 12 50 52.4000000  0  2G09G29                                          
  23625412.60249 124152380.31249     -5352.80949        50.000  
  22318041.09449 117282096.55949     -3613.82849        50.000  
 16 04 02 12 50 52.5000000  0  2G09G29                                          
  23625514.51649 124152915.85249     -5358.41049        50.000  
  22318109.89849 117282458.12149     -3617.55149        50.000  
 16 04 02 12 50 52.6000000  0  2G09G29                                          
  23625616.51649 124153451.87149     -5363.32449        50.000  
  22318178.76649 117282819.99649     -3620.64149        50.000  
 16 04 02 12 50 52.7000000  0  2G09G29                                          
  23625718.62549 124153988.45349     -5368.95349        50.000  
  22318247.70349 117283182.24649     -3624.39549        50.000  
 16 04 02 12 50 52.8000000  0  2G09G29                                          
  23625820.85949 124154525.69149     -5375.30949        50.000  
  22318316.73449 117283544.98049     -3629.09849        50.000  
 16 04 02 12 50 52.9000000  0  2G09G29                                          
  23625923.18049 124155063.35549     -5379.51249        50.000  
  22318385.80549 117283907.94149     -3631.43849        50.000  
 16 04 02 12 50 53.0000000  0  2G09G29                                          
  23626025.59449 124155601.55549     -5384.89549        50.000  
  22318454.93849 117284271.27049     -3634.97349        50.000  
 16 04 02 12 50 53.1000000  0  2G09G29                                          
  23626128.12549 124156140.35549     -5391.27749        50.000  
  22318524.15649 117284635.00849     -3639.40249        50.000  
 16 04 02 12 50 53.2000000  0  2G09G29                                          
  23626230.76649 124156679.76649     -5396.97749        50.000  
  22318593.46149 117284999.18049     -3643.46549        50.000  
 16 04 02 12 50 53.3000000  0  2G09G29                                          
  23626333.50049 124157219.59049     -5401.33649        50.000  
  22318662.80549 117285363.59449     -3646.05949        50.000  
 16 04 02 12 50 53.4000000  0  2G09G29                                          
  23626436.33649 124157760.01649     -5407.00849        50.000  
  22318732.23449 117285728.41049     -3649.86349        50.000  
 16 04 02 12 50 53.5000000  0  2G09G29                                          
  23626539.28149 124158300.99649     -5412.77349        50.000  
  22318801.72749 117286093.60549     -3653.84049        50.000  
 16 04 02 12 50 53.6000000  0  2G09G29                                          
  23626642.32849 124158842.51249     -5418.23449        50.000  
  22318871.29749 117286459.14849     -3657.32849        50.000  
 16 04 02 12 50 53.7000000  0  2G09G29                                          
  23626745.50049 124159384.61749     -5424.12149        50.000  
  22318940.93849 117286825.11349     -3661.57849        50.000  
 16 04 02 12 50 53.8000000  0  2G09G29                                          
  23626848.76649 124159927.28949     -5429.84849        50.000  
  22319010.64149 117287191.44549     -3665.34049        50.000  
 16 04 02 12 50 53.9000000  0  2G09G29                                          
  23626952.14149 124160470.47749     -5434.83249        50.000  
  22319080.41449 117287558.12149     -3668.57049        50.000  
 16 04 02 12 50 54.0000000  0  2G09G29                                          
  23627055.60249 124161014.18049     -5439.98449        50.000  
  22319150.25849 117287925.12549     -3671.84849        50.000  
 16 04 02 12 50 54.1000000  0  2G09G29                                          
  23627159.18849 124161558.50049     -5446.12149        50.000  
  22319220.18049 117288292.56249     -3676.10549        50.000  
 16 04 02 12 50 54.2000000  0  2G09G29                                          
  23627262.86749 124162103.35249     -5451.74649        50.000  
  22319290.17249 117288660.35549     -3680.03149        50.000  
 16 04 02 12 50 54.3000000  0  2G09G29                                          
  23627366.64149 124162648.71149     -5456.64849        50.000  
  22319360.21949 117289028.48049     -3683.14149        50.000  
 16 04 02 12 50 54.4000000  0  2G09G29                                          
  23627470.53949 124163194.69549     -5462.93849        50.000  
  22319430.35249 117289397.02749     -3687.41449        50.000  
 16 04 02 12 50 54.5000000  0  2G09G29                                          
  23627574.54749 124163741.20349     -5468.28949        50.000  
  22319500.55549 117289765.93449     -3691.02349        50.000  
 16 04 02 12 50 54.6000000  0  2G09G29                                          
  23627678.64149 124164288.23849     -5473.33649        50.000  
  22319570.83649 117290135.18849     -3694.33649        50.000  
 16 04 02 12 50 54.7000000  0  2G09G29                                          
  23627782.85949 124164835.89549     -5479.60949        50.000  
  22319641.18049 117290504.87149     -3698.70749        50.000  
 16 04 02 12 50 54.8000000  0  2G09G29                                          
  23627887.17249 124165384.07049     -5484.74649        50.000  
  22319711.59449 117290874.89549     -3702.11749        50.000  
 16 04 02 12 50 54.9000000  0  2G09G29                                          
  23627991.58649 124165932.76649     -5489.89549        50.000  
  22319782.07049 117291245.25849     -3705.47749        50.000  
 16 04 02 12 50 55.0000000  0  2G09G29                                          
  23628096.10949 124166482.00449     -5495.34849        50.000  
  22319852.61749 117291615.97749     -3709.09449        50.000  
 16 04 02 12 50 55.1000000  0  2G09G29                                          
  23628200.73449 124167031.79349     -5500.93849        50.000  
  22319923.23449 117291987.07049     -3712.83249        50.000  
 16 04 02 12 50 55.2000000  0  2G09G29                                          
  23628305.46149 124167582.16449     -5506.74649        50.000  
  22319993.93049 117292358.56649     -3716.85949        50.000  
 16 04 02 12 50 55.3000000  0  2G09G29                                          
  23628410.30549 124168133.11749     -5512.66849        50.000  
  22320064.69549 117292730.44949     -3720.85549        50.000  
 16 04 02 12 50 55.4000000  0  2G09G29                                          
  23628515.24249 124168684.56249     -5517.63749        50.000  
  22320135.53149 117293102.66449     -3724.09449        50.000  
 16 04 02 12 50 55.5000000  0  2G09G29                                          
  23628620.28949 124169236.60549     -5523.38349        50.000  
  22320206.43849 117293475.27349     -3727.92649        50.000  
 16 04 02 12 50 55.6000000  0  2G09G29                                          
  23628725.44549 124169789.18049     -5528.66049        50.000  
  22320277.40649 117293848.24249     -3731.45749        50.000  
 16 04 02 12 50 55.7000000  0  2G09G29                                          
  23628830.70349 124170342.29349     -5534.23849        50.000  
  22320348.45349 117294221.57049     -3735.17249        50.000  
 16 04 02 12 50 55.8000000  0  2G09G29                                          
  23628936.07049 124170895.98049     -5539.91849        50.000  
  22320419.56249 117294595.28949     -3739.06649        50.000  
 16 04 02 12 50 55.9000000  0  3G25G09G29                                       
  25158161.86749 132207032.68059      9277.85249        49.000  
  23629041.53949 124171450.24249     -5545.66849        50.000  
  22320490.75049 117294969.39849     -3742.96149        50.000  
 16 04 02 12 50 56.0000000  0  3G25G09G29                                       
  25157985.33649 132206105.00449      9275.80949        49.000  
  23629147.12549 124172005.07849     -5551.35249        50.000  
  22320562.01649 117295343.89549     -3746.78949        50.000  
 16 04 02 12 50 56.1000000  0  3G25G09G29                                       
  25157808.83649 132205177.41849      9274.87549        49.000  
  23629252.79749 124172560.39149     -5556.14849        50.000  
  22320633.33649 117295718.70349     -3749.91849        50.000  
 16 04 02 12 50 56.2000000  0  3G25G09G29                                       
  25157632.36749 132204250.06649      9272.80549        49.000  
  23629358.58649 124173116.30549     -5562.01249        50.000  
  22320704.74249 117296093.91849     -3753.96549        50.000  
 16 04 02 12 50 56.3000000  0  3G25G09G29                                       
  25157455.89849 132203322.85949      9271.18049        49.000  
  23629464.46949 124173672.71949     -5567.18849        50.000  
  22320776.20349 117296469.46149     -3757.28149        50.000  
 16 04 02 12 50 56.4000000  0  3G25G09G29                                       
  25157279.49249 132202395.82449      9269.34849        49.000  
  23629570.46149 124174229.71549     -5573.05149        50.000  
  22320847.74249 117296845.37949     -3761.13349        50.000  
 16 04 02 12 50 56.5000000  0  3G25G09G29                                       
  25157103.11749 132201469.02749      9267.21549        49.000  
  23629676.56249 124174787.30149     -5578.73049        50.000  
  22320919.35949 117297221.73449     -3765.25849        50.000  
 16 04 02 12 50 56.6000000  0  3G25G09G29                                       
  25156926.78149 132200542.38349      9265.34449        49.000  
  23629782.77349 124175345.42649     -5584.51249        50.000  
  22320991.03149 117297598.42649     -3769.02349        50.000  
 16 04 02 12 50 56.7000000  0  3G25G09G29                                       
  25156750.46149 132199615.91049      9263.94549        49.000  
  23629889.08649 124175904.08249     -5589.61349        50.000  
  22321062.78149 117297975.48849     -3772.43449        50.000  
 16 04 02 12 50 56.8000000  0  3G25G09G29                                       
  25156574.19549 132198689.61349      9262.22349        49.000  
  23629995.50049 124176463.28549     -5595.00849        50.000  
  22321134.60249 117298352.90249     -3775.97349        50.000  
 16 04 02 12 50 56.9000000  0  3G25G09G29                                       
  25156397.93049 132197763.49249      9260.46549        49.000  
  23630102.02349 124177023.06249     -5600.64849        50.000  
  22321206.50049 117298730.70749     -3779.77749        50.000  
 16 04 02 12 50 57.0000000  0  3G25G09G29                                       
  25156221.72749 132196837.54349      9258.62949        49.000  
  23630208.64149 124177583.36749     -5606.12549        50.000  
  22321278.44549 117299108.85949     -3783.44549        50.000  
 16 04 02 12 50 57.1000000  0  3G25G09G29                                       
  25156045.55549 132195911.73849      9257.23849        49.000  
  23630315.35949 124178144.18449     -5611.19549        50.000  
  22321350.46949 117299487.35249     -3786.73849        50.000  
 16 04 02 12 50 57.2000000  0  3G25G09G29                                       
  25155869.43049 132194986.15649      9254.76649        49.000  
  23630422.19549 124178705.61349     -5617.45749        50.000  
  22321422.57849 117299866.27049     -3791.17649        50.000  
 16 04 02 12 50 57.3000000  0  3G25G09G29                                       
  25155693.31249 132194060.70749      9253.64549        49.000  
  23630529.13349 124179267.54749     -5622.26649        50.000  
  22321494.74249 117300245.49649     -3794.14549        50.000  
 16 04 02 12 50 57.4000000  0  3G25G09G29                                       
  25155517.24249 132193135.47749      9251.17249        49.000  
  23630636.17249 124179830.06249     -5628.39149        50.000  
  22321566.99249 117300625.14849     -3798.50849        50.000  
 16 04 02 12 50 57.5000000  0  3G25G09G29                                       
  25155341.20349 132192210.44949      9249.48449        49.000  
  23630743.32049 124180393.16449     -5633.86349        50.000  
  22321639.31249 117301005.18449     -3802.12149        50.000  
 16 04 02 12 50 57.6000000  0  3G25G09G29                                       
  25155165.18849 132191285.47749      9248.90649        49.000  
  23630850.56249 124180956.70749     -5638.51649        50.000  
  22321711.68049 117301385.49649     -3804.94949        50.000  
 16 04 02 12 50 57.7000000  0  3G25G09G29                                       
  25154989.22749 132190360.75849      9246.62149        49.000  
  23630957.92249 124181520.85949     -5644.31649        50.000  
  22321784.13349 117301766.21949     -3809.01249        50.000  
 16 04 02 12 50 57.8000000  0  3G25G09G29                                       
  25154813.30549 132189436.25449      9244.04749        49.000  
  23631065.39149 124182085.59449     -5650.57449        50.000  
  22321856.66449 117302147.35249     -3813.27349        50.000  
 16 04 02 12 50 57.9000000  0  3G25G09G29                                       
  25154637.37549 132188511.86749      9242.89149        49.000  
  23631172.96149 124182650.84849     -5655.52749        50.000  
  22321929.25049 117302528.82049     -3816.57049        50.000  
 16 04 02 12 50 58.0000000  0  3G25G09G29                                       
  25154461.50849 132187587.68849      9241.04349        49.000  
  23631280.62549 124183216.65649     -5661.01649        50.000  
  22322001.90649 117302910.66449     -3820.26249        50.000  
 16 04 02 12 50 58.1000000  0  3G25G09G29                                       
  25154285.67249 132186663.68449      9239.11749        49.000  
  23631388.40649 124183783.02349     -5666.73049        50.000  
  22322074.64149 117303292.87549     -3823.96549        50.000  
 16 04 02 12 50 58.2000000  0  3G25G09G29                                       
  25154109.87549 132185739.85549      9237.51249        49.000  
  23631496.28949 124184349.94149     -5672.08249        50.000  
  22322147.44549 117303675.47349     -3827.68049        50.000  
 16 04 02 12 50 58.3000000  0  3G25G09G29                                       
  25153934.11749 132184816.19149      9235.81649        49.000  
  23631604.28149 124184917.40249     -5677.63749        50.000  
  22322220.32049 117304058.42649     -3831.43449        50.000  
 16 04 02 12 50 58.4000000  0  3G25G09G29                                       
  25153758.38349 132183892.70749      9234.18849        49.000  
  23631712.36749 124185485.39849     -5682.97749        50.000  
  22322293.26649 117304441.73049     -3834.85249        50.000  
 16 04 02 12 50 58.5000000  0  3G25G09G29                                       
  25153582.67249 132182969.41049      9232.12549        49.000  
  23631820.56249 124186053.97349     -5688.72749        50.000  
  22322366.28149 117304825.43049     -3838.82449        50.000  
 16 04 02 12 50 58.6000000  0  3G25G09G29                                       
  25153407.00849 132182046.30149      9230.16849        49.000  
  23631928.86749 124186623.10249     -5694.38749        50.000  
  22322439.35949 117305209.50049     -3842.61349        50.000  
 16 04 02 12 50 58.7000000  0  3G25G09G29                                       
  25153231.41449 132181123.39549      9228.13349        49.000  
  23632037.28149 124187192.81249     -5700.18049        50.000  
  22322512.53149 117305593.98049     -3846.68049        50.000  
 16 04 02 12 50 58.8000000  0  3G25G09G29                                       
  25153055.82849 132180200.65649      9226.55149        49.000  
  23632145.78949 124187763.05949     -5705.41449        50.000  
  22322585.75849 117305978.80549     -3850.09449        50.000  
 16 04 02 12 50 58.9000000  0  3G25G09G29                                       
  25152880.26649 132179278.12949      9224.33249        49.000  
  23632254.41449 124188333.88349     -5711.28949        50.000  
  22322659.06249 117306364.03149     -3854.13349        50.000  
 16 04 02 12 50 59.0000000  0  3G25G09G29                                       
  25152704.74249 132178355.73049      9223.02749        49.000  
  23632363.14149 124188905.23049     -5716.43849        50.000  
  22322732.43049 117306749.59449     -3857.44949        50.000  
 16 04 02 12 50 59.1000000  0  3G25G09G29                                       
  25152529.21949 132177433.50049      9221.40249        49.000  
  23632471.96149 124189477.10549     -5721.70749        50.000  
  22322805.86749 117307135.50449     -3860.91449        50.000  
 16 04 02 12 50 59.2000000  0  3G25G09G29                                       
  25152353.75849 132176511.42249      9219.95349        49.000  
  23632580.88349 124190049.50049     -5726.93049        50.000  
  22322879.37549 117307521.76649     -3864.40249        50.000  
 16 04 02 12 50 59.3000000  0  3G25G09G29                                       
  25152178.34449 132175589.53149      9218.07449        49.000  
  23632689.91449 124190622.47349     -5732.60549        50.000  
  22322952.94549 117307908.41049     -3868.29349        50.000  
 16 04 02 12 50 59.4000000  0  3G25G09G29                                       
  25152002.95349 132174667.81649      9216.14849        49.000  
  23632799.05549 124191195.98049     -5738.39149        50.000  
  22323026.58649 117308295.41449     -3872.03949        50.000  
 16 04 02 12 50 59.5000000  0  3G25G09G29                                       
  25151827.60249 132173746.34449      9213.85549        49.000  
  23632908.31249 124191770.10949     -5744.21949        50.000  
  22323100.31249 117308682.85549     -3876.21549        50.000  
 16 04 02 12 50 59.6000000  0  3G25G09G29                                       
  25151652.28149 132172825.01649      9212.33649        49.000  
  23633017.66449 124192344.76649     -5749.57449        50.000  
  22323174.11749 117309070.64149     -3879.75049        50.000  
 16 04 02 12 50 59.7000000  0  3G25G09G29                                       
  25151477.00049 132171903.87949      9210.43049        49.000  
  23633127.12549 124192919.97749     -5755.18049        50.000  
  22323247.97749 117309458.79749     -3883.43849        50.000  
 16 04 02 12 50 59.8000000  0  3G25G09G29                                       
  25151301.75049 132170982.93049      9208.69949        49.000  
  23633236.68849 124193495.74249     -5760.56649        50.000  
  22323321.92249 117309847.34049     -3887.30949        50.000  
 16 04 02 12 50 59.9000000  0  3G25G09G29                                       
  25151126.53149 132170062.09849      9207.56649        49.000  
  23633346.34449 124194072.00449     -5765.43449        50.000  
  22323395.91449 117310236.19549     -3890.34049        50.000  
 16 04 02 12 51  0.0000000  0  3G25G09G29                                       
  25150951.33649 132169141.44549      9205.55149        49.000  
  23633456.10949 124194648.82849     -5771.37549        50.000  
  22323469.98449 117310625.40649     -3894.03549        50.000  
 16 04 02 12 51  0.1000000  0  3G25G09G29                                       
  25150776.17249 132168220.99249      9203.84449        49.000  
  23633565.98449 124195226.21549     -5776.70749        50.000  
  22323544.12549 117311015.02749     -3897.84849        50.000  
 16 04 02 12 51  0.2000000  0  3G25G09G29                                       
  25150601.04749 132167300.68849      9202.29349        49.000  
  23633675.96149 124195804.12949     -5782.09849        50.000  
  22323618.32849 117311404.98849     -3901.41049        49.000  
 16 04 02 12 51  0.3000000  0  3G25G09G29                                       
  25150425.96149 132166380.56249      9200.34049        49.000  
  23633786.03949 124196382.59449     -5787.81249        50.000  
  22323692.60249 117311795.30949     -3905.28949        50.000  
 16 04 02 12 51  0.4000000  0  3G25G09G29                                       
  25150250.91449 132165460.68449      9197.92249        49.000  
  23633896.23449 124196961.68449     -5793.88349        50.000  
  22323766.96149 117312186.06649     -3909.35249        50.000  
 16 04 02 12 51  0.5000000  0  3G25G09G29                                       
  25150075.90649 132164540.94549      9196.35249        49.000  
  23634006.53149 124197541.28149     -5799.27049        50.000  
  22323841.39149 117312577.16849     -3912.94949        50.000  
 16 04 02 12 51  0.6000000  0  3G25G09G29                                       
  25149900.92249 132163621.38349      9194.81249        49.000  
  23634116.93049 124198121.42249     -5804.43849        50.000  
  22323915.88349 117312968.63349     -3916.41049        50.000  
 16 04 02 12 51  0.7000000  0  3G25G09G29                                       
  25149725.96149 132162701.99649      9193.00449        49.000  
  23634227.42249 124198702.12149     -5809.96149        50.000  
  22323990.44549 117313360.46149     -3920.16049        50.000  
 16 04 02 12 51  0.8000000  0  3G25G09G29                                       
  25149551.03949 132161782.78549      9191.21949        49.000  
  23634338.03149 124199283.36349     -5815.35249        50.000  
  22324065.08649 117313752.66449     -3923.73849        50.000  
 16 04 02 12 51  0.9000000  0  3G25G09G29                                       
  25149376.15649 132160863.73849      9189.44149        49.000  
  23634448.74249 124199865.13749     -5820.87549        50.000  
  22324139.78949 117314145.21549     -3927.52749        50.000  
 16 04 02 12 51  1.0000000  0  3G25G09G29                                       
  25149201.30549 132159944.89549      9187.80149        49.000  
  23634559.56249 124200447.50049     -5826.29349        50.000  
  22324214.56249 117314538.17649     -3931.22749        50.000  
 16 04 02 12 51  1.1000000  0  3G25G09G29                                       
  25149026.46149 132159026.16449      9186.20349        49.000  
  23634670.46949 124201030.33649     -5831.73449        50.000  
  22324289.39849 117314931.42649     -3934.64149        50.000  
 16 04 02 12 51  1.2000000  0  3G25G09G29                                       
  25148851.67249 132158107.65649      9184.17249        49.000  
  23634781.49249 124201613.79349     -5837.47749        50.000  
  22324364.31249 117315325.10249     -3938.49649        50.000  
 16 04 02 12 51  1.3000000  0  3G25G09G29                                       
  25148676.90649 132157189.34049      9182.47349        49.000  
  23634892.62549 124202197.78549     -5842.77049        50.000  
  22324439.29749 117315719.15649     -3942.19949        50.000  
 16 04 02 12 51  1.4000000  0  3G25G09G29                                       
  25148502.18049 132156271.18049      9180.44949        49.000  
  23635003.85949 124202782.32049     -5848.60949        50.000  
  22324514.34449 117316113.55949     -3946.17649        50.000  
 16 04 02 12 51  1.5000000  0  3G25G09G29                                       
  25148327.51649 132155353.21949      9178.74649        49.000  
  23635115.19549 124203367.42249     -5854.00049        50.000  
  22324589.46949 117316508.35549     -3949.82849        50.000  
 16 04 02 12 51  1.6000000  0  3G25G09G29                                       
  25148152.85249 132154435.38349      9177.43049        49.000  
  23635226.63349 124203953.03149     -5859.09449        50.000  
  22324664.64849 117316903.45749     -3952.98049        50.000  
 16 04 02 12 51  1.7000000  0  3G25G09G29                                       
  25147978.24249 132153517.73849      9175.55949        49.000  
  23635338.18049 124204539.19549     -5864.66449        50.000  
  22324739.91449 117317298.95749     -3956.84049        50.000  
 16 04 02 12 51  1.8000000  0  3G25G09G29                                       
  25147803.64849 132152600.26649      9173.79349        49.000  
  23635449.82849 124205125.91049     -5870.18449        50.000  
  22324815.23449 117317694.81649     -3960.43449        50.000  
 16 04 02 12 51  1.9000000  0  3G25G09G29                                       
  25147629.08649 132151682.99249      9172.01249        49.000  
  23635561.57849 124205713.19949     -5875.73849        50.000  
  22324890.64149 117318091.06649     -3964.30149        50.000  
 16 04 02 12 51  2.0000000  0  3G25G09G29                                       
  25147454.56249 132150765.86749      9170.40649        49.000  
  23635673.43849 124206301.00049     -5880.93849        50.000  
  22324966.10949 117318487.65249     -3967.64149        50.000  
 16 04 02 12 51  2.1000000  0  3G25G09G29                                       
  25147280.08649 132149848.93449      9168.57849        49.000  
  23635785.38349 124206889.36349     -5886.64149        50.000  
  22325041.64849 117318884.62149     -3971.53549        50.000  
 16 04 02 12 51  2.2000000  0  3G25G09G29                                       
  25147105.63349 132148932.18849      9166.50049        49.000  
  23635897.46149 124207478.31249     -5892.42649        50.000  
  22325117.25849 117319281.97749     -3975.37949        50.000  
 16 04 02 12 51  2.3000000  0  3G25G09G29                                       
  25146931.20349 132148015.60549      9164.96949        49.000  
  23636009.64149 124208067.77049     -5897.62149        50.000  
  22325192.94549 117319679.68849     -3978.99649        50.000  
 16 04 02 12 51  2.4000000  0  3G25G09G29                                       
  25146756.82049 132147099.23049      9162.84849        49.000  
  23636121.92249 124208657.82049     -5903.57849        50.000  
  22325268.70349 117320077.78149     -3982.83649        50.000  
 16 04 02 12 51  2.5000000  0  3G25G09G29                                       
  25146582.46149 132146182.98849      9161.67249        49.000  
  23636234.29749 124209248.36349     -5908.16449        50.000  
  22325344.52349 117320476.21549     -3986.00449        50.000  
 16 04 02 12 51  2.6000000  0  3G25G09G29                                       
  25146408.13349 132145266.89149      9159.94549        49.000  
  23636346.78149 124209839.44549     -5913.93849        50.000  
  22325420.39849 117320874.98449     -3989.61749        50.000  
 16 04 02 12 51  2.7000000  0  3G25G09G29                                       
  25146233.83649 132144351.01249      9157.96949        49.000  
  23636459.37549 124210431.10549     -5919.54749        50.000  
  22325496.36749 117321274.16849     -3993.58249        50.000  
 16 04 02 12 51  2.8000000  0  3G25G09G29                                       
  25146059.58649 132143435.30949      9155.97349        49.000  
  23636572.07049 124211023.32049     -5925.39149        50.000  
  22325572.39849 117321673.71949     -3997.65249        50.000  
 16 04 02 12 51  2.9000000  0  3G25G09G29                                       
  25145885.39149 132142519.85949      9153.63749        49.000  
  23636684.88349 124211616.15649     -5931.36749        50.000  
  22325648.51649 117322073.70749     -4001.85549        50.000  
 16 04 02 12 51  3.0000000  0  3G25G09G29                                       
  25145711.20349 132141604.50849      9152.65649        49.000  
  23636797.78949 124212209.46949     -5936.02049        50.000  
  22325724.68849 117322473.98449     -4004.60949        50.000  
 16 04 02 12 51  3.1000000  0  3G25G09G29                                       
  25145537.04749 132140689.29349      9151.24249        49.000  
  23636910.78949 124212803.28549     -5941.25849        50.000  
  22325800.92249 117322874.59449     -4008.03149        50.000  
 16 04 02 12 51  3.2000000  0  3G25G09G29                                       
  25145362.93049 132139774.28149      9149.54349        49.000  
  23637023.89149 124213397.66049     -5946.64149        50.000  
  22325877.21949 117323275.58649     -4011.65649        50.000  
 16 04 02 12 51  3.3000000  0  3G25G09G29                                       
  25145188.83649 132138859.42249      9147.64149        49.000  
  23637137.10949 124213992.59049     -5952.27049        50.000  
  22325953.59449 117323676.93449     -4015.38349        50.000  
 16 04 02 12 51  3.4000000  0  3G25G09G29                                       
  25145014.79749 132137944.81649      9144.97749        49.000  
  23637250.43849 124214588.12549     -5958.64849        50.000  
  22326030.05549 117324078.73849     -4020.09449        50.000  
 16 04 02 12 51  3.5000000  0  3G25G09G29                                       
  25144840.78149 132137030.32449      9144.15649        49.000  
  23637363.86749 124215184.16849     -5963.15649        50.000  
  22326106.57049 117324480.82849     -4022.58249        50.000  
 16 04 02 12 51  3.6000000  0  3G25G09G29                                       
  25144666.79749 132136116.02049      9142.24249        49.000  
  23637477.39149 124215780.74249     -5968.79349        50.000  
  22326183.16449 117324883.30549     -4026.61749        50.000  
 16 04 02 12 51  3.7000000  0  3G25G09G29                                       
  25144492.85249 132135201.89149      9140.35249        49.000  
  23637591.03149 124216377.88749     -5974.39849        50.000  
  22326259.82049 117325286.15649     -4030.45349        50.000  
 16 04 02 12 51  3.8000000  0  3G25G09G29                                       
  25144318.92249 132134287.89849      9138.98849        49.000  
  23637704.75849 124216975.54749     -5979.57049        50.000  
  22326336.53949 117325689.32849     -4033.68449        50.000  
 16 04 02 12 51  3.9000000  0  3G25G09G29                                       
  25144145.03149 132133374.11349      9137.14549        49.000  
  23637818.59449 124217573.76249     -5985.13749        50.000  
  22326413.34449 117326092.91449     -4037.66449        50.000  
 16 04 02 12 51  4.0000000  0  3G25G09G29                                       
  25143971.15649 132132460.42649      9135.89149        49.000  
  23637932.52349 124218172.45749     -5990.14849        50.000  
  22326490.18849 117326496.75049     -4040.39549        50.000  
 16 04 02 12 51  4.1000000  0  3G25G09G29                                       
  25143797.32049 132131546.99249      9133.43449        49.000  
  23638046.57049 124218771.78949     -5996.35949        50.000  
  22326567.12549 117326901.06249     -4044.98449        50.000  
 16 04 02 12 51  4.2000000  0  3G25G09G29                                       
  25143623.53949 132130633.74649      9131.60549        49.000  
  23638160.71949 124219371.66449     -6001.82049        50.000  
  22326644.14149 117327305.74249     -4048.65649        50.000  
 16 04 02 12 51  4.3000000  0  3G25G09G29                                       
  25143449.76649 132129720.64849      9129.96149        49.000  
  23638274.97749 124219972.07049     -6007.16049        50.000  
  22326721.21949 117327710.77349     -4052.20349        50.000  
 16 04 02 12 51  4.4000000  0  3G25G09G29                                       
  25143276.05549 132128807.77049      9127.68849        49.000  
  23638389.33649 124220573.06249     -6013.24649        50.000  
  22326798.36749 117328116.21149     -4056.42649        50.000  
 16 04 02 12 51  4.5000000  0  3G25G09G29                                       
  25143102.36749 132127895.09449      9126.05149        49.000  
  23638503.81249 124221174.64549     -6018.55949        50.000  
  22326875.59449 117328522.04749     -4060.12549        50.000  
 16 04 02 12 51  4.6000000  0  3G25G09G29                                       
  25142928.71949 132126982.54349      9124.56649        49.000  
  23638618.38349 124221776.69949     -6023.69549        50.000  
  22326952.88349 117328928.17249     -4063.22749        50.000  
 16 04 02 12 51  4.7000000  0  3G25G09G29                                       
  25142755.07849 132126070.14849      9123.16849        49.000  
  23638733.05549 124222379.30549     -6028.92649        50.000  
  22327030.24249 117329334.68449     -4066.82049        50.000  
 16 04 02 12 51  4.8000000  0  3G25G09G29                                       
  25142581.48449 132125157.92249      9121.39549        49.000  
  23638847.82849 124222982.43049     -6034.26649        50.000  
  22327107.65649 117329741.52749     -4070.30949        50.000  
 16 04 02 12 51  4.9000000  0  3G25G09G29                                       
  25142407.94549 132124245.92249      9119.06649        49.000  
  23638962.71949 124223586.17249     -6040.46549        50.000  
  22327185.15649 117330148.80949     -4074.64849        50.000  
 16 04 02 12 51  5.0000000  0  3G25G09G29                                       
  25142234.42249 132123334.05549      9117.94149        49.000  
  23639077.70349 124224190.41049     -6045.21549        50.000  
  22327262.71949 117330556.40249     -4077.57449        50.000  
 16 04 02 12 51  5.1000000  0  3G25G09G29                                       
  25142060.92249 132122422.34049      9116.32049        49.000  
  23639192.78149 124224795.17649     -6050.65649        50.000  
  22327340.35249 117330964.34849     -4081.38749        50.000  
 16 04 02 12 51  5.2000000  0  3G25G09G29                                       
  25141887.46949 132121510.84449      9114.13349        49.000  
  23639307.97749 124225400.52349     -6056.53949        50.000  
  22327418.05549 117331372.68449     -4085.25449        50.000  
 16 04 02 12 51  5.3000000  0  3G25G09G29                                       
  25141714.05549 132120599.54349      9112.03149        49.000  
  23639423.28149 124226006.44949     -6062.27749        50.000  
  22327495.83649 117331781.43049     -4089.35249        50.000  
 16 04 02 12 51  5.4000000  0  3G25G09G29                                       
  25141540.66449 132119688.35949      9110.96549        49.000  
  23639538.68049 124226612.86749     -6067.22749        50.000  
  22327573.67249 117332190.47349     -4092.31249        50.000  
 16 04 02 12 51  5.5000000  0  3G25G09G29                                       
  25141367.32049 132118777.35949      9109.17249        49.000  
  23639654.18849 124227219.82849     -6072.61749        50.000  
  22327651.58649 117332599.89149     -4096.00049        50.000  
 16 04 02 12 51  5.6000000  0  3G25G09G29                                       
  25141194.00849 132117866.60249      9106.72749        49.000  
  23639769.80549 124227827.41849     -6078.90649        50.000  
  22327729.57049 117333009.73849     -4100.29749        50.000  
 16 04 02 12 51  5.7000000  0  3G25G09G29                                       
  25141020.71949 132116955.96149      9105.47349        49.000  
  23639885.52349 124228435.48449     -6083.79749        50.000  
  22327807.62549 117333419.91449     -4103.58649        50.000  
 16 04 02 12 51  5.8000000  0  3G25G09G29                                       
  25140847.47749 132116045.55949      9103.17649        49.000  
  23640001.35949 124229044.16849     -6089.81249        50.000  
  22327885.75049 117333830.50049     -4107.88749        50.000  
 16 04 02 12 51  5.9000000  0  3G25G09G29                                       
  25140674.27349 132115135.30949      9101.74649        49.000  
  23640117.28149 124229653.36749     -6094.89149        50.000  
  22327963.95349 117334241.44949     -4111.23449        50.000  
 16 04 02 12 51  6.0000000  0  3G25G09G29                                       
  25140501.09449 132114225.25449      9099.58649        49.000  
  23640233.32049 124230263.14549     -6100.81249        50.000  
  22328042.21949 117334652.75849     -4115.04749        50.000  
 16 04 02 12 51  6.1000000  0  3G25G09G29                                       
  25140327.95349 132113315.41849      9097.41449        49.000  
  23640349.46149 124230873.50449     -6106.81249        50.000  
  22328120.57049 117335064.49249     -4119.24649        50.000  
 16 04 02 12 51  6.2000000  0  3G25G09G29                                       
  25140154.84449 132112405.70749      9096.27349        49.000  
  23640465.71149 124231484.37149     -6111.61749        50.000  
  22328198.98449 117335476.53549     -4122.17249        50.000  
 16 04 02 12 51  6.3000000  0  3G25G09G29                                       
  25139981.74249 132111496.14549      9094.94149        49.000  
  23640582.05549 124232095.75049     -6116.58249        50.000  
  22328277.46149 117335888.93049     -4125.52049        50.000  
 16 04 02 12 51  6.4000000  0  3G25G09G29                                       
  25139808.68849 132110586.74249      9093.21149        49.000  
  23640698.50049 124232707.66449     -6122.16049        50.000  
  22328356.00049 117336301.67249     -4129.18849        50.000  
 16 04 02 12 51  6.5000000  0  3G25G09G29                                       
  25139635.68049 132109677.55949      9090.96149        49.000  
  23640815.05549 124233320.16449     -6127.99649        50.000  
  22328434.62549 117336714.82849     -4133.37949        50.000  
 16 04 02 12 51  6.6000000  0  3G25G09G29                                       
  25139462.70349 132108768.55949      9089.09449        49.000  
  23640931.71949 124233933.22749     -6133.66849        50.000  
  22328513.31249 117337128.35249     -4137.21549        50.000  
 16 04 02 12 51  6.7000000  0  3G25G09G29                                       
  25139289.75049 132107859.75449      9087.18049        49.000  
  23641048.48449 124234546.84449     -6139.23849        50.000  
  22328592.07849 117337542.26249     -4140.95749        50.000  
 16 04 02 12 51  6.8000000  0  3G25G09G29                                       
  25139116.84449 132106951.12949      9085.21149        49.000  
  23641165.35949 124235161.02749     -6145.04349        50.000  
  22328670.91449 117337956.53549     -4144.78549        50.000  
 16 04 02 12 51  6.9000000  0  3G25G09G29                                       
  25138943.99249 132106042.75449      9082.81649        49.000  
  23641282.35949 124235775.82449     -6150.95349        50.000  
  22328749.82849 117338371.26249     -4149.12949        50.000  
 16 04 02 12 51  7.0000000  0  3G25G09G29                                       
  25138771.15649 132105134.48049      9081.78149        49.000  
  23641399.43849 124236391.10549     -6155.84849        50.000  
  22328828.81249 117338786.29349     -4152.21549        50.000  
 16 04 02 12 51  7.1000000  0  3G25G09G29                                       
  25138598.35949 132104226.37949      9080.13749        49.000  
  23641516.63349 124237006.92249     -6161.26249        50.000  
  22328907.85949 117339201.66849     -4155.60949        50.000  
 16 04 02 12 51  7.2000000  0  3G25G09G29                                       
  25138425.58649 132103318.44549      9078.54349        49.000  
  23641633.92249 124237623.25849     -6166.28949        50.000  
  22328986.96949 117339617.39549     -4159.12949        50.000  
 16 04 02 12 51  7.3000000  0  3G25G09G29                                       
  25138252.83649 132102410.66849      9076.99249        49.000  
  23641751.31249 124238240.15249     -6171.77049        50.000  
  22329066.14849 117340033.48049     -4162.53949        50.000  
 16 04 02 12 51  7.4000000  0  3G25G09G29                                       
  25138080.12549 132101503.07449      9074.97349        49.000  
  23641868.81249 124238857.59049     -6177.48049        50.000  
  22329145.39149 117340449.94149     -4166.43049        50.000  
 16 04 02 12 51  7.5000000  0  3G25G09G29                                       
  25137907.46149 132100595.66849      9073.09449        49.000  
  23641986.41449 124239475.58249     -6183.08249        50.000  
  22329224.71949 117340866.78949     -4170.33249        50.000  
 16 04 02 12 51  7.6000000  0  3G25G09G29                                       
  25137734.81249 132099688.39549      9071.87149        49.000  
  23642104.10949 124240094.09049     -6188.13349        50.000  
  22329304.10249 117341283.94949     -4173.49249        50.000  
 16 04 02 12 51  7.7000000  0  3G25G09G29                                       
  25137562.21149 132098781.37149      9069.38749        49.000  
  23642221.93049 124240713.20749     -6194.13349        50.000  
  22329383.57049 117341701.55549     -4177.84049        50.000  
 16 04 02 12 51  7.8000000  0  3G25G09G29                                       
  25137389.64149 132097874.48449      9067.84849        49.000  
  23642339.84449 124241332.84049     -6199.43849        50.000  
  22329463.09449 117342119.48849     -4181.27749        50.000  
 16 04 02 12 51  7.9000000  0  3G25G09G29                                       
  25137217.10949 132096967.74249      9066.71149        49.000  
  23642457.85249 124241952.98849     -6204.33649        50.000  
  22329542.68849 117342537.75449     -4184.35949        50.000  
 16 04 02 12 51  8.0000000  0  3G25G09G29                                       
  25137044.59449 132096061.16849      9064.98049        49.000  
  23642575.96949 124242573.67649     -6209.82849        50.000  
  22329622.35249 117342956.38349     -4188.03949        50.000  
 16 04 02 12 51  8.1000000  0  3G25G09G29                                       
  25136872.13349 132095154.80149      9062.74249        49.000  
  23642694.18849 124243194.93849     -6215.74249        50.000  
  22329702.08649 117343375.40249     -4192.08249        50.000  
 16 04 02 12 51  8.2000000  0  3G25G09G29                                       
  25136699.69549 132094248.63749      9060.59049        49.000  
  23642812.52349 124243816.76249     -6221.30549        50.000  
  22329781.89849 117343794.81249     -4195.99649        50.000  
 16 04 02 12 51  8.3000000  0  3G25G09G29                                       
  25136527.28149 132093342.60549      9059.35549        49.000  
  23642930.94549 124244439.12149     -6226.54749        50.000  
  22329861.78149 117344214.57449     -4199.46549        50.000  
 16 04 02 12 51  8.4000000  0  3G25G09G29                                       
  25136354.89849 132092436.72749      9058.00449        49.000  
  23643049.47749 124245061.99649     -6231.81249        50.000  
  22329941.71949 117344634.66049     -4202.59849        50.000  
 16 04 02 12 51  8.5000000  0  3G25G09G29                                       
  25136182.55549 132091531.08649      9055.66849        49.000  
  23643168.10949 124245685.46549     -6237.72349        50.000  
  22330021.73449 117345055.18049     -4206.97349        50.000  
 16 04 02 12 51  8.6000000  0  3G25G09G29                                       
  25136010.25049 132090625.60549      9053.72349        49.000  
  23643286.85949 124246309.46949     -6243.21549        50.000  
  22330101.82849 117345476.04349     -4210.66849        50.000  
 16 04 02 12 51  8.7000000  0  3G25G09G29                                       
  25135837.97749 132089720.32449      9051.85249        49.000  
  23643405.71149 124246934.05549     -6248.88349        50.000  
  22330181.99249 117345897.30549     -4214.49249        50.000  
 16 04 02 12 51  8.8000000  0  3G25G09G29                                       
  25135665.75049 132088815.24649      9049.82849        49.000  
  23643524.68049 124247559.21149     -6254.74649        50.000  
  22330262.22749 117346318.94949     -4218.32449        50.000  
 16 04 02 12 51  8.9000000  0  3G25G09G29                                       
  25135493.55549 132087910.37149      9047.77749        49.000  
  23643643.74249 124248184.93049     -6260.37949        50.000  
  22330342.53949 117346741.00049     -4222.50049        50.000  
 16 04 02 12 51  9.0000000  0  3G25G09G29                                       
  25135321.38349 132087005.59849      9046.73849        49.000  
  23643762.90649 124248811.13349     -6265.17249        50.000  
  22330422.89849 117347163.33649     -4225.25049        50.000  
 16 04 02 12 51  9.1000000  0  3G25G09G29                                       
  25135149.24249 132086100.99249      9045.15249        49.000  
  23643882.18049 124249437.86749     -6270.37549        50.000  
  22330503.33649 117347586.02749     -4228.78549        50.000  
 16 04 02 12 51  9.2000000  0  3G25G09G29                                       
  25134977.14149 132085196.59049      9043.07049        49.000  
  23644001.55549 124250065.18849     -6276.31249        50.000  
  22330583.85249 117348009.12949     -4232.85949        50.000  
 16 04 02 12 51  9.3000000  0  3G25G09G29                                       
  25134805.09449 132084292.37949      9041.22749        49.000  
  23644121.03149 124250693.06249     -6281.75849        50.000  
  22330664.43849 117348432.60549     -4236.64849        50.000  
 16 04 02 12 51  9.4000000  0  3G25G09G29                                       
  25134633.06249 132083388.33649      9039.66449        49.000  
  23644240.61749 124251321.48049     -6286.93849        50.000  
  22330745.09449 117348856.43849     -4240.09849        50.000  
 16 04 02 12 51  9.5000000  0  3G25G09G29                                       
  25134461.04749 132082484.44949      9037.78549        49.000  
  23644360.30549 124251950.42249     -6292.60249        50.000  
  22330825.81249 117349280.60949     -4243.75049        50.000  
 16 04 02 12 51  9.6000000  0  3G25G09G29                                       
  25134289.08649 132081580.79349      9035.81249        49.000  
  23644480.10249 124252579.96549     -6298.40249        50.000  
  22330906.60949 117349705.21949     -4247.91849        50.000  
 16 04 02 12 51  9.7000000  0  3G25G09G29                                       
  25134117.14149 132080677.26249      9034.43449        49.000  
  23644599.98449 124253210.00849     -6303.28549        50.000  
  22330987.46949 117350130.13749     -4251.02749        50.000  
 16 04 02 12 51  9.8000000  0  3G25G09G29                                       
  25133945.24249 132079773.93849      9032.28949        49.000  
  23644719.99249 124253840.62549     -6309.32449        50.000  
  22331068.40649 117350555.44949     -4255.07849        50.000  
 16 04 02 12 51  9.9000000  0  3G25G09G29                                       
  25133773.39149 132078870.88749      9029.52749        49.000  
  23644840.12549 124254471.88349     -6315.64849        50.000  
  22331149.43049 117350981.22349     -4259.65249        50.000  
 16 04 02 12 51 10.0000000  0  3G25G09G29                                       
  25133601.56249 132077967.91849      9028.61349        49.000  
  23644960.33649 124255103.59449     -6320.25849        50.000  
  22331230.50049 117351407.27349     -4262.50049        50.000  
 16 04 02 12 51 10.1000000  0  2G09G29                                          
  23645080.64149 124255735.78949     -6324.82449        50.000  
  22331311.64149 117351833.62949     -4265.34849        50.000  
 16 04 02 12 51 10.2000000  0  2G09G29                                          
  23645201.04749 124256368.53949     -6330.38749        50.000  
  22331392.83649 117352260.34849     -4268.95349        50.000  
 16 04 02 12 51 10.3000000  0  2G09G29                                          
  23645321.56249 124257001.86349     -6336.16049        50.000  
  22331474.11749 117352687.47349     -4273.05949        50.000  
 16 04 02 12 51 10.4000000  0  2G09G29                                          
  23645442.18049 124257635.72749     -6341.48849        50.000  
  22331555.45349 117353114.95349     -4276.57049        50.000  
 16 04 02 12 51 10.5000000  0  2G09G29                                          
  23645562.89849 124258270.10549     -6346.69549        50.000  
  22331636.86749 117353542.77049     -4279.98449        50.000  
 16 04 02 12 51 10.6000000  0  2G09G29                                          
  23645683.73449 124258905.07049     -6352.39549        50.000  
  22331718.35249 117353970.98849     -4283.92249        50.000  
 16 04 02 12 51 10.7000000  0  2G09G29                                          
  23645804.64849 124259540.47749     -6357.10249        50.000  
  22331799.89149 117354399.47749     -4286.75449        50.000  
 16 04 02 12 51 10.8000000  0  2G09G29                                          
  23645925.67249 124260176.46949     -6362.92649        50.000  
  22331881.49249 117354828.35549     -4290.59049        50.000  
 16 04 02 12 51 10.9000000  0  2G09G29                                          
  23646046.79749 124260812.97749     -6367.96149        50.000  
  22331963.17249 117355257.57049     -4293.80549        50.000  
 16 04 02 12 51 11.0000000  0  2G09G29                                          
  23646168.02349 124261450.02049     -6373.45349        50.000  
  22332044.92249 117355687.17249     -4297.76249        50.000  
 16 04 02 12 51 11.1000000  0  2G09G29                                          
  23646289.36749 124262087.68049     -6379.58649        50.000  
  22332126.75049 117356117.17649     -4301.92249        50.000  
 16 04 02 12 51 11.2000000  0  2G09G29                                          
  23646410.81249 124262725.85549     -6384.70349        50.000  
  22332208.64149 117356547.53149     -4305.39149        50.000  
 16 04 02 12 51 11.3000000  0  2G09G29                                          
  23646532.35249 124263364.56249     -6390.03149        50.000  
  22332290.60249 117356978.24249     -4308.85249        50.000  
 16 04 02 12 51 11.4000000  0  2G09G29                                          
  23646654.00049 124264003.81249     -6395.37549        50.000  
  22332372.63349 117357409.30549     -4312.36349        50.000  
 16 04 02 12 51 11.5000000  0  2G09G29                                          
  23646775.75049 124264643.61349     -6401.01249        50.000  
  22332454.73449 117357840.74649     -4316.25449        50.000  
 16 04 02 12 51 11.6000000  0  2G09G29                                          
  23646897.60949 124265283.97749     -6406.70349        50.000  
  22332536.89849 117358272.55549     -4320.07449        50.000  
 16 04 02 12 51 11.7000000  0  2G09G29                                          
  23647019.58649 124265924.91449     -6412.57049        50.000  
  22332619.14849 117358704.78549     -4324.23049        50.000  
 16 04 02 12 51 11.8000000  0  2G09G29                                          
  23647141.64849 124266566.37149     -6417.64849        50.000  
  22332701.45349 117359137.33249     -4327.40649        50.000  
 16 04 02 12 51 11.9000000  0  2G09G29                                          
  23647263.82049 124267208.41049     -6423.23049        50.000  
  22332783.84449 117359570.28149     -4331.13349        50.000  
 16 04 02 12 51 12.0000000  0  2G09G29                                          
  23647386.10949 124267851.01649     -6429.24249        50.000  
  22332866.31249 117360003.64549     -4335.66049        50.000  
 16 04 02 12 51 12.1000000  0  2G09G29                                          
  23647508.49249 124268494.16049     -6434.36349        50.000  
  22332948.83649 117360437.32849     -4338.72349        50.000  
 16 04 02 12 51 12.2000000  0  2G09G29                                          
  23647630.97749 124269137.81249     -6439.56249        50.000  
  22333031.43049 117360871.35949     -4342.16449        50.000  
 16 04 02 12 51 12.3000000  0  2G09G29                                          
  23647753.55549 124269781.95349     -6444.30949        50.000  
  22333114.08649 117361305.70349     -4345.10549        50.000  
 16 04 02 12 51 12.4000000  0  2G09G29                                          
  23647876.25049 124270426.71149     -6450.80549        50.000  
  22333196.82049 117361740.48049     -4349.85549        50.000  
 16 04 02 12 51 12.5000000  0  2G09G29                                          
  23647999.05549 124271072.06649     -6456.59049        50.000  
  22333279.63349 117362175.67649     -4353.87549        50.000  
 16 04 02 12 51 12.6000000  0  2G09G29                                          
  23648121.96149 124271717.94949     -6462.07449        50.000  
  22333362.52349 117362611.21949     -4357.49649        50.000  
 16 04 02 12 51 12.7000000  0  2G09G29                                          
  23648244.97749 124272364.37149     -6467.01249        50.000  
  22333445.46949 117363047.11749     -4360.68849        50.000  
 16 04 02 12 51 12.8000000  0  2G09G29                                          
  23648368.07849 124273011.28549     -6472.05949        50.000  
  22333528.48449 117363483.32449     -4363.82849        50.000  
 16 04 02 12 51 12.9000000  0  2G09G29                                          
  23648491.29749 124273658.76249     -6477.67649        50.000  
  22333611.57049 117363919.92649     -4367.75049        50.000  
 16 04 02 12 51 13.0000000  0  2G09G29                                          
  23648614.60249 124274306.76249     -6483.02049        50.000  
  22333694.71949 117364356.87949     -4371.36749        50.000  
 16 04 02 12 51 13.1000000  0  2G09G29                                          
  23648738.01649 124274955.34049     -6488.66449        50.000  
  22333777.93849 117364794.19549     -4374.89149        50.000  
 16 04 02 12 51 13.2000000  0  2G09G29                                          
  23648861.53949 124275604.44149     -6494.10249        50.000  
  22333861.21949 117365231.88749     -4378.69949        50.000  
 16 04 02 12 51 13.3000000  0  2G09G29                                          
  23648985.15649 124276254.05149     -6498.97349        50.000  
  22333944.57049 117365669.90649     -4381.98049        50.000  
 16 04 02 12 51 13.4000000  0  2G09G29                                          
  23649108.87549 124276904.19149     -6504.20749        50.000  
  22334027.99249 117366108.25849     -4385.20749        50.000  
 16 04 02 12 51 13.5000000  0  2G09G29                                          
  23649232.71149 124277554.91049     -6510.43049        50.000  
  22334111.48449 117366547.02349     -4389.53149        50.000  
 16 04 02 12 51 13.6000000  0  2G09G29                                          
  23649356.65649 124278206.24649     -6516.15649        50.000  
  22334195.06249 117366986.22349     -4393.78149        50.000  
 16 04 02 12 51 13.7000000  0  2G09G29                                          
  23649480.69549 124278858.05149     -6520.95749        50.000  
  22334278.69549 117367425.70349     -4396.62149        50.000  
 16 04 02 12 51 13.8000000  0  2G09G29                                          
  23649604.83649 124279510.41049     -6526.72349        50.000  
  22334362.39849 117367865.57049     -4400.54749        50.000  
 16 04 02 12 51 13.9000000  0  2G09G29                                          
  23649729.07049 124280163.27049     -6531.34849        50.000  
  22334446.16449 117368305.75449     -4403.46949        50.000  
 16 04 02 12 51 14.0000000  0  2G09G29                                          
  23649853.41449 124280816.68049     -6537.17249        50.000  
  22334530.00049 117368746.30549     -4407.35549        50.000  
 16 04 02 12 51 14.1000000  0  2G09G29                                          
  23649977.85949 124281470.65649     -6542.87149        50.000  
  22334613.91449 117369187.25049     -4411.34449        50.000  
 16 04 02 12 51 14.2000000  0  2G09G29                                          
  23650102.39849 124282125.13349     -6547.51649        50.000  
  22334697.87549 117369628.51249     -4414.30149        50.000  
 16 04 02 12 51 14.3000000  0  2G09G29                                          
  23650227.04749 124282780.13349     -6552.94149        50.000  
  22334781.91449 117370070.10949     -4417.81649        50.000  
 16 04 02 12 51 14.4000000  0  2G09G29                                          
  23650351.79749 124283435.71149     -6558.82049        50.000  
  22334866.03149 117370512.11749     -4421.89549        50.000  
 16 04 02 12 51 14.5000000  0  2G09G29                                          
  23650476.65649 124284091.83249     -6564.48449        50.000  
  22334950.21149 117370954.48849     -4425.66849        50.000  
 16 04 02 12 51 14.6000000  0  2G09G29                                          
  23650601.62549 124284748.55149     -6569.91849        50.000  
  22335034.46949 117371397.26649     -4429.40249        50.000  
 16 04 02 12 51 14.7000000  0  2G09G29                                          
  23650726.68049 124285405.76249     -6575.32049        50.000  
  22335118.79749 117371840.37949     -4433.18849        50.000  
 16 04 02 12 51 14.8000000  0  2G09G29                                          
  23650851.85949 124286063.59049     -6581.10949        50.000  
  22335203.18849 117372283.90249     -4437.08649        49.000  
 16 04 02 12 51 14.9000000  0  2G09G29                                          
  23650977.14849 124286721.95349     -6586.59049        50.000  
  22335287.66449 117372727.78949     -4440.63749        49.000  
 16 04 02 12 51 15.0000000  0  2G09G29                                          
  23651102.51649 124287380.78149     -6591.13749        50.000  
  22335372.18849 117373171.97349     -4443.51649        50.000  
 16 04 02 12 51 15.1000000  0  2G09G29                                          
  23651227.98449 124288040.10949     -6596.44149        50.000  
  22335456.77349 117373616.46949     -4446.88349        50.000  
 16 04 02 12 51 15.2000000  0  2G09G29                                          
  23651353.56249 124288700.02049     -6601.90649        50.000  
  22335541.43849 117374061.37149     -4450.55549        49.000  
 16 04 02 12 51 15.3000000  0  2G09G29                                          
  23651479.25049 124289360.44949     -6607.52349        50.000  
  22335626.16449 117374506.61749     -4454.45749        49.000  
 16 04 02 12 51 15.4000000  0  2G09G29                                          
  23651605.03949 124290021.48049     -6613.48849        50.000  
  22335710.96949 117374952.27049     -4458.48449        49.000  
 16 04 02 12 51 15.5000000  0  2G09G29                                          
  23651730.93849 124290683.11349     -6619.15249        50.000  
  22335795.85949 117375398.36349     -4462.62149        49.000  
 16 04 02 12 51 15.6000000  0  2G09G29                                          
  23651856.93049 124291345.17649     -6623.65649        50.000  
  22335880.78949 117375844.68849     -4465.17249        49.000  
 16 04 02 12 51 15.7000000  0  2G09G29                                          
  23651983.02349 124292007.85549     -6629.75449        50.000  
  22335965.80549 117376291.46149     -4469.46549        50.000  
 16 04 02 12 51 15.8000000  0  2G09G29                                          
  23652109.24249 124292671.13749     -6636.03549        50.000  
  22336050.90649 117376738.66449     -4474.05549        50.000  
 16 04 02 12 51 15.9000000  0  2G09G29                                          
  23652235.54749 124293334.86349     -6640.16849        50.000  
  22336136.06249 117377186.12549     -4476.51649        49.000  
 16 04 02 12 51 16.0000000  0  2G09G29                                          
  23652361.96949 124293999.21549     -6646.64149        50.000  
  22336221.29749 117377634.02749     -4481.03549        49.000  
 16 04 02 12 51 16.1000000  0  2G09G29                                          
  23652488.48449 124294664.10249     -6651.71149        50.000  
  22336306.59449 117378082.29349     -4484.43049        49.000  
 16 04 02 12 51 16.2000000  0  2G09G29                                          
  23652615.10949 124295329.50449     -6657.15649        50.000  
  22336391.95349 117378530.88749     -4487.94949        49.000  
 16 04 02 12 51 16.3000000  0  2G09G29                                          
  23652741.83649 124295995.44549     -6662.36749        50.000  
  22336477.39149 117378979.85249     -4491.38749        49.000  
 16 04 02 12 51 16.4000000  0  2G09G29                                          
  23652868.66449 124296661.91849     -6667.88749        50.000  
  22336562.89149 117379429.15649     -4494.93849        49.000  
 16 04 02 12 51 16.5000000  0  2G09G29                                          
  23652995.59449 124297328.95749     -6673.39149        50.000  
  22336648.46149 117379878.85249     -4498.68049        49.000  
 16 04 02 12 51 16.6000000  0  2G09G29                                          
  23653122.62549 124297996.53949     -6678.88749        50.000  
  22336734.10949 117380328.92649     -4502.68049        49.000  
 16 04 02 12 51 16.7000000  0  2G09G29                                          
  23653249.76649 124298664.65249     -6683.94949        50.000  
  22336819.82049 117380779.33249     -4505.77049        49.000  
 16 04 02 12 51 16.8000000  0  2G09G29                                          
  23653377.00049 124299333.26249     -6689.01249        50.000  
  22336905.58649 117381230.07049     -4509.15249        49.000  
 16 04 02 12 51 16.9000000  0  2G09G29                                          
  23653504.33649 124300002.42649     -6694.32049        50.000  
  22336991.43049 117381681.17249     -4512.74249        49.000  
 16 04 02 12 51 17.0000000  0  2G09G29                                          
  23653631.76649 124300672.07049     -6699.49249        50.000  
  22337077.32849 117382132.57849     -4516.03149        49.000  
 16 04 02 12 51 17.1000000  0  2G09G29                                          
  23653759.31249 124301342.32849     -6705.57449        50.000  
  22337163.31249 117382584.41849     -4520.32049        49.000  
 16 04 02 12 51 17.2000000  0  2G09G29                                          
  23653886.95349 124302013.09449     -6710.66049        50.000  
  22337249.35249 117383036.58649     -4523.45349        49.000  
 16 04 02 12 51 17.3000000  0  2G09G29                                          
  23654014.69549 124302684.41049     -6716.35249        50.000  
  22337335.46149 117383489.12949     -4527.46549        50.000  
 16 04 02 12 51 17.4000000  0  2G09G29                                          
  23654142.55549 124303356.31649     -6722.10549        50.000  
  22337421.65649 117383942.08249     -4531.34849        49.000  
 16 04 02 12 51 17.5000000  0  2G09G29                                          
  23654270.52349 124304028.77049     -6727.52049        50.000  
  22337507.92249 117384395.39149     -4535.07849        49.000  
 16 04 02 12 51 17.6000000  0  2G09G29                                          
  23654398.57849 124304701.69949     -6732.29749        50.000  
  22337594.24249 117384849.02049     -4538.09849        50.000  
 16 04 02 12 51 17.7000000  0  2G09G29                                          
  23654526.74249 124305375.20749     -6738.06649        50.000  
  22337680.64149 117385303.03149     -4541.96549        50.000  
 16 04 02 12 51 17.8000000  0  2G09G29                                          
  23654655.01649 124306049.28149     -6743.87949        50.000  
  22337767.10949 117385757.44549     -4546.04349        50.000  
 16 04 02 12 51 17.9000000  0  2G09G29                                          
  23654783.37549 124306723.84049     -6748.52349        50.000  
  22337853.64149 117386212.15249     -4548.89549        50.000  
 16 04 02 12 51 18.0000000  0  2G09G29                                          
  23654911.84449 124307398.94549     -6753.92649        50.000  
  22337940.23449 117386667.22349     -4552.41849        50.000  
 16 04 02 12 51 18.1000000  0  2G09G29                                          
  23655040.41449 124308074.58249     -6759.43849        50.000  
  22338026.89849 117387122.65249     -4556.10949        50.000  
 16 04 02 12 51 18.2000000  0  2G09G29                                          
  23655169.08649 124308750.75849     -6764.60549        50.000  
  22338113.64149 117387578.44949     -4559.72749        50.000  
 16 04 02 12 51 18.3000000  0  2G09G29                                          
  23655297.85949 124309427.48449     -6770.31649        50.000  
  22338200.44549 117388034.60549     -4563.43049        49.000  
 16 04 02 12 51 18.4000000  0  2G09G29                                          
  23655426.74249 124310104.75849     -6775.82849        50.000  
  22338287.32049 117388491.12949     -4567.29749        49.000  
 16 04 02 12 51 18.5000000  0  2G09G29                                          
  23655555.72749 124310782.59849     -6781.34449        50.000  
  22338374.26649 117388948.04349     -4571.00049        49.000  
 16 04 02 12 51 18.6000000  0  2G09G29                                          
  23655684.82049 124311460.96149     -6786.64149        50.000  
  22338461.28149 117389405.30949     -4574.54749        50.000  
 16 04 02 12 51 18.7000000  0  2G09G29                                          
  23655814.00849 124312139.88749     -6792.10949        50.000  
  22338548.36749 117389862.95349     -4578.30549        49.000  
 16 04 02 12 51 18.8000000  0  2G09G29                                          
  23655943.30549 124312819.35249     -6797.84849        50.000  
  22338635.53149 117390320.96149     -4582.00849        49.000  
 16 04 02 12 51 18.9000000  0  2G09G29                                          
  23656072.72749 124313499.43849     -6803.90249        50.000  
  22338722.76649 117390779.40249     -4586.38749        49.000  
 16 04 02 12 51 19.0000000  0  2G09G29                                          
  23656202.23449 124314179.99249     -6808.47349        50.000  
  22338810.06249 117391238.14849     -4589.17649        49.000  
 16 04 02 12 51 19.1000000  0  2G09G29                                          
  23656331.82049 124314861.00049     -6812.86349        50.000  
  22338897.40649 117391697.14849     -4591.59049        49.000  
 16 04 02 12 51 19.2000000  0  2G09G29                                          
  23656461.51649 124315542.55549     -6818.55949        50.000  
  22338984.82849 117392156.53149     -4595.59449        49.000  
 16 04 02 12 51 19.3000000  0  2G09G29                                          
  23656591.33649 124316224.73049     -6824.68449        50.000  
  22339072.32849 117392616.35549     -4600.09849        49.000  
 16 04 02 12 51 19.4000000  0  2G09G29                                          
  23656721.24249 124316907.41049     -6829.71549        50.000  
  22339159.88349 117393076.49649     -4603.25449        49.000  
 16 04 02 12 51 19.5000000  0  2G09G29                                          
  23656851.25849 124317590.60549     -6834.98449        50.000  
  22339247.51649 117393536.99249     -4606.79749        49.000  
 16 04 02 12 51 19.6000000  0  2G09G29                                          
  23656981.38349 124318274.39149     -6840.96949        50.000  
  22339335.21949 117393997.87149     -4610.75049        49.000  
 16 04 02 12 51 19.7000000  0  2G09G29                                          
  23657111.60949 124318958.74649     -6846.61349        50.000  
  22339423.00049 117394459.16449     -4614.87949        49.000  
 16 04 02 12 51 19.8000000  0  2G09G29                                          
  23657241.94549 124319643.65649     -6852.00449        50.000  
  22339510.85249 117394920.81649     -4618.33649        49.000  
 16 04 02 12 51 19.9000000  0  2G09G29                                          
  23657372.37549 124320329.07049     -6857.15249        50.000  
  22339598.76649 117395382.80949     -4621.80149        49.000  
 16 04 02 12 51 20.0000000  0  2G09G29                                          
  23657502.89849 124321015.00849     -6862.45749        50.000  
  22339686.74249 117395845.13749     -4625.18449        49.000  
 16 04 02 12 51 20.1000000  0  2G09G29                                          
  23657633.53949 124321701.50449     -6867.92649        50.000  
  22339774.79749 117396307.84849     -4628.84449        49.000  
 16 04 02 12 51 20.2000000  0  2G09G29                                          
  23657764.28949 124322388.59849     -6873.94949        50.000  
  22339862.92249 117396770.97749     -4633.15249        49.000  
 16 04 02 12 51 20.3000000  0  2G09G29                                          
  23657895.12549 124323076.17249     -6878.71149        50.000  
  22339951.11749 117397234.41049     -4636.15249        49.000  
 16 04 02 12 51 20.4000000  0  2G09G29                                          
  23658026.07049 124323764.28949     -6884.07449        50.000  
  22340039.36749 117397698.19949     -4639.60249        49.000  
 16 04 02 12 51 20.5000000  0  2G09G29                                          
  23658157.10949 124324452.93849     -6889.23049        50.000  
  22340127.69549 117398162.35949     -4643.20749        49.000  
 16 04 02 12 51 20.6000000  0  2G09G29                                          
  23658288.25849 124325142.11749     -6894.89849        50.000  
  22340216.09449 117398626.85949     -4646.96549        49.000  
 16 04 02 12 51 20.7000000  0  2G09G29                                          
  23658419.50849 124325831.83649     -6900.00049        50.000  
  22340304.55549 117399091.72349     -4650.29349        49.000  
 16 04 02 12 51 20.8000000  0  2G09G29                                          
  23658550.85949 124326522.09049     -6905.40649        50.000  
  22340393.08649 117399556.93049     -4653.93849        49.000  
 16 04 02 12 51 20.9000000  0  2G09G29                                          
  23658682.31249 124327212.87949     -6911.05549        50.000  
  22340481.68049 117400022.50849     -4657.76249        49.000  
 16 04 02 12 51 21.0000000  0  2G09G29                                          
  23658813.86749 124327904.19149     -6916.10949        50.000  
  22340570.34449 117400488.43049     -4661.08249        49.000  
 16 04 02 12 51 21.1000000  0  2G09G29                                          
  23658945.52349 124328596.07049     -6921.88749        50.000  
  22340659.07849 117400954.73849     -4664.97349        49.000  
 16 04 02 12 51 21.2000000  0  2G09G29                                          
  23659077.29749 124329288.55549     -6927.85249        50.000  
  22340747.89849 117401421.47349     -4669.21949        49.000  
 16 04 02 12 51 21.3000000  0  2G09G29                                          
  23659209.17249 124329981.57049     -6933.23849        50.000  
  22340836.78149 117401888.55149     -4672.76649        49.000  
 16 04 02 12 51 21.4000000  0  2G09G29                                          
  23659341.14149 124330675.07049     -6937.95349        50.000  
  22340925.72749 117402355.95349     -4675.81649        49.000  
 16 04 02 12 51 21.5000000  0  2G09G29                                          
  23659473.23449 124331369.19949     -6944.26649        50.000  
  22341014.75049 117402823.78549     -4680.14549        49.000  
 16 04 02 12 51 21.6000000  0  2G09G29                                          
  23659605.40649 124332063.79749     -6948.84449        49.000  
  22341103.83649 117403291.92649     -4683.18449        49.000  
 16 04 02 12 51 21.7000000  0  2G09G29                                          
  23659737.69549 124332758.97749     -6954.93449        50.000  
  22341192.99249 117403760.46149     -4687.37149        49.000  
 16 04 02 12 51 21.8000000  0  2G09G29                                          
  23659870.09449 124333454.72749     -6960.47349        50.000  
  22341282.22749 117404229.38349     -4691.13749        49.000  
 16 04 02 12 51 21.9000000  0  2G09G29                                          
  23660002.58649 124334150.96549     -6965.36349        50.000  
  22341371.51649 117404698.61749     -4694.16849        49.000  
 16 04 02 12 51 22.0000000  0  2G09G29                                          
  23660135.18849 124334847.77049     -6970.93049        50.000  
  22341460.89149 117405168.24649     -4698.00849        49.000  
 16 04 02 12 51 22.1000000  0  2G09G29                                          
  23660267.87549 124335545.08249     -6976.25449        50.000  
  22341550.32049 117405638.20749     -4701.55949        49.000  
 16 04 02 12 51 22.2000000  0  2G09G29                                          
  23660400.68849 124336243.01249     -6982.12149        50.000  
  22341639.82849 117406108.59449     -4705.62949        49.000  
 16 04 02 12 51 22.3000000  0  2G09G29                                          
  23660533.57849 124336941.37549     -6986.70749        50.000  
  22341729.39149 117406579.24649     -4708.48449        49.000  
 16 04 02 12 51 22.4000000  0  2G09G29                                          
  23660666.59449 124337640.36349     -6992.85549        50.000  
  22341819.03949 117407050.34049     -4712.76249        49.000  
 16 04 02 12 51 22.5000000  0  2G09G29                                          
  23660799.70349 124338339.82849     -6997.63349        50.000  
  22341908.74249 117407521.73449     -4715.75849        49.000  
 16 04 02 12 51 22.6000000  0  2G09G29                                          
  23660932.91449 124339039.86349     -7003.14849        50.000  
  22341998.52349 117407993.51649     -4719.49249        49.000  
 16 04 02 12 51 22.7000000  0  2G09G29                                          
  23661066.21949 124339740.37949     -7008.11749        50.000  
  22342088.35949 117408465.60249     -4722.68049        49.000  
 16 04 02 12 51 22.8000000  0  2G09G29                                          
  23661199.62549 124340441.46549     -7013.82849        50.000  
  22342178.27349 117408938.07849     -4726.68849        49.000  
 16 04 02 12 51 22.9000000  0  2G09G29                                          
  23661333.14849 124341143.12549     -7019.64849        50.000  
  22342268.25849 117409410.95749     -4730.64149        49.000  
 16 04 02 12 51 23.0000000  0  2G09G29                                          
  23661466.76649 124341845.27049     -7024.37149        50.000  
  22342358.29749 117409884.14149     -4733.69149        49.000  
 16 04 02 12 51 23.1000000  0  2G09G29                                          
  23661600.47749 124342547.97349     -7030.05549        50.000  
  22342448.41449 117410357.70349     -4737.45749        49.000  
 16 04 02 12 51 23.2000000  0  2G09G29                                          
  23661734.28949 124343251.15249     -7034.59049        50.000  
  22342538.58649 117410831.55549     -4740.19549        49.000  
 16 04 02 12 51 23.3000000  0  2G09G29                                          
  23661868.20349 124343954.89549     -7040.31249        50.000  
  22342628.83649 117411305.80149     -4744.15649        49.000  
 16 04 02 12 51 23.4000000  0  2G09G29                                          
  23662002.21949 124344659.12949     -7045.05549        50.000  
  22342719.13349 117411780.35249     -4747.14549        49.000  
 16 04 02 12 51 23.5000000  0  2G09G29                                          
  23662136.35249 124345363.98849     -7051.63349        50.000  
  22342809.52349 117412255.35549     -4751.79749        50.000  
 16 04 02 12 51 23.6000000  0  2G09G29                                          
  23662270.58649 124346069.39849     -7057.12549        50.000  
  22342899.98449 117412730.74249     -4755.79749        50.000  
 16 04 02 12 51 23.7000000  0  2G09G29                                          
  23662404.90649 124346775.27749     -7062.14849        50.000  
  22342990.50049 117413206.40649     -4758.77749        49.000  
 16 04 02 12 51 23.8000000  0  2G09G29                                          
  23662539.35249 124347481.77349     -7067.78149        50.000  
  22343081.10249 117413682.51249     -4762.71949        49.000  
 16 04 02 12 51 23.9000000  0  2G09G29                                          
  23662673.89149 124348188.80149     -7073.24649        50.000  
  22343171.76649 117414158.96149     -4766.40649        49.000  
 16 04 02 12 51 24.0000000  0  2G09G29                                          
  23662808.52349 124348896.32849     -7078.43049        50.000  
  22343262.50049 117414635.75449     -4769.81649        49.000  
 16 04 02 12 51 24.1000000  0  2G09G29                                          
  23662943.28149 124349604.45349     -7084.22749        50.000  
  22343353.30549 117415112.95349     -4773.75049        49.000  
 16 04 02 12 51 24.2000000  0  2G09G29                                          
  23663078.12549 124350313.07849     -7089.04349        50.000  
  22343444.17249 117415590.46949     -4776.85949        49.000  
 16 04 02 12 51 24.3000000  0  2G09G29                                          
  23663213.07049 124351022.24649     -7094.64549        50.000  
  22343535.11749 117416068.36749     -4780.81249        49.000  
 16 04 02 12 51 24.4000000  0  2G09G29                                          
  23663348.12549 124351731.94549     -7100.16449        49.000  
  22343626.12549 117416546.59849     -4784.35949        49.000  
 16 04 02 12 51 24.5000000  0  2G09G29                                          
  23663483.28149 124352442.20349     -7105.54749        49.000  
  22343717.20349 117417025.22349     -4788.09049        49.000  
 16 04 02 12 51 24.6000000  0  2G09G29                                          
  23663618.54749 124353153.02349     -7111.14849        49.000  
  22343808.35249 117417504.22349     -4791.82849        49.000  
 16 04 02 12 51 24.7000000  0  2G09G29                                          
  23663753.90649 124353864.36349     -7116.62149        50.000  
  22343899.57049 117417983.57449     -4795.51249        49.000  
 16 04 02 12 51 24.8000000  0  2G09G29                                          
  23663889.39149 124354576.30949     -7122.30549        50.000  
  22343990.86749 117418463.34049     -4799.50449        49.000  
 16 04 02 12 51 24.9000000  0  2G09G29                                          
  23664024.96949 124355288.77749     -7127.71949        49.000  
  22344082.22749 117418943.46149     -4803.00049        49.000  
 16 04 02 12 51 25.0000000  0  2G09G29                                          
  23664160.65649 124356001.82049     -7133.57849        50.000  
  22344173.67249 117419423.96949     -4807.09449        49.000  
 16 04 02 12 51 25.1000000  0  2G09G29                                          
  23664296.43049 124356715.32449     -7137.94549        49.000  
  22344265.16449 117419904.76649     -4809.64149        49.000  
 16 04 02 12 51 25.2000000  0  2G09G29                                          
  23664432.31249 124357429.35949     -7143.12149        49.000  
  22344356.72749 117420385.92649     -4813.17649        49.000  
 16 04 02 12 51 25.3000000  0  2G09G29                                          
  23664568.28949 124358143.91449     -7148.66849        49.000  
  22344448.35249 117420867.41449     -4816.82849        49.000  
 16 04 02 12 51 25.4000000  0  2G09G29                                          
  23664704.36749 124358859.03149     -7153.97349        49.000  
  22344540.04749 117421349.29749     -4820.51249        49.000  
 16 04 02 12 51 25.5000000  0  2G09G29                                          
  23664840.54749 124359574.64549     -7158.98849        49.000  
  22344631.80549 117421831.48449     -4823.63749        49.000  
 16 04 02 12 51 25.6000000  0  2G09G29                                          
  23664976.82849 124360290.81249     -7164.60949        49.000  
  22344723.64149 117422314.05949     -4827.59049        49.000  
 16 04 02 12 51 25.7000000  0  2G09G29                                          
  23665113.20349 124361007.48849     -7169.62149        49.000  
  22344815.53149 117422796.96149     -4830.79349        49.000  
 16 04 02 12 51 25.8000000  0  2G09G29                                          
  23665249.68849 124361724.69149     -7175.02049        49.000  
  22344907.49249 117423280.21149     -4834.41049        49.000  
 16 04 02 12 51 25.9000000  0  2G09G29                                          
  23665386.27349 124362442.48049     -7180.68449        49.000  
  22344999.53149 117423763.87149     -4838.32449        49.000  
 16 04 02 12 51 26.0000000  0  2G09G29                                          
  23665522.96149 124363160.78949     -7186.02749        49.000  
  22345091.63349 117424247.86349     -4841.77749        49.000  
 16 04 02 12 51 26.1000000  0  2G09G29                                          
  23665659.75049 124363879.59049     -7190.87149        49.000  
  22345183.79749 117424732.18449     -4844.97749        49.000  
 16 04 02 12 51 26.2000000  0  2G09G29                                          
  23665796.64849 124364598.98849     -7197.01649        49.000  
  22345276.03949 117425216.91449     -4849.16049        49.000  
 16 04 02 12 51 26.3000000  0  2G09G29                                          
  23665933.65649 124365318.99649     -7203.39549        50.000  
  22345368.35949 117425702.07849     -4853.77049        49.000  
 16 04 02 12 51 26.4000000  0  2G09G29                                          
  23666070.76649 124366039.51649     -7208.08649        49.000  
  22345460.75049 117426187.58249     -4856.82849        49.000  
 16 04 02 12 51 26.5000000  0  2G09G29                                          
  23666207.96949 124366760.52349     -7213.09449        49.000  
  22345553.19549 117426673.39849     -4860.02349        49.000  
 16 04 02 12 51 26.6000000  0  2G09G29                                          
  23666345.28149 124367482.09849     -7218.66049        49.000  
  22345645.71949 117427159.58649     -4863.82449        49.000  
 16 04 02 12 51 26.7000000  0  2G09G29                                          
  23666482.71149 124368204.30549     -7225.25849        49.000  
  22345738.32049 117427646.24649     -4868.61749        49.000  
 16 04 02 12 51 26.8000000  0  2G09G29                                          
  23666620.23449 124368926.99649     -7230.06249        49.000  
  22345830.98449 117428133.19949     -4871.52049        49.000  
 16 04 02 12 51 26.9000000  0  2G09G29                                          
  23666757.85249 124369650.18849     -7234.77349        49.000  
  22345923.71149 117428620.48449     -4874.60249        49.000  
 16 04 02 12 51 27.0000000  0  2G09G29                                          
  23666895.57849 124370373.94549     -7240.68449        49.000  
  22346016.50849 117429108.16049     -4878.65249        49.000  
 16 04 02 12 51 27.1000000  0  2G09G29                                          
  23667033.40649 124371098.25449     -7245.97349        50.000  
  22346109.38349 117429596.19549     -4882.10949        49.000  
 16 04 02 12 51 27.2000000  0  2G09G29                                          
  23667171.34449 124371823.09849     -7251.30149        49.000  
  22346202.32849 117430084.60249     -4885.78149        49.000  
 16 04 02 12 51 27.3000000  0  2G09G29                                          
  23667309.38349 124372548.46949     -7256.77749        50.000  
  22346295.32849 117430573.35549     -4889.45749        49.000  
 16 04 02 12 51 27.4000000  0  2G09G29                                          
  23667447.51649 124373274.39149     -7262.02049        50.000  
  22346388.40649 117431062.46949     -4892.86749        49.000  
 16 04 02 12 51 27.5000000  0  2G09G29                                          
  23667585.75049 124374000.78949     -7266.92249        50.000  
  22346481.53949 117431551.89149     -4895.99249        49.000  
 16 04 02 12 51 27.6000000  0  2G09G29                                          
  23667724.08649 124374727.75449     -7272.62549        49.000  
  22346574.75049 117432041.71949     -4900.07449        49.000  
 16 04 02 12 51 27.7000000  0  2G09G29                                          
  23667862.53149 124375455.28149     -7278.06249        49.000  
  22346668.03149 117432531.91049     -4903.65249        49.000  
 16 04 02 12 51 27.8000000  0  2G09G29                                          
  23668001.06249 124376183.24649     -7282.53549        49.000  
  22346761.35949 117433022.35549     -4906.21549        49.000  
 16 04 02 12 51 27.9000000  0  2G09G29                                          
  23668139.69549 124376911.77749     -7288.10949        49.000  
  22346854.76649 117433513.20749     -4910.14549        49.000  
 16 04 02 12 51 28.0000000  0  2G09G29                                          
  23668278.43049 124377640.85549     -7293.86349        50.000  
  22346948.24249 117434004.41849     -4914.09049        49.000  
 16 04 02 12 51 28.1000000  0  2G09G29                                          
  23668417.27349 124378370.47349     -7298.84449        49.000  
  22347041.78949 117434495.99649     -4917.58649        49.000  
 16 04 02 12 51 28.2000000  0  2G09G29                                          
  23668556.20349 124379100.57849     -7304.06649        50.000  
  22347135.39149 117434987.87549     -4920.57449        49.000  
 16 04 02 12 51 28.3000000  0  2G09G29                                          
  23668695.25049 124379831.25849     -7309.68449        50.000  
  22347229.07049 117435480.16049     -4924.61749        49.000  
 16 04 02 12 51 28.4000000  0  2G09G29                                          
  23668834.39149 124380562.44149     -7314.77349        49.000  
  22347322.81249 117435972.76649     -4927.78149        49.000  
 16 04 02 12 51 28.5000000  0  2G09G29                                          
  23668973.65649 124381294.25449     -7321.28549        49.000  
  22347416.64149 117436465.82849     -4932.68849        49.000  
 16 04 02 12 51 28.6000000  0  2G09G29                                          
  23669113.01649 124382026.60249     -7326.54749        49.000  
  22347510.53149 117436959.24249     -4936.14149        49.000  
 16 04 02 12 51 28.7000000  0  2G09G29                                          
  23669252.48449 124382759.50049     -7331.88749        50.000  
  22347604.50049 117437453.04749     -4939.95349        49.000  
 16 04 02 12 51 28.8000000  0  2G09G29                                          
  23669392.03149 124383492.85249     -7336.41049        50.000  
  22347698.51649 117437947.10549     -4942.53549        49.000  
 16 04 02 12 51 28.9000000  0  2G09G29                                          
  23669531.69549 124384226.76649     -7341.84849        50.000  
  22347792.60949 117438441.55149     -4946.08249        49.000  
 16 04 02 12 51 29.0000000  0  2G09G29                                          
  23669671.46149 124384961.23849     -7347.57049        50.000  
  22347886.77349 117438936.37949     -4950.07049        49.000  
 16 04 02 12 51 29.1000000  0  2G09G29                                          
  23669811.31249 124385696.17249     -7352.39549        49.000  
  22347980.99249 117439431.50449     -4953.08249        49.000  
 16 04 02 12 51 29.2000000  0  2G09G29                                          
  23669951.27349 124386431.69149     -7358.41049        49.000  
  22348075.28149 117439927.01649     -4957.02749        49.000  
 16 04 02 12 51 29.3000000  0  2G09G29                                          
  23670091.35249 124387167.75849     -7363.40249        49.000  
  22348169.64849 117440422.92649     -4960.77049        49.000  
 16 04 02 12 51 29.4000000  0  2G09G29                                          
  23670231.51649 124387904.31649     -7368.45749        49.000  
  22348264.07849 117440919.12549     -4963.81649        49.000  
 16 04 02 12 51 29.5000000  0  2G09G29                                          
  23670371.79749 124388641.48049     -7374.88349        49.000  
  22348358.57849 117441415.75449     -4968.26649        49.000  
 16 04 02 12 51 29.6000000  0  2G09G29                                          
  23670512.17249 124389379.16049     -7379.78149        49.000  
  22348453.15649 117441912.73049     -4971.56249        49.000  
 16 04 02 12 51 29.7000000  0  2G09G29                                          
  23670652.65649 124390117.39849     -7385.28549        50.000  
  22348547.79749 117442410.07449     -4975.17249        49.000  
 16 04 02 12 51 29.8000000  0  2G09G29                                          
  23670793.25049 124390856.19549     -7390.98849        50.000  
  22348642.51649 117442907.82049     -4979.30949        49.000  
 16 04 02 12 51 29.9000000  0  2G09G29                                          
  23670933.93849 124391595.53549     -7396.65649        50.000  
  22348737.29749 117443405.92649     -4983.13349        49.000  
 16 04 02 12 51 30.0000000  0  2G09G29                                          
  23671074.71949 124392335.35249     -7401.05549        49.000  
  22348832.14849 117443904.33649     -4985.91449        49.000  
 16 04 02 12 51 30.1000000  0  2G09G29                                          
  23671215.61749 124393075.78549     -7407.41849        50.000  
  22348927.07049 117444403.16049     -4990.14149        49.000  
 16 04 02 12 51 30.2000000  0  2G09G29                                          
  23671356.63349 124393816.82849     -7413.43849        50.000  
  22349022.07849 117444902.44549     -4994.69549        49.000  
 16 04 02 12 51 30.3000000  0  2G09G29                                          
  23671497.74249 124394558.34849     -7418.28149        50.000  
  22349117.14849 117445402.02049     -4997.76649        49.000  
 16 04 02 12 51 30.4000000  0  2G09G29                                          
  23671638.95349 124395300.43449     -7423.81649        50.000  
  22349212.28949 117445901.96949     -5001.31249        49.000  
 16 04 02 12 51 30.5000000  0  2G09G29                                          
  23671780.25849 124396042.99649     -7428.60949        50.000  
  22349307.48449 117446402.23449     -5004.44149        49.000  
 16 04 02 12 51 30.6000000  0  2G09G29                                          
  23671921.68049 124396786.15249     -7434.60549        50.000  
  22349402.75849 117446902.91049     -5008.61349        49.000  
 16 04 02 12 51 30.7000000  0  2G09G29                                          
  23672063.20349 124397529.86349     -7440.08649        50.000  
  22349498.10949 117447403.96949     -5012.46149        49.000  
 16 04 02 12 51 30.8000000  0  2G09G29                                          
  23672204.82849 124398274.09049     -7445.18049        50.000  
  22349593.52349 117447905.35949     -5015.71949        49.000  
 16 04 02 12 51 30.9000000  0  2G09G29                                          
  23672346.54749 124399018.82849     -7450.16049        50.000  
  22349688.99249 117448407.08649     -5019.00449        49.000  
 16 04 02 12 51 31.0000000  0  2G09G29                                          
  23672488.35949 124399764.08249     -7455.62149        50.000  
  22349784.53949 117448909.16449     -5022.72349        50.000  
 16 04 02 12 51 31.1000000  0  2G09G29                                          
  23672630.28149 124400509.89149     -7461.11349        50.000  
  22349880.14849 117449411.59049     -5026.09849        49.000  
 16 04 02 12 51 31.2000000  0  2G09G29                                          
  23672772.31249 124401256.23449     -7466.26249        50.000  
  22349975.82849 117449914.39549     -5029.75049        49.000  
 16 04 02 12 51 31.3000000  0  2G09G29                                          
  23672914.43849 124402003.12949     -7472.16849        49.000  
  22350071.58649 117450417.57449     -5033.81249        49.000  
 16 04 02 12 51 31.4000000  0  2G09G29                                          
  23673056.67249 124402750.57449     -7477.24249        49.000  
  22350167.40649 117450921.12149     -5037.23849        49.000  
 16 04 02 12 51 31.5000000  0  2G09G29                                          
  23673199.00049 124403498.51649     -7482.34449        49.000  
  22350263.28949 117451424.98449     -5040.50849        49.000  
 16 04 02 12 51 31.6000000  0  2G09G29                                          
  23673341.45349 124404247.08649     -7488.71949        49.000  
  22350359.25849 117451929.30949     -5045.12149        49.000  
 16 04 02 12 51 31.7000000  0  2G09G29                                          
  23673484.00049 124404996.16049     -7493.66849        49.000  
  22350455.28949 117452433.95749     -5048.34849        49.000  
 16 04 02 12 51 31.8000000  0  2G09G29                                          
  23673626.62549 124405745.69949     -7498.33649        49.000  
  22350551.37549 117452938.89149     -5051.18849        49.000  
 16 04 02 12 51 31.9000000  0  2G09G29                                          
  23673769.36749 124406495.81649     -7503.92649        49.000  
  22350647.53149 117453444.21949     -5054.93449        49.000  
 16 04 02 12 51 32.0000000  0  2G09G29                                          
  23673912.21949 124407246.49249     -7509.78949        49.000  
  22350743.77349 117453949.93449     -5059.03149        49.000  
 16 04 02 12 51 32.1000000  0  2G09G29                                          
  23674055.17249 124407997.73449     -7515.50449        49.000  
  22350840.07849 117454456.03549     -5063.01649        49.000  
 16 04 02 12 51 32.2000000  0  2G09G29                                          
  23674198.21949 124408749.45349     -7520.10549        49.000  
  22350936.44549 117454962.44149     -5065.87149        49.000  
 16 04 02 12 51 32.3000000  0  2G09G29                                          
  23674341.35949 124409501.65249     -7524.80149        50.000  
  22351032.87549 117455469.15649     -5068.88349        49.000  
 16 04 02 12 51 32.4000000  0  2G09G29                                          
  23674484.60949 124410254.41449     -7530.39849        50.000  
  22351129.37549 117455976.25049     -5072.63749        49.000  
 16 04 02 12 51 32.5000000  0  2G09G29                                          
  23674627.96149 124411007.73049     -7536.24649        50.000  
  22351225.93849 117456483.71149     -5076.54349        49.000  
 16 04 02 12 51 32.6000000  0  2G09G29                                          
  23674771.41449 124411761.56649     -7541.46949        50.000  
  22351322.57849 117456991.52749     -5080.00849        49.000  
 16 04 02 12 51 32.7000000  0  2G09G29                                          
  23674914.98449 124412516.01649     -7547.49649        50.000  
  22351419.28949 117457499.77749     -5084.44149        49.000  
 16 04 02 12 51 32.8000000  0  2G09G29                                          
  23675058.64149 124413270.94149     -7552.43449        50.000  
  22351516.06249 117458008.33249     -5087.53549        49.000  
 16 04 02 12 51 32.9000000  0  2G09G29                                          
  23675202.40649 124414026.44149     -7557.87549        50.000  
  22351612.91449 117458517.28549     -5091.28549        49.000  
 16 04 02 12 51 33.0000000  0  2G09G29                                          
  23675346.27349 124414782.44549     -7562.92249        50.000  
  22351709.82049 117459026.55149     -5094.45749        49.000  
 16 04 02 12 51 33.1000000  0  2G09G29                                          
  23675490.23449 124415538.97749     -7568.25849        50.000  
  22351806.80549 117459536.18449     -5098.15649        49.000  
 16 04 02 12 51 33.2000000  0  2G09G29                                          
  23675634.30549 124416296.04349     -7573.56649        50.000  
  22351903.85249 117460046.16049     -5101.59049        49.000  
 16 04 02 12 51 33.3000000  0  2G09G29                                          
  23675778.47749 124417053.68849     -7579.50049        50.000  
  22352000.96949 117460556.53949     -5105.56249        49.000  
 16 04 02 12 51 33.4000000  0  2G09G29                                          
  23675922.75849 124417811.87949     -7584.77749        49.000  
  22352098.16449 117461067.29749     -5109.30149        49.000  
 16 04 02 12 51 33.5000000  0  2G09G29                                          
  23676067.13349 124418570.60249     -7590.41049        50.000  
  22352195.43049 117461578.40649     -5113.17649        49.000  
 16 04 02 12 51 33.6000000  0  2G09G29                                          
  23676211.62549 124419329.93449     -7596.11749        49.000  
  22352292.77349 117462089.94949     -5117.21949        49.000  
 16 04 02 12 51 33.7000000  0  2G09G29                                          
  23676356.21149 124420089.72349     -7601.12949        50.000  
  22352390.17249 117462601.76249     -5120.18449        49.000  
 16 04 02 12 51 33.8000000  0  2G09G29                                          
  23676500.89849 124420850.07849     -7606.22349        49.000  
  22352487.63349 117463113.97349     -5123.64849        49.000  
 16 04 02 12 51 33.9000000  0  2G09G29                                          
  23676645.68049 124421610.92649     -7611.63349        49.000  
  22352585.16449 117463626.50049     -5127.24249        49.000  
 16 04 02 12 51 34.0000000  0  2G09G29                                          
  23676790.57849 124422372.36349     -7617.37549        49.000  
  22352682.77349 117464139.43449     -5131.18449        49.000  
 16 04 02 12 51 34.1000000  0  2G09G29                                          
  23676935.57849 124423134.35949     -7623.00849        49.000  
  22352780.46149 117464652.76649     -5135.14549        49.000  
 16 04 02 12 51 34.2000000  0  2G09G29                                          
  23677080.67249 124423896.85549     -7627.88349        49.000  
  22352878.20349 117465166.39549     -5138.26249        49.000  
 16 04 02 12 51 34.3000000  0  2G09G29                                          
  23677225.86749 124424659.82849     -7632.72749        49.000  
  22352976.00049 117465680.34449     -5141.17649        49.000  
 16 04 02 12 51 34.4000000  0  2G09G29                                          
  23677371.16449 124425423.38349     -7638.38749        49.000  
  22353073.88349 117466194.69949     -5145.12149        49.000  
 16 04 02 12 51 34.5000000  0  2G09G29                                          
  23677516.57049 124426187.49649     -7644.03949        49.000  
  22353171.83649 117466709.43049     -5149.06649        49.000  
 16 04 02 12 51 34.6000000  0  2G09G29                                          
  23677662.06249 124426952.05949     -7648.46949        49.000  
  22353269.83649 117467224.43049     -5151.88749        49.000  
 16 04 02 12 51 34.7000000  0  2G09G29                                          
  23677807.66449 124427717.21949     -7654.56249        50.000  
  22353367.92249 117467739.85549     -5156.04349        49.000  
 16 04 02 12 51 34.8000000  0  2G09G29                                          
  23677953.37549 124428482.90249     -7659.72349        50.000  
  22353466.07049 117468255.62949     -5159.53549        49.000  
 16 04 02 12 51 34.9000000  0  2G09G29                                          
  23678099.18849 124429249.16049     -7665.50849        50.000  
  22353564.28949 117468771.78949     -5163.44549        49.000  
 16 04 02 12 51 35.0000000  0  2G09G29                                          
  23678245.10249 124430015.94149     -7670.70349        50.000  
  22353662.58649 117469288.30949     -5166.98849        49.000  
 16 04 02 12 51 35.1000000  0  2G09G29                                          
  23678391.11749 124430783.25849     -7676.27749        50.000  
  22353760.93849 117469805.18049     -5170.69549        49.000  
 16 04 02 12 51 35.2000000  0  2G09G29                                          
  23678537.25049 124431551.16449     -7682.22749        50.000  
  22353859.37549 117470322.46549     -5174.82049        49.000  
 16 04 02 12 51 35.3000000  0  2G09G29                                          
  23678683.47749 124432319.59449     -7687.40649        50.000  
  22353957.88349 117470840.10249     -5178.32049        49.000  
 16 04 02 12 51 35.4000000  0  2G09G29                                          
  23678829.81249 124433088.56249     -7692.76249        50.000  
  22354056.45349 117471358.09849     -5181.87149        49.000  
 16 04 02 12 51 35.5000000  0  2G09G29                                          
  23678976.24249 124433858.07049     -7697.94149        50.000  
  22354155.09449 117471876.45349     -5185.37549        49.000  
 16 04 02 12 51 35.6000000  0  2G09G29                                          
  23679122.76649 124434628.06649     -7702.80549        49.000  
  22354253.79749 117472395.12549     -5188.41449        49.000  
 16 04 02 12 51 35.7000000  0  2G09G29                                          
  23679269.39849 124435398.61749     -7708.53149        49.000  
  22354352.57049 117472914.18049     -5192.46149        49.000  
 16 04 02 12 51 35.8000000  0  2G09G29                                          
  23679416.14149 124436169.71949     -7713.91449        49.000  
  22354451.41449 117473433.60249     -5196.01649        49.000  
 16 04 02 12 51 35.9000000  0  2G09G29                                          
  23679562.97749 124436941.39149     -7719.78949        49.000  
  22354550.32849 117473953.41049     -5200.03149        49.000  
 16 04 02 12 51 36.0000000  0  2G09G29                                          
  23679709.93049 124437713.60249     -7725.17249        49.000  
  22354649.31249 117474473.59449     -5203.68449        49.000  
 16 04 02 12 51 36.1000000  0  2G09G29                                          
  23679856.96949 124438486.32449     -7730.21149        49.000  
  22354748.36749 117474994.11749     -5207.05549        49.000  
 16 04 02 12 51 36.2000000  0  2G09G29                                          
  23680004.10949 124439259.54349     -7735.01249        49.000  
  22354847.47749 117475514.93849     -5209.92249        49.000  
 16 04 02 12 51 36.3000000  0  2G09G29                                          
  23680151.35249 124440033.31649     -7740.60549        49.000  
  22354946.66449 117476036.14849     -5213.92249        49.000  
 16 04 02 12 51 36.4000000  0  2G09G29                                          
  23680298.68849 124440807.60949     -7745.94149        49.000  
  22355045.90649 117476557.71549     -5217.49249        49.000  
 16 04 02 12 51 36.5000000  0  2G09G29                                          
  23680446.14149 124441582.46149     -7751.55149        49.000  
  22355145.23449 117477079.64849     -5221.23849        49.000  
 16 04 02 12 51 36.6000000  0  2G09G29                                          
  23680593.69549 124442357.84849     -7756.72349        49.000  
  22355244.61749 117477601.95349     -5224.81249        49.000  
 16 04 02 12 51 36.7000000  0  2G09G29                                          
  23680741.33649 124443133.74649     -7762.06649        49.000  
  22355344.07049 117478124.57449     -5228.12949        49.000  
 16 04 02 12 51 36.8000000  0  2G09G29                                          
  23680889.08649 124443910.16049     -7766.92649        49.000  
  22355443.59449 117478647.54349     -5231.31649        49.000  
 16 04 02 12 51 36.9000000  0  2G09G29                                          
  23681036.93049 124444687.07449     -7772.27749        49.000  
  22355543.17249 117479170.84049     -5234.86349        49.000  
 16 04 02 12 51 37.0000000  0  2G09G29                                          
  23681184.89149 124445464.60549     -7778.16449        49.000  
  22355642.83649 117479694.58249     -5239.19149        49.000  
 16 04 02 12 51 37.1000000  0  2G09G29                                          
  23681332.93849 124446242.62149     -7782.99649        50.000  
  22355742.55549 117480218.62149     -5242.18449        49.000  
 16 04 02 12 51 37.2000000  0  2G09G29                                          
  23681481.09449 124447021.17649     -7788.55149        49.000  
  22355842.34449 117480743.01649     -5245.82449        49.000  
 16 04 02 12 51 37.3000000  0  2G09G29                                          
  23681629.35249 124447800.28949     -7794.10249        49.000  
  22355942.21149 117481267.80949     -5249.71549        49.000  
 16 04 02 12 51 37.4000000  0  2G09G29                                          
  23681777.71149 124448579.91849     -7799.30549        49.000  
  22356042.14149 117481792.94149     -5253.27049        49.000  
 16 04 02 12 51 37.5000000  0  2G09G29                                          
  23681926.18049 124449360.10249     -7804.75449        49.000  
  22356142.14149 117482318.44949     -5256.89849        49.000  
 16 04 02 12 51 37.6000000  0  2G09G29                                          
  23682074.74249 124450140.83249     -7810.14849        49.000  
  22356242.21149 117482844.32449     -5260.52349        49.000  
 16 04 02 12 51 37.7000000  0  2G09G29                                          
  23682223.42249 124450922.10549     -7815.68849        50.000  
  22356342.34449 117483370.55949     -5264.23849        49.000  
 16 04 02 12 51 37.8000000  0  2G09G29                                          
  23682372.18049 124451703.85549     -7820.56249        49.000  
  22356442.54749 117483897.10549     -5267.28549        49.000  
 16 04 02 12 51 37.9000000  0  2G09G29                                          
  23682521.05549 124452486.21949     -7826.70349        49.000  
  22356542.82849 117484424.09449     -5271.72349        49.000  
 16 04 02 12 51 38.0000000  0  2G09G29                                          
  23682670.03949 124453269.13749     -7832.17649        49.000  
  22356643.18049 117484951.44949     -5275.44549        49.000  
 16 04 02 12 51 38.1000000  0  2G09G29                                          
  23682819.12549 124454052.57849     -7837.37549        49.000  
  22356743.60249 117485479.15249     -5278.87549        49.000  
 16 04 02 12 51 38.2000000  0  2G09G29                                          
  23682968.31249 124454836.55549     -7842.72749        49.000  
  22356844.08649 117486007.22349     -5282.52049        49.000  
 16 04 02 12 51 38.3000000  0  2G09G29                                          
  23683117.60249 124455621.05149     -7847.79749        49.000  
  22356944.64149 117486535.62549     -5285.84849        49.000  
 16 04 02 12 51 38.4000000  0  2G09G29                                          
  23683266.98449 124456406.05149     -7853.11749        49.000  
  22357045.25049 117487064.36349     -5289.25049        49.000  
 16 04 02 12 51 38.5000000  0  2G09G29                                          
  23683416.46949 124457191.60549     -7858.07449        49.000  
  22357145.93849 117487593.47349     -5292.56649        49.000  
 16 04 02 12 51 38.6000000  0  2G09G29                                          
  23683566.04749 124457977.62549     -7863.35549        50.000  
  22357246.68049 117488122.88349     -5296.01649        49.000  
 16 04 02 12 51 38.7000000  0  2G09G29                                          
  23683715.74249 124458764.28149     -7869.46549        49.000  
  22357347.50849 117488652.74649     -5300.33249        49.000  
 16 04 02 12 51 38.8000000  0  2G09G29                                          
  23683865.53949 124459551.45349     -7874.75449        50.000  
  22357448.40649 117489182.95749     -5303.93449        49.000  
 16 04 02 12 51 38.9000000  0  2G09G29                                          
  23684015.43849 124460339.12549     -7879.75049        50.000  
  22357549.36749 117489713.48449     -5307.15649        49.000  
 16 04 02 12 51 39.0000000  0  2G09G29                                          
  23684165.44549 124461127.42249     -7886.04349        50.000  
  22357650.40649 117490244.46149     -5311.63749        49.000  
 16 04 02 12 51 39.1000000  0  2G09G29                                          
  23684315.54749 124461916.18849     -7890.50849        50.000  
  22357751.50849 117490775.72749     -5314.41049        49.000  
 16 04 02 12 51 39.2000000  0  2G09G29                                          
  23684465.75049 124462705.54749     -7896.54349        49.000  
  22357852.68049 117491307.41049     -5318.67649        49.000  
 16 04 02 12 51 39.3000000  0  2G09G29                                          
  23684616.05549 124463495.40649     -7901.53149        49.000  
  22357953.92249 117491839.42649     -5321.91449        49.000  
 16 04 02 12 51 39.4000000  0  2G09G29                                          
  23684766.46149 124464285.80149     -7906.87149        49.000  
  22358055.22749 117492371.80149     -5325.65249        49.000  
 16 04 02 12 51 39.5000000  0  2G09G29                                          
  23684916.96949 124465076.70349     -7911.83649        49.000  
  22358156.59449 117492904.50449     -5328.79349        49.000  
 16 04 02 12 51 39.6000000  0  2G09G29                                          
  23685067.57849 124465868.13349     -7917.27349        49.000  
  22358258.03149 117493437.55149     -5332.28949        49.000  
 16 04 02 12 51 39.7000000  0  2G09G29                                          
  23685218.28949 124466660.14149     -7922.98849        50.000  
  22358359.54749 117493971.01249     -5336.35549        49.000  
 16 04 02 12 51 39.8000000  0  2G09G29                                          
  23685369.09449 124467452.63349     -7927.93449        50.000  
  22358461.11749 117494504.75849     -5339.35949        49.000  
 16 04 02 12 51 39.9000000  0  2G09G29                                          
  23685520.01649 124468245.69949     -7933.73449        49.000  
  22358562.76649 117495038.93849     -5343.62149        49.000  
 16 04 02 12 51 40.0000000  0  2G09G29                                          
  23685671.03149 124469039.28149     -7938.79349        49.000  
  22358664.48449 117495573.43449     -5346.86749        49.000  
 16 04 02 12 51 40.1000000  0  2G09G29                                          
  23685822.14149 124469833.37149     -7943.87149        49.000  
  22358766.25849 117496108.27349     -5350.17249        49.000  
 16 04 02 12 51 40.2000000  0  2G09G29                                          
  23685973.36749 124470628.10249     -7950.07049        49.000  
  22358868.12549 117496643.56649     -5354.58649        49.000  
 16 04 02 12 51 40.3000000  0  2G09G29                                          
  23686124.68849 124471423.29349     -7954.87149        49.000  
  22358970.03949 117497179.15249     -5357.80549        49.000  
 16 04 02 12 51 40.4000000  0  2G09G29                                          
  23686276.10249 124472218.98849     -7959.71149        49.000  
  22359072.02349 117497715.06649     -5360.85249        49.000  
 16 04 02 12 51 40.5000000  0  2G09G29                                          
  23686427.61749 124473015.21149     -7964.99649        49.000  
  22359174.07049 117498251.32449     -5364.19549        49.000  
 16 04 02 12 51 40.6000000  0  2G09G29                                          
  23686579.24249 124473812.02049     -7971.04749        49.000  
  22359276.19549 117498788.00049     -5368.59849        49.000  
 16 04 02 12 51 40.7000000  0  2G09G29                                          
  23686730.97749 124474609.37949     -7976.72349        49.000  
  22359378.39149 117499325.05549     -5372.59049        49.000  
 16 04 02 12 51 40.8000000  0  2G09G29                                          
  23686882.82849 124475407.32449     -7982.53549        50.000  
  22359480.66449 117499862.51249     -5376.55549        49.000  
 16 04 02 12 51 40.9000000  0  2G09G29                                          
  23687034.77349 124476205.82449     -7988.12149        50.000  
  22359583.01649 117500400.34449     -5380.35549        49.000  
 16 04 02 12 51 41.0000000  0  2G09G29                                          
  23687186.82049 124477004.80549     -7992.64849        49.000  
  22359685.42249 117500938.48849     -5383.17249        49.000  
 16 04 02 12 51 41.1000000  0  2G09G29                                          
  23687338.95349 124477804.26249     -7997.37949        49.000  
  22359787.88349 117501476.92649     -5386.08249        49.000  
 16 04 02 12 51 41.2000000  0  2G09G29                                          
  23687491.18849 124478604.25049     -8002.56649        49.000  
  22359890.41449 117502015.72749     -5389.57049        49.000  
 16 04 02 12 51 41.3000000  0  2G09G29                                          
  23687643.51649 124479404.74249     -8007.80549        49.000  
  22359993.00849 117502554.85249     -5392.93449        49.000  
 16 04 02 12 51 41.4000000  0  2G09G29                                          
  23687795.95349 124480205.79349     -8013.38749        50.000  
  22360095.67249 117503094.36349     -5396.89549        49.000  
 16 04 02 12 51 41.5000000  0  2G09G29                                          
  23687948.48449 124481007.36349     -8018.94149        49.000  
  22360198.40649 117503634.22349     -5400.60249        49.000  
 16 04 02 12 51 41.6000000  0  2G09G29                                          
  23688101.13349 124481809.52049     -8024.78149        49.000  
  22360301.21949 117504174.48049     -5404.54749        49.000  
 16 04 02 12 51 41.7000000  0  2G09G29                                          
  23688253.89149 124482612.21549     -8029.55549        49.000  
  22360404.09449 117504715.10949     -5407.83649        49.000  
 16 04 02 12 51 41.8000000  0  2G09G29                                          
  23688406.71149 124483415.32049     -8034.06649        49.000  
  22360507.01649 117505255.97749     -5410.50849        49.000  
 16 04 02 12 51 41.9000000  0  2G09G29                                          
  23688559.65649 124484219.03949     -8040.16049        49.000  
  22360610.02349 117505797.27349     -5414.75449        49.000  
 16 04 02 12 51 42.0000000  0  2G09G29                                          
  23688712.70349 124485023.29749     -8045.35549        49.000  
  22360713.10249 117506338.93449     -5418.30949        49.000  
 16 04 02 12 51 42.1000000  0  2G09G29                                          
  23688865.83649 124485828.02049     -8050.07849        49.000  
  22360816.22749 117506880.89149     -5421.30549        49.000  
 16 04 02 12 51 42.2000000  0  2G09G29                                          
  23689019.07849 124486633.29749     -8055.77749        49.000  
  22360919.43049 117507423.21949     -5425.06249        49.000  
 16 04 02 12 51 42.3000000  0  2G09G29                                          
  23689172.43049 124487439.15649     -8061.55149        49.000  
  22361022.71149 117507965.95749     -5429.18449        49.000  
 16 04 02 12 51 42.4000000  0  2G09G29                                          
  23689325.88349 124488245.59049     -8067.55149        49.000  
  22361126.06249 117508509.09849     -5433.42249        49.000  
 16 04 02 12 51 42.5000000  0  2G09G29                                          
  23689479.43849 124489052.50849     -8072.08649        49.000  
  22361229.47749 117509052.53549     -5436.22349        49.000  
 16 04 02 12 51 42.6000000  0  2G09G29                                          
  23689633.08649 124489859.91849     -8077.28549        49.000  
  22361332.95349 117509596.29749     -5439.53949        49.000  
 16 04 02 12 51 42.7000000  0  2G09G29                                          
  23689786.84449 124490667.93849     -8082.97349        49.000  
  22361436.50849 117510140.50449     -5443.68449        49.000  
 16 04 02 12 51 42.8000000  0  2G09G29                                          
  23689940.68849 124491476.42249     -8087.87949        49.000  
  22361540.11749 117510684.98449     -5446.73849        49.000  
 16 04 02 12 51 42.9000000  0  2G09G29                                          
  23690094.64849 124492285.48049     -8093.38749        50.000  
  22361643.81249 117511229.87949     -5450.62949        49.000  
 16 04 02 12 51 43.0000000  0  2G09G29                                          
  23690248.70349 124493095.02749     -8098.26649        50.000  
  22361747.55549 117511775.06649     -5453.75449        49.000  
 16 04 02 12 51 43.1000000  0  2G09G29                                          
  23690402.84449 124493905.06649     -8103.26249        50.000  
  22361851.36749 117512320.58249     -5456.82849        49.000  
 16 04 02 12 51 43.2000000  0  2G09G29                                          
  23690557.10249 124494715.68849     -8109.13349        49.000  
  22361955.25049 117512866.48849     -5460.87549        49.000  
 16 04 02 12 51 43.3000000  0  2G09G29                                          
  23690711.45349 124495526.84049     -8114.44149        49.000  
  22362059.20349 117513412.78149     -5464.77749        49.000  
 16 04 02 12 51 43.4000000  0  2G09G29                                          
  23690865.90649 124496338.49649     -8119.54749        49.000  
  22362163.21949 117513959.37549     -5467.77349        49.000  
 16 04 02 12 51 43.5000000  0  2G09G29                                          
  23691020.46949 124497150.71149     -8125.07049        49.000  
  22362267.31249 117514506.36749     -5471.75449        49.000  
 16 04 02 12 51 43.6000000  0  2G09G29                                          
  23691175.13349 124497963.44949     -8130.37149        49.000  
  22362371.46149 117515053.70349     -5475.17649        49.000  
 16 04 02 12 51 43.7000000  0  2G09G29                                          
  23691329.89149 124498776.69949     -8135.59449        49.000  
  22362475.68849 117515601.38749     -5478.70749        49.000  
 16 04 02 12 51 43.8000000  0  2G09G29                                          
  23691484.75049 124499590.52049     -8140.96149        49.000  
  22362579.97749 117516149.44549     -5482.34049        49.000  
 16 04 02 12 51 43.9000000  0  2G09G29                                          
  23691639.71949 124500404.86749     -8146.44149        49.000  
  22362684.33649 117516697.85949     -5486.12149        49.000  
 16 04 02 12 51 44.0000000  0  2G09G29                                          
  23691794.78149 124501219.74249     -8151.73449        50.000  
  22362788.76649 117517246.64149     -5489.63349        49.000  
 16 04 02 12 51 44.1000000  0  2G09G29                                          
  23691949.94549 124502035.10249     -8156.29349        50.000  
  22362893.25049 117517795.71549     -5492.47349        49.000  
 16 04 02 12 51 44.2000000  0  2G09G29                                          
  23692105.20349 124502850.99249     -8161.87949        50.000  
  22362997.80549 117518345.16049     -5496.17649        49.000  
 16 04 02 12 51 44.3000000  0  2G09G29                                          
  23692260.57849 124503667.49249     -8168.10949        50.000  
  22363102.44549 117518895.02049     -5500.62149        49.000  
 16 04 02 12 51 44.4000000  0  2G09G29                                          
  23692416.04749 124504484.48049     -8172.91849        50.000  
  22363207.14149 117519445.21149     -5503.79749        49.000  
 16 04 02 12 51 44.5000000  0  2G09G29                                          
  23692571.61749 124505302.02749     -8178.37549        50.000  
  22363311.90649 117519995.77749     -5507.52049        49.000  
 16 04 02 12 51 44.6000000  0  2G09G29                                          
  23692727.28949 124506120.05549     -8183.25849        50.000  
  22363416.74249 117520546.65249     -5510.63749        49.000  
 16 04 02 12 51 44.7000000  0  2G09G29                                          
  23692883.07049 124506938.69549     -8189.30549        50.000  
  22363521.64849 117521097.95349     -5514.76249        49.000  
 16 04 02 12 51 44.8000000  0  2G09G29                                          
  23693038.95349 124507757.85249     -8194.70349        50.000  
  22363626.62549 117521649.61349     -5518.61349        49.000  
 16 04 02 12 51 44.9000000  0  2G09G29                                          
  23693194.93049 124508577.53949     -8199.83249        50.000  
  22363731.67249 117522201.61749     -5521.85549        49.000  
 16 04 02 12 51 45.0000000  0  2G09G29                                          
  23693351.01649 124509397.76249     -8205.21149        50.000  
  22363836.78149 117522753.98449     -5525.40649        49.000  
 16 04 02 12 51 45.1000000  0  2G09G29                                          
  23693507.20349 124510218.54749     -8210.72349        50.000  
  22363941.96949 117523306.73449     -5529.24649        49.000  
 16 04 02 12 51 45.2000000  0  2G09G29                                          
  23693663.48449 124511039.81649     -8215.53149        49.000  
  22364047.21149 117523859.80549     -5532.40649        49.000  
 16 04 02 12 51 45.3000000  0  2G09G29                                          
  23693819.87549 124511861.61749     -8220.83649        49.000  
  22364152.52349 117524413.23049     -5535.95749        49.000  
 16 04 02 12 51 45.4000000  0  2G09G29                                          
  23693976.35949 124512683.97749     -8226.45749        49.000  
  22364257.91449 117524967.02749     -5539.75049        49.000  
 16 04 02 12 51 45.5000000  0  2G09G29                                          
  23694132.96149 124513506.90249     -8232.30549        49.000  
  22364363.36749 117525521.20749     -5543.74249        49.000  
 16 04 02 12 51 45.6000000  0  2G09G29                                          
  23694289.65649 124514330.33249     -8237.32049        49.000  
  22364468.89149 117526075.74249     -5547.20349        49.000  
 16 04 02 12 51 45.7000000  0  2G09G29                                          
  23694446.45349 124515154.30949     -8242.91049        49.000  
  22364574.48449 117526630.64149     -5550.95349        49.000  
 16 04 02 12 51 45.8000000  0  2G09G29                                          
  23694603.36749 124515978.90249     -8248.97349        49.000  
  22364680.17249 117527185.98449     -5555.39149        49.000  
 16 04 02 12 51 45.9000000  0  2G09G29                                          
  23694760.37549 124516803.98049     -8253.94149        49.000  
  22364785.90649 117527741.62149     -5558.39149        49.000  
 16 04 02 12 51 46.0000000  0  2G09G29                                          
  23694917.48449 124517629.59449     -8258.94949        50.000  
  22364891.70349 117528297.63349     -5561.80949        49.000  
 16 04 02 12 51 46.1000000  0  2G09G29                                          
  23695074.68849 124518455.71949     -8264.07849        49.000  
  22364997.57049 117528853.97349     -5565.15649        49.000  
 16 04 02 12 51 46.2000000  0  2G09G29                                          
  23695231.99249 124519282.34449     -8269.28549        50.000  
  22365103.50049 117529410.64849     -5568.57449        49.000  
 16 04 02 12 51 46.3000000  0  2G09G29                                          
  23695389.39849 124520109.52749     -8274.44149        49.000  
  22365209.50049 117529967.69949     -5572.09049        49.000  
 16 04 02 12 51 46.4000000  0  2G09G29                                          
  23695546.90649 124520937.22349     -8279.98049        49.000  
  22365315.57049 117530525.09449     -5575.89849        49.000  
 16 04 02 12 51 46.5000000  0  2G09G29                                          
  23695704.50849 124521765.46949     -8285.54749        50.000  
  22365421.71149 117531082.85949     -5579.63349        49.000  
 16 04 02 12 51 46.6000000  0  2G09G29                                          
  23695862.22749 124522594.28549     -8291.04749        49.000  
  22365527.92249 117531641.01249     -5583.30949        49.000  
 16 04 02 12 51 46.7000000  0  2G09G29                                          
  23696020.05549 124523423.64549     -8296.44149        49.000  
  22365634.21149 117532199.54749     -5587.14849        49.000  
 16 04 02 12 51 46.8000000  0  2G09G29                                          
  23696177.96949 124524253.50049     -8301.60549        49.000  
  22365740.55549 117532758.39549     -5590.49249        49.000  
 16 04 02 12 51 46.9000000  0  2G09G29                                          
  23696335.99249 124525083.91849     -8306.94149        49.000  
  22365846.97749 117533317.63349     -5594.00849        49.000  
 16 04 02 12 51 47.0000000  0  2G09G29                                          
  23696494.10949 124525914.81649     -8312.00049        50.000  
  22365953.45349 117533877.17249     -5597.30949        49.000  
 16 04 02 12 51 47.1000000  0  2G09G29                                          
  23696652.32049 124526746.20349     -8316.69949        50.000  
  22366059.99249 117534437.03149     -5600.35249        49.000  
 16 04 02 12 51 47.2000000  0  2G09G29                                          
  23696810.62549 124527578.12949     -8322.35949        50.000  
  22366166.59449 117534997.26249     -5604.14149        49.000  
 16 04 02 12 51 47.3000000  0  2G09G29                                          
  23696969.06249 124528410.71949     -8328.64849        50.000  
  22366273.29749 117535557.96149     -5608.76649        49.000  
 16 04 02 12 51 47.4000000  0  2G09G29                                          
  23697127.58649 124529243.77749     -8333.91849        50.000  
  22366380.04749 117536118.96949     -5612.18849        49.000  
 16 04 02 12 51 47.5000000  0  2G09G29                                          
  23697286.21949 124530077.41449     -8339.19149        50.000  
  22366486.88349 117536680.37549     -5615.83249        49.000  
 16 04 02 12 51 47.6000000  0  2G09G29                                          
  23697444.94549 124530911.52049     -8344.15649        50.000  
  22366593.77349 117537242.07449     -5618.84449        49.000  
 16 04 02 12 51 47.7000000  0  2G09G29                                          
  23697603.78949 124531746.22749     -8349.85249        50.000  
  22366700.74249 117537804.20749     -5623.02749        49.000  
 16 04 02 12 51 47.8000000  0  2G09G29                                          
  23697762.72749 124532581.42649     -8354.85549        50.000  
  22366807.77349 117538366.65649     -5626.23849        49.000  
 16 04 02 12 51 47.9000000  0  2G09G29                                          
  23697921.75049 124533417.09849     -8359.62149        50.000  
  22366914.85949 117538929.39849     -5629.21149        49.000  
 16 04 02 12 51 48.0000000  0  2G09G29                                          
  23698080.88349 124534253.34449     -8365.34449        50.000  
  22367022.02349 117539492.54749     -5633.25849        49.000  
 16 04 02 12 51 48.1000000  0  2G09G29                                          
  23698240.10249 124535090.05149     -8369.93049        50.000  
  22367129.24249 117540055.97349     -5635.99249        49.000  
 16 04 02 12 51 48.2000000  0  2G09G29                                          
  23698399.42249 124535927.31649     -8375.62549        50.000  
  22367236.53149 117540619.78949     -5639.98849        49.000  
 16 04 02 12 51 48.3000000  0  2G09G29                                          
  23698558.85249 124536765.12949     -8381.02049        50.000  
  22367343.89149 117541183.97749     -5643.70349        49.000  
 16 04 02 12 51 48.4000000  0  2G09G29                                          
  23698718.38349 124537603.44549     -8386.09049        50.000  
  22367451.32049 117541748.49649     -5647.03949        50.000  
 16 04 02 12 51 48.5000000  0  2G09G29                                          
  23698878.00849 124538442.27349     -8391.32049        50.000  
  22367558.80549 117542313.34049     -5650.28549        49.000  
 16 04 02 12 51 48.6000000  0  2G09G29                                          
  23699037.74249 124539281.67649     -8396.96949        50.000  
  22367666.36749 117542878.59849     -5654.41849        49.000  
 16 04 02 12 51 48.7000000  0  2G09G29                                          
  23699197.58649 124540121.65649     -8402.70749        50.000  
  22367774.00849 117543444.25849     -5658.44149        49.000  
 16 04 02 12 51 48.8000000  0  2G09G29                                          
  23699357.52349 124540962.13349     -8407.70349        50.000  
  22367881.71949 117544010.23049     -5661.48849        49.000  
 16 04 02 12 51 48.9000000  0  2G09G29                                          
  23699517.56249 124541803.12949     -8412.69949        50.000  
  22367989.48449 117544576.55949     -5664.94949        49.000  
 16 04 02 12 51 49.0000000  0  2G09G29                                          
  23699677.71149 124542644.70349     -8418.54749        50.000  
  22368097.32849 117545143.28949     -5669.14849        49.000  
 16 04 02 12 51 49.1000000  0  2G09G29                                          
  23699837.95349 124543486.77349     -8423.72749        50.000  
  22368205.23449 117545710.32449     -5672.41449        49.000  
 16 04 02 12 51 49.2000000  0  2G09G29                                          
  23699998.29749 124544329.39149     -8429.06649        50.000  
  22368313.21149 117546277.75449     -5676.05949        49.000  
 16 04 02 12 51 49.3000000  0  2G09G29                                          
  23700158.74249 124545172.53549     -8434.29349        50.000  
  22368421.25849 117546845.52349     -5679.53549        49.000  
 16 04 02 12 51 49.4000000  0  2G09G29                                          
  23700319.28149 124546016.17649     -8439.35249        50.000  
  22368529.35949 117547413.62149     -5682.72749        49.000  
 16 04 02 12 51 49.5000000  0  2G09G29                                          
  23700479.92249 124546860.35249     -8444.53949        50.000  
  22368637.53949 117547982.08249     -5686.27049        49.000  
 16 04 02 12 51 49.6000000  0  2G09G29                                          
  23700640.66449 124547705.03549     -8449.91449        50.000  
  22368745.77349 117548550.85949     -5689.68449        49.000  
 16 04 02 12 51 49.7000000  0  2G09G29                                          
  23700801.51649 124548550.29749     -8455.57049        50.000  
  22368854.08649 117549120.05549     -5693.76249        49.000  
 16 04 02 12 51 49.8000000  0  2G09G29                                          
  23700962.46949 124549396.11349     -8461.12949        50.000  
  22368962.46949 117549689.62149     -5697.44949        49.000  
 16 04 02 12 51 49.9000000  0  2G09G29                                          
  23701123.52349 124550242.46149     -8466.62149        50.000  
  22369070.93049 117550259.56649     -5701.40249        49.000  
 16 04 02 12 51 50.0000000  0  2G09G29                                          
  23701284.68849 124551089.38749     -8472.35549        50.000  
  22369179.46149 117550829.89549     -5705.25449        49.000  
 16 04 02 12 51 50.1000000  0  2G09G29                                          
  23701445.94549 124551936.79349     -8477.02749        50.000  
  22369288.04749 117551400.53549     -5708.26249        49.000  
 16 04 02 12 51 50.2000000  0  2G09G29                                          
  23701607.29749 124552784.72749     -8482.09849        50.000  
  22369396.70349 117551971.52749     -5711.66449        49.000  
 16 04 02 12 51 50.3000000  0  2G09G29                                          
  23701768.75049 124553633.17649     -8487.15249        50.000  
  22369505.42249 117552542.85549     -5714.92649        49.000  
 16 04 02 12 51 50.4000000  0  2G09G29                                          
  23701930.30549 124554482.13749     -8492.64849        49.000  
  22369614.21149 117553114.53149     -5718.62149        49.000  
 16 04 02 12 51 50.5000000  0  2G09G29                                          
  23702091.96149 124555331.65649     -8498.18049        49.000  
  22369723.06249 117553686.59049     -5722.34449        49.000  
 16 04 02 12 51 50.6000000  0  2G09G29                                          
  23702253.71949 124556181.69549     -8503.34049        50.000  
  22369831.99249 117554258.99249     -5725.86349        49.000  
 16 04 02 12 51 50.7000000  0  2G09G29                                          
  23702415.57849 124557032.27749     -8508.71549        50.000  
  22369940.98449 117554831.76649     -5729.54749        49.000  
 16 04 02 12 51 50.8000000  0  2G09G29                                          
  23702577.53949 124557883.38349     -8513.82449        49.000  
  22370050.04749 117555404.88349     -5732.90249        49.000  
 16 04 02 12 51 50.9000000  0  2G09G29                                          
  23702739.59449 124558734.97749     -8518.87549        49.000  
  22370159.16449 117555978.32449     -5736.27349        49.000  
 16 04 02 12 51 51.0000000  0  2G09G29                                          
  23702901.75849 124559587.12549     -8524.33649        49.000  
  22370268.35949 117556552.12949     -5739.84849        49.000  
 16 04 02 12 51 51.1000000  0  2G09G29                                          
  23703064.02349 124560439.84049     -8530.08649        49.000  
  22370377.62549 117557126.34449     -5743.87549        49.000  
 16 04 02 12 51 51.2000000  0  2G09G29                                          
  23703226.39849 124561293.10249     -8535.71549        49.000  
  22370486.96949 117557700.91849     -5747.80149        49.000  
 16 04 02 12 51 51.3000000  0  2G09G29                                          
  23703388.86749 124562146.87949     -8540.58649        49.000  
  22370596.36749 117558275.84049     -5750.96549        49.000  
 16 04 02 12 51 51.4000000  0  2G09G29                                          
  23703551.43049 124563001.15249     -8545.54349        50.000  
  22370705.83649 117558851.07849     -5754.15249        49.000  
 16 04 02 12 51 51.5000000  0  2G09G29                                          
  23703714.09449 124563855.95749     -8550.99649        50.000  
  22370815.36749 117559426.68449     -5757.80549        49.000  
 16 04 02 12 51 51.6000000  0  2G09G29                                          
  23703876.87549 124564711.35549     -8557.01649        49.000  
  22370924.98449 117560002.70749     -5762.04349        49.000  
 16 04 02 12 51 51.7000000  0  2G09G29                                          
  23704039.75849 124565567.29349     -8562.56649        49.000  
  22371034.66449 117560579.08249     -5765.82049        49.000  
 16 04 02 12 51 51.8000000  0  2G09G29                                          
  23704202.75049 124566423.84049     -8568.31649        49.000  
  22371144.43049 117561155.91049     -5770.12149        49.000  
 16 04 02 12 51 51.9000000  0  2G09G29                                          
  23704365.83649 124567280.84449     -8573.06249        49.000  
  22371254.25049 117561733.00449     -5772.84849        49.000  
 16 04 02 12 51 52.0000000  0  2G09G29                                          
  23704529.02349 124568138.40249     -8578.51649        49.000  
  22371364.14149 117562310.49249     -5776.64549        49.000  
 16 04 02 12 51 52.1000000  0  2G09G29                                          
  23704692.32849 124568996.54749     -8584.36749        49.000  
  22371474.11749 117562888.39549     -5780.82849        49.000  
 16 04 02 12 51 52.2000000  0  2G09G29                                          
  23704855.70349 124569855.11349     -8588.18049        49.000  
  22371584.13349 117563466.53549     -5782.96549        49.000  
 16 04 02 12 51 52.3000000  0  2G09G29                                          
  23705019.18049 124570714.18849     -8593.48049        49.000  
  22371694.21149 117564045.01249     -5786.37949        49.000  
 16 04 02 12 51 52.4000000  0  2G09G29                                          
  23705182.76649 124571573.82849     -8599.24249        49.000  
  22371804.36749 117564623.87549     -5790.48049        49.000  
 16 04 02 12 51 52.5000000  0  2G09G29                                          
  23705346.44549 124572433.98049     -8604.55149        49.000  
  22371914.58649 117565203.08649     -5793.94149        49.000  
 16 04 02 12 51 52.6000000  0  2G09G29                                          
  23705510.23449 124573294.69949     -8610.21149        49.000  
  22372024.88349 117565782.68449     -5797.88349        49.000  
 16 04 02 12 51 52.7000000  0  2G09G29                                          
  23705674.12549 124574155.95349     -8615.49649        49.000  
  22372135.24249 117566362.64549     -5801.46949        49.000  
 16 04 02 12 51 52.8000000  0  2G09G29                                          
  23705838.13349 124575017.80949     -8621.66449        49.000  
  22372245.68849 117566943.03949     -5805.95349        49.000  
 16 04 02 12 51 52.9000000  0  2G09G29                                          
  23706002.22749 124575880.12949     -8626.12549        50.000  
  22372356.18849 117567523.71549     -5808.54749        49.000  
 16 04 02 12 51 53.0000000  0  2G09G29                                          
  23706166.42249 124576742.98849     -8631.55149        49.000  
  22372466.75849 117568104.75849     -5812.32049        49.000  
 16 04 02 12 51 53.1000000  0  2G09G29                                          
  23706330.71149 124577606.32849     -8636.16049        49.000  
  22372577.38349 117568686.11749     -5815.20749        49.000  
 16 04 02 12 51 53.2000000  0  2G09G29                                          
  23706495.11749 124578470.28949     -8642.57449        49.000  
  22372688.09449 117569267.91049     -5819.77049        49.000  
 16 04 02 12 51 53.3000000  0  2G09G29                                          
  23706659.60949 124579334.72749     -8647.31249        50.000  
  22372798.86749 117569850.01649     -5822.87949        49.000  
 16 04 02 12 51 53.4000000  0  2G09G29                                          
  23706824.21149 124580199.72349     -8652.68449        50.000  
  22372909.71149 117570432.50449     -5826.58249        49.000  
 16 04 02 12 51 53.5000000  0  2G09G29                                          
  23706988.91449 124581065.20349     -8657.94549        50.000  
  22373020.61749 117571015.29749     -5829.88349        49.000  
 16 04 02 12 51 53.6000000  0  2G09G29                                          
  23707153.71949 124581931.27749     -8663.61349        50.000  
  22373131.59449 117571598.51649     -5833.90249        49.000  
 16 04 02 12 51 53.7000000  0  2G09G29                                          
  23707318.62549 124582797.85949     -8668.77349        50.000  
  22373242.64149 117572182.06649     -5837.47749        49.000  
 16 04 02 12 51 53.8000000  0  2G09G29                                          
  23707483.62549 124583664.91849     -8673.39849        49.000  
  22373353.75049 117572765.92649     -5840.29749        49.000  
 16 04 02 12 51 53.9000000  0  2G09G29                                          
  23707648.73449 124584532.57049     -8679.53149        49.000  
  22373464.93049 117573350.19949     -5844.71949        49.000  
 16 04 02 12 51 54.0000000  0  2G09G29                                          
  23707813.94549 124585400.79749     -8684.98849        49.000  
  22373576.18849 117573934.85949     -5848.32049        49.000  
 16 04 02 12 51 54.1000000  0  2G09G29                                          
  23707979.25049 124586269.44549     -8689.53949        50.000  
  22373687.50049 117574519.79749     -5851.27049        49.000  
 16 04 02 12 51 54.2000000  0  2G09G29                                          
  23708144.65649 124587138.68049     -8695.25049        49.000  
  22373798.88349 117575105.13349     -5855.15249        49.000  
 16 04 02 12 51 54.3000000  0  2G09G29                                          
  23708310.17249 124588008.46949     -8700.93849        49.000  
  22373910.34449 117575690.84449     -5859.00849        49.000  
 16 04 02 12 51 54.4000000  0  2G09G29                                          
  23708475.79749 124588878.81249     -8706.45349        49.000  
  22374021.87549 117576276.94549     -5862.90249        49.000  
 16 04 02 12 51 54.5000000  0  2G09G29                                          
  23708641.50049 124589749.61749     -8710.81249        49.000  
  22374133.45349 117576863.33249     -5865.60949        49.000  
 16 04 02 12 51 54.6000000  0  2G09G29                                          
  23708807.30549 124590620.91449     -8716.05549        49.000  
  22374245.10249 117577450.03149     -5868.84449        49.000  
 16 04 02 12 51 54.7000000  0  2G09G29                                          
  23708973.21149 124591492.77049     -8721.48049        49.000  
  22374356.82049 117578037.12549     -5872.64149        49.000  
 16 04 02 12 51 54.8000000  0  2G09G29                                          
  23709139.22749 124592365.16449     -8726.80149        49.000  
  22374468.60949 117578624.57849     -5876.28949        49.000  
 16 04 02 12 51 54.9000000  0  2G09G29                                          
  23709305.32849 124593238.04749     -8731.57449        49.000  
  22374580.45349 117579212.34049     -5879.30949        49.000  
 16 04 02 12 51 55.0000000  0  2G09G29                                          
  23709471.54749 124594111.52049     -8737.77349        49.000  
  22374692.39149 117579800.53149     -5883.82449        49.000  
 16 04 02 12 51 55.1000000  0  2G09G29                                          
  23709637.85949 124594985.52049     -8743.07049        50.000  
  22374804.38349 117580389.06649     -5887.19149        49.000  
 16 04 02 12 51 55.2000000  0  2G09G29                                          
  23709804.27349 124595860.02749     -8748.03149        50.000  
  22374916.44549 117580977.93449     -5890.40249        49.000  
 16 04 02 12 51 55.3000000  0  2G09G29                                          
  23709970.79749 124596735.10249     -8753.58649        50.000  
  22375028.57849 117581567.20749     -5894.42249        49.000  
 16 04 02 12 51 55.4000000  0  2G09G29                                          
  23710137.41449 124597610.69549     -8759.00049        50.000  
  22375140.78149 117582156.82049     -5898.07849        49.000  
 16 04 02 12 51 55.5000000  0  2G09G29                                          
  23710304.14149 124598486.81249     -8764.01649        50.000  
  22375253.04749 117582746.77749     -5901.33249        49.000  
 16 04 02 12 51 55.6000000  0  2G09G29                                          
  23710470.95349 124599363.41849     -8768.98049        50.000  
  22375365.36749 117583337.05149     -5904.55549        49.000  
 16 04 02 12 51 55.7000000  0  2G09G29                                          
  23710637.87549 124600240.59449     -8774.68049        50.000  
  22375477.77349 117583927.73049     -5908.53549        49.000  
 16 04 02 12 51 55.8000000  0  2G09G29                                          
  23710804.89849 124601118.32849     -8780.11749        50.000  
  22375590.24249 117584518.78949     -5912.29749        49.000  
 16 04 02 12 51 55.9000000  0  2G09G29                                          
  23710972.02349 124601996.56249     -8785.46949        50.000  
  22375702.78149 117585110.17249     -5915.87949        50.000  
 16 04 02 12 51 56.0000000  0  2G09G29                                          
  23711139.25049 124602875.32849     -8790.75049        50.000  
  22375815.38349 117585701.92649     -5919.51249        50.000  
 16 04 02 12 51 56.1000000  0  2G09G29                                          
  23711306.57049 124603754.60949     -8795.60949        50.000  
  22375928.05549 117586294.00449     -5922.53549        49.000  
 16 04 02 12 51 56.2000000  0  2G09G29                                          
  23711474.00049 124604634.46949     -8801.61749        50.000  
  22376040.80549 117586886.49249     -5926.70749        49.000  
 16 04 02 12 51 56.3000000  0  2G09G29                                          
  23711641.53949 124605514.87949     -8807.17249        50.000  
  22376153.62549 117587479.36749     -5930.64149        49.000  
 16 04 02 12 51 56.4000000  0  2G09G29                                          
  23711809.17249 124606395.81649     -8812.15249        50.000  
  22376266.50849 117588072.58249     -5933.89549        49.000  
 16 04 02 12 51 56.5000000  0  2G09G29                                          
  23711976.90649 124607277.25849     -8817.57449        50.000  
  22376379.46149 117588666.13749     -5937.45749        49.000  
 16 04 02 12 51 56.6000000  0  2G09G29                                          
  23712144.74249 124608159.23049     -8822.50449        50.000  
  22376492.47749 117589260.05549     -5940.87149        49.000  
 16 04 02 12 51 56.7000000  0  2G09G29                                          
  23712312.66449 124609041.67249     -8827.21149        50.000  
  22376605.55549 117589854.26249     -5943.75449        49.000  
 16 04 02 12 51 56.8000000  0  2G09G29                                          
  23712480.68849 124609924.65249     -8832.53549        50.000  
  22376718.69549 117590448.82849     -5947.29749        49.000  
 16 04 02 12 51 56.9000000  0  2G09G29                                          
  23712648.81249 124610808.17249     -8838.44149        50.000  
  22376831.91449 117591043.78149     -5951.54749        49.000  
 16 04 02 12 51 57.0000000  0  2G09G29                                          
  23712817.04749 124611692.27049     -8843.92649        50.000  
  22376945.20349 117591639.11749     -5955.25849        49.000  
 16 04 02 12 51 57.1000000  0  2G09G29                                          
  23712985.38349 124612576.87549     -8849.03949        50.000  
  22377058.55549 117592234.78549     -5958.65249        49.000  
 16 04 02 12 51 57.2000000  0  2G09G29                                          
  23713153.82049 124613462.00449     -8853.95349        50.000  
  22377171.97749 117592830.82049     -5961.91849        49.000  
 16 04 02 12 51 57.3000000  0  2G09G29                                          
  23713322.35949 124614347.68049     -8859.86749        50.000  
  22377285.46949 117593427.21949     -5965.98049        49.000  
 16 04 02 12 51 57.4000000  0  2G09G29                                          
  23713491.00049 124615233.88749     -8864.98449        49.000  
  22377399.03149 117594023.98449     -5969.37549        49.000  
 16 04 02 12 51 57.5000000  0  2G09G29                                          
  23713659.73449 124616120.60949     -8870.34849        49.000  
  22377512.65649 117594621.08249     -5972.96949        49.000  
 16 04 02 12 51 57.6000000  0  2G09G29                                          
  23713828.58649 124617007.93049     -8876.08649        49.000  
  22377626.35949 117595218.61349     -5977.11349        49.000  
 16 04 02 12 51 57.7000000  0  2G09G29                                          
  23713997.53149 124617895.73449     -8881.05149        49.000  
  22377740.12549 117595816.44949     -5980.30949        49.000  
 16 04 02 12 51 57.8000000  0  2G09G29                                          
  23714166.58649 124618784.12149     -8886.68449        49.000  
  22377853.96949 117596414.69549     -5984.03949        49.000  
 16 04 02 12 51 57.9000000  0  2G09G29                                          
  23714335.72749 124619672.95749     -8891.35249        49.000  
  22377967.86749 117597013.22749     -5987.24649        49.000  
 16 04 02 12 51 58.0000000  0  2G09G29                                          
  23714504.96949 124620562.34449     -8896.51649        50.000  
  22378081.83649 117597612.13349     -5990.69949        49.000  
 16 04 02 12 51 58.1000000  0  2G09G29                                          
  23714674.31249 124621452.25849     -8901.96149        49.000  
  22378195.86749 117598211.37549     -5994.10949        49.000  
 16 04 02 12 51 58.2000000  0  2G09G29                                          
  23714843.75849 124622342.66449     -8907.06649        50.000  
  22378309.96949 117598810.96149     -5997.82849        49.000  
 16 04 02 12 51 58.3000000  0  2G09G29                                          
  23715013.31249 124623233.67649     -8912.94549        50.000  
  22378424.14149 117599410.96549     -6001.76249        49.000  
 16 04 02 12 51 58.4000000  0  2G09G29                                          
  23715182.96149 124624125.21149     -8918.39149        50.000  
  22378538.39149 117600011.31249     -6005.42649        49.000  
 16 04 02 12 51 58.5000000  0  2G09G29                                          
  23715352.71149 124625017.22749     -8923.27349        50.000  
  22378652.69549 117600611.99649     -6008.70749        49.000  
 16 04 02 12 51 58.6000000  0  2G09G29                                          
  23715522.57049 124625909.82449     -8928.69949        50.000  
  22378767.07049 117601213.06249     -6012.46549        49.000  
 16 04 02 12 51 58.7000000  0  2G09G29                                          
  23715692.51649 124626802.90649     -8933.87549        49.000  
  22378881.50849 117601814.44149     -6015.68049        49.000  
 16 04 02 12 51 58.8000000  0  2G09G29                                          
  23715862.57849 124627696.58249     -8939.71549        49.000  
  22378996.03149 117602416.26249     -6020.02749        49.000  
 16 04 02 12 51 58.9000000  0  2G09G29                                          
  23716032.73449 124628590.76649     -8944.54349        49.000  
  22379110.61749 117603018.39849     -6023.07449        49.000  
 16 04 02 12 51 59.0000000  0  2G09G29                                          
  23716202.98449 124629485.41449     -8949.53549        49.000  
  22379225.25849 117603620.83249     -6026.27349        49.000  
 16 04 02 12 51 59.1000000  0  2G09G29                                          
  23716373.33649 124630380.63749     -8954.95349        49.000  
  22379339.97749 117604223.66449     -6029.96549        49.000  
 16 04 02 12 51 59.2000000  0  2G09G29                                          
  23716543.80549 124631276.44149     -8961.12149        49.000  
  22379454.76649 117604826.91049     -6034.40249        49.000  
 16 04 02 12 51 59.3000000  0  2G09G29                                          
  23716714.36749 124632172.78549     -8966.41049        50.000  
  22379569.62549 117605430.51649     -6037.93049        49.000  
 16 04 02 12 51 59.4000000  0  2G09G29                                          
  23716885.03149 124633069.63749     -8971.57049        50.000  
  22379684.55549 117606034.47749     -6041.52049        49.000  
 16 04 02 12 51 59.5000000  0  2G09G29                                          
  23717055.80549 124633967.05549     -8976.99649        50.000  
  22379799.55549 117606638.80549     -6045.12149        49.000  
 16 04 02 12 51 59.6000000  0  2G09G29                                          
  23717226.67249 124634864.93449     -8981.61349        50.000  
  22379914.61749 117607243.44549     -6048.18049        49.000  
 16 04 02 12 51 59.7000000  0  2G09G29                                          
  23717397.64149 124635763.38349     -8987.41849        50.000  
  22380029.74249 117607848.45749     -6051.93449        49.000  
 16 04 02 12 51 59.8000000  0  2G09G29                                          
  23717568.70349 124636662.34049     -8992.57449        50.000  
  22380144.94549 117608453.82449     -6055.69149        49.000  
 16 04 02 12 51 59.9000000  0  2G09G29                                          
  23717739.87549 124637561.85949     -8998.06249        50.000  
  22380260.21149 117609059.57049     -6059.27749        49.000  
 16 04 02 12 52  0.0000000  0  2G09G29                                          
  23717911.14149 124638461.87149     -9003.19149        50.000  
  22380375.53949 117609665.64149     -6062.56249        49.000  
 16 04 02 12 52  0.1000000  0  2G09G29                                          
  23718082.51649 124639362.43849     -9008.60949        50.000  
  22380490.94549 117610272.09849     -6066.34049        49.000  
 16 04 02 12 52  0.2000000  0  2G09G29                                          
  23718253.98449 124640263.53549     -9013.85949        50.000  
  22380606.42249 117610878.90249     -6069.84049        49.000  
 16 04 02 12 52  0.3000000  0  2G09G29                                          
  23718425.55549 124641165.15249     -9018.98449        49.000  
  22380721.96149 117611486.05549     -6073.26649        49.000  
 16 04 02 12 52  0.4000000  0  2G09G29                                          
  23718597.23449 124642067.31249     -9024.41849        49.000  
  22380837.57049 117612093.58649     -6077.10249        49.000  
 16 04 02 12 52  0.5000000  0  2G09G29                                          
  23718769.00049 124642969.96949     -9029.63749        50.000  
  22380953.24249 117612701.44549     -6080.50049        49.000  
 16 04 02 12 52  0.6000000  0  2G09G29                                          
  23718940.87549 124643873.17249     -9034.70749        50.000  
  22381068.97749 117613309.66049     -6083.76649        49.000  
 16 04 02 12 52  0.7000000  0  2G09G29                                          
  23719112.84449 124644776.87949     -9040.06249        50.000  
  22381184.78149 117613918.21549     -6087.46149        49.000  
 16 04 02 12 52  0.8000000  0  2G09G29                                          
  23719284.91449 124645681.10549     -9045.18449        50.000  
  22381300.64849 117614527.12149     -6090.73449        49.000  
 16 04 02 12 52  0.9000000  0  2G09G29                                          
  23719457.08649 124646585.86749     -9050.34849        50.000  
  22381416.59449 117615136.39549     -6094.44149        49.000  
 16 04 02 12 52  1.0000000  0  2G09G29                                          
  23719629.35949 124647491.19549     -9056.22749        50.000  
  22381532.60249 117615746.05149     -6098.52349        49.000  
 16 04 02 12 52  1.1000000  0  2G09G29                                          
  23719801.72749 124648396.97349     -9060.85949        50.000  
  22381648.67249 117616355.98849     -6101.29349        49.000  
 16 04 02 12 52  1.2000000  0  2G09G29                                          
  23719974.20349 124649303.31649     -9066.11749        50.000  
  22381764.81249 117616966.32049     -6104.96949        49.000  
 16 04 02 12 52  1.3000000  0  2G09G29                                          
  23720146.77349 124650210.19549     -9071.55549        50.000  
  22381881.02349 117617577.00449     -6108.53149        49.000  
 16 04 02 12 52  1.4000000  0  2G09G29                                          
  23720319.44549 124651117.60549     -9077.09449        49.000  
  22381997.31249 117618188.06249     -6112.37949        49.000  
 16 04 02 12 52  1.5000000  0  2G09G29                                          
  23720492.23449 124652025.55549     -9082.36749        49.000  
  22382113.65649 117618799.48849     -6116.03949        49.000  
 16 04 02 12 52  1.6000000  0  2G09G29                                          
  23720665.10949 124652934.03149     -9087.71149        50.000  
  22382230.07849 117619411.25449     -6119.46149        49.000  
 16 04 02 12 52  1.7000000  0  2G09G29                                          
  23720838.08649 124653843.01249     -9092.84849        49.000  
  22382346.55549 117620023.36349     -6123.01649        49.000  
 16 04 02 12 52  1.8000000  0  2G09G29                                          
  23721011.14849 124654752.50049     -9097.67249        49.000  
  22382463.10249 117620635.80549     -6126.10549        49.000  
 16 04 02 12 52  1.9000000  0  2G09G29                                          
  23721184.33649 124655662.56249     -9103.49649        49.000  
  22382579.71949 117621248.64549     -6130.15649        49.000  
 16 04 02 12 52  2.0000000  0  2G09G29                                          
  23721357.59449 124656573.06249     -9107.75449        49.000  
  22382696.39149 117621861.75849     -6132.83649        49.000  
