     2.10           OBSERVATION DATA    G (GPS)             RINEX VERSION / TYPE
Convert v1.8.0                          09-Jun-2016 14:19   PGM / RUN BY / DATE 
Signal Strength values S1,S2 are in dBHz                    COMMENT             
                                                            MARKER NAME         
                                                            MARKER NUMBER       
                                                            OBSERVER / AGENCY   
                    NovAtel GPSCard                         REC # / TYPE / VERS 
                                                            ANT # / TYPE        
0.0000        0.0000        0.0000                          APPROX POSITION XYZ 
        0.0000        0.0000        0.0000                  ANTENNA: DELTA H/E/N
     1     0                                                WAVELENGTH FACT L1/2
     1     0     2   G03   G16                              WAVELENGTH FACT L1/2
                                                            COMMENT             
                                                            COMMENT             
                                                            COMMENT             
                                                            COMMENT             
                                                            COMMENT             
                                                            COMMENT             
     4    C1    L1    D1    S1                              # / TYPES OF OBSERV 
     0.100                                                  INTERVAL            
  2016    04    02    12    30    37.0000000    GPS         TIME OF FIRST OBS   
  2016    04    02    12    32     1.8000000    GPS         TIME OF LAST OBS    
Leap Seconds Unknown                                        COMMENT             
                                                            END OF HEADER       
 16 04 02 12 30 37.0000000  0  1G16                                             
  22492015.89849 118196340.00059      2477.49649        49.000  
 16 04 02 12 30 37.1000000  0  1G16                                             
  22491968.79749 118196092.46149      2473.35249        49.000  
 16 04 02 12 30 37.2000000  0  1G16                                             
  22491921.75849 118195845.28549      2469.55549        49.000  
 16 04 02 12 30 37.3000000  0  2G03G16                                          
  25411317.12549 133537372.00059     -1497.56249        49.000  
  22491874.82849 118195598.67249      2463.72749        49.000  
 16 04 02 12 30 37.4000000  0  2G03G16                                          
  25411345.66449 133537521.96149     -1501.75049        49.000  
  22491827.98449 118195352.50449      2459.34049        49.000  
 16 04 02 12 30 37.5000000  0  2G03G16                                          
  25411374.28149 133537672.29749     -1505.64549        49.000  
  22491781.21949 118195106.73449      2455.32049        49.000  
 16 04 02 12 30 37.6000000  0  2G03G16                                          
  25411402.96949 133537823.07449     -1509.82449        49.000  
  22491734.54749 118194861.44949      2450.73049        49.000  
 16 04 02 12 30 37.7000000  0  2G03G16                                          
  25411431.72749 133537974.24649     -1514.04749        49.000  
  22491687.94549 118194616.57449      2446.28149        49.000  
 16 04 02 12 30 37.8000000  0  2G03G16                                          
  25411460.57849 133538125.86349     -1518.34049        49.000  
  22491641.44549 118194372.16849      2441.75849        49.000  
 16 04 02 12 30 37.9000000  0  2G03G16                                          
  25411489.50849 133538277.87549     -1522.05149        49.000  
  22491595.01649 118194128.19549      2437.57449        49.000  
 16 04 02 12 30 38.0000000  0  2G03G16                                          
  25411518.50849 133538430.26249     -1525.96949        49.000  
  22491548.66449 118193884.60949      2433.51249        49.000  
 16 04 02 12 30 38.1000000  0  2G03G16                                          
  25411547.60249 133538583.12549     -1530.70349        48.000  
  22491502.41449 118193641.53549      2428.48049        49.000  
 16 04 02 12 30 38.2000000  0  2G03G16                                          
  25411576.77349 133538736.44549     -1535.37149        48.000  
  22491456.24249 118193398.93049      2423.78149        49.000  
 16 04 02 12 30 38.3000000  0  2G03G16                                          
  25411606.01649 133538890.10249     -1538.69549        48.000  
  22491410.14849 118193156.71949      2419.91049        49.000  
 16 04 02 12 30 38.4000000  0  2G03G16                                          
  25411635.34449 133539044.23449     -1543.39549        48.000  
  22491364.14149 118192914.98849      2414.95749        49.000  
 16 04 02 12 30 38.5000000  0  2G03G16                                          
  25411664.75849 133539198.85249     -1548.34849        48.000  
  22491318.24249 118192673.77049      2409.81649        49.000  
 16 04 02 12 30 38.6000000  0  2G03G16                                          
  25411694.25849 133539353.86749     -1552.28549        48.000  
  22491272.41449 118192432.97749      2405.60949        49.000  
 16 04 02 12 30 38.7000000  0  2G03G16                                          
  25411723.83649 133539509.28549     -1556.31649        48.000  
  22491226.68049 118192192.62149      2401.23449        49.000  
 16 04 02 12 30 38.8000000  0  2G03G16                                          
  25411753.48449 133539665.10249     -1560.33249        48.000  
  22491181.01649 118191952.67249      2397.21549        49.000  
 16 04 02 12 30 38.9000000  0  2G03G16                                          
  25411783.22749 133539821.36749     -1564.83249        48.000  
  22491135.44549 118191713.21949      2392.23849        49.000  
 16 04 02 12 30 39.0000000  0  2G03G16                                          
  25411813.04749 133539978.11349     -1569.71949        48.000  
  22491089.96949 118191474.25849      2387.22349        49.000  
 16 04 02 12 30 39.1000000  0  2G03G16                                          
  25411842.93849 133540135.21549     -1573.27049        49.000  
  22491044.57049 118191235.68049      2383.47749        49.000  
 16 04 02 12 30 39.2000000  0  2G03G16                                          
  25411872.92249 133540292.74249     -1577.52349        49.000  
  22490999.28149 118190997.57449      2378.73849        49.000  
 16 04 02 12 30 39.3000000  0  2G03G16                                          
  25411902.99249 133540450.69149     -1581.57049        49.000  
  22490954.05549 118190759.89849      2374.56649        49.000  
 16 04 02 12 30 39.4000000  0  2G03G16                                          
  25411933.12549 133540609.04349     -1585.81249        48.000  
  22490908.93049 118190522.65649      2370.00449        49.000  
 16 04 02 12 30 39.5000000  0  2G03G16                                          
  25411963.37549 133540767.89849     -1590.70749        49.000  
  22490863.88349 118190285.94149      2364.81649        49.000  
 16 04 02 12 30 39.6000000  0  2G03G16                                          
  25411993.68049 133540927.16849     -1594.99649        49.000  
  22490818.90649 118190049.67249      2360.27749        49.000  
 16 04 02 12 30 39.7000000  0  2G03G16                                          
  25412024.04749 133541086.82449     -1598.75449        49.000  
  22490774.02349 118189813.81249      2356.27349        49.000  
 16 04 02 12 30 39.8000000  0  2G03G16                                          
  25412054.52349 133541246.96549     -1603.59049        49.000  
  22490729.25049 118189578.46949      2351.12149        49.000  
 16 04 02 12 30 39.9000000  0  2G03G16                                          
  25412085.07049 133541407.51249     -1607.63349        49.000  
  22490684.54749 118189343.55949      2346.78149        49.000  
 16 04 02 12 30 40.0000000  0  2G03G16                                          
  25412115.69549 133541568.47349     -1611.69949        49.000  
  22490639.93049 118189109.08249      2342.55549        49.000  
 16 04 02 12 30 40.1000000  0  2G03G16                                          
  25412146.39849 133541729.83249     -1615.74649        48.000  
  22490595.39149 118188875.03549      2338.10949        49.000  
 16 04 02 12 30 40.2000000  0  2G03G16                                          
  25412177.18049 133541891.59449     -1619.85549        49.000  
  22490550.93049 118188641.41049      2333.87949        49.000  
 16 04 02 12 30 40.3000000  0  2G03G16                                          
  25412208.05549 133542053.82449     -1624.49649        49.000  
  22490506.57049 118188408.29749      2328.85949        49.000  
 16 04 02 12 30 40.4000000  0  2G03G16                                          
  25412239.00849 133542216.49249     -1628.91849        49.000  
  22490462.29749 118188175.64149      2324.17249        49.000  
 16 04 02 12 30 40.5000000  0  2G03G16                                          
  25412270.05549 133542379.58649     -1633.27749        49.000  
  22490418.10949 118187943.42649      2319.60249        49.000  
 16 04 02 12 30 40.6000000  0  2G03G16                                          
  25412301.15649 133542543.04749     -1636.78149        49.000  
  22490373.99249 118187711.61349      2315.80949        49.000  
 16 04 02 12 30 40.7000000  0  2G03G16                                          
  25412332.34449 133542706.90649     -1640.76249        48.000  
  22490329.96149 118187480.23049      2311.67649        49.000  
 16 04 02 12 30 40.8000000  0  2G03G16                                          
  25412363.60249 133542871.17649     -1644.71149        48.000  
  22490286.00849 118187249.28149      2307.23849        49.000  
 16 04 02 12 30 40.9000000  0  2G03G16                                          
  25412394.97749 133543035.97749     -1650.34049        48.000  
  22490242.16449 118187018.88349      2301.46549        49.000  
 16 04 02 12 30 41.0000000  0  2G03G16                                          
  25412426.40649 133543201.17649     -1654.24249        48.000  
  22490198.40649 118186788.92249      2297.22749        49.000  
 16 04 02 12 30 41.1000000  0  2G03G16                                          
  25412457.91449 133543366.73449     -1657.75449        48.000  
  22490154.71949 118186559.33649      2293.61349        49.000  
 16 04 02 12 30 41.2000000  0  2G03G16                                          
  25412489.49249 133543532.69149     -1661.57449        49.000  
  22490111.10949 118186330.18849      2289.37949        49.000  
 16 04 02 12 30 41.3000000  0  2G03G16                                          
  25412521.14849 133543699.10249     -1666.12149        48.000  
  22490067.59449 118186101.51249      2284.45349        49.000  
 16 04 02 12 30 41.4000000  0  2G03G16                                          
  25412552.89849 133543865.96549     -1670.90649        48.000  
  22490024.17249 118185873.30949      2279.68449        49.000  
 16 04 02 12 30 41.5000000  0  2G03G16                                          
  25412584.73449 133544033.25449     -1675.00449        48.000  
  22489980.83649 118185645.57849      2275.02049        49.000  
 16 04 02 12 30 41.6000000  0  2G03G16                                          
  25412616.64149 133544200.91849     -1678.67649        48.000  
  22489937.56249 118185418.24249      2271.07449        49.000  
 16 04 02 12 30 41.7000000  0  2G03G16                                          
  25412648.64149 133544369.05149     -1683.62149        48.000  
  22489894.39849 118185191.38749      2266.03949        49.000  
 16 04 02 12 30 41.8000000  0  2G03G16                                          
  25412680.71949 133544537.65649     -1688.07449        48.000  
  22489851.31249 118184965.03149      2261.43049        49.000  
 16 04 02 12 30 41.9000000  0  2G03G16                                          
  25412712.86749 133544706.60249     -1691.73049        48.000  
  22489808.31249 118184739.05949      2257.33649        49.000  
 16 04 02 12 30 42.0000000  0  2G03G16                                          
  25412745.10249 133544876.00449     -1696.03949        48.000  
  22489765.39849 118184513.56649      2252.75449        49.000  
 16 04 02 12 30 42.1000000  0  2G03G16                                          
  25412777.42249 133545045.78949     -1700.25049        49.000  
  22489722.56249 118184288.47749      2248.34449        49.000  
 16 04 02 12 30 42.2000000  0  2G03G16                                          
  25412809.80549 133545215.97749     -1703.77349        48.000  
  22489679.82049 118184063.83249      2244.36749        49.000  
 16 04 02 12 30 42.3000000  0  2G03G16                                          
  25412842.27349 133545386.61349     -1708.41449        49.000  
  22489637.16449 118183839.64549      2239.55549        49.000  
 16 04 02 12 30 42.4000000  0  2G03G16                                          
  25412874.82849 133545557.68849     -1712.98449        48.000  
  22489594.59449 118183615.94149      2234.59049        49.000  
 16 04 02 12 30 42.5000000  0  2G03G16                                          
  25412907.46149 133545729.20749     -1717.32049        48.000  
  22489552.10949 118183392.69949      2230.08249        49.000  
 16 04 02 12 30 42.6000000  0  2G03G16                                          
  25412940.18049 133545901.14149     -1721.52749        49.000  
  22489509.71949 118183169.88749      2225.70749        49.000  
 16 04 02 12 30 42.7000000  0  2G03G16                                          
  25412972.96949 133546073.50049     -1725.66849        49.000  
  22489467.40649 118182947.53549      2221.28949        49.000  
 16 04 02 12 30 42.8000000  0  2G03G16                                          
  25413005.85249 133546246.28949     -1729.93849        48.000  
  22489425.18049 118182725.64549      2216.84449        49.000  
 16 04 02 12 30 42.9000000  0  2G03G16                                          
  25413038.81249 133546419.41449     -1733.38749        48.000  
  22489383.02349 118182504.11749      2213.01649        49.000  
 16 04 02 12 30 43.0000000  0  2G03G16                                          
  25413071.85249 133546593.02049     -1738.23449        49.000  
  22489340.96949 118182283.09449      2207.98849        49.000  
 16 04 02 12 30 43.1000000  0  2G03G16                                          
  25413104.95349 133546767.03949     -1742.39549        49.000  
  22489298.99249 118182062.51649      2203.44549        49.000  
 16 04 02 12 30 43.2000000  0  2G03G16                                          
  25413138.14149 133546941.46149     -1746.34849        48.000  
  22489257.10949 118181842.36749      2199.17249        49.000  
 16 04 02 12 30 43.3000000  0  2G03G16                                          
  25413171.42249 133547116.32049     -1750.86349        48.000  
  22489215.30549 118181622.67649      2194.50049        49.000  
 16 04 02 12 30 43.4000000  0  2G03G16                                          
  25413204.78149 133547291.63349     -1755.27049        48.000  
  22489173.58649 118181403.47349      2189.74649        49.000  
 16 04 02 12 30 43.5000000  0  2G03G16                                          
  25413238.21149 133547467.38749     -1759.57049        49.000  
  22489131.96149 118181184.73449      2185.14149        49.000  
 16 04 02 12 30 43.6000000  0  2G03G16                                          
  25413271.73449 133547643.53549     -1763.73049        49.000  
  22489090.42249 118180966.42249      2180.79749        49.000  
 16 04 02 12 30 43.7000000  0  2G03G16                                          
  25413305.33649 133547820.10549     -1767.89849        48.000  
  22489048.96149 118180748.55549      2176.21149        49.000  
 16 04 02 12 30 43.8000000  0  2G03G16                                          
  25413339.00849 133547997.08649     -1771.86349        48.000  
  22489007.57849 118180531.12149      2172.04749        49.000  
 16 04 02 12 30 43.9000000  0  2G03G16                                          
  25413372.77349 133548174.49249     -1776.21949        48.000  
  22488966.28949 118180314.13749      2167.62549        49.000  
 16 04 02 12 30 44.0000000  0  2G03G16                                          
  25413406.62549 133548352.39849     -1781.31649        48.000  
  22488925.09449 118180097.68849      2162.10549        49.000  
 16 04 02 12 30 44.1000000  0  2G03G16                                          
  25413440.56249 133548530.66049     -1784.80549        48.000  
  22488883.98449 118179881.62549      2158.28549        49.000  
 16 04 02 12 30 44.2000000  0  2G03G16                                          
  25413474.56249 133548709.31249     -1788.57849        48.000  
  22488842.96149 118179665.97349      2154.26249        49.000  
 16 04 02 12 30 44.3000000  0  2G03G16                                          
  25413508.63349 133548888.36749     -1792.66449        48.000  
  22488802.00849 118179450.75849      2149.94549        49.000  
 16 04 02 12 30 44.4000000  0  2G03G16                                          
  25413542.79749 133549067.89849     -1797.20749        48.000  
  22488761.14849 118179236.03149      2145.12549        49.000  
 16 04 02 12 30 44.5000000  0  2G03G16                                          
  25413577.03149 133549247.80949     -1801.52349        48.000  
  22488720.36749 118179021.72349      2140.61349        49.000  
 16 04 02 12 30 44.6000000  0  2G03G16                                          
  25413611.35949 133549428.20349     -1806.05149        48.000  
  22488679.68049 118178807.92649      2135.66849        49.000  
 16 04 02 12 30 44.7000000  0  2G03G16                                          
  25413645.75849 133549608.96149     -1809.72349        48.000  
  22488639.07049 118178594.51249      2131.99249        49.000  
 16 04 02 12 30 44.8000000  0  2G03G16                                          
  25413680.22749 133549790.12149     -1813.79749        48.000  
  22488598.55549 118178381.53549      2127.47749        49.000  
 16 04 02 12 30 44.9000000  0  2G03G16                                          
  25413714.79749 133549971.75449     -1818.59849        48.000  
  22488558.12549 118178169.06249      2122.41449        49.000  
 16 04 02 12 30 45.0000000  0  2G03G16                                          
  25413749.43049 133550153.74249     -1821.85949        48.000  
  22488517.76649 118177956.96949      2118.76249        49.000  
 16 04 02 12 30 45.1000000  0  2G03G16                                          
  25413784.15649 133550336.21149     -1826.87949        48.000  
  22488477.50049 118177745.37149      2113.57449        49.000  
 16 04 02 12 30 45.2000000  0  2G03G16                                          
  25413818.96149 133550519.10549     -1831.12949        48.000  
  22488437.32849 118177534.24249      2108.96949        49.000  
 16 04 02 12 30 45.3000000  0  2G03G16                                          
  25413853.82849 133550702.38349     -1834.85249        48.000  
  22488397.22749 118177323.52049      2104.96149        49.000  
 16 04 02 12 30 45.4000000  0  2G03G16                                          
  25413888.78149 133550886.04349     -1838.42649        48.000  
  22488357.20349 118177113.19949      2101.22349        49.000  
 16 04 02 12 30 45.5000000  0  2G03G16                                          
  25413923.82049 133551070.16049     -1843.24649        49.000  
  22488317.27349 118176903.36749      2096.07049        49.000  
 16 04 02 12 30 45.6000000  0  2G03G16                                          
  25413958.93049 133551254.65649     -1847.04749        49.000  
  22488277.42249 118176693.94949      2091.88749        49.000  
 16 04 02 12 30 45.7000000  0  2G03G16                                          
  25413994.12549 133551439.60249     -1851.51249        49.000  
  22488237.65649 118176485.00049      2087.21549        49.000  
 16 04 02 12 30 45.8000000  0  2G03G16                                          
  25414029.39149 133551624.94149     -1855.53149        49.000  
  22488197.97749 118176276.46949      2083.03949        49.000  
 16 04 02 12 30 45.9000000  0  2G03G16                                          
  25414064.74249 133551810.70749     -1859.85249        48.000  
  22488158.38349 118176068.39549      2078.39849        49.000  
 16 04 02 12 30 46.0000000  0  2G03G16                                          
  25414100.17249 133551996.88749     -1863.99249        48.000  
  22488118.86749 118175860.76649      2074.10949        49.000  
 16 04 02 12 30 46.1000000  0  2G03G16                                          
  25414135.67249 133552183.47349     -1868.03149        49.000  
  22488079.43849 118175653.56649      2069.64149        49.000  
 16 04 02 12 30 46.2000000  0  2G03G16                                          
  25414171.26649 133552370.52049     -1872.52049        49.000  
  22488040.09449 118175446.85549      2064.82449        49.000  
 16 04 02 12 30 46.3000000  0  2G03G16                                          
  25414206.93049 133552557.95349     -1876.55549        48.000  
  22488000.83649 118175240.56649      2060.58649        49.000  
 16 04 02 12 30 46.4000000  0  2G03G16                                          
  25414242.68049 133552745.80949     -1880.66449        48.000  
  22487961.67249 118175034.71949      2056.15649        49.000  
 16 04 02 12 30 46.5000000  0  2G03G16                                          
  25414278.50849 133552934.09049     -1885.03149        48.000  
  22487922.58649 118174829.32849      2051.54749        49.000  
 16 04 02 12 30 46.6000000  0  2G03G16                                          
  25414314.40649 133553122.77349     -1888.85549        48.000  
  22487883.58649 118174624.35549      2047.56249        49.000  
 16 04 02 12 30 46.7000000  0  2G03G16                                          
  25414350.38349 133553311.83249     -1892.69949        48.000  
  22487844.66449 118174419.80549      2043.30149        49.000  
 16 04 02 12 30 46.8000000  0  2G03G16                                          
  25414386.45349 133553501.36349     -1897.39149        48.000  
  22487805.84449 118174215.73449      2038.41049        49.000  
 16 04 02 12 30 46.9000000  0  2G03G16                                          
  25414422.60949 133553691.32849     -1901.87949        49.000  
  22487767.10249 118174012.14149      2033.60949        49.000  
 16 04 02 12 30 47.0000000  0  2G03G16                                          
  25414458.82849 133553881.66849     -1905.44149        48.000  
  22487728.44549 118173808.94549      2029.70749        49.000  
 16 04 02 12 30 47.1000000  0  2G03G16                                          
  25414495.11749 133554072.41849     -1909.63349        48.000  
  22487689.85949 118173606.18849      2025.25049        49.000  
 16 04 02 12 30 47.2000000  0  2G03G16                                          
  25414531.50849 133554263.66849     -1914.59049        48.000  
  22487651.38349 118173403.94949      2020.09049        49.000  
 16 04 02 12 30 47.3000000  0  2G03G16                                          
  25414567.98449 133554455.33649     -1918.90649        49.000  
  22487612.98449 118173202.15649      2015.62549        49.000  
 16 04 02 12 30 47.4000000  0  2G03G16                                          
  25414604.53149 133554647.39849     -1922.83649        48.000  
  22487574.67249 118173000.79749      2011.22349        49.000  
 16 04 02 12 30 47.5000000  0  2G03G16                                          
  25414641.16449 133554839.84849     -1926.66449        49.000  
  22487536.43849 118172799.85249      2007.14549        49.000  
 16 04 02 12 30 47.6000000  0  2G03G16                                          
  25414677.87549 133555032.78149     -1931.50849        49.000  
  22487498.29749 118172599.41049      2002.09849        49.000  
 16 04 02 12 30 47.7000000  0  2G03G16                                          
  25414714.68049 133555226.12949     -1935.81649        49.000  
  22487460.23449 118172399.41849      1997.36749        49.000  
 16 04 02 12 30 47.8000000  0  2G03G16                                          
  25414751.56249 133555419.93849     -1939.91449        49.000  
  22487422.27349 118172199.89849      1993.05949        49.000  
 16 04 02 12 30 47.9000000  0  2G03G16                                          
  25414788.52349 133555614.13749     -1944.25449        48.000  
  22487384.39149 118172000.81649      1988.44549        49.000  
 16 04 02 12 30 48.0000000  0  2G03G16                                          
  25414825.57049 133555808.79349     -1948.75049        49.000  
  22487346.59449 118171802.21149      1983.68049        49.000  
 16 04 02 12 30 48.1000000  0  2G03G16                                          
  25414862.68849 133556003.85249     -1952.61349        49.000  
  22487308.87549 118171604.02349      1979.66049        49.000  
 16 04 02 12 30 48.2000000  0  2G03G16                                          
  25414899.87549 133556199.24649     -1955.97749        49.000  
  22487271.23449 118171406.21949      1975.88349        49.000  
 16 04 02 12 30 48.3000000  0  2G03G16                                          
  25414937.14149 133556395.10249     -1960.50849        48.000  
  22487233.68049 118171208.89549      1971.07049        49.000  
 16 04 02 12 30 48.4000000  0  2G03G16                                          
  25414974.47749 133556591.28949     -1963.91049        48.000  
  22487196.20349 118171011.93049      1967.48049        49.000  
 16 04 02 12 30 48.5000000  0  2G03G16                                          
  25415011.89849 133556787.96149     -1968.75849        48.000  
  22487158.82049 118170815.47349      1962.46949        49.000  
 16 04 02 12 30 48.6000000  0  2G03G16                                          
  25415049.39149 133556985.00449     -1972.71549        48.000  
  22487121.51649 118170619.42249      1958.07849        49.000  
 16 04 02 12 30 48.7000000  0  2G03G16                                          
  25415086.98449 133557182.56249     -1977.78949        48.000  
  22487084.31249 118170423.91049      1952.80949        49.000  
 16 04 02 12 30 48.8000000  0  2G03G16                                          
  25415124.64149 133557380.44149     -1980.98449        48.000  
  22487047.17249 118170228.74649      1949.32049        49.000  
 16 04 02 12 30 48.9000000  0  2G03G16                                          
  25415162.37549 133557578.76249     -1985.23049        48.000  
  22487010.12549 118170034.05549      1944.68049        49.000  
 16 04 02 12 30 49.0000000  0  2G03G16                                          
  25415200.19549 133557777.54349     -1989.81649        48.000  
  22486973.16449 118169839.85549      1939.93849        49.000  
 16 04 02 12 30 49.1000000  0  2G03G16                                          
  25415238.11749 133557976.72349     -1994.16449        48.000  
  22486936.28149 118169646.06249      1935.41049        49.000  
 16 04 02 12 30 49.2000000  0  2G03G16                                          
  25415276.08649 133558176.27749     -1997.90249        48.000  
  22486899.50049 118169452.69949      1931.18049        49.000  
 16 04 02 12 30 49.3000000  0  2G03G16                                          
  25415314.14849 133558376.30149     -2002.27749        48.000  
  22486862.78949 118169259.81249      1926.62149        49.000  
 16 04 02 12 30 49.4000000  0  2G03G16                                          
  25415352.29749 133558576.77349     -2007.09849        48.000  
  22486826.18049 118169067.41449      1921.50449        49.000  
 16 04 02 12 30 49.5000000  0  2G03G16                                          
  25415390.53149 133558777.64149     -2010.87149        48.000  
  22486789.64149 118168875.43449      1917.41449        49.000  
 16 04 02 12 30 49.6000000  0  2G03G16                                          
  25415428.84449 133558978.94149     -2015.11349        48.000  
  22486753.19549 118168683.91449      1912.90249        49.000  
 16 04 02 12 30 49.7000000  0  2G03G16                                          
  25415467.21949 133559180.66049     -2019.36349        48.000  
  22486716.83649 118168492.84049      1908.46949        49.000  
 16 04 02 12 30 49.8000000  0  2G03G16                                          
  25415505.68049 133559382.76249     -2023.18049        48.000  
  22486680.55549 118168302.17649      1904.34449        49.000  
 16 04 02 12 30 49.9000000  0  2G03G16                                          
  25415544.21949 133559585.29349     -2027.19549        48.000  
  22486644.35949 118168111.96149      1900.15649        49.000  
 16 04 02 12 30 50.0000000  0  2G03G16                                          
  25415582.83649 133559788.22749     -2031.55549        48.000  
  22486608.25049 118167922.19549      1895.29349        49.000  
 16 04 02 12 30 50.1000000  0  2G03G16                                          
  25415621.54749 133559991.65249     -2036.37549        48.000  
  22486572.23449 118167732.94149      1890.25049        49.000  
 16 04 02 12 30 50.2000000  0  2G03G16                                          
  25415660.32849 133560195.41449     -2039.81649        48.000  
  22486536.28149 118167544.04749      1886.65649        49.000  
 16 04 02 12 30 50.3000000  0  2G03G16                                          
  25415699.18849 133560399.62149     -2044.10949        48.000  
  22486500.43049 118167355.62949      1881.99649        49.000  
 16 04 02 12 30 50.4000000  0  2G03G16                                          
  25415738.11749 133560604.22749     -2048.12149        48.000  
  22486464.65649 118167167.64149      1877.56249        49.000  
 16 04 02 12 30 50.5000000  0  2G03G16                                          
  25415777.13349 133560809.23849     -2052.15649        48.000  
  22486428.96149 118166980.09049      1873.19949        49.000  
 16 04 02 12 30 50.6000000  0  2G03G16                                          
  25415816.22749 133561014.68049     -2056.60949        48.000  
  22486393.35949 118166792.97749      1868.75849        49.000  
 16 04 02 12 30 50.7000000  0  2G03G16                                          
  25415855.40649 133561220.55149     -2060.79749        49.000  
  22486357.84449 118166606.33649      1864.19149        49.000  
 16 04 02 12 30 50.8000000  0  2G03G16                                          
  25415894.66449 133561426.83249     -2064.98449        48.000  
  22486322.41449 118166420.13749      1859.61349        49.000  
 16 04 02 12 30 50.9000000  0  2G03G16                                          
  25415934.00849 133561633.53149     -2069.06649        49.000  
  22486287.06249 118166234.36749      1855.45749        49.000  
 16 04 02 12 30 51.0000000  0  2G03G16                                          
  25415973.41449 133561840.63349     -2073.12549        49.000  
  22486251.79749 118166049.03949      1850.98849        49.000  
 16 04 02 12 30 51.1000000  0  2G03G16                                          
  25416012.88349 133562048.09849     -2076.71549        49.000  
  22486216.60249 118165864.10549      1847.19549        49.000  
 16 04 02 12 30 51.2000000  0  2G03G16                                          
  25416052.45349 133562256.03149     -2081.34449        49.000  
  22486181.50049 118165679.66449      1842.25849        49.000  
 16 04 02 12 30 51.3000000  0  2G03G16                                          
  25416092.10249 133562464.34849     -2085.20349        49.000  
  22486146.48449 118165495.63749      1838.06249        49.000  
 16 04 02 12 30 51.4000000  0  2G03G16                                          
  25416131.80549 133562673.01649     -2088.80949        49.000  
  22486111.54749 118165311.98449      1834.26649        49.000  
 16 04 02 12 30 51.5000000  0  2G03G16                                          
  25416171.61749 133562882.19549     -2093.77049        49.000  
  22486076.69549 118165128.86749      1829.02349        49.000  
 16 04 02 12 30 51.6000000  0  2G03G16                                          
  25416211.50049 133563091.78549     -2098.00049        49.000  
  22486041.93849 118164946.20349      1824.35249        49.000  
 16 04 02 12 30 51.7000000  0  2G03G16                                          
  25416251.46949 133563301.81249     -2102.50849        49.000  
  22486007.26649 118164763.99249      1819.66449        49.000  
 16 04 02 12 30 51.8000000  0  2G03G16                                          
  25416291.51649 133563512.23449     -2106.45749        49.000  
  22485972.68849 118164582.21149      1815.34049        49.000  
 16 04 02 12 30 51.9000000  0  2G03G16                                          
  25416331.64149 133563723.10949     -2110.75049        49.000  
  22485938.18049 118164400.89849      1811.04749        49.000  
 16 04 02 12 30 52.0000000  0  2G03G16                                          
  25416371.83649 133563934.33649     -2114.51249        49.000  
  22485903.75049 118164219.98049      1806.80949        49.000  
 16 04 02 12 30 52.1000000  0  2G03G16                                          
  25416412.11749 133564146.03549     -2118.98449        48.000  
  22485869.41449 118164039.55149      1802.09049        49.000  
 16 04 02 12 30 52.2000000  0  2G03G16                                          
  25416452.47749 133564358.12949     -2123.13349        48.000  
  22485835.17249 118163859.54749      1797.72349        49.000  
 16 04 02 12 30 52.3000000  0  2G03G16                                          
  25416492.89849 133564570.58249     -2126.52349        48.000  
  22485800.99249 118163679.94149      1793.90649        49.000  
 16 04 02 12 30 52.4000000  0  2G03G16                                          
  25416533.40649 133564783.44949     -2130.74649        48.000  
  22485766.89849 118163500.75449      1789.63349        49.000  
 16 04 02 12 30 52.5000000  0  2G03G16                                          
  25416574.00049 133564996.80149     -2135.55149        49.000  
  22485732.89849 118163322.09849      1784.38749        49.000  
 16 04 02 12 30 52.6000000  0  2G03G16                                          
  25416614.68049 133565210.56249     -2139.83649        49.000  
  22485698.98449 118163143.87949      1779.83249        49.000  
 16 04 02 12 30 52.7000000  0  2G03G16                                          
  25416655.44549 133565424.75849     -2144.05149        48.000  
  22485665.15649 118162966.12549      1775.27349        49.000  
 16 04 02 12 30 52.8000000  0  2G03G16                                          
  25416696.27349 133565639.34049     -2147.94149        49.000  
  22485631.40649 118162788.76649      1771.34849        49.000  
 16 04 02 12 30 52.9000000  0  2G03G16                                          
  25416737.18049 133565854.29349     -2151.65249        48.000  
  22485597.74249 118162611.84049      1767.06649        49.000  
 16 04 02 12 30 53.0000000  0  2G03G16                                          
  25416778.17249 133566069.69549     -2156.09849        49.000  
  22485564.15649 118162435.36749      1762.43049        49.000  
 16 04 02 12 30 53.1000000  0  2G03G16                                          
  25416819.23449 133566285.53149     -2160.27749        49.000  
  22485530.66449 118162259.35949      1757.84849        49.000  
 16 04 02 12 30 53.2000000  0  2G03G16                                          
  25416860.37549 133566501.76249     -2164.50449        49.000  
  22485497.25849 118162083.77349      1753.62549        49.000  
 16 04 02 12 30 53.3000000  0  2G03G16                                          
  25416901.61749 133566718.45749     -2169.02349        49.000  
  22485463.93849 118161908.68849      1748.57449        49.000  
 16 04 02 12 30 53.4000000  0  2G03G16                                          
  25416942.93049 133566935.54749     -2173.00449        49.000  
  22485430.70349 118161734.01249      1744.35949        49.000  
 16 04 02 12 30 53.5000000  0  2G03G16                                          
  25416984.31249 133567153.06649     -2177.13749        49.000  
  22485397.55549 118161559.79749      1739.98049        49.000  
 16 04 02 12 30 53.6000000  0  2G03G16                                          
  25417025.78149 133567370.99249     -2181.43449        49.000  
  22485364.48449 118161386.02349      1735.50849        49.000  
 16 04 02 12 30 53.7000000  0  2G03G16                                          
  25417067.34449 133567589.38349     -2186.05149        49.000  
  22485331.50849 118161212.73849      1730.57049        49.000  
 16 04 02 12 30 53.8000000  0  2G03G16                                          
  25417108.98449 133567808.19949     -2190.39549        48.000  
  22485298.60949 118161039.89149      1726.04749        49.000  
 16 04 02 12 30 53.9000000  0  2G03G16                                          
  25417150.68849 133568027.35249     -2193.56649        49.000  
  22485265.78949 118160867.44149      1722.38349        49.000  
 16 04 02 12 30 54.0000000  0  2G03G16                                          
  25417192.46149 133568246.88349     -2197.35249        49.000  
  22485233.05549 118160695.39149      1718.34049        49.000  
 16 04 02 12 30 54.1000000  0  2G03G16                                          
  25417234.32849 133568466.90249     -2202.21949        49.000  
  22485200.40649 118160523.84049      1713.37949        49.000  
 16 04 02 12 30 54.2000000  0  2G03G16                                          
  25417276.26649 133568687.31249     -2206.37949        48.000  
  22485167.84449 118160352.72349      1708.78549        49.000  
 16 04 02 12 30 54.3000000  0  2G03G16                                          
  25417318.29749 133568908.16449     -2210.63749        48.000  
  22485135.36749 118160182.07049      1704.30549        49.000  
 16 04 02 12 30 54.4000000  0  2G03G16                                          
  25417360.39149 133569129.38349     -2214.46149        48.000  
  22485102.96949 118160011.81249      1700.11349        49.000  
 16 04 02 12 30 54.5000000  0  2G03G16                                          
  25417402.58649 133569351.08649     -2219.33649        49.000  
  22485070.66449 118159842.06649      1695.05549        49.000  
 16 04 02 12 30 54.6000000  0  2G03G16                                          
  25417444.84449 133569573.18049     -2222.80549        49.000  
  22485038.44549 118159672.73049      1691.28949        49.000  
 16 04 02 12 30 54.7000000  0  2G03G16                                          
  25417487.18849 133569795.66849     -2227.13349        49.000  
  22485006.30549 118159503.83249      1686.68049        49.000  
 16 04 02 12 30 54.8000000  0  2G03G16                                          
  25417529.60949 133570018.59849     -2231.18049        49.000  
  22484974.25049 118159335.40249      1682.27049        49.000  
 16 04 02 12 30 54.9000000  0  2G03G16                                          
  25417572.09449 133570241.89149     -2234.95349        49.000  
  22484942.27349 118159167.35549      1678.32849        49.000  
 16 04 02 12 30 55.0000000  0  2G03G16                                          
  25417614.65649 133570465.58649     -2238.98849        49.000  
  22484910.39149 118158999.74649      1673.92649        49.000  
 16 04 02 12 30 55.1000000  0  2G03G16                                          
  25417657.30549 133570689.69549     -2243.10549        49.000  
  22484878.57849 118158832.57449      1669.54349        49.000  
 16 04 02 12 30 55.2000000  0  2G03G16                                          
  25417700.03149 133570914.23849     -2247.45749        49.000  
  22484846.85249 118158665.86749      1664.82449        49.000  
 16 04 02 12 30 55.3000000  0  2G03G16                                          
  25417742.82849 133571139.19549     -2251.84049        49.000  
  22484815.21949 118158499.60249      1660.31249        49.000  
 16 04 02 12 30 55.4000000  0  2G03G16                                          
  25417785.73449 133571364.63749     -2256.73449        49.000  
  22484783.68049 118158333.84849      1655.10949        49.000  
 16 04 02 12 30 55.5000000  0  2G03G16                                          
  25417828.68849 133571590.41449     -2259.86749        49.000  
  22484752.21149 118158168.46549      1651.62949        49.000  
 16 04 02 12 30 55.6000000  0  2G03G16                                          
  25417871.72749 133571816.56649     -2263.41849        49.000  
  22484720.81249 118158003.48049      1647.76249        49.000  
 16 04 02 12 30 55.7000000  0  2G03G16                                          
  25417914.85249 133572043.20349     -2268.48449        49.000  
  22484689.51649 118157839.00449      1642.56249        49.000  
 16 04 02 12 30 55.8000000  0  2G03G16                                          
  25417958.04749 133572270.20349     -2272.15649        49.000  
  22484658.31249 118157674.93049      1638.44149        49.000  
 16 04 02 12 30 55.9000000  0  2G03G16                                          
  25418001.32849 133572497.68449     -2277.02749        48.000  
  22484627.18849 118157511.35949      1633.24649        49.000  
 16 04 02 12 30 56.0000000  0  2G03G16                                          
  25418044.70349 133572725.59049     -2280.94149        49.000  
  22484596.14849 118157348.23849      1629.23849        49.000  
 16 04 02 12 30 56.1000000  0  2G03G16                                          
  25418088.12549 133572953.80949     -2284.53149        48.000  
  22484565.17249 118157185.45749      1625.34049        49.000  
 16 04 02 12 30 56.2000000  0  2G03G16                                          
  25418131.64849 133573182.49249     -2288.69549        48.000  
  22484534.28949 118157023.18049      1620.77749        49.000  
 16 04 02 12 30 56.3000000  0  2G03G16                                          
  25418175.22749 133573411.58649     -2293.02049        48.000  
  22484503.49249 118156861.33649      1616.15649        49.000  
 16 04 02 12 30 56.4000000  0  2G03G16                                          
  25418218.89149 133573641.05149     -2296.78149        48.000  
  22484472.77349 118156699.88749      1612.31649        49.000  
 16 04 02 12 30 56.5000000  0  2G03G16                                          
  25418262.64849 133573870.98849     -2301.52349        48.000  
  22484442.14849 118156538.94549      1607.17649        49.000  
 16 04 02 12 30 56.6000000  0  2G03G16                                          
  25418306.48449 133574101.35949     -2305.85549        48.000  
  22484411.60949 118156378.46549      1602.59449        49.000  
 16 04 02 12 30 56.7000000  0  2G03G16                                          
  25418350.39149 133574332.04749     -2308.86749        48.000  
  22484381.13349 118156218.32449      1599.18849        49.000  
 16 04 02 12 30 56.8000000  0  2G03G16                                          
  25418394.36749 133574563.14149     -2312.94149        48.000  
  22484350.75849 118156058.62149      1594.89549        49.000  
 16 04 02 12 30 56.9000000  0  2G03G16                                          
  25418438.42249 133574794.66849     -2317.23849        48.000  
  22484320.45349 118155899.38749      1590.24249        49.000  
 16 04 02 12 30 57.0000000  0  2G03G16                                          
  25418482.57849 133575026.70349     -2322.41849        48.000  
  22484290.24249 118155740.67649      1584.81249        49.000  
 16 04 02 12 30 57.1000000  0  2G03G16                                          
  25418526.80549 133575259.07849     -2326.12549        48.000  
  22484260.10949 118155582.34049      1580.93049        49.000  
 16 04 02 12 30 57.2000000  0  2G03G16                                          
  25418571.10249 133575491.88749     -2330.10249        48.000  
  22484230.07049 118155424.46549      1576.68049        49.000  
 16 04 02 12 30 57.3000000  0  2G03G16                                          
  25418615.46949 133575725.05149     -2333.71949        48.000  
  22484200.10249 118155266.98849      1572.61349        49.000  
 16 04 02 12 30 57.4000000  0  2G03G16                                          
  25418659.92249 133575958.66049     -2338.20349        48.000  
  22484170.21949 118155109.97349      1567.91849        49.000  
 16 04 02 12 30 57.5000000  0  2G03G16                                          
  25418704.45349 133576192.67649     -2342.09049        48.000  
  22484140.42249 118154953.38349      1563.74649        49.000  
 16 04 02 12 30 57.6000000  0  2G03G16                                          
  25418749.06249 133576427.07449     -2346.16849        48.000  
  22484110.71149 118154797.21549      1559.32449        49.000  
 16 04 02 12 30 57.7000000  0  2G03G16                                          
  25418793.74249 133576661.93049     -2350.72349        48.000  
  22484081.08649 118154641.52749      1554.59849        49.000  
 16 04 02 12 30 57.8000000  0  2G03G16                                          
  25418838.51649 133576897.21949     -2355.03549        48.000  
  22484051.53949 118154486.30949      1549.91849        49.000  
 16 04 02 12 30 57.9000000  0  2G03G16                                          
  25418883.35949 133577132.85949     -2358.57049        48.000  
  22484022.07049 118154331.48049      1545.95349        49.000  
 16 04 02 12 30 58.0000000  0  2G03G16                                          
  25418928.28149 133577368.94949     -2362.82049        48.000  
  22483992.69549 118154177.09849      1541.69549        49.000  
 16 04 02 12 30 58.1000000  0  2G03G16                                          
  25418973.29749 133577605.44949     -2367.11749        48.000  
  22483963.40649 118154023.17649      1536.99649        49.000  
 16 04 02 12 30 58.2000000  0  2G03G16                                          
  25419018.35949 133577842.29349     -2370.48849        48.000  
  22483934.19549 118153869.63749      1533.22349        49.000  
 16 04 02 12 30 58.3000000  0  2G03G16                                          
  25419063.50849 133578079.55949     -2374.73049        48.000  
  22483905.05549 118153716.52749      1528.77749        49.000  
 16 04 02 12 30 58.4000000  0  2G03G16                                          
  25419108.74249 133578317.27749     -2379.29349        48.000  
  22483876.02349 118153563.90649      1523.99249        49.000  
 16 04 02 12 30 58.5000000  0  2G03G16                                          
  25419154.07049 133578555.43449     -2383.68049        48.000  
  22483847.07049 118153411.76249      1519.12549        49.000  
 16 04 02 12 30 58.6000000  0  2G03G16                                          
  25419199.45349 133578793.95349     -2387.30949        48.000  
  22483818.18849 118153259.98449      1515.45749        49.000  
 16 04 02 12 30 58.7000000  0  2G03G16                                          
  25419244.93049 133579032.86749     -2391.09049        48.000  
  22483789.39149 118153108.65649      1511.23449        49.000  
 16 04 02 12 30 58.8000000  0  2G03G16                                          
  25419290.46149 133579272.15249     -2394.82849        48.000  
  22483760.66449 118152957.71549      1507.25449        49.000  
 16 04 02 12 30 58.9000000  0  2G03G16                                          
  25419336.08649 133579511.93049     -2399.97349        49.000  
  22483732.03949 118152807.28949      1502.08249        49.000  
 16 04 02 12 30 59.0000000  0  2G03G16                                          
  25419381.79749 133579752.11349     -2404.04749        48.000  
  22483703.50049 118152657.31249      1497.46949        49.000  
 16 04 02 12 30 59.1000000  0  2G03G16                                          
  25419427.55549 133579992.60249     -2406.90649        48.000  
  22483675.02349 118152507.66849      1494.16049        49.000  
 16 04 02 12 30 59.2000000  0  2G03G16                                          
  25419473.41449 133580233.59449     -2411.96949        48.000  
  22483646.64849 118152358.53949      1488.94949        49.000  
 16 04 02 12 30 59.3000000  0  2G03G16                                          
  25419519.35249 133580474.99249     -2415.98849        48.000  
  22483618.35949 118152209.87149      1484.62149        49.000  
 16 04 02 12 30 59.4000000  0  2G03G16                                          
  25419565.35249 133580716.70349     -2419.21949        48.000  
  22483590.12549 118152061.52049      1481.27749        49.000  
 16 04 02 12 30 59.5000000  0  2G03G16                                          
  25419611.43849 133580958.84049     -2423.41449        48.000  
  22483561.98449 118151913.63349      1476.65649        49.000  
 16 04 02 12 30 59.6000000  0  2G03G16                                          
  25419657.60249 133581201.43049     -2428.00049        48.000  
  22483533.93049 118151766.23049      1471.92649        49.000  
 16 04 02 12 30 59.7000000  0  2G03G16                                          
  25419703.83649 133581444.43049     -2432.05149        48.000  
  22483505.96149 118151619.27049      1467.40249        49.000  
 16 04 02 12 30 59.8000000  0  2G03G16                                          
  25419750.15649 133581687.82849     -2436.19949        48.000  
  22483478.07849 118151472.73849      1462.91049        49.000  
 16 04 02 12 30 59.9000000  0  2G03G16                                          
  25419796.55549 133581931.62549     -2440.02749        48.000  
  22483450.27349 118151326.62949      1458.92649        49.000  
 16 04 02 12 31  0.0000000  0  2G03G16                                          
  25419843.03149 133582175.89149     -2444.89149        48.000  
  22483422.57049 118151181.01249      1453.71949        49.000  
 16 04 02 12 31  0.1000000  0  2G03G16                                          
  25419889.60249 133582420.59049     -2449.14549        48.000  
  22483394.94549 118151035.85549      1449.31649        49.000  
 16 04 02 12 31  0.2000000  0  2G03G16                                          
  25419936.22749 133582665.60549     -2452.34849        48.000  
  22483367.39149 118150891.05949      1445.67249        49.000  
 16 04 02 12 31  0.3000000  0  2G03G16                                          
  25419982.93849 133582911.13749     -2457.47749        48.000  
  22483339.93849 118150746.79349      1440.25849        49.000  
 16 04 02 12 31  0.4000000  0  2G03G16                                          
  25420029.74249 133583157.09849     -2461.82449        48.000  
  22483312.57849 118150602.99249      1435.68449        49.000  
 16 04 02 12 31  0.5000000  0  2G03G16                                          
  25420076.63349 133583403.45349     -2465.70349        48.000  
  22483285.28949 118150459.60249      1431.60949        49.000  
 16 04 02 12 31  0.6000000  0  2G03G16                                          
  25420123.58649 133583650.21549     -2469.78149        49.000  
  22483258.08649 118150316.66449      1427.16849        49.000  
 16 04 02 12 31  0.7000000  0  2G03G16                                          
  25420170.62549 133583897.41449     -2474.08649        49.000  
  22483230.97749 118150174.19149      1422.49649        49.000  
 16 04 02 12 31  0.8000000  0  2G03G16                                          
  25420217.74249 133584144.99249     -2477.68449        48.000  
  22483203.93049 118150032.11349      1418.70349        49.000  
 16 04 02 12 31  0.9000000  0  2G03G16                                          
  25420264.92249 133584392.95749     -2481.83649        49.000  
  22483176.97749 118149890.46949      1414.16849        49.000  
 16 04 02 12 31  1.0000000  0  2G03G16                                          
  25420312.17249 133584641.26249     -2484.97349        49.000  
  22483150.08649 118149749.17249      1410.78549        49.000  
 16 04 02 12 31  1.1000000  0  1G16                                             
  22483123.28949 118149608.37149      1405.82849        49.000  
 16 04 02 12 31  1.2000000  0  1G16                                             
  22483096.57849 118149467.97349      1401.64149        49.000  
 16 04 02 12 31  1.3000000  0  1G16                                             
  22483069.93849 118149327.99249      1397.55149        49.000  
 16 04 02 12 31  1.4000000  0  1G16                                             
  22483043.39149 118149188.45749      1393.09449        49.000  
 16 04 02 12 31  1.5000000  0  1G16                                             
  22483016.92249 118149049.37149      1388.88749        49.000  
 16 04 02 12 31  1.6000000  0  1G16                                             
  22482990.55549 118148910.79349      1383.13749        49.000  
 16 04 02 12 31  1.7000000  0  1G16                                             
  22482964.25849 118148772.60549      1379.64149        49.000  
 16 04 02 12 31  1.8000000  0  1G16                                             
  22482938.04749 118148634.80549      1375.73849        49.000  
 16 04 02 12 31  1.9000000  0  1G16                                             
  22482911.92249 118148497.52749      1370.50049        49.000  
 16 04 02 12 31  2.0000000  0  1G16                                             
  22482885.88349 118148360.70349      1365.66049        49.000  
 16 04 02 12 31  2.1000000  0  1G16                                             
  22482859.92249 118148224.30549      1361.77049        49.000  
 16 04 02 12 31  2.2000000  0  1G16                                             
  22482834.04749 118148088.34449      1357.36749        49.000  
 16 04 02 12 31  2.3000000  0  1G16                                             
  22482808.25849 118147952.82449      1352.94949        49.000  
 16 04 02 12 31  2.4000000  0  1G16                                             
  22482782.55549 118147817.73049      1348.55149        49.000  
 16 04 02 12 31  2.5000000  0  1G16                                             
  22482756.93049 118147683.06649      1344.48049        49.000  
 16 04 02 12 31  2.6000000  0  1G16                                             
  22482731.38349 118147548.81249      1340.28149        49.000  
 16 04 02 12 31  2.7000000  0  1G16                                             
  22482705.92249 118147415.02749      1335.64849        49.000  
 16 04 02 12 31  2.8000000  0  1G16                                             
  22482680.54749 118147281.69149      1331.13349        49.000  
 16 04 02 12 31  2.9000000  0  1G16                                             
  22482655.25049 118147148.76649      1326.92649        49.000  
 16 04 02 12 31  3.0000000  0  1G16                                             
  22482630.03149 118147016.24649      1323.06249        49.000  
 16 04 02 12 31  3.1000000  0  1G16                                             
  22482604.90649 118146884.21549      1317.96949        49.000  
 16 04 02 12 31  3.2000000  0  1G16                                             
  22482579.87549 118146752.63749      1313.52349        49.000  
 16 04 02 12 31  3.3000000  0  1G16                                             
  22482554.92249 118146621.53149      1308.78949        49.000  
 16 04 02 12 31  3.4000000  0  1G16                                             
  22482530.04749 118146490.78549      1305.35249        49.000  
 16 04 02 12 31  3.5000000  0  1G16                                             
  22482505.25849 118146360.52049      1300.70349        49.000  
 16 04 02 12 31  3.6000000  0  1G16                                             
  22482480.54749 118146230.66049      1296.30949        49.000  
 16 04 02 12 31  3.7000000  0  1G16                                             
  22482455.93049 118146101.32849      1290.94549        49.000  
 16 04 02 12 31  3.8000000  0  1G16                                             
  22482431.39849 118145972.38349      1287.24249        49.000  
 16 04 02 12 31  3.9000000  0  1G16                                             
  22482406.94549 118145843.88749      1282.56249        49.000  
 16 04 02 12 31  4.0000000  0  1G16                                             
  22482382.57049 118145715.79749      1278.79749        49.000  
 16 04 02 12 31  4.1000000  0  1G16                                             
  22482358.26649 118145588.08649      1274.96149        49.000  
 16 04 02 12 31  4.2000000  0  1G16                                             
  22482334.06249 118145460.86749      1270.09849        49.000  
 16 04 02 12 31  4.3000000  0  1G16                                             
  22482309.93849 118145334.09049      1265.36349        49.000  
 16 04 02 12 31  4.4000000  0  1G16                                             
  22482285.90649 118145207.77749      1260.88349        49.000  
 16 04 02 12 31  4.5000000  0  1G16                                             
  22482261.95349 118145081.88349      1256.67249        49.000  
 16 04 02 12 31  4.6000000  0  1G16                                             
  22482238.07049 118144956.41049      1252.44549        49.000  
 16 04 02 12 31  4.7000000  0  1G16                                             
  22482214.28949 118144831.42649      1247.67649        49.000  
 16 04 02 12 31  4.8000000  0  1G16                                             
  22482190.58649 118144706.89849      1243.11349        49.000  
 16 04 02 12 31  4.9000000  0  1G16                                             
  22482166.95349 118144582.73049      1239.55949        49.000  
 16 04 02 12 31  5.0000000  0  1G16                                             
  22482143.42249 118144459.05949      1234.57449        49.000  
 16 04 02 12 31  5.1000000  0  1G16                                             
  22482119.96949 118144335.78149      1230.54749        49.000  
 16 04 02 12 31  5.2000000  0  1G16                                             
  22482096.60949 118144213.02349      1225.33249        49.000  
 16 04 02 12 31  5.3000000  0  1G16                                             
  22482073.32049 118144090.64549      1221.32449        49.000  
 16 04 02 12 31  5.4000000  0  1G16                                             
  22482050.10249 118143968.64149      1217.96549        49.000  
 16 04 02 12 31  5.5000000  0  1G16                                             
  22482026.97749 118143847.12149      1212.97749        49.000  
 16 04 02 12 31  5.6000000  0  1G16                                             
  22482003.94549 118143726.08249      1208.33649        49.000  
 16 04 02 12 31  5.7000000  0  1G16                                             
  22481980.99249 118143605.45749      1203.93449        49.000  
 16 04 02 12 31  5.8000000  0  1G16                                             
  22481958.10949 118143485.21149      1200.29349        49.000  
 16 04 02 12 31  5.9000000  0  1G16                                             
  22481935.32849 118143365.50849      1194.77749        49.000  
 16 04 02 12 31  6.0000000  0  1G16                                             
  22481912.63349 118143246.21149      1190.57049        49.000  
 16 04 02 12 31  6.1000000  0  1G16                                             
  22481890.00849 118143127.34049      1186.39149        49.000  
 16 04 02 12 31  6.2000000  0  1G16                                             
  22481867.49249 118143008.94149      1181.79349        49.000  
 16 04 02 12 31  6.3000000  0  1G16                                             
  22481845.03149 118142890.91049      1178.16449        49.000  
 16 04 02 12 31  6.4000000  0  1G16                                             
  22481822.64149 118142773.30949      1174.01249        49.000  
 16 04 02 12 31  6.5000000  0  1G16                                             
  22481800.34449 118142656.13349      1169.63349        49.000  
 16 04 02 12 31  6.6000000  0  1G16                                             
  22481778.13349 118142539.43449      1164.71549        49.000  
 16 04 02 12 31  6.7000000  0  1G16                                             
  22481756.00849 118142423.15649      1160.36749        49.000  
 16 04 02 12 31  6.8000000  0  1G16                                             
  22481733.96949 118142307.34449      1156.05549        49.000  
 16 04 02 12 31  6.9000000  0  1G16                                             
  22481712.00849 118142191.93849      1151.69549        49.000  
 16 04 02 12 31  7.0000000  0  1G16                                             
  22481690.14149 118142077.00049      1147.31649        49.000  
 16 04 02 12 31  7.1000000  0  1G16                                             
  22481668.34449 118141962.48049      1142.99649        49.000  
 16 04 02 12 31  7.2000000  0  1G16                                             
  22481646.63349 118141848.43849      1138.02749        49.000  
 16 04 02 12 31  7.3000000  0  1G16                                             
  22481625.00049 118141734.75849      1134.48449        49.000  
 16 04 02 12 31  7.4000000  0  1G16                                             
  22481603.46949 118141621.63749      1128.78549        49.000  
 16 04 02 12 31  7.5000000  0  1G16                                             
  22481582.02349 118141508.96549      1124.51649        49.000  
 16 04 02 12 31  7.6000000  0  1G16                                             
  22481560.64849 118141396.64549      1120.88749        49.000  
 16 04 02 12 31  7.7000000  0  1G16                                             
  22481539.36749 118141284.79349      1116.73049        49.000  
 16 04 02 12 31  7.8000000  0  1G16                                             
  22481518.15649 118141173.35949      1111.95749        49.000  
 16 04 02 12 31  7.9000000  0  1G16                                             
  22481497.03949 118141062.38349      1107.52749        49.000  
 16 04 02 12 31  8.0000000  0  1G16                                             
  22481476.00849 118140951.84449      1103.35549        49.000  
 16 04 02 12 31  8.1000000  0  1G16                                             
  22481455.05549 118140841.74649      1098.57449        49.000  
 16 04 02 12 31  8.2000000  0  1G16                                             
  22481434.19549 118140732.09449      1094.28149        49.000  
 16 04 02 12 31  8.3000000  0  1G16                                             
  22481413.41449 118140622.87149      1089.95349        49.000  
 16 04 02 12 31  8.4000000  0  1G16                                             
  22481392.70349 118140514.07449      1085.79349        49.000  
 16 04 02 12 31  8.5000000  0  1G16                                             
  22481372.09449 118140405.77349      1080.77749        49.000  
 16 04 02 12 31  8.6000000  0  1G16                                             
  22481351.56249 118140297.86349      1076.89549        49.000  
 16 04 02 12 31  8.7000000  0  1G16                                             
  22481331.10949 118140190.38349      1072.55149        49.000  
 16 04 02 12 31  8.8000000  0  1G16                                             
  22481310.73449 118140083.30949      1068.57449        49.000  
 16 04 02 12 31  8.9000000  0  1G16                                             
  22481290.45349 118139976.71149      1063.61349        49.000  
 16 04 02 12 31  9.0000000  0  1G16                                             
  22481270.25849 118139870.56649      1059.25849        49.000  
 16 04 02 12 31  9.1000000  0  1G16                                             
  22481250.13349 118139764.82449      1055.06249        49.000  
 16 04 02 12 31  9.2000000  0  1G16                                             
  22481230.09449 118139659.54749      1050.49649        49.000  
 16 04 02 12 31  9.3000000  0  1G16                                             
  22481210.14849 118139554.72349      1045.89149        49.000  
 16 04 02 12 31  9.4000000  0  1G16                                             
  22481190.28149 118139450.32449      1041.65649        49.000  
 16 04 02 12 31  9.5000000  0  1G16                                             
  22481170.49249 118139346.35549      1037.38349        49.000  
 16 04 02 12 31  9.6000000  0  1G16                                             
  22481150.80549 118139242.88349      1032.53549        49.000  
 16 04 02 12 31  9.7000000  0  1G16                                             
  22481131.18849 118139139.81649      1028.30149        49.000  
 16 04 02 12 31  9.8000000  0  1G16                                             
  22481111.66449 118139037.20749      1023.84049        49.000  
 16 04 02 12 31  9.9000000  0  1G16                                             
  22481092.21149 118138934.97749      1020.07049        49.000  
 16 04 02 12 31 10.0000000  0  1G16                                             
  22481072.85249 118138833.19549      1015.44549        49.000  
 16 04 02 12 31 10.1000000  0  1G16                                             
  22481053.57049 118138731.87149      1011.05149        49.000  
 16 04 02 12 31 10.2000000  0  1G16                                             
  22481034.38349 118138631.06249      1005.78549        49.000  
 16 04 02 12 31 10.3000000  0  1G16                                             
  22481015.27349 118138530.63349      1001.94149        49.000  
 16 04 02 12 31 10.4000000  0  1G16                                             
  22480996.25049 118138430.68849       997.13749        49.000  
 16 04 02 12 31 10.5000000  0  1G16                                             
  22480977.30549 118138331.14849       993.20349        49.000  
 16 04 02 12 31 10.6000000  0  1G16                                             
  22480958.44549 118138232.05549       988.66049        49.000  
 16 04 02 12 31 10.7000000  0  1G16                                             
  22480939.68049 118138133.42249       984.15649        49.000  
 16 04 02 12 31 10.8000000  0  1G16                                             
  22480920.98449 118138035.18449       980.25049        49.000  
 16 04 02 12 31 10.9000000  0  1G16                                             
  22480902.35949 118137937.31649       976.55949        49.000  
 16 04 02 12 31 11.0000000  0  1G16                                             
  22480883.82849 118137839.93849       971.84449        49.000  
 16 04 02 12 31 11.1000000  0  1G16                                             
  22480865.36749 118137742.93849       967.75049        49.000  
 16 04 02 12 31 11.2000000  0  1G16                                             
  22480847.00849 118137646.42649       963.09449        49.000  
 16 04 02 12 31 11.3000000  0  1G16                                             
  22480828.71949 118137550.32049       958.71549        49.000  
 16 04 02 12 31 11.4000000  0  1G16                                             
  22480810.52349 118137454.72749       953.50049        49.000  
 16 04 02 12 31 11.5000000  0  1G16                                             
  22480792.41449 118137359.54349       949.55549        49.000  
 16 04 02 12 31 11.6000000  0  1G16                                             
  22480774.39149 118137264.87149       944.38749        49.000  
 16 04 02 12 31 11.7000000  0  1G16                                             
  22480756.45349 118137170.59849       940.53549        49.000  
 16 04 02 12 31 11.8000000  0  1G16                                             
  22480738.60249 118137076.79749       935.64849        49.000  
 16 04 02 12 31 11.9000000  0  1G16                                             
  22480720.82849 118136983.39849       931.75049        49.000  
 16 04 02 12 31 12.0000000  0  1G16                                             
  22480703.13349 118136890.41849       927.46549        49.000  
 16 04 02 12 31 12.1000000  0  1G16                                             
  22480685.53149 118136797.93849       922.69149        49.000  
 16 04 02 12 31 12.2000000  0  1G16                                             
  22480668.01649 118136705.85549       918.34849        49.000  
 16 04 02 12 31 12.3000000  0  1G16                                             
  22480650.56249 118136614.17649       914.63349        49.000  
 16 04 02 12 31 12.4000000  0  1G16                                             
  22480633.21149 118136522.98049       909.63749        49.000  
 16 04 02 12 31 12.5000000  0  1G16                                             
  22480615.94549 118136432.27049       904.91049        49.000  
 16 04 02 12 31 12.6000000  0  1G16                                             
  22480598.75049 118136341.89149       901.54749        49.000  
 16 04 02 12 31 12.7000000  0  1G16                                             
  22480581.64149 118136251.96149       897.05949        49.000  
 16 04 02 12 31 12.8000000  0  1G16                                             
  22480564.61749 118136162.51649       892.34049        49.000  
 16 04 02 12 31 12.9000000  0  1G16                                             
  22480547.67249 118136073.47349       888.29749        49.000  
 16 04 02 12 31 13.0000000  0  1G16                                             
  22480530.81249 118135984.86749       883.71149        49.000  
 16 04 02 12 31 13.1000000  0  1G16                                             
  22480514.03949 118135896.75049       878.87149        49.000  
 16 04 02 12 31 13.2000000  0  1G16                                             
  22480497.35249 118135809.07049       874.58249        49.000  
 16 04 02 12 31 13.3000000  0  1G16                                             
  22480480.74249 118135721.79749       870.44549        49.000  
 16 04 02 12 31 13.4000000  0  1G16                                             
  22480464.21949 118135634.97349       866.18849        49.000  
 16 04 02 12 31 13.5000000  0  1G16                                             
  22480447.78149 118135548.58649       861.41849        49.000  
 16 04 02 12 31 13.6000000  0  1G16                                             
  22480431.43849 118135462.70749       856.36349        49.000  
 16 04 02 12 31 13.7000000  0  1G16                                             
  22480415.18049 118135377.26249       852.17649        49.000  
 16 04 02 12 31 13.8000000  0  1G16                                             
  22480399.00049 118135292.21949       848.19949        49.000  
 16 04 02 12 31 13.9000000  0  1G16                                             
  22480382.89149 118135207.59049       844.15249        49.000  
 16 04 02 12 31 14.0000000  0  1G16                                             
  22480366.86749 118135123.38749       839.95749        49.000  
 16 04 02 12 31 14.1000000  0  1G16                                             
  22480350.93049 118135039.64149       835.23449        49.000  
 16 04 02 12 31 14.2000000  0  1G16                                             
  22480335.08649 118134956.35249       830.61349        49.000  
 16 04 02 12 31 14.3000000  0  1G16                                             
  22480319.32049 118134873.52349       825.93449        49.000  
 16 04 02 12 31 14.4000000  0  1G16                                             
  22480303.64849 118134791.15649       821.50849        49.000  
 16 04 02 12 31 14.5000000  0  1G16                                             
  22480288.03949 118134709.12949       817.99649        49.000  
 16 04 02 12 31 14.6000000  0  1G16                                             
  22480272.53149 118134627.60249       813.02049        49.000  
 16 04 02 12 31 14.7000000  0  1G16                                             
  22480257.09449 118134546.50449       808.65249        49.000  
 16 04 02 12 31 14.8000000  0  1G16                                             
  22480241.75049 118134465.82849       804.62949        49.000  
 16 04 02 12 31 14.9000000  0  1G16                                             
  22480226.47749 118134385.59049       800.16849        49.000  
 16 04 02 12 31 15.0000000  0  1G16                                             
  22480211.29749 118134305.79349       795.75449        49.000  
 16 04 02 12 31 15.1000000  0  1G16                                             
  22480196.18849 118134226.41849       791.50049        49.000  
 16 04 02 12 31 15.2000000  0  1G16                                             
  22480181.18049 118134147.54349       786.44149        49.000  
 16 04 02 12 31 15.3000000  0  1G16                                             
  22480166.24249 118134069.08249       782.23849        49.000  
 16 04 02 12 31 15.4000000  0  1G16                                             
  22480151.40649 118133991.08249       777.68049        49.000  
 16 04 02 12 31 15.5000000  0  1G16                                             
  22480136.64149 118133913.48449       773.81249        49.000  
 16 04 02 12 31 15.6000000  0  1G16                                             
  22480121.96149 118133836.32849       769.34049        49.000  
 16 04 02 12 31 15.7000000  0  1G16                                             
  22480107.35949 118133759.62149       764.82849        49.000  
 16 04 02 12 31 15.8000000  0  1G16                                             
  22480092.84449 118133683.33649       760.66049        49.000  
 16 04 02 12 31 15.9000000  0  1G16                                             
  22480078.39849 118133607.42649       756.64149        49.000  
 16 04 02 12 31 16.0000000  0  1G16                                             
  22480064.07049 118133532.11349       751.17249        49.000  
 16 04 02 12 31 16.1000000  0  1G16                                             
  22480049.79749 118133457.10249       747.80949        49.000  
 16 04 02 12 31 16.2000000  0  1G16                                             
  22480035.60249 118133382.50849       743.79349        49.000  
 16 04 02 12 31 16.3000000  0  1G16                                             
  22480021.50049 118133308.39549       739.08649        49.000  
 16 04 02 12 31 16.4000000  0  1G16                                             
  22480007.46949 118133234.67249       734.84849        49.000  
 16 04 02 12 31 16.5000000  0  1G16                                             
  22479993.53949 118133161.46949       729.82849        49.000  
 16 04 02 12 31 16.6000000  0  1G16                                             
  22479979.68849 118133088.68449       725.68049        49.000  
 16 04 02 12 31 16.7000000  0  1G16                                             
  22479965.91449 118133016.28149       721.71949        49.000  
 16 04 02 12 31 16.8000000  0  1G16                                             
  22479952.22749 118132944.36749       716.94549        49.000  
 16 04 02 12 31 16.9000000  0  1G16                                             
  22479938.61749 118132872.83249       713.14149        49.000  
 16 04 02 12 31 17.0000000  0  1G16                                             
  22479925.08649 118132801.74649       708.77349        49.000  
 16 04 02 12 31 17.1000000  0  1G16                                             
  22479911.64849 118132731.13749       703.77349        49.000  
 16 04 02 12 31 17.2000000  0  1G16                                             
  22479898.29749 118132660.97749       699.48049        49.000  
 16 04 02 12 31 17.3000000  0  1G16                                             
  22479885.02349 118132591.21549       695.31649        49.000  
 16 04 02 12 31 17.4000000  0  1G16                                             
  22479871.82849 118132521.88749       690.98849        49.000  
 16 04 02 12 31 17.5000000  0  1G16                                             
  22479858.72749 118132453.05149       686.04349        49.000  
 16 04 02 12 31 17.6000000  0  1G16                                             
  22479845.71949 118132384.67249       681.52749        49.000  
 16 04 02 12 31 17.7000000  0  1G16                                             
  22479832.79749 118132316.78149       676.46149        49.000  
 16 04 02 12 31 17.8000000  0  1G16                                             
  22479819.96949 118132249.34849       671.94949        49.000  
 16 04 02 12 31 17.9000000  0  1G16                                             
  22479807.20349 118132182.29749       668.36349        49.000  
 16 04 02 12 31 18.0000000  0  1G16                                             
  22479794.51649 118132115.65249       664.28949        49.000  
 16 04 02 12 31 18.1000000  0  1G16                                             
  22479781.92249 118132049.44949       659.93049        49.000  
 16 04 02 12 31 18.2000000  0  1G16                                             
  22479769.40649 118131983.70749       655.30549        49.000  
 16 04 02 12 31 18.3000000  0  1G16                                             
  22479756.96149 118131918.30949       651.82049        49.000  
 16 04 02 12 31 18.4000000  0  1G16                                             
  22479744.60949 118131853.35549       647.45349        49.000  
 16 04 02 12 31 18.5000000  0  1G16                                             
  22479732.32849 118131788.84849       642.82049        49.000  
 16 04 02 12 31 18.6000000  0  1G16                                             
  22479720.14849 118131724.79749       638.30149        49.000  
 16 04 02 12 31 18.7000000  0  1G16                                             
  22479708.05549 118131661.23849       633.26649        49.000  
 16 04 02 12 31 18.8000000  0  1G16                                             
  22479696.03949 118131598.08649       629.36349        49.000  
 16 04 02 12 31 18.9000000  0  1G16                                             
  22479684.10249 118131535.36749       624.87149        49.000  
 16 04 02 12 31 19.0000000  0  1G16                                             
  22479672.25849 118131473.10249       620.41449        49.000  
 16 04 02 12 31 19.1000000  0  1G16                                             
  22479660.49249 118131411.25849       616.15249        49.000  
 16 04 02 12 31 19.2000000  0  1G16                                             
  22479648.80549 118131349.86749       611.68049        49.000  
 16 04 02 12 31 19.3000000  0  1G16                                             
  22479637.20349 118131288.89149       607.62149        49.000  
 16 04 02 12 31 19.4000000  0  1G16                                             
  22479625.68849 118131228.36349       602.82049        49.000  
 16 04 02 12 31 19.5000000  0  1G16                                             
  22479614.25049 118131168.25449       599.03549        49.000  
 16 04 02 12 31 19.6000000  0  1G16                                             
  22479602.89149 118131108.56249       594.77349        49.000  
 16 04 02 12 31 19.7000000  0  1G16                                             
  22479591.61749 118131049.34049       589.95749        49.000  
 16 04 02 12 31 19.8000000  0  1G16                                             
  22479580.43849 118130990.61749       584.93449        49.000  
 16 04 02 12 31 19.9000000  0  1G16                                             
  22479569.33649 118130932.28549       580.86749        49.000  
 16 04 02 12 31 20.0000000  0  1G16                                             
  22479558.32049 118130874.41449       576.48449        49.000  
 16 04 02 12 31 20.1000000  0  1G16                                             
  22479547.38349 118130816.95349       572.41449        49.000  
 16 04 02 12 31 20.2000000  0  1G16                                             
  22479536.53149 118130759.92249       568.14149        49.000  
 16 04 02 12 31 20.3000000  0  1G16                                             
  22479525.76649 118130703.33649       563.41049        49.000  
 16 04 02 12 31 20.4000000  0  1G16                                             
  22479515.08649 118130647.21149       559.00449        49.000  
 16 04 02 12 31 20.5000000  0  1G16                                             
  22479504.48449 118130591.52749       554.57849        49.000  
 16 04 02 12 31 20.6000000  0  1G16                                             
  22479493.96149 118130536.24649       550.53549        49.000  
 16 04 02 12 31 20.7000000  0  1G16                                             
  22479483.53949 118130481.46949       545.60949        49.000  
 16 04 02 12 31 20.8000000  0  1G16                                             
  22479473.18849 118130427.03549       542.27049        49.000  
 16 04 02 12 31 20.9000000  0  1G16                                             
  22479462.92249 118130373.09449       537.25049        49.000  
 16 04 02 12 31 21.0000000  0  1G16                                             
  22479452.73449 118130319.57849       533.10249        49.000  
 16 04 02 12 31 21.1000000  0  1G16                                             
  22479442.62549 118130266.43049       529.07849        49.000  
 16 04 02 12 31 21.2000000  0  1G16                                             
  22479432.58649 118130213.71149       525.03549        49.000  
 16 04 02 12 31 21.3000000  0  1G16                                             
  22479422.64149 118130161.44549       520.56249        49.000  
 16 04 02 12 31 21.4000000  0  1G16                                             
  22479412.78149 118130109.62149       515.89149        49.000  
 16 04 02 12 31 21.5000000  0  1G16                                             
  22479403.00049 118130058.24249       511.46949        49.000  
 16 04 02 12 31 21.6000000  0  1G16                                             
  22479393.30549 118130007.26649       507.33249        49.000  
 16 04 02 12 31 21.7000000  0  1G16                                             
  22479383.71149 118129956.82849       502.07849        49.000  
 16 04 02 12 31 21.8000000  0  1G16                                             
  22479374.19549 118129906.78549       498.18449        49.000  
 16 04 02 12 31 21.9000000  0  1G16                                             
  22479364.75049 118129857.15649       494.07449        49.000  
 16 04 02 12 31 22.0000000  0  1G16                                             
  22479355.39849 118129807.99649       489.54749        49.000  
 16 04 02 12 31 22.1000000  0  1G16                                             
  22479346.11749 118129759.22749       485.48849        49.000  
 16 04 02 12 31 22.2000000  0  1G16                                             
  22479336.91449 118129710.87549       481.41049        49.000  
 16 04 02 12 31 22.3000000  0  1G16                                             
  22479327.79749 118129662.94549       477.13349        49.000  
 16 04 02 12 31 22.4000000  0  1G16                                             
  22479318.77349 118129615.53549       471.57849        49.000  
 16 04 02 12 31 22.5000000  0  1G16                                             
  22479309.83649 118129568.55149       467.48049        49.000  
 16 04 02 12 31 22.6000000  0  1G16                                             
  22479300.98449 118129522.03149       462.90649        49.000  
 16 04 02 12 31 22.7000000  0  1G16                                             
  22479292.21949 118129475.99649       458.02749        49.000  
 16 04 02 12 31 22.8000000  0  1G16                                             
  22479283.53149 118129430.31249       454.55549        49.000  
 16 04 02 12 31 22.9000000  0  1G16                                             
  22479274.92249 118129385.10249       450.01649        49.000  
 16 04 02 12 31 23.0000000  0  1G16                                             
  22479266.41449 118129340.38349       444.95349        49.000  
 16 04 02 12 31 23.1000000  0  1G16                                             
  22479257.99249 118129296.10249       440.56249        49.000  
 16 04 02 12 31 23.2000000  0  1G16                                             
  22479249.63349 118129252.18449       436.86349        49.000  
 16 04 02 12 31 23.3000000  0  1G16                                             
  22479241.35249 118129208.68049       432.91849        49.000  
 16 04 02 12 31 23.4000000  0  1G16                                             
  22479233.16449 118129165.63749       428.36749        49.000  
 16 04 02 12 31 23.5000000  0  1G16                                             
  22479225.05549 118129122.99649       423.98449        49.000  
 16 04 02 12 31 23.6000000  0  1G16                                             
  22479217.03949 118129080.85249       418.95749        49.000  
 16 04 02 12 31 23.7000000  0  1G16                                             
  22479209.10249 118129039.16049       414.72749        49.000  
 16 04 02 12 31 23.8000000  0  1G16                                             
  22479201.25049 118128997.89149       410.51649        49.000  
 16 04 02 12 31 23.9000000  0  1G16                                             
  22479193.47749 118128957.07049       406.01249        49.000  
 16 04 02 12 31 24.0000000  0  1G16                                             
  22479185.79749 118128916.69949       401.54349        49.000  
 16 04 02 12 31 24.1000000  0  1G16                                             
  22479178.18849 118128876.71149       397.57049        49.000  
 16 04 02 12 31 24.2000000  0  1G16                                             
  22479170.67249 118128837.24649       392.52049        49.000  
 16 04 02 12 31 24.3000000  0  1G16                                             
  22479163.22749 118128798.12549       389.02349        49.000  
 16 04 02 12 31 24.4000000  0  1G16                                             
  22479155.85949 118128759.41049       384.96949        49.000  
 16 04 02 12 31 24.5000000  0  1G16                                             
  22479148.58649 118128721.19549       380.02049        49.000  
 16 04 02 12 31 24.6000000  0  1G16                                             
  22479141.39149 118128683.41049       375.62549        49.000  
 16 04 02 12 31 24.7000000  0  1G16                                             
  22479134.28149 118128646.05549       371.36349        49.000  
 16 04 02 12 31 24.8000000  0  1G16                                             
  22479127.25849 118128609.14149       366.66849        49.000  
 16 04 02 12 31 24.9000000  0  1G16                                             
  22479120.31249 118128572.65649       362.71149        49.000  
 16 04 02 12 31 25.0000000  0  1G16                                             
  22479113.46149 118128536.61749       358.23049        49.000  
 16 04 02 12 31 25.1000000  0  1G16                                             
  22479106.68049 118128500.98849       354.08649        49.000  
 16 04 02 12 31 25.2000000  0  1G16                                             
  22479099.99249 118128465.81249       349.63749        49.000  
 16 04 02 12 31 25.3000000  0  1G16                                             
  22479093.37549 118128431.05549       345.20749        49.000  
 16 04 02 12 31 25.4000000  0  1G16                                             
  22479086.84449 118128396.71949       341.35249        49.000  
 16 04 02 12 31 25.5000000  0  1G16                                             
  22479080.39149 118128362.82849       336.66449        49.000  
 16 04 02 12 31 25.6000000  0  1G16                                             
  22479074.03149 118128329.41049       332.08649        49.000  
 16 04 02 12 31 25.7000000  0  1G16                                             
  22479067.75049 118128296.38349       327.87949        49.000  
 16 04 02 12 31 25.8000000  0  1G16                                             
  22479061.56249 118128263.85249       323.21949        49.000  
 16 04 02 12 31 25.9000000  0  1G16                                             
  22479055.45349 118128231.75449       318.52349        49.000  
 16 04 02 12 31 26.0000000  0  1G16                                             
  22479049.43849 118128200.11349       314.19949        49.000  
 16 04 02 12 31 26.1000000  0  1G16                                             
  22479043.50049 118128168.92249       309.65249        49.000  
 16 04 02 12 31 26.2000000  0  1G16                                             
  22479037.64149 118128138.12949       305.62549        49.000  
 16 04 02 12 31 26.3000000  0  1G16                                             
  22479031.86749 118128107.79749       301.08249        49.000  
 16 04 02 12 31 26.4000000  0  1G16                                             
  22479026.16449 118128077.83649       297.57449        49.000  
 16 04 02 12 31 26.5000000  0  1G16                                             
  22479020.55549 118128048.35949       292.66449        49.000  
 16 04 02 12 31 26.6000000  0  1G16                                             
  22479015.03149 118128019.29349       288.26649        49.000  
 16 04 02 12 31 26.7000000  0  1G16                                             
  22479009.60249 118127990.75049       283.22349        49.000  
 16 04 02 12 31 26.8000000  0  1G16                                             
  22479004.23449 118127962.60949       278.95349        49.000  
 16 04 02 12 31 26.9000000  0  1G16                                             
  22478998.97749 118127934.96949       274.16449        49.000  
 16 04 02 12 31 27.0000000  0  1G16                                             
  22478993.78949 118127907.69949       270.40249        49.000  
 16 04 02 12 31 27.1000000  0  1G16                                             
  22478988.68049 118127880.84049       266.62149        49.000  
 16 04 02 12 31 27.2000000  0  1G16                                             
  22478983.64149 118127854.35949       262.77049        49.000  
 16 04 02 12 31 27.3000000  0  1G16                                             
  22478978.70349 118127828.41449       257.20349        49.000  
 16 04 02 12 31 27.4000000  0  1G16                                             
  22478973.84449 118127802.89149       252.81649        49.000  
 16 04 02 12 31 27.5000000  0  1G16                                             
  22478969.06249 118127777.79749       248.53949        49.000  
 16 04 02 12 31 27.6000000  0  1G16                                             
  22478964.36749 118127753.11349       244.65649        49.000  
 16 04 02 12 31 27.7000000  0  1G16                                             
  22478959.75849 118127728.87149       240.23849        49.000  
 16 04 02 12 31 27.8000000  0  1G16                                             
  22478955.21949 118127705.05549       235.87949        49.000  
 16 04 02 12 31 27.9000000  0  1G16                                             
  22478950.76649 118127681.66449       231.77049        49.000  
 16 04 02 12 31 28.0000000  0  1G16                                             
  22478946.40649 118127658.72749       227.31649        49.000  
 16 04 02 12 31 28.1000000  0  1G16                                             
  22478942.11749 118127636.18849       223.09849        49.000  
 16 04 02 12 31 28.2000000  0  1G16                                             
  22478937.90649 118127614.08249       219.01249        49.000  
 16 04 02 12 31 28.3000000  0  1G16                                             
  22478933.78949 118127592.41849       214.29349        49.000  
 16 04 02 12 31 28.4000000  0  1G16                                             
  22478929.75849 118127571.25849       209.30549        49.000  
 16 04 02 12 31 28.5000000  0  1G16                                             
  22478925.80549 118127550.47349       205.49249        49.000  
 16 04 02 12 31 28.6000000  0  1G16                                             
  22478921.93849 118127530.17249       200.80949        49.000  
 16 04 02 12 31 28.7000000  0  1G16                                             
  22478918.16449 118127510.34849       195.90649        49.000  
 16 04 02 12 31 28.8000000  0  1G16                                             
  22478914.46149 118127490.88749       192.44549        49.000  
 16 04 02 12 31 28.9000000  0  1G16                                             
  22478910.84449 118127471.85949       188.05549        49.000  
 16 04 02 12 31 29.0000000  0  1G16                                             
  22478907.31249 118127453.31249       183.27349        49.000  
 16 04 02 12 31 29.1000000  0  1G16                                             
  22478903.86749 118127435.22349       178.65249        49.000  
 16 04 02 12 31 29.2000000  0  1G16                                             
  22478900.50049 118127417.55549       174.45749        49.000  
 16 04 02 12 31 29.3000000  0  1G16                                             
  22478897.21149 118127400.27049       170.71549        49.000  
 16 04 02 12 31 29.4000000  0  1G16                                             
  22478894.01649 118127383.47749       165.63349        49.000  
 16 04 02 12 31 29.5000000  0  1G16                                             
  22478890.89149 118127367.05149       162.21949        49.000  
 16 04 02 12 31 29.6000000  0  1G16                                             
  22478887.84449 118127351.05149       157.98849        49.000  
 16 04 02 12 31 29.7000000  0  1G16                                             
  22478884.89149 118127335.52049       153.18049        49.000  
 16 04 02 12 31 29.8000000  0  1G16                                             
  22478882.01649 118127320.41849       148.73449        49.000  
 16 04 02 12 31 29.9000000  0  1G16                                             
  22478879.23449 118127305.79349       143.90649        49.000  
 16 04 02 12 31 30.0000000  0  1G16                                             
  22478876.53149 118127291.61749       139.53949        49.000  
 16 04 02 12 31 30.1000000  0  1G16                                             
  22478873.91449 118127277.84449       135.36349        49.000  
 16 04 02 12 31 30.2000000  0  1G16                                             
  22478871.38349 118127264.52049       131.14549        49.000  
 16 04 02 12 31 30.3000000  0  1G16                                             
  22478868.93849 118127251.65249       126.52749        49.000  
 16 04 02 12 31 30.4000000  0  1G16                                             
  22478866.55549 118127239.14849       122.77749        49.000  
 16 04 02 12 31 30.5000000  0  1G16                                             
  22478864.26649 118127227.10249       118.35949        49.000  
 16 04 02 12 31 30.6000000  0  1G16                                             
  22478862.07049 118127215.52349       113.51249        49.000  
 16 04 02 12 31 30.7000000  0  1G16                                             
  22478859.94549 118127204.37149       109.24649        49.000  
 16 04 02 12 31 30.8000000  0  1G16                                             
  22478857.90649 118127193.66049       104.91049        49.000  
 16 04 02 12 31 30.9000000  0  1G16                                             
  22478855.95349 118127183.37549       100.66849        49.000  
 16 04 02 12 31 31.0000000  0  1G16                                             
  22478854.07849 118127173.54749        96.05949        49.000  
 16 04 02 12 31 31.1000000  0  1G16                                             
  22478852.28949 118127164.15649        91.74249        49.000  
 16 04 02 12 31 31.2000000  0  1G16                                             
  22478850.58649 118127155.18449        87.49649        49.000  
 16 04 02 12 31 31.3000000  0  1G16                                             
  22478848.94549 118127146.58249        83.94149        49.000  
 16 04 02 12 31 31.4000000  0  1G16                                             
  22478847.40649 118127138.46149        78.93849        49.000  
 16 04 02 12 31 31.5000000  0  1G16                                             
  22478845.95349 118127130.82849        74.05949        49.000  
 16 04 02 12 31 31.6000000  0  1G16                                             
  22478844.58649 118127123.63749        69.61349        49.000  
 16 04 02 12 31 31.7000000  0  1G16                                             
  22478843.28949 118127116.81649        66.14149        49.000  
 16 04 02 12 31 31.8000000  0  1G16                                             
  22478842.05549 118127110.35949        62.51649        49.000  
 16 04 02 12 31 31.9000000  0  1G16                                             
  22478840.92249 118127104.38349        57.48849        49.000  
 16 04 02 12 31 32.0000000  0  1G16                                             
  22478839.88349 118127098.92649        52.30549        49.000  
 16 04 02 12 31 32.1000000  0  1G16                                             
  22478838.91449 118127093.83649        48.69949        49.000  
 16 04 02 12 31 32.2000000  0  1G16                                             
  22478838.02349 118127089.18049        44.35949        49.000  
 16 04 02 12 31 32.3000000  0  1G16                                             
  22478837.23449 118127085.01649        39.28149        49.000  
 16 04 02 12 31 32.4000000  0  1G16                                             
  22478836.53149 118127081.28949        34.94949        49.000  
 16 04 02 12 31 32.5000000  0  1G16                                             
  22478835.89149 118127077.93049        31.25849        49.000  
 16 04 02 12 31 32.6000000  0  1G16                                             
  22478835.34449 118127075.07049        26.41049        49.000  
 16 04 02 12 31 32.7000000  0  1G16                                             
  22478834.89149 118127072.66849        21.69149        49.000  
 16 04 02 12 31 32.8000000  0  1G16                                             
  22478834.50049 118127070.59849        18.59849        49.000  
 16 04 02 12 31 32.9000000  0  1G16                                             
  22478834.21149 118127069.09449        12.76249        49.000  
 16 04 02 12 31 33.0000000  0  1G16                                             
  22478834.00049 118127068.01649         8.54749        49.000  
 16 04 02 12 31 33.1000000  0  1G16                                             
  22478833.86749 118127067.31649         4.61349        49.000  
 16 04 02 12 31 33.2000000  0  1G16                                             
  22478833.81249 118127067.04749         0.46549        49.000  
 16 04 02 12 31 33.3000000  0  1G16                                             
  22478833.85249 118127067.25049        -4.30149        49.000  
 16 04 02 12 31 33.4000000  0  1G16                                             
  22478833.97749 118127067.92649        -9.14849        49.000  
 16 04 02 12 31 33.5000000  0  1G16                                             
  22478834.19549 118127069.06649       -13.62149        49.000  
 16 04 02 12 31 33.6000000  0  1G16                                             
  22478834.48449 118127070.59049       -17.50049        49.000  
 16 04 02 12 31 33.7000000  0  1G16                                             
  22478834.85949 118127072.55549       -21.78149        49.000  
 16 04 02 12 31 33.8000000  0  1G16                                             
  22478835.32049 118127074.97749       -26.42649        49.000  
 16 04 02 12 31 33.9000000  0  1G16                                             
  22478835.86749 118127077.84849       -31.00849        49.000  
 16 04 02 12 31 34.0000000  0  1G16                                             
  22478836.48449 118127081.10249       -34.94549        49.000  
 16 04 02 12 31 34.1000000  0  1G16                                             
  22478837.18049 118127084.78149       -38.96149        49.000  
 16 04 02 12 31 34.2000000  0  1G16                                             
  22478837.96149 118127088.85949       -42.72749        49.000  
 16 04 02 12 31 34.3000000  0  1G16                                             
  22478838.82849 118127093.42249       -47.79349        49.000  
 16 04 02 12 31 34.4000000  0  1G16                                             
  22478839.78149 118127098.44549       -52.40649        49.000  
 16 04 02 12 31 34.5000000  0  1G16                                             
  22478840.81249 118127103.85549       -56.52349        49.000  
 16 04 02 12 31 34.6000000  0  1G16                                             
  22478841.92249 118127109.68849       -60.52349        49.000  
 16 04 02 12 31 34.7000000  0  1G16                                             
  22478843.13349 118127116.02749       -65.73049        49.000  
 16 04 02 12 31 34.8000000  0  1G16                                             
  22478844.43049 118127122.86349       -70.56649        49.000  
 16 04 02 12 31 34.9000000  0  1G16                                             
  22478845.79749 118127130.03549       -74.18449        49.000  
 16 04 02 12 31 35.0000000  0  1G16                                             
  22478847.25849 118127137.71949       -78.99249        49.000  
 16 04 02 12 31 35.1000000  0  1G16                                             
  22478848.79749 118127145.78149       -82.71949        49.000  
 16 04 02 12 31 35.2000000  0  1G16                                             
  22478850.40649 118127154.29349       -87.27049        49.000  
 16 04 02 12 31 35.3000000  0  1G16                                             
  22478852.10249 118127163.20349       -91.27749        49.000  
 16 04 02 12 31 35.4000000  0  1G16                                             
  22478853.87549 118127172.55549       -95.64549        49.000  
 16 04 02 12 31 35.5000000  0  1G16                                             
  22478855.74249 118127182.34449      -100.09449        49.000  
 16 04 02 12 31 35.6000000  0  1G16                                             
  22478857.69549 118127192.60949      -104.90649        49.000  
 16 04 02 12 31 35.7000000  0  1G16                                             
  22478859.73449 118127203.33249      -109.59449        49.000  
 16 04 02 12 31 35.8000000  0  1G16                                             
  22478861.85949 118127214.50049      -114.06249        49.000  
 16 04 02 12 31 35.9000000  0  1G16                                             
  22478864.06249 118127226.10949      -118.40249        49.000  
 16 04 02 12 31 36.0000000  0  1G16                                             
  22478866.35949 118127238.15649      -122.59049        49.000  
 16 04 02 12 31 36.1000000  0  1G16                                             
  22478868.72749 118127250.60249      -126.67249        49.000  
 16 04 02 12 31 36.2000000  0  1G16                                             
  22478871.17249 118127263.50049      -131.32849        49.000  
 16 04 02 12 31 36.3000000  0  1G16                                             
  22478873.71149 118127276.80549      -135.25049        49.000  
 16 04 02 12 31 36.4000000  0  1G16                                             
  22478876.32849 118127290.58249      -140.00449        49.000  
 16 04 02 12 31 36.5000000  0  1G16                                             
  22478879.03149 118127304.78149      -144.07449        49.000  
 16 04 02 12 31 36.6000000  0  1G16                                             
  22478881.80549 118127319.39149      -148.51649        49.000  
 16 04 02 12 31 36.7000000  0  1G16                                             
  22478884.68049 118127334.48849      -153.13349        49.000  
 16 04 02 12 31 36.8000000  0  1G16                                             
  22478887.62549 118127349.95749      -156.99249        49.000  
 16 04 02 12 31 36.9000000  0  1G16                                             
  22478890.65649 118127365.87549      -161.33649        49.000  
 16 04 02 12 31 37.0000000  0  1G16                                             
  22478893.77349 118127382.25849      -165.84849        49.000  
 16 04 02 12 31 37.1000000  0  1G16                                             
  22478896.96949 118127399.04349      -170.18049        49.000  
 16 04 02 12 31 37.2000000  0  1G16                                             
  22478900.25049 118127416.30549      -174.83249        49.000  
 16 04 02 12 31 37.3000000  0  1G16                                             
  22478903.60949 118127433.96149      -179.07449        49.000  
 16 04 02 12 31 37.4000000  0  1G16                                             
  22478907.07049 118127452.13349      -183.76649        49.000  
 16 04 02 12 31 37.5000000  0  1G16                                             
  22478910.60249 118127470.67649      -187.67649        49.000  
 16 04 02 12 31 37.6000000  0  1G16                                             
  22478914.21149 118127489.65649      -191.95349        49.000  
 16 04 02 12 31 37.7000000  0  1G16                                             
  22478917.90649 118127509.07049      -196.25849        49.000  
 16 04 02 12 31 37.8000000  0  1G16                                             
  22478921.66449 118127528.82849      -199.55149        49.000  
 16 04 02 12 31 37.9000000  0  1G16                                             
  22478925.52349 118127549.09849      -204.92249        49.000  
 16 04 02 12 31 38.0000000  0  1G16                                             
  22478929.45349 118127569.78549      -209.12549        49.000  
 16 04 02 12 31 38.1000000  0  1G16                                             
  22478933.47749 118127590.93049      -213.54349        49.000  
 16 04 02 12 31 38.2000000  0  1G16                                             
  22478937.58649 118127612.49649      -217.83649        49.000  
 16 04 02 12 31 38.3000000  0  1G16                                             
  22478941.78149 118127634.55949      -222.90649        49.000  
 16 04 02 12 31 38.4000000  0  1G16                                             
  22478946.05549 118127657.03149      -226.91449        49.000  
 16 04 02 12 31 38.5000000  0  1G16                                             
  22478950.41449 118127679.94549      -231.51249        49.000  
 16 04 02 12 31 38.6000000  0  1G16                                             
  22478954.86749 118127703.34049      -236.17649        49.000  
 16 04 02 12 31 38.7000000  0  1G16                                             
  22478959.40649 118127727.20749      -241.09449        49.000  
 16 04 02 12 31 38.8000000  0  1G16                                             
  22478964.00849 118127751.38349      -243.92649        49.000  
 16 04 02 12 31 38.9000000  0  1G16                                             
  22478968.70349 118127776.03149      -248.61349        49.000  
 16 04 02 12 31 39.0000000  0  1G16                                             
  22478973.47749 118127801.10949      -252.94149        49.000  
 16 04 02 12 31 39.1000000  0  1G16                                             
  22478978.33649 118127826.64849      -257.91849        49.000  
 16 04 02 12 31 39.2000000  0  1G16                                             
  22478983.28149 118127852.64849      -262.18849        49.000  
 16 04 02 12 31 39.3000000  0  1G16                                             
  22478988.30549 118127879.02349      -266.18849        49.000  
 16 04 02 12 31 39.4000000  0  1G16                                             
  22478993.43049 118127905.93449      -271.28149        49.000  
 16 04 02 12 31 39.5000000  0  1G16                                             
  22478998.61749 118127933.22749      -275.27049        49.000  
 16 04 02 12 31 39.6000000  0  1G16                                             
  22479003.90649 118127960.98049      -279.84049        49.000  
 16 04 02 12 31 39.7000000  0  1G16                                             
  22479009.26649 118127989.17249      -284.12949        49.000  
 16 04 02 12 31 39.8000000  0  1G16                                             
  22479014.71949 118128017.82049      -288.65649        49.000  
 16 04 02 12 31 39.9000000  0  1G16                                             
  22479020.24249 118128046.84849      -292.40249        49.000  
 16 04 02 12 31 40.0000000  0  1G16                                             
  22479025.84449 118128076.27349      -296.46549        49.000  
 16 04 02 12 31 40.1000000  0  1G16                                             
  22479031.53149 118128106.13349      -300.61749        49.000  
 16 04 02 12 31 40.2000000  0  1G16                                             
  22479037.29749 118128136.43849      -305.35549        49.000  
 16 04 02 12 31 40.3000000  0  1G16                                             
  22479043.14849 118128167.19949      -309.75449        49.000  
 16 04 02 12 31 40.4000000  0  1G16                                             
  22479049.07849 118128198.33649      -313.58249        49.000  
 16 04 02 12 31 40.5000000  0  1G16                                             
  22479055.09449 118128229.96149      -318.44549        49.000  
 16 04 02 12 31 40.6000000  0  1G16                                             
  22479061.20349 118128262.03149      -323.10949        49.000  
 16 04 02 12 31 40.7000000  0  1G16                                             
  22479067.39149 118128294.53549      -327.31249        49.000  
 16 04 02 12 31 40.8000000  0  1G16                                             
  22479073.65649 118128327.48449      -331.70349        49.000  
 16 04 02 12 31 40.9000000  0  1G16                                             
  22479080.01649 118128360.88349      -336.35549        49.000  
 16 04 02 12 31 41.0000000  0  1G16                                             
  22479086.46149 118128394.73449      -340.87549        49.000  
 16 04 02 12 31 41.1000000  0  1G16                                             
  22479092.97749 118128428.99249      -344.68449        49.000  
 16 04 02 12 31 41.2000000  0  1G16                                             
  22479099.57049 118128463.64849      -348.80949        49.000  
 16 04 02 12 31 41.3000000  0  1G16                                             
  22479106.26649 118128498.82449      -354.02049        49.000  
 16 04 02 12 31 41.4000000  0  1G16                                             
  22479113.03949 118128534.40649      -358.23049        49.000  
 16 04 02 12 31 41.5000000  0  1G16                                             
  22479119.89849 118128570.46149      -362.76649        49.000  
 16 04 02 12 31 41.6000000  0  1G16                                             
  22479126.84449 118128606.95749      -367.27349        49.000  
 16 04 02 12 31 41.7000000  0  1G16                                             
  22479133.86749 118128643.87549      -371.38349        49.000  
 16 04 02 12 31 41.8000000  0  1G16                                             
  22479140.97749 118128681.22349      -375.73049        49.000  
 16 04 02 12 31 41.9000000  0  1G16                                             
  22479148.17249 118128719.04349      -380.41049        49.000  
 16 04 02 12 31 42.0000000  0  1G16                                             
  22479155.45349 118128757.29349      -384.74649        49.000  
 16 04 02 12 31 42.1000000  0  1G16                                             
  22479162.80549 118128795.92649      -388.56249        49.000  
 16 04 02 12 31 42.2000000  0  1G16                                             
  22479170.25849 118128835.10549      -394.02049        49.000  
 16 04 02 12 31 42.3000000  0  1G16                                             
  22479177.78949 118128874.66449      -397.60249        49.000  
 16 04 02 12 31 42.4000000  0  1G16                                             
  22479185.39149 118128914.63749      -402.07449        49.000  
 16 04 02 12 31 42.5000000  0  1G16                                             
  22479193.07849 118128955.05549      -406.38749        49.000  
 16 04 02 12 31 42.6000000  0  1G16                                             
  22479200.85249 118128995.88749      -410.27749        49.000  
 16 04 02 12 31 42.7000000  0  1G16                                             
  22479208.71149 118129037.19149      -415.53949        49.000  
 16 04 02 12 31 42.8000000  0  1G16                                             
  22479216.66449 118129078.95749      -419.93049        49.000  
 16 04 02 12 31 42.9000000  0  1G16                                             
  22479224.68849 118129121.13349      -423.91849        49.000  
 16 04 02 12 31 43.0000000  0  1G16                                             
  22479232.78149 118129163.70749      -427.96949        49.000  
 16 04 02 12 31 43.1000000  0  1G16                                             
  22479240.96149 118129206.71149      -432.12549        49.000  
 16 04 02 12 31 43.2000000  0  1G16                                             
  22479249.24249 118129250.19949      -437.18049        49.000  
 16 04 02 12 31 43.3000000  0  1G16                                             
  22479257.59449 118129294.10949      -441.52749        49.000  
 16 04 02 12 31 43.4000000  0  1G16                                             
  22479266.02349 118129338.40249      -444.86349        49.000  
 16 04 02 12 31 43.5000000  0  1G16                                             
  22479274.53949 118129383.15249      -449.77349        49.000  
 16 04 02 12 31 43.6000000  0  1G16                                             
  22479283.15649 118129428.41849      -454.93849        49.000  
 16 04 02 12 31 43.7000000  0  1G16                                             
  22479291.84449 118129474.10249      -459.26249        49.000  
 16 04 02 12 31 43.8000000  0  1G16                                             
  22479300.62549 118129520.21949      -463.41449        49.000  
 16 04 02 12 31 43.9000000  0  1G16                                             
  22479309.48449 118129566.77349      -467.73049        49.000  
 16 04 02 12 31 44.0000000  0  1G16                                             
  22479318.43049 118129613.78949      -472.27049        49.000  
 16 04 02 12 31 44.1000000  0  1G16                                             
  22479327.45349 118129661.19149      -476.46949        49.000  
 16 04 02 12 31 44.2000000  0  1G16                                             
  22479336.56249 118129709.07849      -481.11349        49.000  
 16 04 02 12 31 44.3000000  0  1G16                                             
  22479345.75049 118129757.34449      -484.79749        49.000  
 16 04 02 12 31 44.4000000  0  1G16                                             
  22479355.01649 118129806.04349      -489.18849        49.000  
 16 04 02 12 31 44.5000000  0  1G16                                             
  22479364.35949 118129855.15249      -493.25049        49.000  
 16 04 02 12 31 44.6000000  0  1G16                                             
  22479373.79749 118129904.70349      -497.75449        49.000  
 16 04 02 12 31 44.7000000  0  1G16                                             
  22479383.31249 118129954.71549      -502.18849        49.000  
 16 04 02 12 31 44.8000000  0  1G16                                             
  22479392.90649 118130005.16449      -506.77749        49.000  
 16 04 02 12 31 44.9000000  0  1G16                                             
  22479402.59449 118130056.03949      -511.05149        49.000  
 16 04 02 12 31 45.0000000  0  1G16                                             
  22479412.35249 118130107.31649      -514.94949        49.000  
 16 04 02 12 31 45.1000000  0  1G16                                             
  22479422.20349 118130159.07049      -519.67249        49.000  
 16 04 02 12 31 45.2000000  0  1G16                                             
  22479432.12549 118130211.21149      -523.62949        49.000  
 16 04 02 12 31 45.3000000  0  1G16                                             
  22479442.13349 118130263.79349      -528.03949        49.000  
 16 04 02 12 31 45.4000000  0  1G16                                             
  22479452.22749 118130316.83249      -532.55149        49.000  
 16 04 02 12 31 45.5000000  0  1G16                                             
  22479462.39849 118130370.27049      -536.68049        49.000  
 16 04 02 12 31 45.6000000  0  1G16                                             
  22479472.66449 118130424.22749      -541.64549        49.000  
 16 04 02 12 31 45.7000000  0  1G16                                             
  22479482.99249 118130478.51249      -545.14149        49.000  
 16 04 02 12 31 45.8000000  0  1G16                                             
  22479493.41449 118130533.26649      -549.73049        49.000  
 16 04 02 12 31 45.9000000  0  1G16                                             
  22479503.91449 118130588.44549      -554.02749        49.000  
 16 04 02 12 31 46.0000000  0  1G16                                             
  22479514.50049 118130644.09849      -558.84449        49.000  
 16 04 02 12 31 46.1000000  0  1G16                                             
  22479525.17249 118130700.18849      -563.10949        49.000  
 16 04 02 12 31 46.2000000  0  1G16                                             
  22479535.93049 118130756.69549      -567.31649        49.000  
 16 04 02 12 31 46.3000000  0  1G16                                             
  22479546.75849 118130813.60549      -571.23449        49.000  
 16 04 02 12 31 46.4000000  0  1G16                                             
  22479557.66449 118130870.94549      -575.43449        49.000  
 16 04 02 12 31 46.5000000  0  1G16                                             
  22479568.67249 118130928.76649      -580.61349        49.000  
 16 04 02 12 31 46.6000000  0  1G16                                             
  22479579.76649 118130987.05149      -585.28949        49.000  
 16 04 02 12 31 46.7000000  0  1G16                                             
  22479590.93049 118131045.72349      -588.98049        49.000  
 16 04 02 12 31 46.8000000  0  1G16                                             
  22479602.17249 118131104.82049      -593.08249        49.000  
 16 04 02 12 31 46.9000000  0  1G16                                             
  22479613.51649 118131164.41849      -598.13349        49.000  
 16 04 02 12 31 47.0000000  0  1G16                                             
  22479624.92249 118131224.37149      -601.80949        49.000  
 16 04 02 12 31 47.1000000  0  1G16                                             
  22479636.42249 118131284.80149      -606.58249        49.000  
 16 04 02 12 31 47.2000000  0  1G16                                             
  22479648.00849 118131345.68049      -611.03149        49.000  
 16 04 02 12 31 47.3000000  0  1G16                                             
  22479659.68049 118131406.99249      -615.35249        49.000  
 16 04 02 12 31 47.4000000  0  1G16                                             
  22479671.42249 118131468.71549      -619.36349        49.000  
 16 04 02 12 31 47.5000000  0  1G16                                             
  22479683.25049 118131530.85949      -623.86749        49.000  
 16 04 02 12 31 47.6000000  0  1G16                                             
  22479695.17249 118131593.49649      -628.55149        49.000  
 16 04 02 12 31 47.7000000  0  1G16                                             
  22479707.16449 118131656.53949      -632.61749        49.000  
 16 04 02 12 31 47.8000000  0  1G16                                             
  22479719.24249 118131720.01249      -636.97349        49.000  
 16 04 02 12 31 47.9000000  0  1G16                                             
  22479731.41449 118131783.95349      -641.57449        49.000  
 16 04 02 12 31 48.0000000  0  1G16                                             
  22479743.66449 118131848.34449      -646.23049        49.000  
 16 04 02 12 31 48.1000000  0  1G16                                             
  22479755.99249 118131913.12549      -649.87949        49.000  
 16 04 02 12 31 48.2000000  0  1G16                                             
  22479768.39849 118131978.32449      -654.07449        49.000  
 16 04 02 12 31 48.3000000  0  1G16                                             
  22479780.89149 118132043.96149      -658.66049        49.000  
 16 04 02 12 31 48.4000000  0  1G16                                             
  22479793.47749 118132110.11349      -663.66449        49.000  
 16 04 02 12 31 48.5000000  0  1G16                                             
  22479806.13349 118132176.60949      -666.98449        49.000  
 16 04 02 12 31 48.6000000  0  1G16                                             
  22479818.86749 118132243.51249      -671.29349        49.000  
 16 04 02 12 31 48.7000000  0  1G16                                             
  22479831.68849 118132310.91049      -676.24649        49.000  
 16 04 02 12 31 48.8000000  0  1G16                                             
  22479844.60249 118132378.77049      -680.98849        49.000  
 16 04 02 12 31 48.9000000  0  1G16                                             
  22479857.60249 118132447.07449      -685.34049        49.000  
 16 04 02 12 31 49.0000000  0  1G16                                             
  22479870.68849 118132515.82449      -689.84449        49.000  
 16 04 02 12 31 49.1000000  0  1G16                                             
  22479883.85949 118132585.05949      -694.51249        49.000  
 16 04 02 12 31 49.2000000  0  1G16                                             
  22479897.10949 118132654.67649      -698.35249        49.000  
 16 04 02 12 31 49.3000000  0  1G16                                             
  22479910.43049 118132724.67249      -702.13749        49.000  
 16 04 02 12 31 49.4000000  0  1G16                                             
  22479923.85249 118132795.18449      -707.21949        49.000  
 16 04 02 12 31 49.5000000  0  1G16                                             
  22479937.35249 118132866.14849      -711.89849        49.000  
 16 04 02 12 31 49.6000000  0  1G16                                             
  22479950.94549 118132937.55549      -716.41849        49.000  
 16 04 02 12 31 49.7000000  0  1G16                                             
  22479964.60949 118133009.35949      -720.24649        49.000  
 16 04 02 12 31 49.8000000  0  1G16                                             
  22479978.35249 118133081.60949      -724.81249        49.000  
 16 04 02 12 31 49.9000000  0  1G16                                             
  22479992.19549 118133154.35949      -729.78149        49.000  
 16 04 02 12 31 50.0000000  0  1G16                                             
  22480006.11749 118133227.48049      -733.47749        49.000  
 16 04 02 12 31 50.1000000  0  1G16                                             
  22480020.10949 118133301.03549      -737.61349        49.000  
 16 04 02 12 31 50.2000000  0  1G16                                             
  22480034.20349 118133375.05149      -742.25449        49.000  
 16 04 02 12 31 50.3000000  0  1G16                                             
  22480048.35949 118133449.47749      -746.51649        49.000  
 16 04 02 12 31 50.4000000  0  1G16                                             
  22480062.60949 118133524.34449      -750.88349        49.000  
 16 04 02 12 31 50.5000000  0  1G16                                             
  22480076.93849 118133599.63749      -755.10249        49.000  
 16 04 02 12 31 50.6000000  0  1G16                                             
  22480091.34449 118133675.38349      -759.82849        49.000  
 16 04 02 12 31 50.7000000  0  1G16                                             
  22480105.83649 118133751.53949      -763.59849        49.000  
 16 04 02 12 31 50.8000000  0  1G16                                             
  22480120.40649 118133828.10249      -767.85949        49.000  
 16 04 02 12 31 50.9000000  0  1G16                                             
  22480135.07849 118133905.21149      -773.32449        49.000  
 16 04 02 12 31 51.0000000  0  1G16                                             
  22480149.82049 118133982.68449      -777.05549        49.000  
 16 04 02 12 31 51.1000000  0  1G16                                             
  22480164.64849 118134060.60249      -781.43049        49.000  
 16 04 02 12 31 51.2000000  0  1G16                                             
  22480179.55549 118134138.95349      -785.69949        49.000  
 16 04 02 12 31 51.3000000  0  1G16                                             
  22480194.53949 118134217.72349      -789.88749        49.000  
 16 04 02 12 31 51.4000000  0  1G16                                             
  22480209.61749 118134296.94549      -794.61749        49.000  
 16 04 02 12 31 51.5000000  0  1G16                                             
  22480224.76649 118134376.56249      -798.37549        49.000  
 16 04 02 12 31 51.6000000  0  1G16                                             
  22480240.00049 118134456.61349      -802.60949        49.000  
 16 04 02 12 31 51.7000000  0  1G16                                             
  22480255.32049 118134537.11749      -807.31249        49.000  
 16 04 02 12 31 51.8000000  0  1G16                                             
  22480270.72749 118134618.08649      -811.90649        49.000  
 16 04 02 12 31 51.9000000  0  1G16                                             
  22480286.21149 118134699.44149      -815.64849        49.000  
 16 04 02 12 31 52.0000000  0  1G16                                             
  22480301.78149 118134781.26649      -820.44149        49.000  
 16 04 02 12 31 52.1000000  0  1G16                                             
  22480317.43049 118134863.50449      -824.63749        49.000  
 16 04 02 12 31 52.2000000  0  1G16                                             
  22480333.16449 118134946.14549      -828.55949        49.000  
 16 04 02 12 31 52.3000000  0  1G16                                             
  22480348.96949 118135029.21149      -832.92649        49.000  
 16 04 02 12 31 52.4000000  0  1G16                                             
  22480364.87549 118135112.78949      -838.09449        49.000  
 16 04 02 12 31 52.5000000  0  1G16                                             
  22480380.85249 118135196.75049      -842.01649        49.000  
 16 04 02 12 31 52.6000000  0  1G16                                             
  22480396.92249 118135281.20749      -846.85549        49.000  
 16 04 02 12 31 52.7000000  0  1G16                                             
  22480413.07049 118135366.07049      -850.73449        49.000  
 16 04 02 12 31 52.8000000  0  1G16                                             
  22480429.29749 118135451.34049      -854.90649        49.000  
 16 04 02 12 31 52.9000000  0  1G16                                             
  22480445.60249 118135537.05149      -859.21549        49.000  
 16 04 02 12 31 53.0000000  0  1G16                                             
  22480462.00049 118135623.19149      -863.68049        49.000  
 16 04 02 12 31 53.1000000  0  1G16                                             
  22480478.47749 118135709.79349      -868.31649        49.000  
 16 04 02 12 31 53.2000000  0  1G16                                             
  22480495.03949 118135796.83649      -872.62149        49.000  
 16 04 02 12 31 53.3000000  0  1G16                                             
  22480511.68049 118135884.28949      -876.77049        49.000  
 16 04 02 12 31 53.4000000  0  1G16                                             
  22480528.40649 118135972.18849      -881.07449        49.000  
 16 04 02 12 31 53.5000000  0  1G16                                             
  22480545.20349 118136060.46549      -884.84849        49.000  
 16 04 02 12 31 53.6000000  0  1G16                                             
  22480562.09449 118136149.20749      -889.62949        49.000  
 16 04 02 12 31 53.7000000  0  1G16                                             
  22480579.05549 118136238.34849      -893.61749        49.000  
 16 04 02 12 31 53.8000000  0  1G16                                             
  22480596.09449 118136327.91049      -897.71149        49.000  
 16 04 02 12 31 53.9000000  0  1G16                                             
  22480613.23449 118136417.96149      -902.78949        49.000  
 16 04 02 12 31 54.0000000  0  1G16                                             
  22480630.45349 118136508.44549      -907.16849        49.000  
 16 04 02 12 31 54.1000000  0  1G16                                             
  22480647.75849 118136599.36349      -911.52749        49.000  
 16 04 02 12 31 54.2000000  0  1G16                                             
  22480665.14149 118136690.72749      -916.00449        49.000  
 16 04 02 12 31 54.3000000  0  1G16                                             
  22480682.60949 118136782.52049      -920.25449        49.000  
 16 04 02 12 31 54.4000000  0  1G16                                             
  22480700.16449 118136874.75449      -924.62549        49.000  
 16 04 02 12 31 54.5000000  0  1G16                                             
  22480717.79749 118136967.41049      -928.70749        49.000  
 16 04 02 12 31 54.6000000  0  1G16                                             
  22480735.50849 118137060.46949      -932.69549        49.000  
 16 04 02 12 31 54.7000000  0  1G16                                             
  22480753.29749 118137153.96949      -937.27049        49.000  
 16 04 02 12 31 54.8000000  0  1G16                                             
  22480771.18849 118137247.97349      -942.23049        49.000  
 16 04 02 12 31 54.9000000  0  1G16                                             
  22480789.14849 118137342.38749      -946.41449        49.000  
 16 04 02 12 31 55.0000000  0  1G16                                             
  22480807.19549 118137437.20349      -950.53549        49.000  
 16 04 02 12 31 55.1000000  0  1G16                                             
  22480825.32049 118137532.46949      -954.95749        49.000  
 16 04 02 12 31 55.2000000  0  1G16                                             
  22480843.53949 118137628.18849      -959.38749        49.000  
 16 04 02 12 31 55.3000000  0  1G16                                             
  22480861.82849 118137724.32849      -963.44949        49.000  
 16 04 02 12 31 55.4000000  0  1G16                                             
  22480880.21149 118137820.88749      -967.74649        49.000  
 16 04 02 12 31 55.5000000  0  1G16                                             
  22480898.66449 118137917.87949      -972.15649        49.000  
 16 04 02 12 31 55.6000000  0  1G16                                             
  22480917.21149 118138015.32049      -976.77349        49.000  
 16 04 02 12 31 55.7000000  0  1G16                                             
  22480935.83649 118138113.21549      -981.16449        49.000  
 16 04 02 12 31 55.8000000  0  1G16                                             
  22480954.55549 118138211.57849      -986.08649        49.000  
 16 04 02 12 31 55.9000000  0  1G16                                             
  22480973.35949 118138310.37549      -990.06649        49.000  
 16 04 02 12 31 56.0000000  0  1G16                                             
  22480992.22749 118138409.54349      -993.89849        49.000  
 16 04 02 12 31 56.1000000  0  1G16                                             
  22481011.18849 118138509.15249      -998.17649        49.000  
 16 04 02 12 31 56.2000000  0  1G16                                             
  22481030.21949 118138609.19149     -1002.31249        49.000  
 16 04 02 12 31 56.3000000  0  1G16                                             
  22481049.34449 118138709.67649     -1007.33249        49.000  
 16 04 02 12 31 56.4000000  0  1G16                                             
  22481068.54749 118138810.61349     -1011.63349        49.000  
 16 04 02 12 31 56.5000000  0  1G16                                             
  22481087.83649 118138911.96549     -1015.83649        49.000  
 16 04 02 12 31 56.6000000  0  1G16                                             
  22481107.20349 118139013.73849     -1019.87949        49.000  
 16 04 02 12 31 56.7000000  0  1G16                                             
  22481126.65649 118139115.96949     -1024.62949        49.000  
 16 04 02 12 31 56.8000000  0  1G16                                             
  22481146.18849 118139218.62549     -1028.77349        49.000  
 16 04 02 12 31 56.9000000  0  1G16                                             
  22481165.79749 118139321.68849     -1032.78149        49.000  
 16 04 02 12 31 57.0000000  0  1G16                                             
  22481185.50849 118139425.24249     -1037.79749        49.000  
 16 04 02 12 31 57.1000000  0  1G16                                             
  22481205.28949 118139529.17649     -1041.52349        49.000  
 16 04 02 12 31 57.2000000  0  1G16                                             
  22481225.15649 118139633.57849     -1046.32449        49.000  
 16 04 02 12 31 57.3000000  0  1G16                                             
  22481245.10249 118139738.41049     -1050.67249        49.000  
 16 04 02 12 31 57.4000000  0  1G16                                             
  22481265.14149 118139843.69949     -1055.25449        49.000  
 16 04 02 12 31 57.5000000  0  1G16                                             
  22481285.25849 118139949.44549     -1059.80549        49.000  
 16 04 02 12 31 57.6000000  0  1G16                                             
  22481305.46149 118140055.59049     -1063.62149        49.000  
 16 04 02 12 31 57.7000000  0  1G16                                             
  22481325.74249 118140162.17649     -1068.09049        49.000  
 16 04 02 12 31 57.8000000  0  1G16                                             
  22481346.10949 118140269.18449     -1072.34449        49.000  
 16 04 02 12 31 57.9000000  0  1G16                                             
  22481366.55549 118140376.62149     -1076.62949        49.000  
 16 04 02 12 31 58.0000000  0  1G16                                             
  22481387.07049 118140484.48449     -1080.62149        49.000  
 16 04 02 12 31 58.1000000  0  1G16                                             
  22481407.68049 118140592.77049     -1085.20349        49.000  
 16 04 02 12 31 58.2000000  0  1G16                                             
  22481428.37549 118140701.54749     -1089.89549        49.000  
 16 04 02 12 31 58.3000000  0  1G16                                             
  22481449.14849 118140810.71549     -1093.79349        49.000  
 16 04 02 12 31 58.4000000  0  1G16                                             
  22481470.00849 118140920.30549     -1098.17249        49.000  
 16 04 02 12 31 58.5000000  0  1G16                                             
  22481490.95349 118141030.38349     -1103.12549        49.000  
 16 04 02 12 31 58.6000000  0  1G16                                             
  22481511.97749 118141140.84849     -1106.66849        49.000  
 16 04 02 12 31 58.7000000  0  1G16                                             
  22481533.07049 118141251.73049     -1111.01249        49.000  
 16 04 02 12 31 58.8000000  0  1G16                                             
  22481554.25849 118141363.06249     -1115.64149        49.000  
 16 04 02 12 31 58.9000000  0  1G16                                             
  22481575.54749 118141474.92649     -1120.77349        49.000  
 16 04 02 12 31 59.0000000  0  1G16                                             
  22481596.90649 118141587.16449     -1124.64849        49.000  
 16 04 02 12 31 59.1000000  0  1G16                                             
  22481618.34449 118141699.83649     -1128.70749        49.000  
 16 04 02 12 31 59.2000000  0  1G16                                             
  22481639.85949 118141812.91049     -1132.93049        49.000  
 16 04 02 12 31 59.3000000  0  1G16                                             
  22481661.46949 118141926.46149     -1137.63749        49.000  
 16 04 02 12 31 59.4000000  0  1G16                                             
  22481683.15649 118142040.43449     -1142.01249        49.000  
 16 04 02 12 31 59.5000000  0  1G16                                             
  22481704.93049 118142154.86749     -1146.76249        49.000  
 16 04 02 12 31 59.6000000  0  1G16                                             
  22481726.78949 118142269.75049     -1151.05549        49.000  
 16 04 02 12 31 59.7000000  0  1G16                                             
  22481748.74249 118142385.09449     -1155.68849        49.000  
 16 04 02 12 31 59.8000000  0  1G16                                             
  22481770.76649 118142500.84449     -1159.82449        49.000  
 16 04 02 12 31 59.9000000  0  1G16                                             
  22481792.87549 118142617.04349     -1164.02049        49.000  
 16 04 02 12 32  0.0000000  0  1G16                                             
  22481815.07049 118142733.68849     -1168.72749        49.000  
 16 04 02 12 32  0.1000000  0  1G16                                             
  22481837.33649 118142850.69549     -1172.17649        49.000  
 16 04 02 12 32  0.2000000  0  1G16                                             
  22481859.68849 118142968.14849     -1176.66449        49.000  
 16 04 02 12 32  0.3000000  0  1G16                                             
  22481882.12549 118143086.04349     -1181.00449        49.000  
 16 04 02 12 32  0.4000000  0  1G16                                             
  22481904.64149 118143204.36749     -1185.39849        49.000  
 16 04 02 12 32  0.5000000  0  1G16                                             
  22481927.24249 118143323.14849     -1189.83649        49.000  
 16 04 02 12 32  0.6000000  0  1G16                                             
  22481949.92249 118143442.32849     -1194.07449        49.000  
 16 04 02 12 32  0.7000000  0  1G16                                             
  22481972.69549 118143562.01249     -1199.05149        49.000  
 16 04 02 12 32  0.8000000  0  1G16                                             
  22481995.54749 118143682.08249     -1202.98449        49.000  
 16 04 02 12 32  0.9000000  0  1G16                                             
  22482018.47749 118143802.59449     -1207.30949        49.000  
 16 04 02 12 32  1.0000000  0  1G16                                             
  22482041.49249 118143923.53149     -1211.39849        49.000  
 16 04 02 12 32  1.1000000  0  1G16                                             
  22482064.57049 118144044.81649     -1215.19949        49.000  
 16 04 02 12 32  1.2000000  0  1G16                                             
  22482087.75849 118144166.66049     -1220.54349        49.000  
 16 04 02 12 32  1.3000000  0  1G16                                             
  22482111.01649 118144288.89549     -1224.52349        49.000  
 16 04 02 12 32  1.4000000  0  1G16                                             
  22482134.35249 118144411.49649     -1228.34049        49.000  
 16 04 02 12 32  1.5000000  0  1G16                                             
  22482157.78149 118144534.65249     -1233.72349        49.000  
 16 04 02 12 32  1.6000000  0  1G16                                             
  22482181.30549 118144658.23449     -1238.18849        49.000  
 16 04 02 12 32  1.7000000  0  1G16                                             
  22482204.89849 118144782.25449     -1242.58249        49.000  
 16 04 02 12 32  1.8000000  0  1G16                                             
  22482228.57849 118144906.69149     -1246.72349        49.000  
