     2.10           Observation         G (GPS)             RINEX VERSION / TYPE
novaRinex v2.1 9/07 ARL:UT/GPSTk        20160824 170836 UTC PGM / RUN BY / DATE
                                                            MARKER NAME
                    ARL:UT/GPSTk                            OBSERVER / AGENCY
                    Novatel             OEM4                REC # / TYPE / VERS
                                                            ANT # / TYPE
        0.0000        0.0000        0.0000                  APPROX POSITION XYZ
        0.0000        0.0000        0.0000                  ANTENNA: DELTA H/E/N
     1     1                                                WAVELENGTH FACT L1/2
     4    C1    L1    D1    S1                              # / TYPES OF OBSERV
     0.100                                                  INTERVAL
  2016     4     2    12     0   37.0000000                 TIME OF FIRST OBS
  2016     4     2    12    41   37.0000000                 TIME OF LAST OBS
Created by GPSTK program novaRinex v2.1 9/072016/08/24 17:08COMMENT
     5                                                      # OF SATELLITES
   G01     2     2     2     2                              PRN / # OF OBS
   G04   748   748   748   748                              PRN / # OF OBS
   G10     2     2     2     2                              PRN / # OF OBS
   G23     1     1     1     1                              PRN / # OF OBS
   G24  1471  1471  1471  1471                              PRN / # OF OBS
                                                            END OF HEADER
 16  4  2 12  0 37.0000000  0  1G01
  22546901.969   118484768.863        4197.598          48.000  
 16  4  2 12  0 37.1000000  0  1G01
  22546822.094   118484349.121        4196.535          48.000  
 16  4  2 12  0 37.2000000  0  1G24
  23041945.844   121086241.293       -1291.621          48.000  
 16  4  2 12  0 37.3000000  0  1G24
  23041970.453   121086370.586       -1294.418          48.000  
 16  4  2 12  0 37.4000000  0  1G24
  23041995.070   121086500.152       -1297.152          48.000  
 16  4  2 12  0 37.5000000  0  1G24
  23042019.789   121086630.055       -1300.762          48.000  
 16  4  2 12  0 37.6000000  0  1G24
  23042044.586   121086760.258       -1303.617          48.000  
 16  4  2 12  0 37.7000000  0  1G24
  23042069.414   121086890.766       -1306.762          48.000  
 16  4  2 12  0 37.8000000  0  1G24
  23042094.281   121087021.555       -1309.305          48.000  
 16  4  2 12  0 37.9000000  0  1G24
  23042119.219   121087152.613       -1312.320          48.000  
 16  4  2 12  0 38.0000000  0  1G24
  23042144.242   121087284.012       -1315.457          48.000  
 16  4  2 12  0 38.1000000  0  1G24
  23042169.305   121087415.723       -1318.891          48.000  
 16  4  2 12  0 38.2000000  0  1G24
  23042194.438   121087547.754       -1321.969          48.000  
 16  4  2 12  0 38.3000000  0  1G24
  23042219.633   121087680.156       -1325.633          48.000  
 16  4  2 12  0 38.4000000  0  1G24
  23042244.883   121087812.793       -1328.074          48.000  
 16  4  2 12  0 38.5000000  0  1G24
  23042270.180   121087945.730       -1330.945          48.000  
 16  4  2 12  0 38.6000000  0  1G24
  23042295.531   121088078.984       -1334.188          48.000  
 16  4  2 12  0 38.7000000  0  1G24
  23042320.953   121088212.555       -1337.418          48.000  
 16  4  2 12  0 38.8000000  0  1G24
  23042346.430   121088346.461       -1340.582          48.000  
 16  4  2 12  0 38.9000000  0  1G24
  23042371.969   121088480.668       -1343.699          48.000  
 16  4  2 12  0 39.0000000  0  1G24
  23042397.539   121088615.176       -1346.691          48.000  
 16  4  2 12  0 39.1000000  0  1G24
  23042423.195   121088749.992       -1349.656          48.000  
 16  4  2 12  0 39.2000000  0  1G24
  23042448.898   121088885.094       -1352.625          48.000  
 16  4  2 12  0 39.3000000  0  1G24
  23042474.656   121089020.469       -1355.395          48.000  
 16  4  2 12  0 39.4000000  0  1G24
  23042500.492   121089156.195       -1358.691          48.000  
 16  4  2 12  0 39.5000000  0  1G24
  23042526.383   121089292.230       -1362.250          48.000  
 16  4  2 12  0 39.6000000  0  1G24
  23042552.320   121089428.609       -1365.316          48.000  
 16  4  2 12  0 39.7000000  0  1G24
  23042578.320   121089565.254       -1367.938          48.000  
 16  4  2 12  0 39.8000000  0  1G24
  23042604.367   121089702.176       -1370.902          48.000  
 16  4  2 12  0 39.9000000  0  1G24
  23042630.500   121089839.484       -1374.562          48.000  
 16  4  2 12  0 40.0000000  0  1G24
  23042656.688   121089977.074       -1377.551          48.000  
 16  4  2 12  0 40.1000000  0  1G24
  23042682.938   121090115.020       -1381.160          48.000  
 16  4  2 12  0 40.2000000  0  1G24
  23042709.258   121090253.285       -1384.191          48.000  
 16  4  2 12  0 40.3000000  0  1G24
  23042735.625   121090391.871       -1387.602          48.000  
 16  4  2 12  0 40.4000000  0  1G24
  23042762.047   121090530.715       -1389.902          48.000  
 16  4  2 12  0 40.5000000  0  1G24
  23042788.523   121090669.863       -1392.977          48.000  
 16  4  2 12  0 40.6000000  0  1G24
  23042815.055   121090809.277       -1395.828          48.000  
 16  4  2 12  0 40.7000000  0  1G24
  23042841.648   121090949.055       -1399.285          48.000  
 16  4  2 12  0 40.8000000  0  1G24
  23042868.305   121091089.141       -1402.559          48.000  
 16  4  2 12  0 40.9000000  0  1G24
  23042895.023   121091229.562       -1406.031          48.000  
 16  4  2 12  0 41.0000000  0  1G24
  23042921.797   121091370.254       -1408.395          48.000  
 16  4  2 12  0 41.1000000  0  1G24
  23042948.625   121091511.242       -1411.582          48.000  
 16  4  2 12  0 41.2000000  0  1G24
  23042975.516   121091652.594       -1415.234          48.000  
 16  4  2 12  0 41.3000000  0  1G24
  23043002.469   121091794.230       -1418.059          48.000  
 16  4  2 12  0 41.4000000  0  1G24
  23043029.477   121091936.133       -1420.547          48.000  
 16  4  2 12  0 41.5000000  0  1G24
  23043056.539   121092078.348       -1423.746          48.000  
 16  4  2 12  0 41.6000000  0  1G24
  23043083.672   121092220.871       -1426.855          48.000  
 16  4  2 12  0 41.7000000  0  1G24
  23043110.859   121092363.734       -1430.375          48.000  
 16  4  2 12  0 41.8000000  0  1G24
  23043138.102   121092506.879       -1432.977          48.000  
 16  4  2 12  0 41.9000000  0  1G24
  23043165.391   121092650.285       -1435.598          48.000  
 16  4  2 12  0 42.0000000  0  1G24
  23043192.766   121092794.000       -1438.809          48.000  
 16  4  2 12  0 42.1000000  0  1G24
  23043220.172   121092938.035       -1441.848          48.000  
 16  4  2 12  0 42.2000000  0  1G24
  23043247.633   121093082.344       -1444.652          48.000  
 16  4  2 12  0 42.3000000  0  1G24
  23043275.141   121093226.910       -1447.438          48.000  
 16  4  2 12  0 42.4000000  0  1G24
  23043302.719   121093371.871       -1450.922          48.000  
 16  4  2 12  0 42.5000000  0  1G24
  23043330.336   121093517.012       -1453.094          48.000  
 16  4  2 12  0 42.6000000  0  1G24
  23043358.016   121093662.555       -1457.055          48.000  
 16  4  2 12  0 42.7000000  0  1G24
  23043385.766   121093808.375       -1459.852          48.000  
 16  4  2 12  0 42.8000000  0  1G24
  23043413.586   121093954.508       -1462.973          48.000  
 16  4  2 12  0 42.9000000  0  1G24
  23043441.453   121094100.941       -1465.883          48.000  
 16  4  2 12  0 43.0000000  0  1G24
  23043469.391   121094247.723       -1469.387          48.000  
 16  4  2 12  0 43.1000000  0  1G24
  23043497.375   121094394.789       -1472.152          48.000  
 16  4  2 12  0 43.2000000  0  1G24
  23043525.414   121094542.133       -1475.105          48.000  
 16  4  2 12  0 43.3000000  0  1G24
  23043553.523   121094689.848       -1478.699          48.000  
 16  4  2 12  0 43.4000000  0  1G24
  23043581.680   121094837.797       -1481.148          48.000  
 16  4  2 12  0 43.5000000  0  1G24
  23043609.898   121094986.082       -1484.367          48.000  
 16  4  2 12  0 43.6000000  0  1G24
  23043638.188   121095134.680       -1487.719          48.000  
 16  4  2 12  0 43.7000000  0  1G24
  23043666.523   121095283.617       -1491.020          48.000  
 16  4  2 12  0 43.8000000  0  1G24
  23043694.945   121095432.906       -1494.535          48.000  
 16  4  2 12  0 43.9000000  0  1G24
  23043723.391   121095582.379       -1496.543          48.000  
 16  4  2 12  0 44.0000000  0  1G24
  23043751.883   121095732.230       -1499.953          48.000  
 16  4  2 12  0 44.1000000  0  1G24
  23043780.445   121095882.336       -1502.488          48.000  
 16  4  2 12  0 44.2000000  0  1G24
  23043809.062   121096032.703       -1505.336          48.000  
 16  4  2 12  0 44.3000000  0  1G24
  23043837.750   121096183.461       -1508.977          48.000  
 16  4  2 12  0 44.4000000  0  1G24
  23043866.484   121096334.504       -1511.984          48.000  
 16  4  2 12  0 44.5000000  0  1G24
  23043895.281   121096485.836       -1515.203          48.000  
 16  4  2 12  0 44.6000000  0  1G24
  23043924.125   121096637.484       -1517.992          48.000  
 16  4  2 12  0 44.7000000  0  1G24
  23043953.047   121096789.461       -1521.473          48.000  
 16  4  2 12  0 44.8000000  0  1G24
  23043982.039   121096941.738       -1524.238          48.000  
 16  4  2 12  0 44.9000000  0  1G24
  23044011.070   121097094.305       -1527.473          48.000  
 16  4  2 12  0 45.0000000  0  1G24
  23044040.164   121097247.199       -1530.328          48.000  
 16  4  2 12  0 45.1000000  0  1G24
  23044069.320   121097400.418       -1534.090          48.000  
 16  4  2 12  0 45.2000000  0  1G24
  23044098.555   121097553.949       -1536.840          48.000  
 16  4  2 12  0 45.3000000  0  1G24
  23044127.820   121097707.758       -1539.609          48.000  
 16  4  2 12  0 45.4000000  0  1G24
  23044157.156   121097861.898       -1542.891          48.000  
 16  4  2 12  0 45.5000000  0  1G24
  23044186.539   121098016.305       -1545.680          48.000  
 16  4  2 12  0 45.6000000  0  1G24
  23044215.977   121098170.953       -1547.977          48.000  
 16  4  2 12  0 45.7000000  0  1G24
  23044245.469   121098325.945       -1551.375          48.000  
 16  4  2 12  0 45.8000000  0  1G24
  23044275.023   121098481.191       -1553.992          48.000  
 16  4  2 12  0 45.9000000  0  1G24
  23044304.633   121098636.797       -1557.652          48.000  
 16  4  2 12  0 46.0000000  0  1G24
  23044334.312   121098792.688       -1560.320          48.000  
 16  4  2 12  0 46.1000000  0  1G24
  23044364.031   121098948.859       -1563.539          48.000  
 16  4  2 12  0 46.2000000  0  1G24
  23044393.797   121099105.336       -1566.473          48.000  
 16  4  2 12  0 46.3000000  0  1G24
  23044423.633   121099262.152       -1569.840          48.000  
 16  4  2 12  0 46.4000000  0  1G24
  23044453.523   121099419.223       -1572.250          48.000  
 16  4  2 12  0 46.5000000  0  1G24
  23044483.477   121099576.652       -1576.000          48.000  
 16  4  2 12  0 46.6000000  0  1G24
  23044513.500   121099734.398       -1579.141          48.000  
 16  4  2 12  0 46.7000000  0  1G24
  23044543.578   121099892.453       -1582.043          48.000  
 16  4  2 12  0 46.8000000  0  1G24
  23044573.711   121100050.773       -1585.004          48.000  
 16  4  2 12  0 46.9000000  0  1G24
  23044603.914   121100209.484       -1588.766          48.000  
 16  4  2 12  0 47.0000000  0  1G24
  23044634.164   121100368.410       -1590.707          48.000  
 16  4  2 12  0 47.1000000  0  1G24
  23044664.453   121100527.570       -1593.031          48.000  
 16  4  2 12  0 47.2000000  0  1G24
  23044694.828   121100687.137       -1597.289          48.000  
 16  4  2 12  0 47.3000000  0  1G24
  23044725.250   121100847.000       -1600.230          48.000  
 16  4  2 12  0 47.4000000  0  1G24
  23044755.727   121101007.102       -1602.566          48.000  
 16  4  2 12  0 47.5000000  0  1G24
  23044786.266   121101167.578       -1606.379          48.000  
 16  4  2 12  0 47.6000000  0  1G24
  23044816.852   121101328.336       -1609.082          48.000  
 16  4  2 12  0 47.7000000  0  1G24
  23044847.492   121101489.367       -1611.996          48.000  
 16  4  2 12  0 47.8000000  0  1G24
  23044878.211   121101650.773       -1615.578          48.000  
 16  4  2 12  0 47.9000000  0  1G24
  23044908.977   121101812.430       -1618.285          48.000  
 16  4  2 12  0 48.0000000  0  1G24
  23044939.781   121101974.406       -1621.438          48.000  
 16  4  2 12  0 48.1000000  0  1G24
  23044970.664   121102136.680       -1624.391          48.000  
 16  4  2 12  0 48.2000000  0  1G24
  23045001.586   121102299.246       -1627.367          48.000  
 16  4  2 12  0 48.3000000  0  1G24
  23045032.586   121102462.164       -1630.707          48.000  
 16  4  2 12  0 48.4000000  0  1G24
  23045063.656   121102625.359       -1633.559          48.000  
 16  4  2 12  0 48.5000000  0  1G24
  23045094.773   121102788.879       -1636.832          48.000  
 16  4  2 12  0 48.6000000  0  1G24
  23045125.945   121102952.699       -1639.781          48.000  
 16  4  2 12  0 48.7000000  0  1G24
  23045157.180   121103116.832       -1643.172          48.000  
 16  4  2 12  0 48.8000000  0  1G24
  23045188.477   121103281.324       -1646.582          48.000  
 16  4  2 12  0 48.9000000  0  1G24
  23045219.844   121103446.137       -1649.727          48.000  
 16  4  2 12  0 49.0000000  0  1G24
  23045251.250   121103611.176       -1651.965          48.000  
 16  4  2 12  0 49.1000000  0  1G24
  23045282.719   121103776.527       -1655.051          48.000  
 16  4  2 12  0 49.2000000  0  1G24
  23045314.258   121103942.254       -1658.734          48.000  
 16  4  2 12  0 49.3000000  0  1G24
  23045345.836   121104108.219       -1661.508          48.000  
 16  4  2 12  0 49.4000000  0  1G24
  23045377.477   121104274.496       -1664.305          48.000  
 16  4  2 12  0 49.5000000  0  1G24
  23045409.172   121104441.055       -1667.180          48.000  
 16  4  2 12  0 49.6000000  0  1G24
  23045440.930   121104607.930       -1670.348          48.000  
 16  4  2 12  0 49.7000000  0  1G24
  23045472.742   121104775.117       -1673.539          48.000  
 16  4  2 12  0 49.8000000  0  1G24
  23045504.617   121104942.574       -1676.254          48.000  
 16  4  2 12  0 49.9000000  0  1G24
  23045536.555   121105110.418       -1680.105          48.000  
 16  4  2 12  0 50.0000000  0  1G24
  23045568.562   121105278.559       -1683.000          48.000  
 16  4  2 12  0 50.1000000  0  1G24
  23045600.617   121105447.000       -1685.980          48.000  
 16  4  2 12  0 50.2000000  0  1G24
  23045632.711   121105615.676       -1688.121          48.000  
 16  4  2 12  0 50.3000000  0  1G24
  23045664.867   121105784.645       -1691.285          48.000  
 16  4  2 12  0 50.4000000  0  1G24
  23045697.086   121105953.949       -1694.742          48.000  
 16  4  2 12  0 50.5000000  0  1G24
  23045729.367   121106123.590       -1698.000          48.000  
 16  4  2 12  0 50.6000000  0  1G24
  23045761.711   121106293.551       -1701.266          48.000  
 16  4  2 12  0 50.7000000  0  1G24
  23045794.102   121106463.758       -1703.402          48.000  
 16  4  2 12  0 50.8000000  0  1G24
  23045826.547   121106634.238       -1706.383          48.000  
 16  4  2 12  0 50.9000000  0  1G24
  23045859.062   121106805.086       -1710.086          48.000  
 16  4  2 12  0 51.0000000  0  1G24
  23045891.625   121106976.152       -1712.363          48.000  
 16  4  2 12  0 51.1000000  0  1G24
  23045924.242   121107147.543       -1715.301          48.000  
 16  4  2 12  0 51.2000000  0  1G24
  23045956.914   121107319.227       -1718.570          48.000  
 16  4  2 12  0 51.3000000  0  1G24
  23045989.648   121107491.266       -1722.094          48.000  
 16  4  2 12  0 51.4000000  0  1G24
  23046022.461   121107663.664       -1725.734          48.000  
 16  4  2 12  0 51.5000000  0  1G24
  23046055.320   121107836.336       -1728.441          48.000  
 16  4  2 12  0 51.6000000  0  1G24
  23046088.242   121108009.301       -1731.039          48.000  
 16  4  2 12  0 51.7000000  0  1G24
  23046121.195   121108182.453       -1733.164          48.000  
 16  4  2 12  0 51.8000000  0  1G24
  23046154.219   121108355.984       -1736.797          48.000  
 16  4  2 12  0 51.9000000  0  1G24
  23046187.297   121108529.812       -1739.914          48.000  
 16  4  2 12  0 52.0000000  0  1G24
  23046220.422   121108703.918       -1742.738          48.000  
 16  4  2 12  0 52.1000000  0  1G24
  23046253.609   121108878.301       -1745.297          48.000  
 16  4  2 12  0 52.2000000  0  1G24
  23046286.844   121109053.000       -1748.629          48.000  
 16  4  2 12  0 52.3000000  0  1G24
  23046320.141   121109227.984       -1751.461          48.000  
 16  4  2 12  0 52.4000000  0  1G24
  23046353.500   121109403.348       -1755.371          48.000  
 16  4  2 12  0 52.5000000  0  1G24
  23046386.922   121109578.953       -1757.582          48.000  
 16  4  2 12  0 52.6000000  0  1G24
  23046420.406   121109754.898       -1761.035          48.000  
 16  4  2 12  0 52.7000000  0  1G24
  23046453.945   121109931.129       -1763.918          48.000  
 16  4  2 12  0 52.8000000  0  1G24
  23046487.531   121110107.645       -1766.848          48.000  
 16  4  2 12  0 52.9000000  0  1G24
  23046521.188   121110284.539       -1770.184          48.000  
 16  4  2 12  0 53.0000000  0  1G24
  23046554.883   121110461.633       -1772.852          48.000  
 16  4  2 12  0 53.1000000  0  1G24
  23046588.656   121110639.113       -1776.246          48.000  
 16  4  2 12  0 53.2000000  0  1G24
  23046622.484   121110816.891       -1779.320          48.000  
 16  4  2 12  0 53.3000000  0  1G24
  23046656.367   121110994.930       -1782.059          48.000  
 16  4  2 12  0 53.4000000  0  1G24
  23046690.312   121111173.301       -1785.137          48.000  
 16  4  2 12  0 53.5000000  0  1G24
  23046724.305   121111351.926       -1787.766          48.000  
 16  4  2 12  0 53.6000000  0  1G24
  23046758.359   121111530.910       -1791.547          48.000  
 16  4  2 12  0 53.7000000  0  1G24
  23046792.477   121111710.168       -1794.031          48.000  
 16  4  2 12  0 53.8000000  0  1G24
  23046826.625   121111889.676       -1796.754          48.000  
 16  4  2 12  0 53.9000000  0  1G24
  23046860.852   121112069.535       -1800.270          48.000  
 16  4  2 12  0 54.0000000  0  1G24
  23046895.141   121112249.719       -1803.285          48.000  
 16  4  2 12  0 54.1000000  0  1G24
  23046929.477   121112430.152       -1806.004          48.000  
 16  4  2 12  0 54.2000000  0  1G24
  23046963.867   121112610.891       -1808.875          48.000  
 16  4  2 12  0 54.3000000  0  1G24
  23046998.312   121112791.891       -1811.738          48.000  
 16  4  2 12  0 54.4000000  0  1G24
  23047032.805   121112973.203       -1814.496          48.000  
 16  4  2 12  0 54.5000000  0  1G24
  23047067.375   121113154.855       -1818.129          48.000  
 16  4  2 12  0 54.6000000  0  1G24
  23047102.000   121113336.777       -1820.844          48.000  
 16  4  2 12  0 54.7000000  0  1G24
  23047136.688   121113519.043       -1824.277          48.000  
 16  4  2 12  0 54.8000000  0  1G24
  23047171.445   121113701.688       -1828.137          48.000  
 16  4  2 12  0 54.9000000  0  1G24
  23047206.258   121113884.621       -1830.980          48.000  
 16  4  2 12  0 55.0000000  0  1G24
  23047241.109   121114067.781       -1833.273          48.000  
 16  4  2 12  0 55.1000000  0  1G24
  23047276.039   121114251.305       -1836.754          48.000  
 16  4  2 12  0 55.2000000  0  1G24
  23047311.008   121114435.090       -1839.355          48.000  
 16  4  2 12  0 55.3000000  0  1G24
  23047346.039   121114619.184       -1842.445          48.000  
 16  4  2 12  0 55.4000000  0  1G24
  23047381.117   121114803.570       -1845.516          48.000  
 16  4  2 12  0 55.5000000  0  1G24
  23047416.258   121114988.207       -1847.734          48.000  
 16  4  2 12  0 55.6000000  0  1G24
  23047451.453   121115173.152       -1850.992          48.000  
 16  4  2 12  0 55.7000000  0  1G24
  23047486.711   121115358.426       -1854.281          48.000  
 16  4  2 12  0 55.8000000  0  1G24
  23047522.016   121115543.969       -1857.008          48.000  
 16  4  2 12  0 55.9000000  0  1G24
  23047557.375   121115729.793       -1859.793          48.000  
 16  4  2 12  0 56.0000000  0  1G24
  23047592.797   121115915.938       -1862.961          48.000  
 16  4  2 12  0 56.1000000  0  1G24
  23047628.273   121116102.363       -1866.023          48.000  
 16  4  2 12  0 56.2000000  0  1G24
  23047663.812   121116289.117       -1869.121          48.000  
 16  4  2 12  0 56.3000000  0  1G24
  23047699.398   121116476.148       -1871.891          48.000  
 16  4  2 12  0 56.4000000  0  1G24
  23047735.039   121116663.465       -1874.711          48.000  
 16  4  2 12  0 56.5000000  0  1G24
  23047770.742   121116851.094       -1877.910          48.000  
 16  4  2 12  0 56.6000000  0  1G24
  23047806.500   121117039.035       -1881.027          48.000  
 16  4  2 12  0 56.7000000  0  1G24
  23047842.320   121117227.254       -1883.746          48.000  
 16  4  2 12  0 56.8000000  0  1G24
  23047878.211   121117415.832       -1887.352          48.000  
 16  4  2 12  0 56.9000000  0  1G24
  23047914.148   121117604.684       -1889.961          48.000  
 16  4  2 12  0 57.0000000  0  1G24
  23047950.141   121117793.824       -1893.000          48.000  
 16  4  2 12  0 57.1000000  0  1G24
  23047986.188   121117983.266       -1895.938          48.000  
 16  4  2 12  0 57.2000000  0  1G24
  23048022.297   121118172.992       -1898.918          48.000  
 16  4  2 12  0 57.3000000  0  1G24
  23048058.469   121118363.094       -1902.598          48.000  
 16  4  2 12  0 57.4000000  0  1G24
  23048094.703   121118553.496       -1905.578          48.000  
 16  4  2 12  0 57.5000000  0  1G24
  23048130.984   121118744.176       -1908.578          48.000  
 16  4  2 12  0 57.6000000  0  1G24
  23048167.344   121118935.203       -1911.828          48.000  
 16  4  2 12  0 57.7000000  0  1G24
  23048203.750   121119126.516       -1914.812          48.000  
 16  4  2 12  0 57.8000000  0  1G24
  23048240.219   121119318.156       -1918.047          48.000  
 16  4  2 12  0 57.9000000  0  1G24
  23048276.734   121119510.059       -1920.730          48.000  
 16  4  2 12  0 58.0000000  0  1G24
  23048313.312   121119702.250       -1923.461          48.000  
 16  4  2 12  0 58.1000000  0  1G24
  23048349.945   121119894.746       -1926.242          48.000  
 16  4  2 12  0 58.2000000  0  1G24
  23048386.641   121120087.539       -1929.512          48.000  
 16  4  2 12  0 58.3000000  0  1G24
  23048423.383   121120280.633       -1932.367          48.000  
 16  4  2 12  0 58.4000000  0  1G24
  23048460.180   121120474.043       -1935.805          48.000  
 16  4  2 12  0 58.5000000  0  1G24
  23048497.047   121120667.766       -1938.977          48.000  
 16  4  2 12  0 58.6000000  0  1G24
  23048533.953   121120861.758       -1941.457          48.000  
 16  4  2 12  0 58.7000000  0  1G24
  23048570.922   121121056.035       -1944.395          48.000  
 16  4  2 12  0 58.8000000  0  1G24
  23048607.953   121121250.684       -1948.008          48.000  
 16  4  2 12  0 58.9000000  0  1G24
  23048645.047   121121445.602       -1950.941          48.000  
 16  4  2 12  0 59.0000000  0  1G24
  23048682.188   121121640.816       -1953.750          48.000  
 16  4  2 12  0 59.1000000  0  1G24
  23048719.398   121121836.328       -1956.574          48.000  
 16  4  2 12  0 59.2000000  0  1G24
  23048756.633   121122032.094       -1959.133          48.000  
 16  4  2 12  0 59.3000000  0  1G24
  23048793.945   121122228.191       -1962.652          48.000  
 16  4  2 12  0 59.4000000  0  1G24
  23048831.320   121122424.602       -1965.602          48.000  
 16  4  2 12  0 59.5000000  0  1G24
  23048868.742   121122621.258       -1968.348          48.000  
 16  4  2 12  0 59.6000000  0  1G24
  23048906.219   121122818.188       -1970.824          48.000  
 16  4  2 12  0 59.7000000  0  1G24
  23048943.758   121123015.465       -1974.395          48.000  
 16  4  2 12  0 59.8000000  0  1G24
  23048981.359   121123213.121       -1978.398          48.000  
 16  4  2 12  0 59.9000000  0  1G24
  23049019.023   121123411.012       -1980.516          48.000  
 16  4  2 12  1  0.0000000  0  1G24
  23049056.742   121123609.184       -1983.387          48.000  
 16  4  2 12  1  0.1000000  0  1G24
  23049094.508   121123807.668       -1986.324          48.000  
 16  4  2 12  1  0.2000000  0  1G24
  23049132.328   121124006.453       -1989.523          48.000  
 16  4  2 12  1  0.3000000  0  1G24
  23049170.219   121124205.559       -1992.621          48.000  
 16  4  2 12  1  0.4000000  0  1G24
  23049208.156   121124404.910       -1995.117          48.000  
 16  4  2 12  1  0.5000000  0  1G24
  23049246.148   121124604.570       -1998.102          48.000  
 16  4  2 12  1  0.6000000  0  1G24
  23049284.211   121124804.574       -2001.621          48.000  
 16  4  2 12  1  0.7000000  0  1G24
  23049322.320   121125004.840       -2004.336          48.000  
 16  4  2 12  1  0.8000000  0  1G24
  23049360.492   121125205.461       -2007.965          48.000  
 16  4  2 12  1  0.9000000  0  1G24
  23049398.719   121125406.336       -2010.137          48.000  
 16  4  2 12  1  1.0000000  0  1G24
  23049437.000   121125607.512       -2013.301          48.000  
 16  4  2 12  1  1.1000000  0  1G24
  23049475.336   121125808.957       -2016.039          48.000  
 16  4  2 12  1  1.2000000  0  1G24
  23049513.734   121126010.746       -2019.473          48.000  
 16  4  2 12  1  1.3000000  0  1G24
  23049552.195   121126212.859       -2022.707          48.000  
 16  4  2 12  1  1.4000000  0  1G24
  23049590.695   121126415.191       -2025.027          48.000  
 16  4  2 12  1  1.5000000  0  1G24
  23049629.273   121126617.898       -2028.531          48.000  
 16  4  2 12  1  1.6000000  0  1G24
  23049667.906   121126820.887       -2031.605          48.000  
 16  4  2 12  1  1.7000000  0  1G24
  23049706.586   121127024.180       -2034.586          48.000  
 16  4  2 12  1  1.8000000  0  1G24
  23049745.328   121127227.754       -2037.328          48.000  
 16  4  2 12  1  1.9000000  0  1G24
  23049784.133   121127431.680       -2040.934          48.000  
 16  4  2 12  1  2.0000000  0  1G24
  23049823.000   121127635.867       -2043.594          48.000  
 16  4  2 12  1  2.1000000  0  1G24
  23049861.914   121127840.375       -2046.750          48.000  
 16  4  2 12  1  2.2000000  0  1G24
  23049900.891   121128045.180       -2049.816          48.000  
 16  4  2 12  1  2.3000000  0  1G24
  23049939.930   121128250.305       -2052.871          48.000  
 16  4  2 12  1  2.4000000  0  1G24
  23049979.023   121128455.734       -2055.715          48.000  
 16  4  2 12  1  2.5000000  0  1G24
  23050018.164   121128661.426       -2058.523          48.000  
 16  4  2 12  1  2.6000000  0  1G24
  23050057.367   121128867.430       -2061.488          48.000  
 16  4  2 12  1  2.7000000  0  1G24
  23050096.625   121129073.719       -2064.438          48.000  
 16  4  2 12  1  2.8000000  0  1G24
  23050135.938   121129280.352       -2067.953          48.000  
 16  4  2 12  1  2.9000000  0  1G24
  23050175.320   121129487.316       -2071.512          48.000  
 16  4  2 12  1  3.0000000  0  1G24
  23050214.758   121129694.590       -2074.328          48.000  
 16  4  2 12  1  3.1000000  0  1G24
  23050254.266   121129902.188       -2077.480          48.000  
 16  4  2 12  1  3.2000000  0  1G24
  23050293.805   121130110.004       -2079.777          48.000  
 16  4  2 12  1  3.3000000  0  1G24
  23050333.422   121130318.188       -2083.363          48.000  
 16  4  2 12  1  3.4000000  0  1G24
  23050373.094   121130526.672       -2086.504          48.000  
 16  4  2 12  1  3.5000000  0  1G24
  23050412.828   121130735.500       -2090.016          48.000  
 16  4  2 12  1  3.6000000  0  1G24
  23050452.625   121130944.586       -2092.555          48.000  
 16  4  2 12  1  3.7000000  0  1G24
  23050492.469   121131153.977       -2095.422          48.000  
 16  4  2 12  1  3.8000000  0  1G24
  23050532.367   121131363.703       -2098.926          48.000  
 16  4  2 12  1  3.9000000  0  1G24
  23050572.336   121131573.734       -2101.844          48.000  
 16  4  2 12  1  4.0000000  0  1G24
  23050612.336   121131783.938       -2103.430          48.000  
 16  4  2 12  1  4.1000000  0  1G24
  23050652.398   121131994.500       -2107.094          48.000  
 16  4  2 12  1  4.2000000  0  1G24
  23050692.523   121132205.379       -2110.594          48.000  
 16  4  2 12  1  4.3000000  0  1G24
  23050732.711   121132416.602       -2113.887          48.000  
 16  4  2 12  1  4.4000000  0  1G24
  23050772.953   121132628.090       -2116.547          48.000  
 16  4  2 12  1  4.5000000  0  1G24
  23050813.258   121132839.887       -2119.484          48.000  
 16  4  2 12  1  4.6000000  0  1G24
  23050853.633   121133052.004       -2122.859          48.000  
 16  4  2 12  1  4.7000000  0  1G24
  23050894.055   121133264.426       -2125.770          48.000  
 16  4  2 12  1  4.8000000  0  1G24
  23050934.523   121133477.086       -2128.258          48.000  
 16  4  2 12  1  4.9000000  0  1G24
  23050975.047   121133690.070       -2131.457          48.000  
 16  4  2 12  1  5.0000000  0  1G24
  23051015.648   121133903.395       -2134.922          48.000  
 16  4  2 12  1  5.1000000  0  1G24
  23051056.297   121134116.984       -2137.445          48.000  
 16  4  2 12  1  5.2000000  0  1G24
  23051096.992   121134330.840       -2139.930          48.000  
 16  4  2 12  1  5.3000000  0  1G24
  23051137.734   121134544.977       -2143.094          48.000  
 16  4  2 12  1  5.4000000  0  1G24
  23051178.555   121134759.438       -2146.039          48.000  
 16  4  2 12  1  5.5000000  0  1G24
  23051219.430   121134974.238       -2149.699          48.000  
 16  4  2 12  1  5.6000000  0  1G24
  23051260.352   121135189.301       -2152.312          48.000  
 16  4  2 12  1  5.7000000  0  1G24
  23051301.336   121135404.691       -2155.602          48.000  
 16  4  2 12  1  5.8000000  0  1G24
  23051342.391   121135620.422       -2158.699          48.000  
 16  4  2 12  1  5.9000000  0  1G24
  23051383.492   121135836.398       -2161.535          48.000  
 16  4  2 12  1  6.0000000  0  1G24
  23051424.664   121136052.730       -2164.777          48.000  
 16  4  2 12  1  6.1000000  0  1G24
  23051465.891   121136269.367       -2168.090          48.000  
 16  4  2 12  1  6.2000000  0  1G24
  23051507.172   121136486.344       -2171.340          48.000  
 16  4  2 12  1  6.3000000  0  1G24
  23051548.500   121136703.531       -2173.406          48.000  
 16  4  2 12  1  6.4000000  0  1G24
  23051589.898   121136921.078       -2177.074          48.000  
 16  4  2 12  1  6.5000000  0  1G24
  23051631.336   121137138.848       -2179.203          48.000  
 16  4  2 12  1  6.6000000  0  1G24
  23051672.844   121137356.965       -2182.891          48.000  
 16  4  2 12  1  6.7000000  0  1G24
  23051714.414   121137575.418       -2186.250          48.000  
 16  4  2 12  1  6.8000000  0  1G24
  23051756.031   121137794.129       -2188.996          48.000  
 16  4  2 12  1  6.9000000  0  1G24
  23051797.719   121138013.203       -2192.305          48.000  
 16  4  2 12  1  7.0000000  0  1G24
  23051839.461   121138232.578       -2195.547          48.000  
 16  4  2 12  1  7.1000000  0  1G24
  23051881.273   121138452.289       -2198.742          48.000  
 16  4  2 12  1  7.2000000  0  1G24
  23051923.141   121138672.316       -2201.957          48.000  
 16  4  2 12  1  7.3000000  0  1G24
  23051965.055   121138892.590       -2204.246          48.000  
 16  4  2 12  1  7.4000000  0  1G24
  23052007.016   121139113.125       -2206.961          48.000  
 16  4  2 12  1  7.5000000  0  1G24
  23052049.055   121139334.051       -2210.641          48.000  
 16  4  2 12  1  7.6000000  0  1G24
  23052091.164   121139555.281       -2213.785          48.000  
 16  4  2 12  1  7.7000000  0  1G24
  23052133.305   121139776.746       -2216.387          48.000  
 16  4  2 12  1  7.8000000  0  1G24
  23052175.508   121139998.512       -2219.266          48.000  
 16  4  2 12  1  7.9000000  0  1G24
  23052217.766   121140220.582       -2222.223          48.000  
 16  4  2 12  1  8.0000000  0  1G24
  23052260.078   121140442.914       -2224.688          48.000  
 16  4  2 12  1  8.1000000  0  1G24
  23052302.453   121140665.590       -2228.602          48.000  
 16  4  2 12  1  8.2000000  0  1G24
  23052344.883   121140888.582       -2231.430          48.000  
 16  4  2 12  1  8.3000000  0  1G24
  23052387.367   121141111.852       -2234.336          48.000  
 16  4  2 12  1  8.4000000  0  1G24
  23052429.914   121141335.398       -2237.141          48.000  
 16  4  2 12  1  8.5000000  0  1G24
  23052472.508   121141559.246       -2240.047          48.000  
 16  4  2 12  1  8.6000000  0  1G24
  23052515.164   121141783.398       -2243.285          48.000  
 16  4  2 12  1  8.7000000  0  1G24
  23052557.891   121142007.918       -2247.141          48.000  
 16  4  2 12  1  8.8000000  0  1G24
  23052600.664   121142232.664       -2248.980          48.000  
 16  4  2 12  1  8.9000000  0  1G24
  23052643.500   121142457.742       -2252.438          48.000  
 16  4  2 12  1  9.0000000  0  1G24
  23052686.383   121142683.148       -2255.707          48.000  
 16  4  2 12  1  9.1000000  0  1G24
  23052729.328   121142908.801       -2258.043          48.000  
 16  4  2 12  1  9.2000000  0  1G24
  23052772.328   121143134.773       -2261.301          48.000  
 16  4  2 12  1  9.3000000  0  1G24
  23052815.383   121143361.035       -2264.180          48.000  
 16  4  2 12  1  9.4000000  0  1G24
  23052858.508   121143587.617       -2267.426          48.000  
 16  4  2 12  1  9.5000000  0  1G24
  23052901.688   121143814.527       -2270.746          48.000  
 16  4  2 12  1  9.6000000  0  1G24
  23052944.922   121144041.734       -2273.672          48.000  
 16  4  2 12  1  9.7000000  0  1G24
  23052988.211   121144269.234       -2276.598          48.000  
 16  4  2 12  1  9.8000000  0  1G24
  23053031.570   121144497.098       -2280.223          48.000  
 16  4  2 12  1  9.9000000  0  1G24
  23053074.984   121144725.238       -2282.957          48.000  
 16  4  2 12  1 10.0000000  0  1G24
  23053118.453   121144953.676       -2285.996          48.000  
 16  4  2 12  1 10.1000000  0  1G24
  23053161.969   121145182.355       -2288.375          48.000  
 16  4  2 12  1 10.2000000  0  1G24
  23053205.547   121145411.395       -2291.902          48.000  
 16  4  2 12  1 10.3000000  0  1G24
  23053249.180   121145640.680       -2294.555          48.000  
 16  4  2 12  1 10.4000000  0  1G24
  23053292.867   121145870.293       -2297.652          48.000  
 16  4  2 12  1 10.5000000  0  1G24
  23053336.617   121146100.195       -2300.641          48.000  
 16  4  2 12  1 10.6000000  0  1G24
  23053380.414   121146330.363       -2303.258          48.000  
 16  4  2 12  1 10.7000000  0  1G24
  23053424.273   121146560.867       -2306.535          48.000  
 16  4  2 12  1 10.8000000  0  1G24
  23053468.211   121146791.750       -2310.516          48.000  
 16  4  2 12  1 10.9000000  0  1G24
  23053512.195   121147022.883       -2312.980          48.000  
 16  4  2 12  1 11.0000000  0  1G24
  23053556.242   121147254.340       -2315.949          48.000  
 16  4  2 12  1 11.1000000  0  1G24
  23053600.336   121147486.059       -2318.961          48.000  
 16  4  2 12  1 11.2000000  0  1G24
  23053644.492   121147718.152       -2322.645          48.000  
 16  4  2 12  1 11.3000000  0  1G24
  23053688.719   121147950.543       -2325.551          48.000  
 16  4  2 12  1 11.4000000  0  1G24
  23053733.008   121148183.270       -2328.957          48.000  
 16  4  2 12  1 11.5000000  0  1G24
  23053777.336   121148416.250       -2331.535          48.000  
 16  4  2 12  1 11.6000000  0  1G24
  23053821.742   121148649.605       -2334.926          48.000  
 16  4  2 12  1 11.7000000  0  1G24
  23053866.188   121148883.176       -2337.531          48.000  
 16  4  2 12  1 11.8000000  0  1G24
  23053910.711   121149117.098       -2340.645          48.000  
 16  4  2 12  1 11.9000000  0  1G24
  23053955.281   121149351.340       -2344.016          48.000  
 16  4  2 12  1 12.0000000  0  1G24
  23053999.914   121149585.855       -2346.734          48.000  
 16  4  2 12  1 12.1000000  0  1G24
  23054044.602   121149820.680       -2349.691          48.000  
 16  4  2 12  1 12.2000000  0  1G24
  23054089.344   121150055.797       -2352.703          48.000  
 16  4  2 12  1 12.3000000  0  1G24
  23054134.133   121150291.168       -2355.285          48.000  
 16  4  2 12  1 12.4000000  0  1G24
  23054178.984   121150526.887       -2358.777          48.000  
 16  4  2 12  1 12.5000000  0  1G24
  23054223.898   121150762.934       -2362.207          48.000  
 16  4  2 12  1 12.6000000  0  1G24
  23054268.867   121150999.227       -2364.590          48.000  
 16  4  2 12  1 12.7000000  0  1G24
  23054313.898   121151235.855       -2367.816          48.000  
 16  4  2 12  1 12.8000000  0  1G24
  23054358.984   121151472.773       -2370.922          48.000  
 16  4  2 12  1 12.9000000  0  1G24
  23054404.125   121151709.992       -2373.449          48.000  
 16  4  2 12  1 13.0000000  0  1G24
  23054449.320   121151947.484       -2376.527          48.000  
 16  4  2 12  1 13.1000000  0  1G24
  23054494.570   121152185.297       -2379.711          48.000  
 16  4  2 12  1 13.2000000  0  1G24
  23054539.891   121152423.422       -2382.945          48.000  
 16  4  2 12  1 13.3000000  0  1G24
  23054585.266   121152661.887       -2386.273          48.000  
 16  4  2 12  1 13.4000000  0  1G24
  23054630.695   121152900.590       -2388.652          48.000  
 16  4  2 12  1 13.5000000  0  1G24
  23054676.180   121153139.629       -2392.121          48.000  
 16  4  2 12  1 13.6000000  0  1G24
  23054721.734   121153379.016       -2395.461          48.000  
 16  4  2 12  1 13.7000000  0  1G24
  23054767.336   121153618.668       -2398.121          48.000  
 16  4  2 12  1 13.8000000  0  1G24
  23054812.992   121153858.547       -2400.371          48.000  
 16  4  2 12  1 13.9000000  0  1G24
  23054858.719   121154098.855       -2404.547          48.000  
 16  4  2 12  1 14.0000000  0  1G24
  23054904.492   121154339.402       -2407.082          48.000  
 16  4  2 12  1 14.1000000  0  1G24
  23054950.320   121154580.242       -2410.156          48.000  
 16  4  2 12  1 14.2000000  0  1G24
  23054996.211   121154821.410       -2413.227          48.000  
 16  4  2 12  1 14.3000000  0  1G24
  23055042.164   121155062.867       -2416.148          48.000  
 16  4  2 12  1 14.4000000  0  1G24
  23055088.164   121155304.625       -2419.293          48.000  
 16  4  2 12  1 14.5000000  0  1G24
  23055134.227   121155546.680       -2422.098          48.000  
 16  4  2 12  1 14.6000000  0  1G24
  23055180.344   121155789.008       -2424.922          48.000  
 16  4  2 12  1 14.7000000  0  1G24
  23055226.508   121156031.598       -2427.398          48.000  
 16  4  2 12  1 14.8000000  0  1G24
  23055272.734   121156274.531       -2431.059          48.000  
 16  4  2 12  1 14.9000000  0  1G24
  23055319.023   121156517.785       -2434.098          48.000  
 16  4  2 12  1 15.0000000  0  1G24
  23055365.359   121156761.309       -2436.652          48.000  
 16  4  2 12  1 15.1000000  0  1G24
  23055411.766   121157005.148       -2440.172          48.000  
 16  4  2 12  1 15.2000000  0  1G24
  23055458.227   121157249.293       -2443.125          48.000  
 16  4  2 12  1 15.3000000  0  1G24
  23055504.750   121157493.758       -2446.277          48.000  
 16  4  2 12  1 15.4000000  0  1G24
  23055551.328   121157738.543       -2449.457          48.000  
 16  4  2 12  1 15.5000000  0  1G24
  23055597.961   121157983.574       -2451.977          48.000  
 16  4  2 12  1 15.6000000  0  1G24
  23055644.648   121158228.879       -2454.859          48.000  
 16  4  2 12  1 15.7000000  0  1G24
  23055691.398   121158474.578       -2458.629          48.000  
 16  4  2 12  1 15.8000000  0  1G24
  23055738.203   121158720.516       -2460.957          48.000  
 16  4  2 12  1 15.9000000  0  1G24
  23055785.070   121158966.777       -2464.305          48.000  
 16  4  2 12  1 16.0000000  0  1G24
  23055831.984   121159213.316       -2466.805          48.000  
 16  4  2 12  1 16.1000000  0  1G24
  23055878.953   121159460.152       -2470.121          48.000  
 16  4  2 12  1 16.2000000  0  1G24
  23055926.008   121159707.363       -2473.449          48.000  
 16  4  2 12  1 16.3000000  0  1G24
  23055973.086   121159954.781       -2475.957          48.000  
 16  4  2 12  1 16.4000000  0  1G24
  23056020.242   121160202.559       -2479.266          48.000  
 16  4  2 12  1 16.5000000  0  1G24
  23056067.445   121160450.621       -2482.289          48.000  
 16  4  2 12  1 16.6000000  0  1G24
  23056114.703   121160698.977       -2485.094          48.000  
 16  4  2 12  1 16.7000000  0  1G24
  23056162.031   121160947.664       -2488.605          48.000  
 16  4  2 12  1 16.8000000  0  1G24
  23056209.414   121161196.672       -2491.586          48.000  
 16  4  2 12  1 16.9000000  0  1G24
  23056256.836   121161445.875       -2493.648          48.000  
 16  4  2 12  1 17.0000000  0  1G24
  23056304.312   121161695.359       -2496.160          48.000  
 16  4  2 12  1 17.1000000  0  1G24
  23056351.844   121161945.145       -2499.512          48.000  
 16  4  2 12  1 17.2000000  0  1G24
  23056399.438   121162195.277       -2502.770          48.000  
 16  4  2 12  1 17.3000000  0  1G24
  23056447.094   121162445.707       -2506.176          48.000  
 16  4  2 12  1 17.4000000  0  1G24
  23056494.820   121162696.504       -2509.418          48.000  
 16  4  2 12  1 17.5000000  0  1G24
  23056542.602   121162947.578       -2512.574          48.000  
 16  4  2 12  1 17.6000000  0  1G24
  23056590.438   121163198.984       -2515.594          48.000  
 16  4  2 12  1 17.7000000  0  1G24
  23056638.336   121163450.703       -2518.746          48.000  
 16  4  2 12  1 17.8000000  0  1G24
  23056686.289   121163702.680       -2521.312          48.000  
 16  4  2 12  1 17.9000000  0  1G24
  23056734.297   121163954.973       -2524.609          48.000  
 16  4  2 12  1 18.0000000  0  1G24
  23056782.359   121164207.539       -2527.148          48.000  
 16  4  2 12  1 18.1000000  0  1G24
  23056830.477   121164460.395       -2530.176          48.000  
 16  4  2 12  1 18.2000000  0  1G24
  23056878.664   121164713.598       -2533.656          48.000  
 16  4  2 12  1 18.3000000  0  1G24
  23056926.891   121164967.039       -2536.145          48.000  
 16  4  2 12  1 18.4000000  0  1G24
  23056975.172   121165220.777       -2538.855          48.000  
 16  4  2 12  1 18.5000000  0  1G24
  23057023.508   121165474.789       -2541.641          48.000  
 16  4  2 12  1 18.6000000  0  1G24
  23057071.914   121165729.133       -2544.977          48.000  
 16  4  2 12  1 18.7000000  0  1G24
  23057120.367   121165983.770       -2547.930          48.000  
 16  4  2 12  1 18.8000000  0  1G24
  23057168.867   121166238.660       -2550.516          48.000  
 16  4  2 12  1 18.9000000  0  1G24
  23057217.430   121166493.867       -2553.535          48.000  
 16  4  2 12  1 19.0000000  0  1G24
  23057266.070   121166749.391       -2556.766          48.000  
 16  4  2 12  1 19.1000000  0  1G24
  23057314.750   121167005.238       -2560.270          48.000  
 16  4  2 12  1 19.2000000  0  1G24
  23057363.492   121167261.375       -2562.922          48.000  
 16  4  2 12  1 19.3000000  0  1G24
  23057412.289   121167517.805       -2566.090          48.000  
 16  4  2 12  1 19.4000000  0  1G24
  23057461.141   121167774.531       -2568.902          48.000  
 16  4  2 12  1 19.5000000  0  1G24
  23057510.062   121168031.605       -2572.527          48.000  
 16  4  2 12  1 19.6000000  0  1G24
  23057559.047   121168289.043       -2576.102          48.000  
 16  4  2 12  1 19.7000000  0  1G24
  23057608.086   121168546.738       -2578.469          48.000  
 16  4  2 12  1 19.8000000  0  1G24
  23057657.164   121168804.703       -2581.062          48.000  
 16  4  2 12  1 19.9000000  0  1G24
  23057706.312   121169062.961       -2583.996          48.000  
 16  4  2 12  1 20.0000000  0  1G24
  23057755.508   121169321.535       -2587.219          48.000  
 16  4  2 12  1 20.1000000  0  1G24
  23057804.758   121169580.371       -2589.938          48.000  
 16  4  2 12  1 20.2000000  0  1G24
  23057854.070   121169839.520       -2593.016          48.000  
 16  4  2 12  1 20.3000000  0  1G24
  23057903.453   121170099.020       -2596.602          48.000  
 16  4  2 12  1 20.4000000  0  1G24
  23057952.898   121170358.863       -2600.328          48.000  
 16  4  2 12  1 20.5000000  0  1G24
  23058002.398   121170618.996       -2602.887          48.000  
 16  4  2 12  1 20.6000000  0  1G24
  23058051.961   121170879.457       -2606.273          48.000  
 16  4  2 12  1 20.7000000  0  1G24
  23058101.578   121171140.164       -2608.641          48.000  
 16  4  2 12  1 20.8000000  0  1G24
  23058151.242   121171401.176       -2611.535          48.000  
 16  4  2 12  1 20.9000000  0  1G24
  23058200.969   121171662.496       -2614.711          48.000  
 16  4  2 12  1 21.0000000  0  1G24
  23058250.758   121171924.125       -2617.859          48.000  
 16  4  2 12  1 21.1000000  0  1G24
  23058300.594   121172186.023       -2620.590          48.000  
 16  4  2 12  1 21.2000000  0  1G24
  23058350.492   121172448.227       -2623.438          48.000  
 16  4  2 12  1 21.3000000  0  1G24
  23058400.445   121172710.738       -2626.789          48.000  
 16  4  2 12  1 21.4000000  0  1G24
  23058450.469   121172973.621       -2630.484          48.000  
 16  4  2 12  1 21.5000000  0  1G24
  23058500.531   121173236.707       -2632.496          48.000  
 16  4  2 12  1 21.6000000  0  1G24
  23058550.648   121173500.098       -2635.344          48.000  
 16  4  2 12  1 21.7000000  0  1G24
  23058600.836   121173763.812       -2638.551          48.000  
 16  4  2 12  1 21.8000000  0  1G24
  23058651.070   121174027.828       -2641.824          48.000  
 16  4  2 12  1 21.9000000  0  1G24
  23058701.375   121174292.180       -2645.074          48.000  
 16  4  2 12  1 22.0000000  0  1G24
  23058751.719   121174556.785       -2647.598          48.000  
 16  4  2 12  1 22.1000000  0  1G24
  23058802.141   121174821.711       -2650.762          48.000  
 16  4  2 12  1 22.2000000  0  1G24
  23058852.602   121175086.918       -2653.770          48.000  
 16  4  2 12  1 22.3000000  0  1G24
  23058903.125   121175352.445       -2656.738          48.000  
 16  4  2 12  1 22.4000000  0  1G24
  23058953.695   121175618.199       -2659.016          48.000  
 16  4  2 12  1 22.5000000  0  1G24
  23059004.336   121175884.301       -2662.539          48.000  
 16  4  2 12  1 22.6000000  0  1G24
  23059055.031   121176150.703       -2665.754          48.000  
 16  4  2 12  1 22.7000000  0  1G24
  23059105.781   121176417.430       -2668.832          48.000  
 16  4  2 12  1 22.8000000  0  1G24
  23059156.586   121176684.406       -2671.426          48.000  
 16  4  2 12  1 22.9000000  0  1G24
  23059207.445   121176951.691       -2674.516          48.000  
 16  4  2 12  1 23.0000000  0  1G24
  23059258.352   121177219.254       -2677.102          48.000  
 16  4  2 12  1 23.1000000  0  1G24
  23059309.320   121177487.090       -2679.945          48.000  
 16  4  2 12  1 23.2000000  0  1G24
  23059360.359   121177755.281       -2683.277          48.000  
 16  4  2 12  1 23.3000000  0  1G24
  23059411.453   121178023.777       -2686.895          48.000  
 16  4  2 12  1 23.4000000  0  1G24
  23059462.609   121178292.605       -2689.723          48.000  
 16  4  2 12  1 23.5000000  0  1G24
  23059513.805   121178561.637       -2691.910          48.000  
 16  4  2 12  1 23.6000000  0  1G24
  23059565.070   121178831.008       -2695.172          48.000  
 16  4  2 12  1 23.7000000  0  1G24
  23059616.391   121179100.695       -2698.441          48.000  
 16  4  2 12  1 23.8000000  0  1G24
  23059667.766   121179370.672       -2701.504          48.000  
 16  4  2 12  1 23.9000000  0  1G24
  23059719.203   121179640.973       -2704.391          48.000  
 16  4  2 12  1 24.0000000  0  1G24
  23059770.688   121179911.547       -2707.438          48.000  
 16  4  2 12  1 24.1000000  0  1G24
  23059822.234   121180182.418       -2710.211          48.000  
 16  4  2 12  1 24.2000000  0  1G24
  23059873.836   121180453.617       -2713.500          48.000  
 16  4  2 12  1 24.3000000  0  1G24
  23059925.508   121180725.121       -2716.695          48.000  
 16  4  2 12  1 24.4000000  0  1G24
  23059977.227   121180996.902       -2719.258          48.000  
 16  4  2 12  1 24.5000000  0  1G24
  23060028.992   121181268.938       -2722.086          48.000  
 16  4  2 12  1 24.6000000  0  1G24
  23060080.828   121181541.328       -2725.246          48.000  
 16  4  2 12  1 24.7000000  0  1G24
  23060132.703   121181813.957       -2727.957          48.000  
 16  4  2 12  1 24.8000000  0  1G24
  23060184.641   121182086.879       -2730.785          48.000  
 16  4  2 12  1 24.9000000  0  1G24
  23060236.641   121182360.141       -2734.066          48.000  
 16  4  2 12  1 25.0000000  0  1G24
  23060288.695   121182633.680       -2737.094          48.000  
 16  4  2 12  1 25.1000000  0  1G24
  23060340.812   121182907.555       -2740.410          48.000  
 16  4  2 12  1 25.2000000  0  1G24
  23060392.984   121183181.727       -2743.316          48.000  
 16  4  2 12  1 25.3000000  0  1G24
  23060445.219   121183456.207       -2746.258          48.000  
 16  4  2 12  1 25.4000000  0  1G24
  23060497.508   121183730.945       -2749.047          48.000  
 16  4  2 12  1 25.5000000  0  1G24
  23060549.844   121184005.996       -2751.852          48.000  
 16  4  2 12  1 25.6000000  0  1G24
  23060602.250   121184281.344       -2755.086          48.000  
 16  4  2 12  1 25.7000000  0  1G24
  23060654.703   121184556.984       -2758.113          48.000  
 16  4  2 12  1 25.8000000  0  1G24
  23060707.211   121184832.930       -2760.777          48.000  
 16  4  2 12  1 25.9000000  0  1G24
  23060759.789   121185109.207       -2764.473          48.000  
 16  4  2 12  1 26.0000000  0  1G24
  23060812.406   121185385.734       -2766.867          48.000  
 16  4  2 12  1 26.1000000  0  1G24
  23060865.070   121185662.457       -2768.605          48.000  
 16  4  2 12  1 26.2000000  0  1G24
  23060917.797   121185939.578       -2772.707          48.000  
 16  4  2 12  1 26.3000000  0  1G24
  23060970.578   121186216.965       -2775.551          48.000  
 16  4  2 12  1 26.4000000  0  1G24
  23061023.430   121186494.711       -2779.195          48.000  
 16  4  2 12  1 26.5000000  0  1G24
  23061076.344   121186772.797       -2782.816          48.000  
 16  4  2 12  1 26.6000000  0  1G24
  23061129.320   121187051.156       -2784.988          48.000  
 16  4  2 12  1 26.7000000  0  1G24
  23061182.344   121187329.785       -2787.730          48.000  
 16  4  2 12  1 26.8000000  0  1G24
  23061235.422   121187608.715       -2790.930          48.000  
 16  4  2 12  1 26.9000000  0  1G24
  23061288.562   121187887.965       -2794.039          48.000  
 16  4  2 12  1 27.0000000  0  1G24
  23061341.750   121188167.480       -2796.707          48.000  
 16  4  2 12  1 27.1000000  0  1G24
  23061395.000   121188447.312       -2800.035          48.000  
 16  4  2 12  1 27.2000000  0  1G24
  23061448.305   121188727.410       -2802.441          48.000  
 16  4  2 12  1 27.3000000  0  1G24
  23061501.664   121189007.809       -2805.516          48.000  
 16  4  2 12  1 27.4000000  0  1G24
  23061555.086   121189288.578       -2809.160          48.000  
 16  4  2 12  1 27.5000000  0  1G24
  23061608.562   121189569.609       -2811.980          48.000  
 16  4  2 12  1 27.6000000  0  1G24
  23061662.094   121189850.922       -2814.641          48.000  
 16  4  2 12  1 27.7000000  0  1G24
  23061715.680   121190132.535       -2817.660          48.000  
 16  4  2 12  1 27.8000000  0  1G24
  23061769.328   121190414.457       -2820.742          48.000  
 16  4  2 12  1 27.9000000  0  1G24
  23061823.031   121190696.648       -2823.488          48.000  
 16  4  2 12  1 28.0000000  0  1G24
  23061876.797   121190979.203       -2827.148          48.000  
 16  4  2 12  1 28.1000000  0  1G24
  23061930.617   121191262.020       -2829.875          48.000  
 16  4  2 12  1 28.2000000  0  1G24
  23061984.508   121191545.195       -2833.465          48.000  
 16  4  2 12  1 28.3000000  0  1G24
  23062038.461   121191828.727       -2836.852          48.000  
 16  4  2 12  1 28.4000000  0  1G24
  23062092.461   121192112.496       -2839.414          48.000  
 16  4  2 12  1 28.5000000  0  1G24
  23062146.523   121192396.602       -2842.652          48.000  
 16  4  2 12  1 28.6000000  0  1G24
  23062200.648   121192681.047       -2846.102          48.000  
 16  4  2 12  1 28.7000000  0  1G24
  23062254.820   121192965.742       -2848.496          48.000  
 16  4  2 12  1 28.8000000  0  1G24
  23062309.047   121193250.723       -2851.406          48.000  
 16  4  2 12  1 28.9000000  0  1G24
  23062363.336   121193536.035       -2854.625          48.000  
 16  4  2 12  1 29.0000000  0  1G24
  23062417.680   121193821.602       -2857.156          48.000  
 16  4  2 12  1 29.1000000  0  1G24
  23062472.078   121194107.465       -2860.176          48.000  
 16  4  2 12  1 29.2000000  0  1G24
  23062526.523   121194393.617       -2862.902          48.000  
 16  4  2 12  1 29.3000000  0  1G24
  23062581.031   121194680.027       -2865.590          48.000  
 16  4  2 12  1 29.4000000  0  1G24
  23062635.602   121194966.770       -2868.941          48.000  
 16  4  2 12  1 29.5000000  0  1G24
  23062690.219   121195253.797       -2871.852          48.000  
 16  4  2 12  1 29.6000000  0  1G24
  23062744.891   121195541.125       -2874.594          48.000  
 16  4  2 12  1 29.7000000  0  1G24
  23062799.625   121195828.746       -2877.965          48.000  
 16  4  2 12  1 29.8000000  0  1G24
  23062854.422   121196116.664       -2880.801          48.000  
 16  4  2 12  1 29.9000000  0  1G24
  23062909.266   121196404.879       -2883.949          48.000  
 16  4  2 12  1 30.0000000  0  1G24
  23062964.164   121196693.395       -2886.613          48.000  
 16  4  2 12  1 30.1000000  0  1G24
  23063019.117   121196982.176       -2889.625          48.000  
 16  4  2 12  1 30.2000000  0  1G24
  23063074.141   121197271.289       -2892.602          48.000  
 16  4  2 12  1 30.3000000  0  1G24
  23063129.211   121197560.699       -2895.688          48.000  
 16  4  2 12  1 30.4000000  0  1G24
  23063184.328   121197850.371       -2898.492          48.000  
 16  4  2 12  1 30.5000000  0  1G24
  23063239.516   121198140.395       -2901.922          48.000  
 16  4  2 12  1 30.6000000  0  1G24
  23063294.758   121198430.660       -2904.293          48.000  
 16  4  2 12  1 30.7000000  0  1G24
  23063350.047   121198721.238       -2907.434          48.000  
 16  4  2 12  1 30.8000000  0  1G24
  23063405.414   121199012.164       -2910.930          48.000  
 16  4  2 12  1 30.9000000  0  1G24
  23063460.820   121199303.332       -2913.410          48.000  
 16  4  2 12  1 31.0000000  0  1G24
  23063516.297   121199594.883       -2916.875          48.000  
 16  4  2 12  1 31.1000000  0  1G24
  23063571.820   121199886.676       -2919.746          48.000  
 16  4  2 12  1 31.2000000  0  1G24
  23063627.406   121200178.793       -2922.805          48.000  
 16  4  2 12  1 31.3000000  0  1G24
  23063683.055   121200471.211       -2925.547          48.000  
 16  4  2 12  1 31.4000000  0  1G24
  23063738.742   121200763.883       -2928.105          48.000  
 16  4  2 12  1 31.5000000  0  1G24
  23063794.500   121201056.879       -2931.746          48.000  
 16  4  2 12  1 31.6000000  0  1G24
  23063850.320   121201350.238       -2935.234          48.000  
 16  4  2 12  1 31.7000000  0  1G24
  23063906.188   121201643.852       -2937.652          48.000  
 16  4  2 12  1 31.8000000  0  1G24
  23063962.133   121201937.820       -2941.449          48.000  
 16  4  2 12  1 31.9000000  0  1G24
  23064018.125   121202232.070       -2944.266          48.000  
 16  4  2 12  1 32.0000000  0  1G24
  23064074.164   121202526.559       -2946.523          48.000  
 16  4  2 12  1 32.1000000  0  1G24
  23064130.273   121202821.418       -2950.242          48.000  
 16  4  2 12  1 32.2000000  0  1G24
  23064186.438   121203116.586       -2952.961          48.000  
 16  4  2 12  1 32.3000000  0  1G24
  23064242.656   121203411.996       -2955.625          48.000  
 16  4  2 12  1 32.4000000  0  1G24
  23064298.922   121203707.727       -2958.969          48.000  
 16  4  2 12  1 32.5000000  0  1G24
  23064355.266   121204003.797       -2962.348          48.000  
 16  4  2 12  1 32.6000000  0  1G24
  23064411.648   121204300.105       -2964.730          48.000  
 16  4  2 12  1 32.7000000  0  1G24
  23064468.094   121204596.734       -2967.840          48.000  
 16  4  2 12  1 32.8000000  0  1G24
  23064524.586   121204893.598       -2970.043          48.000  
 16  4  2 12  1 32.9000000  0  1G24
  23064581.148   121205190.832       -2973.871          48.000  
 16  4  2 12  1 33.0000000  0  1G24
  23064637.766   121205488.371       -2977.184          48.000  
 16  4  2 12  1 33.1000000  0  1G24
  23064694.438   121205786.195       -2979.992          48.000  
 16  4  2 12  1 33.2000000  0  1G24
  23064751.156   121206084.258       -2982.219          48.000  
 16  4  2 12  1 33.3000000  0  1G24
  23064807.953   121206382.691       -2985.848          48.000  
 16  4  2 12  1 33.4000000  0  1G24
  23064864.797   121206681.422       -2988.922          48.000  
 16  4  2 12  1 33.5000000  0  1G24
  23064921.688   121206980.387       -2991.293          48.000  
 16  4  2 12  1 33.6000000  0  1G24
  23064978.633   121207279.664       -2994.180          48.000  
 16  4  2 12  1 33.7000000  0  1G24
  23065035.656   121207579.312       -2998.332          48.000  
 16  4  2 12  1 33.8000000  0  1G24
  23065092.742   121207879.270       -3001.152          48.000  
 16  4  2 12  1 33.9000000  0  1G24
  23065149.875   121208179.500       -3003.895          48.000  
 16  4  2 12  1 34.0000000  0  1G24
  23065207.055   121208479.996       -3006.477          48.000  
 16  4  2 12  1 34.1000000  0  1G24
  23065264.305   121208780.848       -3010.039          48.000  
 16  4  2 12  1 34.2000000  0  1G24
  23065321.594   121209081.910       -3012.195          48.000  
 16  4  2 12  1 34.3000000  0  1G24
  23065378.961   121209383.355       -3016.012          48.000  
 16  4  2 12  1 34.4000000  0  1G24
  23065436.367   121209685.059       -3018.418          48.000  
 16  4  2 12  1 34.5000000  0  1G24
  23065493.828   121209987.000       -3020.930          48.000  
 16  4  2 12  1 34.6000000  0  1G24
  23065551.344   121210289.270       -3024.234          48.000  
 16  4  2 12  1 34.7000000  0  1G24
  23065608.922   121210591.824       -3027.113          48.000  
 16  4  2 12  1 34.8000000  0  1G24
  23065666.562   121210894.738       -3030.637          48.000  
 16  4  2 12  1 34.9000000  0  1G24
  23065724.250   121211197.910       -3033.402          48.000  
 16  4  2 12  1 35.0000000  0  1G24
  23065782.008   121211501.414       -3036.605          48.000  
 16  4  2 12  1 35.1000000  0  1G24
  23065839.812   121211805.168       -3039.145          48.000  
 16  4  2 12  1 35.2000000  0  1G24
  23065897.664   121212109.195       -3041.480          48.000  
 16  4  2 12  1 35.3000000  0  1G24
  23065955.578   121212413.520       -3044.812          48.000  
 16  4  2 12  1 35.4000000  0  1G24
  23066013.539   121212718.094       -3047.355          48.000  
 16  4  2 12  1 35.5000000  0  1G24
  23066071.578   121213023.074       -3051.395          48.000  
 16  4  2 12  1 35.6000000  0  1G24
  23066129.656   121213328.262       -3053.484          48.000  
 16  4  2 12  1 35.7000000  0  1G24
  23066187.789   121213633.773       -3056.527          48.000  
 16  4  2 12  1 35.8000000  0  1G24
  23066245.992   121213939.613       -3059.836          48.000  
 16  4  2 12  1 35.9000000  0  1G24
  23066304.234   121214245.699       -3062.570          48.000  
 16  4  2 12  1 36.0000000  0  1G24
  23066362.562   121214552.176       -3066.473          48.000  
 16  4  2 12  1 36.1000000  0  1G24
  23066420.930   121214858.922       -3069.078          48.000  
 16  4  2 12  1 36.2000000  0  1G24
  23066479.375   121215166.012       -3072.680          48.000  
 16  4  2 12  1 36.3000000  0  1G24
  23066537.859   121215473.371       -3074.996          48.000  
 16  4  2 12  1 36.4000000  0  1G24
  23066596.406   121215781.031       -3078.098          48.000  
 16  4  2 12  1 36.5000000  0  1G24
  23066655.016   121216089.031       -3081.625          48.000  
 16  4  2 12  1 36.6000000  0  1G24
  23066713.680   121216397.293       -3084.297          48.000  
 16  4  2 12  1 36.7000000  0  1G24
  23066772.414   121216705.934       -3088.031          48.000  
 16  4  2 12  1 36.8000000  0  1G24
  23066831.195   121217014.836       -3090.574          48.000  
 16  4  2 12  1 36.9000000  0  1G24
  23066890.031   121217324.016       -3093.570          48.000  
 16  4  2 12  1 37.0000000  0  1G24
  23066948.945   121217633.633       -3097.688          48.000  
 16  4  2 12  1 37.1000000  0  1G24
  23067007.906   121217943.449       -3100.004          48.000  
 16  4  2 12  1 37.2000000  0  1G24
  23067066.922   121218253.602       -3103.035          48.000  
 16  4  2 12  1 37.3000000  0  1G24
  23067125.992   121218564.031       -3105.938          48.000  
 16  4  2 12  1 37.4000000  0  1G24
  23067185.133   121218874.809       -3109.102          48.000  
 16  4  2 12  1 37.5000000  0  1G24
  23067244.312   121219185.801       -3111.574          48.000  
 16  4  2 12  1 37.6000000  0  1G24
  23067303.555   121219497.125       -3114.762          48.000  
 16  4  2 12  1 37.7000000  0  1G24
  23067362.859   121219808.766       -3117.949          48.000  
 16  4  2 12  1 37.8000000  0  1G24
  23067422.219   121220120.707       -3121.129          48.000  
 16  4  2 12  1 37.9000000  0  1G24
  23067481.633   121220432.934       -3123.809          48.000  
 16  4  2 12  1 38.0000000  0  1G24
  23067541.102   121220745.438       -3126.602          48.000  
 16  4  2 12  1 38.1000000  0  1G24
  23067600.633   121221058.258       -3129.828          48.000  
 16  4  2 12  1 38.2000000  0  1G24
  23067660.219   121221371.422       -3133.277          48.000  
 16  4  2 12  1 38.3000000  0  1G24
  23067719.867   121221684.855       -3135.812          48.000  
 16  4  2 12  1 38.4000000  0  1G24
  23067779.555   121221998.555       -3138.680          48.000  
 16  4  2 12  1 38.5000000  0  1G24
  23067839.312   121222312.590       -3141.953          48.000  
 16  4  2 12  1 38.6000000  0  1G24
  23067899.125   121222626.922       -3144.941          48.000  
 16  4  2 12  1 38.7000000  0  1G24
  23067959.008   121222941.582       -3148.129          48.000  
 16  4  2 12  1 38.8000000  0  1G24
  23068018.945   121223256.559       -3151.336          48.000  
 16  4  2 12  1 38.9000000  0  1G24
  23068078.930   121223571.781       -3153.816          48.000  
 16  4  2 12  1 39.0000000  0  1G24
  23068138.977   121223887.328       -3156.969          48.000  
 16  4  2 12  1 39.1000000  0  1G24
  23068199.086   121224203.191       -3160.082          48.000  
 16  4  2 12  1 39.2000000  0  1G24
  23068259.242   121224519.324       -3162.906          48.000  
 16  4  2 12  1 39.3000000  0  1G24
  23068319.477   121224835.836       -3166.621          48.000  
 16  4  2 12  1 39.4000000  0  1G24
  23068379.758   121225152.629       -3169.773          48.000  
 16  4  2 12  1 39.5000000  0  1G24
  23068440.086   121225469.641       -3171.512          48.000  
 16  4  2 12  1 39.6000000  0  1G24
  23068500.469   121225786.988       -3175.027          48.000  
 16  4  2 12  1 39.7000000  0  1G24
  23068560.914   121226104.633       -3178.070          48.000  
 16  4  2 12  1 39.8000000  0  1G24
  23068621.406   121226422.527       -3180.582          48.000  
 16  4  2 12  1 39.9000000  0  1G24
  23068681.969   121226740.770       -3184.070          48.000  
 16  4  2 12  1 40.0000000  0  1G24
  23068742.594   121227059.363       -3187.633          48.000  
 16  4  2 12  1 40.1000000  0  1G24
  23068803.250   121227378.145       -3189.281          48.000  
 16  4  2 12  1 40.2000000  0  1G24
  23068863.984   121227697.258       -3192.648          48.000  
 16  4  2 12  1 40.3000000  0  1G24
  23068924.766   121228016.703       -3196.082          48.000  
 16  4  2 12  1 40.4000000  0  1G24
  23068985.602   121228336.418       -3198.734          48.000  
 16  4  2 12  1 40.5000000  0  1G24
  23069046.492   121228656.383       -3201.070          48.000  
 16  4  2 12  1 40.6000000  0  1G24
  23069107.445   121228976.703       -3204.844          48.000  
 16  4  2 12  1 40.7000000  0  1G24
  23069168.461   121229297.355       -3208.172          48.000  
 16  4  2 12  1 40.8000000  0  1G24
  23069229.531   121229618.281       -3211.059          48.000  
 16  4  2 12  1 40.9000000  0  1G24
  23069290.664   121229939.516       -3213.926          48.000  
 16  4  2 12  1 41.0000000  0  1G24
  23069351.844   121230261.027       -3216.664          48.000  
 16  4  2 12  1 41.1000000  0  1G24
  23069413.086   121230582.867       -3219.891          48.000  
 16  4  2 12  1 41.2000000  0  1G24
  23069474.375   121230904.934       -3222.043          48.000  
 16  4  2 12  1 41.3000000  0  1G24
  23069535.719   121231227.332       -3225.551          48.000  
 16  4  2 12  1 41.4000000  0  1G24
  23069597.125   121231550.035       -3228.527          48.000  
 16  4  2 12  1 41.5000000  0  1G24
  23069658.586   121231873.020       -3231.516          48.000  
 16  4  2 12  1 41.6000000  0  1G24
  23069720.102   121232196.289       -3234.309          48.000  
 16  4  2 12  1 41.7000000  0  1G24
  23069781.680   121232519.867       -3237.121          48.000  
 16  4  2 12  1 41.8000000  0  1G24
  23069843.312   121232843.727       -3240.070          48.000  
 16  4  2 12  1 41.9000000  0  1G24
  23069905.000   121233167.898       -3243.426          48.000  
 16  4  2 12  1 42.0000000  0  1G24
  23069966.758   121233492.438       -3247.055          48.000  
 16  4  2 12  1 42.1000000  0  1G24
  23070028.562   121233817.238       -3249.750          48.000  
 16  4  2 12  1 42.2000000  0  1G24
  23070090.430   121234142.355       -3252.832          48.000  
 16  4  2 12  1 42.3000000  0  1G24
  23070152.352   121234467.777       -3256.117          48.000  
 16  4  2 12  1 42.4000000  0  1G24
  23070214.336   121234793.520       -3258.715          48.000  
 16  4  2 12  1 42.5000000  0  1G24
  23070276.359   121235119.465       -3261.020          48.000  
 16  4  2 12  1 42.6000000  0  1G24
  23070338.461   121235445.801       -3264.855          48.000  
 16  4  2 12  1 42.7000000  0  1G24
  23070400.609   121235772.406       -3267.855          48.000  
 16  4  2 12  1 42.8000000  0  1G24
  23070462.820   121236099.301       -3270.613          48.000  
 16  4  2 12  1 42.9000000  0  1G24
  23070525.094   121236426.559       -3274.270          48.000  
 16  4  2 12  1 43.0000000  0  1G24
  23070587.422   121236754.086       -3276.715          48.000  
 16  4  2 12  1 43.1000000  0  1G24
  23070649.789   121237081.848       -3279.211          48.000  
 16  4  2 12  1 43.2000000  0  1G24
  23070712.219   121237409.930       -3282.305          48.000  
 16  4  2 12  1 43.3000000  0  1G24
  23070774.711   121237738.297       -3284.926          48.000  
 16  4  2 12  1 43.4000000  0  1G24
  23070837.250   121238066.953       -3288.363          48.000  
 16  4  2 12  1 43.5000000  0  1G24
  23070899.859   121238395.980       -3291.711          48.000  
 16  4  2 12  1 43.6000000  0  1G24
  23070962.516   121238725.258       -3294.812          48.000  
 16  4  2 12  1 43.7000000  0  1G24
  23071025.234   121239054.840       -3297.305          48.000  
 16  4  2 12  1 43.8000000  0  1G24
  23071088.008   121239384.707       -3300.207          48.000  
 16  4  2 12  1 43.9000000  0  1G24
  23071150.844   121239714.910       -3303.684          48.000  
 16  4  2 12  1 44.0000000  0  1G24
  23071213.734   121240045.395       -3306.418          48.000  
 16  4  2 12  1 44.1000000  0  1G24
  23071276.672   121240376.137       -3308.875          48.000  
 16  4  2 12  1 44.2000000  0  1G24
  23071339.672   121240707.191       -3312.152          48.000  
 16  4  2 12  1 44.3000000  0  1G24
  23071402.734   121241038.566       -3315.316          48.000  
 16  4  2 12  1 44.4000000  0  1G24
  23071465.844   121241370.227       -3318.184          48.000  
 16  4  2 12  1 44.5000000  0  1G24
  23071529.016   121241702.199       -3321.316          48.000  
 16  4  2 12  1 44.6000000  0  1G24
  23071592.250   121242034.449       -3323.941          48.000  
 16  4  2 12  1 44.7000000  0  1G24
  23071655.531   121242367.000       -3327.102          48.000  
 16  4  2 12  1 44.8000000  0  1G24
  23071718.867   121242699.828       -3329.758          48.000  
 16  4  2 12  1 44.9000000  0  1G24
  23071782.250   121243032.926       -3332.539          48.000  
 16  4  2 12  1 45.0000000  0  1G24
  23071845.695   121243366.352       -3335.859          48.000  
 16  4  2 12  1 45.1000000  0  1G24
  23071909.203   121243700.090       -3339.105          48.000  
 16  4  2 12  1 45.2000000  0  1G24
  23071972.781   121244034.180       -3342.516          48.000  
 16  4  2 12  1 45.3000000  0  1G24
  23072036.414   121244368.555       -3345.391          48.000  
 16  4  2 12  1 45.4000000  0  1G24
  23072100.094   121244703.203       -3348.105          48.000  
 16  4  2 12  1 45.5000000  0  1G24
  23072163.844   121245038.195       -3351.465          48.000  
 16  4  2 12  1 45.6000000  0  1G24
  23072227.641   121245373.465       -3354.258          48.000  
 16  4  2 12  1 45.7000000  0  1G24
  23072291.492   121245709.008       -3356.883          48.000  
 16  4  2 12  1 45.8000000  0  1G24
  23072355.391   121246044.797       -3359.418          48.000  
 16  4  2 12  1 45.9000000  0  1G24
  23072419.359   121246380.934       -3362.832          48.000  
 16  4  2 12  1 46.0000000  0  1G24
  23072483.375   121246717.336       -3365.746          48.000  
 16  4  2 12  1 46.1000000  0  1G24
  23072547.461   121247054.090       -3369.117          48.000  
 16  4  2 12  1 46.2000000  0  1G24
  23072611.594   121247391.094       -3371.719          48.000  
 16  4  2 12  1 46.3000000  0  1G24
  23072675.781   121247728.430       -3374.941          48.000  
 16  4  2 12  1 46.4000000  0  1G24
  23072740.031   121248066.062       -3377.812          48.000  
 16  4  2 12  1 46.5000000  0  1G24
  23072804.336   121248403.980       -3380.867          48.000  
 16  4  2 12  1 46.6000000  0  1G24
  23072868.688   121248742.164       -3383.523          48.000  
 16  4  2 12  1 46.7000000  0  1G24
  23072933.109   121249080.688       -3386.676          48.000  
 16  4  2 12  1 46.8000000  0  1G24
  23072997.609   121249419.605       -3390.598          48.000  
 16  4  2 12  1 46.9000000  0  1G24
  23073062.148   121249758.777       -3393.402          48.000  
 16  4  2 12  1 47.0000000  0  1G24
  23073126.742   121250098.238       -3396.301          48.000  
 16  4  2 12  1 47.1000000  0  1G24
  23073191.391   121250437.992       -3399.023          48.000  
 16  4  2 12  1 47.2000000  0  1G24
  23073256.109   121250778.047       -3402.145          48.000  
 16  4  2 12  1 47.3000000  0  1G24
  23073320.875   121251118.395       -3405.113          48.000  
 16  4  2 12  1 47.4000000  0  1G24
  23073385.703   121251459.070       -3408.129          48.000  
 16  4  2 12  1 47.5000000  0  1G24
  23073450.578   121251799.996       -3410.789          48.000  
 16  4  2 12  1 47.6000000  0  1G24
  23073515.516   121252141.230       -3413.930          48.000  
 16  4  2 12  1 47.7000000  0  1G24
  23073580.508   121252482.750       -3416.773          48.000  
 16  4  2 12  1 47.8000000  0  1G24
  23073645.555   121252824.602       -3419.961          48.000  
 16  4  2 12  1 47.9000000  0  1G24
  23073710.656   121253166.707       -3422.707          48.000  
 16  4  2 12  1 48.0000000  0  1G24
  23073775.820   121253509.141       -3426.109          48.000  
 16  4  2 12  1 48.1000000  0  1G24
  23073841.047   121253851.941       -3429.590          48.000  
 16  4  2 12  1 48.2000000  0  1G24
  23073906.320   121254194.969       -3432.070          48.000  
 16  4  2 12  1 48.3000000  0  1G24
  23073971.672   121254538.359       -3435.543          48.000  
 16  4  2 12  1 48.4000000  0  1G24
  23074037.070   121254882.023       -3438.367          48.000  
 16  4  2 12  1 48.5000000  0  1G24
  23074102.531   121255226.020       -3441.703          48.000  
 16  4  2 12  1 48.6000000  0  1G24
  23074168.047   121255570.309       -3444.535          48.000  
 16  4  2 12  1 48.7000000  0  1G24
  23074233.617   121255914.898       -3447.570          48.000  
 16  4  2 12  1 48.8000000  0  1G24
  23074299.242   121256259.762       -3450.012          48.000  
 16  4  2 12  1 48.9000000  0  1G24
  23074364.938   121256604.977       -3453.762          48.000  
 16  4  2 12  1 49.0000000  0  1G24
  23074430.688   121256950.492       -3456.828          48.000  
 16  4  2 12  1 49.1000000  0  1G24
  23074496.484   121257296.254       -3459.207          48.000  
 16  4  2 12  1 49.2000000  0  1G24
  23074562.336   121257642.336       -3462.645          48.000  
 16  4  2 12  1 49.3000000  0  1G24
  23074628.266   121257988.777       -3466.016          48.000  
 16  4  2 12  1 49.4000000  0  1G24
  23074694.250   121258335.516       -3469.195          48.000  
 16  4  2 12  1 49.5000000  0  1G24
  23074760.289   121258682.562       -3472.230          48.000  
 16  4  2 12  1 49.6000000  0  1G24
  23074826.383   121259029.898       -3474.941          48.000  
 16  4  2 12  1 49.7000000  0  1G24
  23074892.523   121259377.438       -3476.957          48.000  
 16  4  2 12  1 49.8000000  0  1G24
  23074958.734   121259725.375       -3480.773          48.000  
 16  4  2 12  1 49.9000000  0  1G24
  23075024.992   121260073.578       -3483.445          48.000  
 16  4  2 12  1 50.0000000  0  1G24
  23075091.305   121260422.055       -3486.270          48.000  
 16  4  2 12  1 50.1000000  0  1G24
  23075157.672   121260770.824       -3489.242          48.000  
 16  4  2 12  1 50.2000000  0  1G24
  23075224.094   121261119.910       -3492.480          48.000  
 16  4  2 12  1 50.3000000  0  1G24
  23075290.578   121261469.277       -3495.508          48.000  
 16  4  2 12  1 50.4000000  0  1G24
  23075357.125   121261818.980       -3498.656          48.000  
 16  4  2 12  1 50.5000000  0  1G24
  23075423.727   121262168.988       -3501.684          48.000  
 16  4  2 12  1 50.6000000  0  1G24
  23075490.383   121262519.293       -3504.625          48.000  
 16  4  2 12  1 50.7000000  0  1G24
  23075557.102   121262869.906       -3507.844          48.000  
 16  4  2 12  1 50.8000000  0  1G24
  23075623.883   121263220.840       -3510.953          48.000  
 16  4  2 12  1 50.9000000  0  1G24
  23075690.711   121263572.031       -3513.539          48.000  
 16  4  2 12  1 51.0000000  0  1G24
  23075757.594   121263923.492       -3515.945          48.000  
 16  4  2 12  1 51.1000000  0  1G24
  23075824.531   121264275.281       -3519.477          48.000  
 16  4  2 12  1 51.2000000  0  1G24
  23075891.516   121264627.312       -3521.914          48.000  
 16  4  2 12  1 51.3000000  0  1G24
  23075958.570   121264979.668       -3525.219          48.000  
 16  4  2 12  1 51.4000000  0  1G24
  23076025.688   121265332.371       -3528.723          48.000  
 16  4  2 12  1 51.5000000  0  1G24
  23076092.859   121265685.383       -3531.672          48.000  
 16  4  2 12  1 51.6000000  0  1G24
  23076160.086   121266038.648       -3534.355          48.000  
 16  4  2 12  1 51.7000000  0  1G24
  23076227.375   121266392.242       -3537.496          48.000  
 16  4  2 12  1 51.8000000  0  1G24
  23076294.719   121266746.148       -3540.699          48.000  
 16  4  2 12  1 51.9000000  0  1G24
  23076362.109   121267100.289       -3542.824          48.000  
 16  4  2 12  1 52.0000000  0  1G24
  23076429.555   121267454.766       -3546.406          48.000  
 16  4  2 12  1 52.1000000  0  1G24
  23076497.078   121267809.578       -3549.742          48.000  
 16  4  2 12  1 52.2000000  0  1G24
  23076564.648   121268164.676       -3552.684          48.000  
 16  4  2 12  1 52.3000000  0  1G24
  23076632.281   121268520.109       -3555.902          48.000  
 16  4  2 12  1 52.4000000  0  1G24
  23076699.977   121268875.832       -3558.898          48.000  
 16  4  2 12  1 52.5000000  0  1G24
  23076767.727   121269231.852       -3561.727          48.000  
 16  4  2 12  1 52.6000000  0  1G24
  23076835.516   121269588.102       -3564.125          48.000  
 16  4  2 12  1 52.7000000  0  1G24
  23076903.375   121269944.711       -3567.625          48.000  
 16  4  2 12  1 52.8000000  0  1G24
  23076971.297   121270301.625       -3571.004          48.000  
 16  4  2 12  1 52.9000000  0  1G24
  23077039.273   121270658.836       -3573.750          48.000  
 16  4  2 12  1 53.0000000  0  1G24
  23077107.312   121271016.371       -3576.688          48.000  
 16  4  2 12  1 53.1000000  0  1G24
  23077175.398   121271374.152       -3579.258          48.000  
 16  4  2 12  1 53.2000000  0  1G24
  23077243.539   121271732.254       -3582.738          48.000  
 16  4  2 12  1 53.3000000  0  1G24
  23077311.742   121272090.645       -3585.348          48.000  
 16  4  2 12  1 53.4000000  0  1G24
  23077380.008   121272449.375       -3589.039          48.000  
 16  4  2 12  1 53.5000000  0  1G24
  23077448.328   121272808.398       -3591.930          48.000  
 16  4  2 12  1 53.6000000  0  1G24
  23077516.711   121273167.754       -3595.105          48.000  
 16  4  2 12  1 53.7000000  0  1G24
  23077585.156   121273527.422       -3598.309          48.000  
 16  4  2 12  1 53.8000000  0  1G24
  23077653.656   121273887.383       -3601.352          48.000  
 16  4  2 12  1 53.9000000  0  1G24
  23077722.203   121274247.586       -3603.527          48.000  
 16  4  2 12  1 54.0000000  0  1G24
  23077790.812   121274608.152       -3606.957          48.000  
 16  4  2 12  1 54.1000000  0  1G24
  23077859.477   121274968.992       -3610.078          48.000  
 16  4  2 12  1 54.2000000  0  1G24
  23077928.203   121275330.109       -3612.848          48.000  
 16  4  2 12  1 54.3000000  0  1G24
  23077996.984   121275691.555       -3616.035          48.000  
 16  4  2 12  1 54.4000000  0  1G24
  23078065.812   121276053.254       -3618.469          48.000  
 16  4  2 12  1 54.5000000  0  1G24
  23078134.703   121276415.273       -3621.621          48.000  
 16  4  2 12  1 54.6000000  0  1G24
  23078203.641   121276777.555       -3624.578          48.000  
 16  4  2 12  1 54.7000000  0  1G24
  23078272.648   121277140.191       -3627.977          48.000  
 16  4  2 12  1 54.8000000  0  1G24
  23078341.711   121277503.133       -3631.242          48.000  
 16  4  2 12  1 54.9000000  0  1G24
  23078410.820   121277866.332       -3633.773          48.000  
 16  4  2 12  1 55.0000000  0  1G24
  23078480.008   121278229.879       -3637.270          48.000  
 16  4  2 12  1 55.1000000  0  1G24
  23078549.250   121278593.773       -3640.457          48.000  
 16  4  2 12  1 55.2000000  0  1G24
  23078618.539   121278957.867       -3642.645          48.000  
 16  4  2 12  1 55.3000000  0  1G24
  23078687.898   121279322.352       -3646.285          48.000  
 16  4  2 12  1 55.4000000  0  1G24
  23078757.305   121279687.066       -3648.801          48.000  
 16  4  2 12  1 55.5000000  0  1G24
  23078826.766   121280052.102       -3651.863          48.000  
 16  4  2 12  1 55.6000000  0  1G24
  23078896.297   121280417.469       -3655.270          48.000  
 16  4  2 12  1 55.7000000  0  1G24
  23078965.867   121280783.059       -3657.664          48.000  
 16  4  2 12  1 55.8000000  0  1G24
  23079035.516   121281149.055       -3661.539          48.000  
 16  4  2 12  1 55.9000000  0  1G24
  23079105.211   121281515.301       -3664.086          48.000  
 16  4  2 12  1 56.0000000  0  1G24
  23079174.945   121281881.777       -3666.230          48.000  
 16  4  2 12  1 56.1000000  0  1G24
  23079244.734   121282248.520       -3668.895          48.000  
 16  4  2 12  1 56.2000000  0  1G24
  23079314.602   121282615.645       -3672.605          48.000  
 16  4  2 12  1 56.3000000  0  1G24
  23079384.516   121282983.059       -3675.785          48.000  
 16  4  2 12  1 56.4000000  0  1G24
  23079454.500   121283350.781       -3678.824          48.000  
 16  4  2 12  1 56.5000000  0  1G24
  23079524.531   121283718.828       -3682.055          48.000  
 16  4  2 12  1 56.6000000  0  1G24
  23079594.617   121284087.121       -3684.582          48.000  
 16  4  2 12  1 56.7000000  0  1G24
  23079664.773   121284455.777       -3688.035          48.000  
 16  4  2 12  1 56.8000000  0  1G24
  23079734.977   121284824.715       -3691.062          48.000  
 16  4  2 12  1 56.9000000  0  1G24
  23079805.234   121285193.930       -3693.891          48.000  
 16  4  2 12  1 57.0000000  0  1G24
  23079875.555   121285563.492       -3697.055          48.000  
 16  4  2 12  1 57.1000000  0  1G24
  23079945.922   121285933.262       -3699.273          48.000  
 16  4  2 12  1 57.2000000  0  1G24
  23080016.352   121286303.387       -3702.797          48.000  
 16  4  2 12  1 57.3000000  0  1G24
  23080086.844   121286673.801       -3705.660          48.000  
 16  4  2 12  1 57.4000000  0  1G24
  23080157.391   121287044.531       -3708.984          48.000  
 16  4  2 12  1 57.5000000  0  1G24
  23080227.984   121287415.496       -3711.145          48.000  
 16  4  2 12  1 57.6000000  0  1G24
  23080298.625   121287786.758       -3714.121          48.000  
 16  4  2 12  1 57.7000000  0  1G24
  23080369.344   121288158.383       -3717.871          48.000  
 16  4  2 12  1 57.8000000  0  1G24
  23080440.125   121288530.332       -3721.305          48.000  
 16  4  2 12  1 57.9000000  0  1G24
  23080510.953   121288902.566       -3723.914          48.000  
 16  4  2 12  1 58.0000000  0  1G24
  23080581.852   121289275.125       -3727.488          48.000  
 16  4  2 12  1 58.1000000  0  1G24
  23080652.812   121289648.043       -3730.887          48.000  
 16  4  2 12  1 58.2000000  0  1G24
  23080723.828   121290021.223       -3733.328          48.000  
 16  4  2 12  1 58.3000000  0  1G24
  23080794.875   121290394.594       -3735.199          48.000  
 16  4  2 12  1 58.4000000  0  1G24
  23080865.992   121290768.305       -3738.527          48.000  
 16  4  2 12  1 58.5000000  0  1G24
  23080937.172   121291142.355       -3742.137          48.000  
 16  4  2 12  1 58.6000000  0  1G24
  23081008.414   121291516.719       -3745.055          48.000  
 16  4  2 12  1 58.7000000  0  1G24
  23081079.695   121291891.332       -3747.914          48.000  
 16  4  2 12  1 58.8000000  0  1G24
  23081151.039   121292266.230       -3750.609          48.000  
 16  4  2 12  1 58.9000000  0  1G24
  23081222.445   121292641.496       -3754.168          48.000  
 16  4  2 12  1 59.0000000  0  1G24
  23081293.914   121293017.059       -3757.277          48.000  
 16  4  2 12  1 59.1000000  0  1G24
  23081365.438   121293392.895       -3759.930          48.000  
 16  4  2 12  1 59.2000000  0  1G24
  23081437.008   121293769.008       -3762.531          48.000  
 16  4  2 12  1 59.3000000  0  1G24
  23081508.641   121294145.414       -3765.594          48.000  
 16  4  2 12  1 59.4000000  0  1G24
  23081580.320   121294522.102       -3768.348          48.000  
 16  4  2 12  1 59.5000000  0  1G24
  23081652.062   121294899.121       -3771.758          48.000  
 16  4  2 12  1 59.6000000  0  1G24
  23081723.875   121295276.484       -3775.496          48.000  
 16  4  2 12  1 59.7000000  0  1G24
  23081795.750   121295654.219       -3779.016          48.000  
 16  4  2 12  1 59.8000000  0  1G24
  23081867.672   121296032.164       -3781.160          48.000  
 16  4  2 12  1 59.9000000  0  1G24
  23081939.656   121296410.445       -3784.297          48.000  
 16  4  2 12  2  0.0000000  0  1G24
  23082011.688   121296788.941       -3786.781          48.000  
 16  4  2 12  2  0.1000000  0  1G24
  23082083.789   121297167.844       -3790.609          48.000  
 16  4  2 12  2  0.2000000  0  1G24
  23082155.930   121297546.949       -3792.531          48.000  
 16  4  2 12  2  0.3000000  0  1G24
  23082228.133   121297926.348       -3795.492          48.000  
 16  4  2 12  2  0.4000000  0  1G24
  23082300.391   121298306.062       -3798.734          48.000  
 16  4  2 12  2  0.5000000  0  1G24
  23082372.711   121298686.113       -3802.062          48.000  
 16  4  2 12  2  0.6000000  0  1G24
  23082445.078   121299066.414       -3804.535          48.000  
 16  4  2 12  2  0.7000000  0  1G24
  23082517.492   121299446.945       -3806.785          48.000  
 16  4  2 12  2  0.8000000  0  1G24
  23082589.953   121299827.742       -3809.574          48.000  
 16  4  2 12  2  0.9000000  0  1G24
  23082662.492   121300208.945       -3813.602          48.000  
 16  4  2 12  2  1.0000000  0  1G24
  23082735.086   121300590.426       -3816.547          48.000  
 16  4  2 12  2  1.1000000  0  1G24
  23082807.742   121300972.238       -3819.758          48.000  
 16  4  2 12  2  1.2000000  0  1G24
  23082880.453   121301354.363       -3822.875          48.000  
 16  4  2 12  2  1.3000000  0  1G24
  23082953.227   121301736.793       -3825.809          48.000  
 16  4  2 12  2  1.4000000  0  1G24
  23083026.039   121302119.445       -3828.051          48.000  
 16  4  2 12  2  1.5000000  0  1G24
  23083098.922   121302502.430       -3831.184          48.000  
 16  4  2 12  2  1.6000000  0  1G24
  23083171.859   121302885.719       -3834.703          48.000  
 16  4  2 12  2  1.7000000  0  1G24
  23083244.859   121303269.363       -3838.121          48.000  
 16  4  2 12  2  1.8000000  0  1G24
  23083317.922   121303653.293       -3840.746          48.000  
 16  4  2 12  2  1.9000000  0  1G24
  23083391.023   121304037.453       -3843.082          48.000  
 16  4  2 12  2  2.0000000  0  1G24
  23083464.188   121304421.906       -3846.004          48.000  
 16  4  2 12  2  2.1000000  0  1G24
  23083537.398   121304806.664       -3849.000          48.000  
 16  4  2 12  2  2.2000000  0  1G24
  23083610.672   121305191.680       -3851.648          48.000  
 16  4  2 12  2  2.3000000  0  1G24
  23083684.000   121305577.039       -3855.211          48.000  
 16  4  2 12  2  2.4000000  0  1G24
  23083757.375   121305962.645       -3857.504          48.000  
 16  4  2 12  2  2.5000000  0  1G24
  23083830.812   121306348.551       -3860.586          48.000  
 16  4  2 12  2  2.6000000  0  1G24
  23083904.312   121306734.773       -3864.117          48.000  
 16  4  2 12  2  2.7000000  0  1G24
  23083977.867   121307121.328       -3866.988          48.000  
 16  4  2 12  2  2.8000000  0  1G24
  23084051.477   121307508.117       -3869.613          48.000  
 16  4  2 12  2  2.9000000  0  1G24
  23084125.148   121307895.262       -3872.734          48.000  
 16  4  2 12  2  3.0000000  0  1G24
  23084198.891   121308282.754       -3876.629          48.000  
 16  4  2 12  2  3.1000000  0  1G24
  23084272.680   121308670.512       -3879.312          48.000  
 16  4  2 12  2  3.2000000  0  1G24
  23084346.516   121309058.508       -3881.574          48.000  
 16  4  2 12  2  3.3000000  0  1G24
  23084420.414   121309446.875       -3885.062          48.000  
 16  4  2 12  2  3.4000000  0  1G24
  23084494.359   121309835.461       -3887.324          48.000  
 16  4  2 12  2  3.5000000  0  1G24
  23084568.367   121310224.379       -3890.691          48.000  
 16  4  2 12  2  3.6000000  0  1G24
  23084642.438   121310613.605       -3893.785          48.000  
 16  4  2 12  2  3.7000000  0  1G24
  23084716.562   121311003.137       -3897.035          48.000  
 16  4  2 12  2  3.8000000  0  1G24
  23084790.734   121311392.922       -3899.422          48.000  
 16  4  2 12  2  3.9000000  0  1G24
  23084864.969   121311783.023       -3902.820          48.000  
 16  4  2 12  2  4.0000000  0  1G24
  23084939.273   121312173.523       -3906.609          48.000  
 16  4  2 12  2  4.1000000  0  1G24
  23085013.625   121312564.238       -3908.660          48.000  
 16  4  2 12  2  4.2000000  0  1G24
  23085088.023   121312955.215       -3911.082          48.000  
 16  4  2 12  2  4.3000000  0  1G24
  23085162.500   121313346.578       -3915.250          48.000  
 16  4  2 12  2  4.4000000  0  1G24
  23085237.031   121313738.238       -3918.441          48.000  
 16  4  2 12  2  4.5000000  0  1G24
  23085311.609   121314130.145       -3920.703          48.000  
 16  4  2 12  2  4.6000000  0  1G24
  23085386.258   121314522.430       -3924.547          48.000  
 16  4  2 12  2  4.7000000  0  1G24
  23085460.961   121314915.016       -3927.383          48.000  
 16  4  2 12  2  4.8000000  0  1G24
  23085535.719   121315307.875       -3930.305          48.000  
 16  4  2 12  2  4.9000000  0  1G24
  23085610.539   121315701.039       -3933.070          48.000  
 16  4  2 12  2  5.0000000  0  1G24
  23085685.406   121316094.504       -3936.305          48.000  
 16  4  2 12  2  5.1000000  0  1G24
  23085760.344   121316488.293       -3939.285          48.000  
 16  4  2 12  2  5.2000000  0  1G24
  23085835.320   121316882.285       -3941.543          48.000  
 16  4  2 12  2  5.3000000  0  1G24
  23085910.359   121317276.629       -3944.859          48.000  
 16  4  2 12  2  5.4000000  0  1G24
  23085985.461   121317671.254       -3947.988          48.000  
 16  4  2 12  2  5.5000000  0  1G24
  23086060.625   121318066.227       -3951.500          48.000  
 16  4  2 12  2  5.6000000  0  1G24
  23086135.844   121318461.508       -3954.531          48.000  
 16  4  2 12  2  5.7000000  0  1G24
  23086211.109   121318857.035       -3956.848          48.000  
 16  4  2 12  2  5.8000000  0  1G24
  23086286.430   121319252.840       -3959.648          48.000  
 16  4  2 12  2  5.9000000  0  1G24
  23086361.805   121319648.949       -3962.707          48.000  
 16  4  2 12  2  6.0000000  0  1G24
  23086437.258   121320045.457       -3966.809          48.000  
 16  4  2 12  2  6.1000000  0  1G24
  23086512.758   121320442.199       -3969.004          48.000  
 16  4  2 12  2  6.2000000  0  1G24
  23086588.305   121320839.195       -3971.539          48.000  
 16  4  2 12  2  6.3000000  0  1G24
  23086663.898   121321236.465       -3974.289          48.000  
 16  4  2 12  2  6.4000000  0  1G24
  23086739.578   121321634.121       -3978.129          48.000  
 16  4  2 12  2  6.5000000  0  1G24
  23086815.305   121322032.090       -3981.371          48.000  
 16  4  2 12  2  6.6000000  0  1G24
  23086891.094   121322430.371       -3984.527          48.000  
 16  4  2 12  2  6.7000000  0  1G24
  23086966.945   121322828.988       -3987.742          48.000  
 16  4  2 12  2  6.8000000  0  1G24
  23087042.859   121323227.910       -3991.047          48.000  
 16  4  2 12  2  6.9000000  0  1G24
  23087118.820   121323627.090       -3993.395          48.000  
 16  4  2 12  2  7.0000000  0  1G24
  23087194.844   121324026.582       -3996.617          48.000  
 16  4  2 12  2  7.1000000  0  1G24
  23087270.930   121324426.438       -4000.027          48.000  
 16  4  2 12  2  7.2000000  0  1G24
  23087347.055   121324826.445       -4001.574          48.000  
 16  4  2 12  2  7.3000000  0  1G24
  23087423.250   121325226.859       -4005.691          48.000  
 16  4  2 12  2  7.4000000  0  1G24
  23087499.500   121325627.566       -4008.594          48.000  
 16  4  2 12  2  7.5000000  0  1G24
  23087575.805   121326028.559       -4011.637          48.000  
 16  4  2 12  2  7.6000000  0  1G24
  23087652.180   121326429.918       -4015.270          48.000  
 16  4  2 12  2  7.7000000  0  1G24
  23087728.609   121326831.566       -4018.176          48.000  
 16  4  2 12  2  7.8000000  0  1G24
  23087805.094   121327233.461       -4020.586          48.000  
 16  4  2 12  2  7.9000000  0  1G24
  23087881.633   121327635.703       -4023.957          48.000  
 16  4  2 12  2  8.0000000  0  1G24
  23087958.234   121328038.250       -4027.070          48.000  
 16  4  2 12  2  8.1000000  0  1G24
  23088034.883   121328441.043       -4029.766          48.000  
 16  4  2 12  2  8.2000000  0  1G24
  23088111.594   121328844.160       -4032.785          48.000  
 16  4  2 12  2  8.3000000  0  1G24
  23088188.367   121329247.594       -4035.938          48.000  
 16  4  2 12  2  8.4000000  0  1G24
  23088265.188   121329651.289       -4038.609          48.000  
 16  4  2 12  2  8.5000000  0  1G24
  23088342.062   121330055.281       -4041.332          48.000  
 16  4  2 12  2  8.6000000  0  1G24
  23088418.992   121330459.559       -4044.480          48.000  
 16  4  2 12  2  8.7000000  0  1G24
  23088495.984   121330864.145       -4047.422          48.000  
 16  4  2 12  2  8.8000000  0  1G24
  23088573.023   121331268.996       -4050.109          48.000  
 16  4  2 12  2  8.9000000  0  1G24
  23088650.133   121331674.199       -4053.609          48.000  
 16  4  2 12  2  9.0000000  0  1G24
  23088727.305   121332079.719       -4056.914          48.000  
 16  4  2 12  2  9.1000000  0  1G24
  23088804.516   121332485.477       -4059.289          48.000  
 16  4  2 12  2  9.2000000  0  1G24
  23088881.773   121332891.492       -4061.520          48.000  
 16  4  2 12  2  9.3000000  0  1G24
  23088959.102   121333297.844       -4065.125          48.000  
 16  4  2 12  2  9.4000000  0  1G24
  23089036.484   121333704.500       -4068.363          48.000  
 16  4  2 12  2  9.5000000  0  1G24
  23089113.930   121334111.469       -4071.211          48.000  
 16  4  2 12  2  9.6000000  0  1G24
  23089191.430   121334518.750       -4074.449          48.000  
 16  4  2 12  2  9.7000000  0  1G24
  23089268.984   121334926.301       -4077.172          48.000  
 16  4  2 12  2  9.8000000  0  1G24
  23089346.594   121335334.148       -4080.086          48.000  
 16  4  2 12  2  9.9000000  0  1G24
  23089424.250   121335742.238       -4082.223          48.000  
 16  4  2 12  2 10.0000000  0  1G24
  23089501.977   121336150.680       -4085.754          48.000  
 16  4  2 12  2 10.1000000  0  1G24
  23089579.750   121336559.391       -4088.723          48.000  
 16  4  2 12  2 10.2000000  0  1G24
  23089657.594   121336968.449       -4092.289          48.000  
 16  4  2 12  2 10.3000000  0  1G24
  23089735.500   121337377.832       -4095.422          48.000  
 16  4  2 12  2 10.4000000  0  1G24
  23089813.453   121337787.492       -4098.504          48.000  
 16  4  2 12  2 10.5000000  0  1G24
  23089891.469   121338197.461       -4101.172          48.000  
 16  4  2 12  2 10.6000000  0  1G24
  23089969.539   121338607.711       -4104.117          48.000  
 16  4  2 12  2 10.7000000  0  1G24
  23090047.656   121339018.199       -4106.352          48.000  
 16  4  2 12  2 10.8000000  0  1G24
  23090125.820   121339429.004       -4109.312          48.000  
 16  4  2 12  2 10.9000000  0  1G24
  23090204.062   121339840.145       -4113.078          48.000  
 16  4  2 12  2 11.0000000  0  1G24
  23090282.352   121340251.578       -4116.035          48.000  
 16  4  2 12  2 11.1000000  0  1G24
  23090360.703   121340663.285       -4118.684          48.000  
 16  4  2 12  2 11.2000000  0  1G24
  23090439.094   121341075.250       -4121.086          48.000  
 16  4  2 12  2 11.3000000  0  1G24
  23090517.562   121341487.582       -4125.000          48.000  
 16  4  2 12  2 11.4000000  0  1G24
  23090596.078   121341900.227       -4127.973          48.000  
 16  4  2 12  2 11.5000000  0  1G24
  23090674.656   121342313.156       -4130.859          48.000  
 16  4  2 12  2 11.6000000  0  1G24
  23090753.297   121342726.398       -4134.109          48.000  
 16  4  2 12  2 11.7000000  0  1G24
  23090831.984   121343139.902       -4136.391          48.000  
 16  4  2 12  2 11.8000000  0  1G24
  23090910.734   121343553.727       -4139.836          48.000  
 16  4  2 12  2 11.9000000  0  1G24
  23090989.539   121343967.848       -4142.965          48.000  
 16  4  2 12  2 12.0000000  0  1G24
  23091068.406   121344382.301       -4146.027          48.000  
 16  4  2 12  2 12.1000000  0  1G24
  23091147.328   121344797.035       -4149.000          48.000  
 16  4  2 12  2 12.2000000  0  1G24
  23091226.305   121345212.082       -4151.984          48.000  
 16  4  2 12  2 12.3000000  0  1G24
  23091305.344   121345627.395       -4154.594          48.000  
 16  4  2 12  2 12.4000000  0  1G24
  23091384.430   121346043.023       -4157.891          48.000  
 16  4  2 12  2 12.5000000  0  1G24
  23091463.570   121346458.902       -4160.293          48.000  
 16  4  2 12  2 12.6000000  0  1G24
  23091542.766   121346875.098       -4163.539          48.000  
 16  4  2 12  2 12.7000000  0  1G24
  23091622.023   121347291.594       -4166.660          48.000  
 16  4  2 12  2 12.8000000  0  1G24
  23091701.344   121347708.406       -4169.781          48.000  
 16  4  2 12  2 12.9000000  0  1G24
  23091780.727   121348125.559       -4173.230          48.000  
 16  4  2 12  2 13.0000000  0  1G24
  23091860.156   121348542.984       -4175.863          48.000  
 16  4  2 12  2 13.1000000  0  1G24
  23091939.648   121348960.707       -4178.895          48.000  
 16  4  2 12  2 13.2000000  0  1G24
  23092019.195   121349378.730       -4181.504          48.000  
 16  4  2 12  2 13.3000000  0  1G24
  23092098.789   121349797.020       -4184.480          48.000  
 16  4  2 12  2 13.4000000  0  1G24
  23092178.453   121350215.625       -4187.629          48.000  
 16  4  2 12  2 13.5000000  0  1G24
  23092258.172   121350634.527       -4190.684          48.000  
 16  4  2 12  2 13.6000000  0  1G24
  23092337.953   121351053.773       -4193.930          48.000  
 16  4  2 12  2 13.7000000  0  1G24
  23092417.781   121351473.301       -4197.094          48.000  
 16  4  2 12  2 13.8000000  0  1G24
  23092497.672   121351893.121       -4199.742          48.000  
 16  4  2 12  2 13.9000000  0  1G24
  23092577.617   121352313.246       -4202.793          48.000  
 16  4  2 12  2 14.0000000  0  1G24
  23092657.617   121352733.668       -4205.879          48.000  
 16  4  2 12  2 14.1000000  0  1G24
  23092737.680   121353154.379       -4208.711          48.000  
 16  4  2 12  2 14.2000000  0  1G24
  23092817.805   121353575.398       -4211.641          48.000  
 16  4  2 12  2 14.3000000  0  1G24
  23092897.977   121353996.699       -4214.570          48.000  
 16  4  2 12  2 14.4000000  0  1G24
  23092978.203   121354418.297       -4217.352          48.000  
 16  4  2 12  2 14.5000000  0  1G24
  23093058.484   121354840.176       -4220.539          48.000  
 16  4  2 12  2 14.6000000  0  1G24
  23093138.828   121355262.430       -4224.156          48.000  
 16  4  2 12  2 14.7000000  0  1G24
  23093219.227   121355684.902       -4226.285          48.000  
 16  4  2 12  2 14.8000000  0  1G24
  23093299.688   121356107.738       -4230.020          48.000  
 16  4  2 12  2 14.9000000  0  1G24
  23093380.195   121356530.805       -4232.445          48.000  
 16  4  2 12  2 15.0000000  0  1G24
  23093460.766   121356954.199       -4235.430          48.000  
 16  4  2 12  2 15.1000000  0  1G24
  23093541.398   121357377.918       -4238.789          48.000  
 16  4  2 12  2 15.2000000  0  1G24
  23093622.094   121357801.969       -4242.203          48.000  
 16  4  2 12  2 15.3000000  0  1G24
  23093702.844   121358226.332       -4245.367          48.000  
 16  4  2 12  2 15.4000000  0  1G24
  23093783.648   121358650.953       -4247.742          48.000  
 16  4  2 12  2 15.5000000  0  1G24
  23093864.508   121359075.883       -4250.934          48.000  
 16  4  2 12  2 15.6000000  0  1G24
  23093945.430   121359501.121       -4253.977          48.000  
 16  4  2 12  2 15.7000000  0  1G24
  23094026.414   121359926.676       -4257.121          48.000  
 16  4  2 12  2 15.8000000  0  1G24
  23094107.445   121360352.484       -4259.848          48.000  
 16  4  2 12  2 15.9000000  0  1G24
  23094188.531   121360778.617       -4262.852          48.000  
 16  4  2 12  2 16.0000000  0  1G24
  23094269.672   121361204.996       -4265.492          48.000  
 16  4  2 12  2 16.1000000  0  1G24
  23094350.883   121361631.758       -4269.395          48.000  
 16  4  2 12  2 16.2000000  0  1G24
  23094432.148   121362058.809       -4272.051          48.000  
 16  4  2 12  2 16.3000000  0  1G24
  23094513.445   121362486.062       -4273.867          48.000  
 16  4  2 12  2 16.4000000  0  1G24
  23094594.828   121362913.734       -4278.219          48.000  
 16  4  2 12  2 16.5000000  0  1G24
  23094676.258   121363341.641       -4280.883          48.000  
 16  4  2 12  2 16.6000000  0  1G24
  23094757.742   121363769.824       -4283.285          48.000  
 16  4  2 12  2 16.7000000  0  1G24
  23094839.273   121364198.285       -4285.902          48.000  
 16  4  2 12  2 16.8000000  0  1G24
  23094920.859   121364626.996       -4288.660          48.000  
 16  4  2 12  2 16.9000000  0  1G24
  23095002.484   121365055.961       -4291.148          48.000  
 16  4  2 12  2 17.0000000  0  1G24
  23095084.180   121365485.258       -4294.543          48.000  
 16  4  2 12  2 17.1000000  0  1G24
  23095165.930   121365914.848       -4297.586          48.000  
 16  4  2 12  2 17.2000000  0  1G24
  23095247.750   121366344.828       -4301.641          48.000  
 16  4  2 12  2 17.3000000  0  1G24
  23095329.633   121366775.125       -4304.684          48.000  
 16  4  2 12  2 17.4000000  0  1G24
  23095411.562   121367205.668       -4307.199          48.000  
 16  4  2 12  2 17.5000000  0  1G24
  23095493.555   121367636.531       -4310.043          48.000  
 16  4  2 12  2 17.6000000  0  1G24
  23095575.602   121368067.691       -4313.180          48.000  
 16  4  2 12  2 17.7000000  0  1G24
  23095657.703   121368499.145       -4316.109          48.000  
 16  4  2 12  2 17.8000000  0  1G24
  23095739.859   121368930.879       -4318.793          48.000  
 16  4  2 12  2 17.9000000  0  1G24
  23095822.070   121369362.926       -4321.988          48.000  
 16  4  2 12  2 18.0000000  0  1G24
  23095904.344   121369795.273       -4325.012          48.000  
 16  4  2 12  2 18.1000000  0  1G24
  23095986.680   121370227.918       -4328.242          48.000  
 16  4  2 12  2 18.2000000  0  1G24
  23096069.062   121370660.871       -4331.137          48.000  
 16  4  2 12  2 18.3000000  0  1G24
  23096151.508   121371094.141       -4334.359          48.000  
 16  4  2 12  2 18.4000000  0  1G24
  23096234.000   121371527.641       -4336.301          48.000  
 16  4  2 12  2 18.5000000  0  1G24
  23096316.547   121371961.410       -4339.184          48.000  
 16  4  2 12  2 18.6000000  0  1G24
  23096399.156   121372395.520       -4342.797          48.000  
 16  4  2 12  2 18.7000000  0  1G24
  23096481.820   121372829.945       -4345.867          48.000  
 16  4  2 12  2 18.8000000  0  1G24
  23096564.547   121373264.691       -4349.395          48.000  
 16  4  2 12  2 18.9000000  0  1G24
  23096647.344   121373699.781       -4352.426          48.000  
 16  4  2 12  2 19.0000000  0  1G24
  23096730.188   121374135.121       -4355.090          48.000  
 16  4  2 12  2 19.1000000  0  1G24
  23096813.086   121374570.766       -4358.059          48.000  
 16  4  2 12  2 19.2000000  0  1G24
  23096896.039   121375006.688       -4360.770          48.000  
 16  4  2 12  2 19.3000000  0  1G24
  23096979.055   121375442.914       -4363.625          48.000  
 16  4  2 12  2 19.4000000  0  1G24
  23097062.117   121375879.410       -4366.602          48.000  
 16  4  2 12  2 19.5000000  0  1G24
  23097145.250   121376316.281       -4370.441          48.000  
 16  4  2 12  2 19.6000000  0  1G24
  23097228.445   121376753.473       -4373.613          48.000  
 16  4  2 12  2 19.7000000  0  1G24
  23097311.688   121377190.930       -4376.180          48.000  
 16  4  2 12  2 19.8000000  0  1G24
  23097394.992   121377628.676       -4379.133          48.000  
 16  4  2 12  2 19.9000000  0  1G24
  23097478.344   121378066.688       -4381.742          48.000  
 16  4  2 12  2 20.0000000  0  1G24
  23097561.766   121378505.074       -4385.352          48.000  
 16  4  2 12  2 20.1000000  0  1G24
  23097645.227   121378943.672       -4387.598          48.000  
 16  4  2 12  2 20.2000000  0  1G24
  23097728.742   121379382.559       -4390.262          48.000  
 16  4  2 12  2 20.3000000  0  1G24
  23097812.320   121379821.758       -4393.645          48.000  
 16  4  2 12  2 20.4000000  0  1G24
  23097895.953   121380261.281       -4396.898          48.000  
 16  4  2 12  2 20.5000000  0  1G24
  23097979.656   121380701.125       -4400.164          48.000  
 16  4  2 12  2 20.6000000  0  1G24
  23098063.414   121381141.262       -4402.770          48.000  
 16  4  2 12  2 20.7000000  0  1G24
  23098147.211   121381581.637       -4405.316          48.000  
 16  4  2 12  2 20.8000000  0  1G24
  23098231.078   121382022.328       -4408.531          48.000  
 16  4  2 12  2 20.9000000  0  1G24
  23098314.992   121382463.328       -4411.570          48.000  
 16  4  2 12  2 21.0000000  0  1G24
  23098398.961   121382904.590       -4414.207          48.000  
 16  4  2 12  2 21.1000000  0  1G24
  23098483.000   121383346.207       -4417.672          48.000  
 16  4  2 12  2 21.2000000  0  1G24
  23098567.078   121383788.078       -4420.641          48.000  
 16  4  2 12  2 21.3000000  0  1G24
  23098651.242   121384230.352       -4424.270          48.000  
 16  4  2 12  2 21.4000000  0  1G24
  23098735.438   121384672.805       -4426.219          48.000  
 16  4  2 12  2 21.5000000  0  1G24
  23098819.695   121385115.578       -4429.086          48.000  
 16  4  2 12  2 21.6000000  0  1G24
  23098904.016   121385558.664       -4432.441          48.000  
 16  4  2 12  2 21.7000000  0  1G24
  23098988.398   121386002.082       -4435.820          48.000  
 16  4  2 12  2 21.8000000  0  1G24
  23099072.828   121386445.781       -4438.723          48.000  
 16  4  2 12  2 21.9000000  0  1G24
  23099157.328   121386889.805       -4442.000          48.000  
 16  4  2 12  2 22.0000000  0  1G24
  23099241.883   121387334.156       -4445.098          48.000  
 16  4  2 12  2 22.1000000  0  1G24
  23099326.484   121387778.754       -4447.664          48.000  
 16  4  2 12  2 22.2000000  0  1G24
  23099411.148   121388223.676       -4450.527          48.000  
 16  4  2 12  2 22.3000000  0  1G24
  23099495.859   121388668.816       -4452.891          48.000  
 16  4  2 12  2 22.4000000  0  1G24
  23099580.633   121389114.301       -4456.496          48.000  
 16  4  2 12  2 22.5000000  0  1G24
  23099665.461   121389560.074       -4459.164          48.000  
 16  4  2 12  2 22.6000000  0  1G24
  23099750.359   121390006.207       -4463.043          48.000  
 16  4  2 12  2 22.7000000  0  1G24
  23099835.305   121390452.582       -4465.336          48.000  
 16  4  2 12  2 22.8000000  0  1G24
  23099920.305   121390899.254       -4468.148          48.000  
 16  4  2 12  2 22.9000000  0  1G24
  23100005.367   121391346.270       -4471.723          48.000  
 16  4  2 12  2 23.0000000  0  1G24
  23100090.492   121391793.586       -4474.535          48.000  
 16  4  2 12  2 23.1000000  0  1G24
  23100175.656   121392241.141       -4477.328          48.000  
 16  4  2 12  2 23.2000000  0  1G24
  23100260.898   121392689.078       -4480.816          48.000  
 16  4  2 12  2 23.3000000  0  1G24
  23100346.180   121393137.242       -4483.453          48.000  
 16  4  2 12  2 23.4000000  0  1G24
  23100431.523   121393585.734       -4486.164          48.000  
 16  4  2 12  2 23.5000000  0  1G24
  23100516.922   121394034.480       -4489.188          48.000  
 16  4  2 12  2 23.6000000  0  1G24
  23100602.383   121394483.590       -4492.707          48.000  
 16  4  2 12  2 23.7000000  0  1G24
  23100687.898   121394933.000       -4495.695          48.000  
 16  4  2 12  2 23.8000000  0  1G24
  23100773.477   121395382.707       -4498.691          48.000  
 16  4  2 12  2 23.9000000  0  1G24
  23100859.109   121395832.707       -4501.477          48.000  
 16  4  2 12  2 24.0000000  0  1G24
  23100944.797   121396282.988       -4504.238          48.000  
 16  4  2 12  2 24.1000000  0  1G24
  23101030.531   121396733.555       -4507.320          48.000  
 16  4  2 12  2 24.2000000  0  1G24
  23101116.336   121397184.434       -4510.438          48.000  
 16  4  2 12  2 24.3000000  0  1G24
  23101202.180   121397635.566       -4512.656          48.000  
 16  4  2 12  2 24.4000000  0  1G24
  23101288.086   121398086.996       -4515.961          48.000  
 16  4  2 12  2 24.5000000  0  1G24
  23101374.055   121398538.750       -4519.219          48.000  
 16  4  2 12  2 24.6000000  0  1G24
  23101460.078   121398990.824       -4522.555          48.000  
 16  4  2 12  2 24.7000000  0  1G24
  23101546.180   121399443.277       -4526.277          48.000  
 16  4  2 12  2 24.8000000  0  1G24
  23101632.320   121399895.949       -4528.234          48.000  
 16  4  2 12  2 24.9000000  0  1G24
  23101718.516   121400348.914       -4531.336          48.000  
 16  4  2 12  2 25.0000000  0  1G24
  23101804.773   121400802.199       -4534.402          48.000  
 16  4  2 12  2 25.1000000  0  1G24
  23101891.094   121401255.816       -4537.949          48.000  
 16  4  2 12  2 25.2000000  0  1G24
  23101977.469   121401709.707       -4540.203          48.000  
 16  4  2 12  2 25.3000000  0  1G24
  23102063.891   121402163.844       -4542.918          48.000  
 16  4  2 12  2 25.4000000  0  1G24
  23102150.391   121402618.387       -4547.102          48.000  
 16  4  2 12  2 25.5000000  0  1G24
  23102236.938   121403073.195       -4549.613          48.000  
 16  4  2 12  2 25.6000000  0  1G24
  23102323.531   121403528.262       -4552.270          48.000  
 16  4  2 12  2 25.7000000  0  1G24
  23102410.188   121403983.656       -4555.363          48.000  
 16  4  2 12  2 25.8000000  0  1G24
  23102496.898   121404439.297       -4558.219          48.000  
 16  4  2 12  2 25.9000000  0  1G24
  23102583.664   121404895.281       -4561.406          48.000  
 16  4  2 12  2 26.0000000  0  1G24
  23102670.492   121405351.574       -4564.531          48.000  
 16  4  2 12  2 26.1000000  0  1G24
  23102757.383   121405808.191       -4567.980          48.000  
 16  4  2 12  2 26.2000000  0  1G24
  23102844.328   121406265.066       -4570.223          48.000  
 16  4  2 12  2 26.3000000  0  1G24
  23102931.320   121406722.211       -4573.117          48.000  
 16  4  2 12  2 26.4000000  0  1G24
  23103018.391   121407179.766       -4577.004          48.000  
 16  4  2 12  2 26.5000000  0  1G24
  23103105.531   121407637.656       -4580.832          48.000  
 16  4  2 12  2 26.6000000  0  1G24
  23103192.719   121408095.859       -4583.801          48.000  
 16  4  2 12  2 26.7000000  0  1G24
  23103279.961   121408554.336       -4586.402          48.000  
 16  4  2 12  2 26.8000000  0  1G24
  23103367.266   121409013.141       -4589.555          48.000  
 16  4  2 12  2 26.9000000  0  1G24
  23103454.625   121409472.195       -4592.352          48.000  
 16  4  2 12  2 27.0000000  0  1G24
  23103542.031   121409931.535       -4594.887          48.000  
 16  4  2 12  2 27.1000000  0  1G24
  23103629.500   121410391.211       -4598.496          48.000  
 16  4  2 12  2 27.2000000  0  1G24
  23103717.031   121410851.176       -4600.941          48.000  
 16  4  2 12  2 27.3000000  0  1G24
  23103804.602   121411311.371       -4603.453          48.000  
 16  4  2 12  2 27.4000000  0  1G24
  23103892.234   121411771.852       -4606.473          48.000  
 16  4  2 12  2 27.5000000  0  1G24
  23103979.930   121412232.727       -4610.406          48.000  
 16  4  2 12  2 27.6000000  0  1G24
  23104067.688   121412693.852       -4613.039          48.000  
 16  4  2 12  2 27.7000000  0  1G24
  23104155.508   121413155.355       -4616.824          48.000  
 16  4  2 12  2 27.8000000  0  1G24
  23104243.375   121413617.094       -4618.996          48.000  
 16  4  2 12  2 27.9000000  0  1G24
  23104331.305   121414079.172       -4622.527          48.000  
 16  4  2 12  2 28.0000000  0  1G24
  23104419.297   121414541.566       -4625.285          48.000  
 16  4  2 12  2 28.1000000  0  1G24
  23104507.328   121415004.176       -4627.789          48.000  
 16  4  2 12  2 28.2000000  0  1G24
  23104595.430   121415467.168       -4631.598          48.000  
 16  4  2 12  2 28.3000000  0  1G24
  23104683.586   121415930.422       -4634.160          48.000  
 16  4  2 12  2 28.4000000  0  1G24
  23104771.781   121416393.934       -4636.430          48.000  
 16  4  2 12  2 28.5000000  0  1G24
  23104860.039   121416857.719       -4639.488          48.000  
 16  4  2 12  2 28.6000000  0  1G24
  23104948.367   121417321.883       -4643.258          48.000  
 16  4  2 12  2 28.7000000  0  1G24
  23105036.742   121417786.312       -4645.707          48.000  
 16  4  2 12  2 28.8000000  0  1G24
  23105125.172   121418250.965       -4648.098          48.000  
 16  4  2 12  2 28.9000000  0  1G24
  23105213.656   121418715.965       -4651.723          48.000  
 16  4  2 12  2 29.0000000  0  1G24
  23105302.211   121419181.320       -4655.215          48.000  
 16  4  2 12  2 29.1000000  0  1G24
  23105390.812   121419646.906       -4657.578          48.000  
 16  4  2 12  2 29.2000000  0  1G24
  23105479.469   121420112.789       -4660.316          48.000  
 16  4  2 12  2 29.3000000  0  1G24
  23105568.164   121420578.914       -4662.820          48.000  
 16  4  2 12  2 29.4000000  0  1G24
  23105656.930   121421045.398       -4666.539          48.000  
 16  4  2 12  2 29.5000000  0  1G24
  23105745.758   121421512.188       -4669.562          48.000  
 16  4  2 12  2 29.6000000  0  1G24
  23105834.641   121421979.246       -4672.191          48.000  
 16  4  2 12  2 29.7000000  0  1G24
  23105923.578   121422446.621       -4675.266          48.000  
 16  4  2 12  2 29.8000000  0  1G24
  23106012.578   121422914.316       -4678.539          48.000  
 16  4  2 12  2 29.9000000  0  1G24
  23106101.641   121423382.348       -4681.840          48.000  
 16  4  2 12  2 30.0000000  0  1G24
  23106190.750   121423850.605       -4684.074          48.000  
 16  4  2 12  2 30.1000000  0  1G24
  23106279.914   121424319.180       -4687.293          48.000  
 16  4  2 12  2 30.2000000  0  1G24
  23106369.141   121424788.059       -4690.238          48.000  
 16  4  2 12  2 30.3000000  0  1G24
  23106458.422   121425257.223       -4693.227          48.000  
 16  4  2 12  2 30.4000000  0  1G24
  23106547.758   121425726.680       -4696.277          48.000  
 16  4  2 12  2 30.5000000  0  1G24
  23106637.148   121426196.449       -4699.305          48.000  
 16  4  2 12  2 30.6000000  0  1G24
  23106726.602   121426666.516       -4702.074          48.000  
 16  4  2 12  2 30.7000000  0  1G24
  23106816.102   121427136.844       -4704.758          48.000  
 16  4  2 12  2 30.8000000  0  1G24
  23106905.672   121427607.504       -4708.375          48.000  
 16  4  2 12  2 30.9000000  0  1G24
  23106995.297   121428078.492       -4711.320          48.000  
 16  4  2 12  2 31.0000000  0  1G24
  23107084.961   121428549.684       -4713.605          48.000  
 16  4  2 12  2 31.1000000  0  1G24
  23107174.680   121429021.156       -4716.098          48.000  
 16  4  2 12  2 31.2000000  0  1G24
  23107264.461   121429492.973       -4719.695          48.000  
 16  4  2 12  2 31.3000000  0  1G24
  23107354.297   121429965.066       -4722.598          48.000  
 16  4  2 12  2 31.4000000  0  1G24
  23107444.195   121430437.465       -4725.621          48.000  
 16  4  2 12  2 31.5000000  0  1G24
  23107534.141   121430910.121       -4728.113          48.000  
 16  4  2 12  2 31.6000000  0  1G24
  23107624.141   121431383.086       -4731.230          48.000  
 16  4  2 12  2 31.7000000  0  1G24
  23107714.211   121431856.430       -4735.141          48.000  
 16  4  2 12  2 31.8000000  0  1G24
  23107804.336   121432330.043       -4737.902          48.000  
 16  4  2 12  2 31.9000000  0  1G24
  23107894.531   121432804.023       -4741.379          48.000  
 16  4  2 12  2 32.0000000  0  1G24
  23107984.773   121433278.242       -4743.672          48.000  
 16  4  2 12  2 32.1000000  0  1G24
  23108075.078   121433752.773       -4746.906          48.000  
 16  4  2 12  2 32.2000000  0  1G24
  23108165.414   121434227.523       -4748.980          48.000  
 16  4  2 12  2 32.3000000  0  1G24
  23108255.828   121434702.648       -4752.750          48.000  
 16  4  2 12  2 32.4000000  0  1G24
  23108346.305   121435178.082       -4756.051          48.000  
 16  4  2 12  2 32.5000000  0  1G24
  23108436.828   121435653.824       -4759.031          48.000  
 16  4  2 12  2 32.6000000  0  1G24
  23108527.406   121436129.777       -4761.172          48.000  
 16  4  2 12  2 32.7000000  0  1G24
  23108618.039   121436606.062       -4764.141          48.000  
 16  4  2 12  2 32.8000000  0  1G24
  23108708.727   121437082.629       -4767.242          48.000  
 16  4  2 12  2 32.9000000  0  1G24
  23108799.469   121437559.508       -4770.227          48.000  
 16  4  2 12  2 33.0000000  0  1G24
  23108890.273   121438036.648       -4772.934          48.000  
 16  4  2 12  2 33.1000000  0  1G24
  23108981.117   121438514.039       -4775.449          48.000  
 16  4  2 12  2 33.2000000  0  1G24
  23109072.031   121438991.809       -4779.336          48.000  
 16  4  2 12  2 33.3000000  0  1G24
  23109163.000   121439469.840       -4781.875          48.000  
 16  4  2 12  2 33.4000000  0  1G24
  23109254.008   121439948.094       -4784.016          48.000  
 16  4  2 12  2 33.5000000  0  1G24
  23109345.086   121440426.676       -4787.258          48.000  
 16  4  2 12  2 33.6000000  0  1G24
  23109436.203   121440905.516       -4789.988          48.000  
 16  4  2 12  2 33.7000000  0  1G24
  23109527.383   121441384.672       -4793.391          48.000  
 16  4  2 12  2 33.8000000  0  1G24
  23109618.625   121441864.168       -4796.398          48.000  
 16  4  2 12  2 33.9000000  0  1G24
  23109709.922   121442343.934       -4799.348          48.000  
 16  4  2 12  2 34.0000000  0  1G24
  23109801.289   121442824.035       -4802.535          48.000  
 16  4  2 12  2 34.1000000  0  1G24
  23109892.695   121443304.406       -4805.398          48.000  
 16  4  2 12  2 34.2000000  0  1G24
  23109984.164   121443785.086       -4808.422          48.000  
 16  4  2 12  2 34.3000000  0  1G24
  23110075.688   121444266.035       -4811.023          48.000  
 16  4  2 12  2 34.4000000  0  1G24
  23110167.266   121444747.270       -4814.078          48.000  
 16  4  2 12  2 34.5000000  0  1G24
  23110258.914   121445228.859       -4817.625          48.000  
 16  4  2 12  2 34.6000000  0  1G24
  23110350.602   121445710.691       -4819.914          48.000  
 16  4  2 12  2 34.7000000  0  1G24
  23110442.359   121446192.871       -4823.320          48.000  
 16  4  2 12  2 34.8000000  0  1G24
  23110534.172   121446675.328       -4826.223          48.000  
 16  4  2 12  2 34.9000000  0  1G24
  23110626.031   121447158.059       -4829.051          48.000  
 16  4  2 12  2 35.0000000  0  1G24
  23110717.961   121447641.164       -4832.672          48.000  
 16  4  2 12  2 35.1000000  0  1G24
  23110809.945   121448124.543       -4835.562          48.000  
 16  4  2 12  2 35.2000000  0  1G24
  23110902.000   121448608.301       -4839.250          48.000  
 16  4  2 12  2 35.3000000  0  1G24
  23110994.109   121449092.328       -4841.887          48.000  
 16  4  2 12  2 35.4000000  0  1G24
  23111086.281   121449576.691       -4845.074          48.000  
 16  4  2 12  2 35.5000000  0  1G24
  23111178.492   121450061.254       -4847.195          48.000  
 16  4  2 12  2 35.6000000  0  1G24
  23111270.773   121450546.180       -4850.836          48.000  
 16  4  2 12  2 35.7000000  0  1G24
  23111363.102   121451031.363       -4853.074          48.000  
 16  4  2 12  2 35.8000000  0  1G24
  23111455.484   121451516.859       -4856.828          48.000  
 16  4  2 12  2 35.9000000  0  1G24
  23111547.938   121452002.723       -4860.008          48.000  
 16  4  2 12  2 36.0000000  0  1G24
  23111640.445   121452488.836       -4862.676          48.000  
 16  4  2 12  2 36.1000000  0  1G24
  23111733.000   121452975.227       -4865.586          48.000  
 16  4  2 12  2 36.2000000  0  1G24
  23111825.625   121453461.992       -4869.176          48.000  
 16  4  2 12  2 36.3000000  0  1G24
  23111918.305   121453949.023       -4871.973          48.000  
 16  4  2 12  2 36.4000000  0  1G24
  23112011.039   121454436.332       -4874.762          48.000  
 16  4  2 12  2 36.5000000  0  1G24
  23112103.852   121454924.031       -4878.707          48.000  
 16  4  2 12  2 36.6000000  0  1G24
  23112196.711   121455412.004       -4881.195          48.000  
 16  4  2 12  2 36.7000000  0  1G24
  23112289.617   121455900.230       -4883.770          48.000  
 16  4  2 12  2 36.8000000  0  1G24
  23112382.586   121456388.793       -4887.078          48.000  
 16  4  2 12  2 36.9000000  0  1G24
  23112475.609   121456877.637       -4890.273          48.000  
 16  4  2 12  2 37.0000000  0  1G24
  23112568.695   121457366.820       -4893.238          48.000  
 16  4  2 12  2 37.1000000  0  1G24
  23112661.828   121457856.234       -4895.824          48.000  
 16  4  2 12  2 37.2000000  0  1G24
  23112755.031   121458345.977       -4898.906          48.000  
 16  4  2 12  2 37.3000000  0  1G24
  23112848.281   121458836.000       -4901.793          48.000  
 16  4  2 12  2 37.4000000  0  1G24
  23112941.570   121459326.277       -4904.285          48.000  
 16  4  2 12  2 37.5000000  0  1G24
  23113034.938   121459816.922       -4907.914          48.000  
 16  4  2 12  2 37.6000000  0  1G24
  23113128.344   121460307.781       -4910.363          48.000  
 16  4  2 12  2 37.7000000  0  1G24
  23113221.812   121460798.965       -4913.391          48.000  
 16  4  2 12  2 37.8000000  0  1G24
  23113315.336   121461290.441       -4916.227          48.000  
 16  4  2 12  2 37.9000000  0  1G24
  23113408.922   121461782.234       -4919.391          48.000  
 16  4  2 12  2 38.0000000  0  1G24
  23113502.562   121462274.324       -4922.293          48.000  
 16  4  2 12  2 38.1000000  0  1G24
  23113596.258   121462766.676       -4925.133          48.000  
 16  4  2 12  2 38.2000000  0  1G24
  23113690.000   121463259.305       -4927.742          48.000  
 16  4  2 12  2 38.3000000  0  1G24
  23113783.805   121463752.246       -4930.996          48.000  
 16  4  2 12  2 38.4000000  0  1G24
  23113877.672   121464245.539       -4934.805          48.000  
 16  4  2 12  2 38.5000000  0  1G24
  23113971.602   121464739.152       -4937.805          48.000  
 16  4  2 12  2 38.6000000  0  1G24
  23114065.602   121465233.082       -4940.980          48.000  
 16  4  2 12  2 38.7000000  0  1G24
  23114159.641   121465727.281       -4943.629          48.000  
 16  4  2 12  2 38.8000000  0  1G24
  23114253.750   121466221.832       -4946.938          48.000  
 16  4  2 12  2 38.9000000  0  1G24
  23114347.906   121466716.602       -4949.285          48.000  
 16  4  2 12  2 39.0000000  0  1G24
  23114442.125   121467211.719       -4952.758          48.000  
 16  4  2 12  2 39.1000000  0  1G24
  23114536.406   121467707.172       -4956.176          48.000  
 16  4  2 12  2 39.2000000  0  1G24
  23114630.734   121468202.875       -4958.688          48.000  
 16  4  2 12  2 39.3000000  0  1G24
  23114725.117   121468698.859       -4961.453          48.000  
 16  4  2 12  2 39.4000000  0  1G24
  23114819.570   121469195.211       -4965.008          48.000  
 16  4  2 12  2 39.5000000  0  1G24
  23114914.070   121469691.828       -4967.789          48.000  
 16  4  2 12  2 39.6000000  0  1G24
  23115008.633   121470188.727       -4970.648          48.000  
 16  4  2 12  2 39.7000000  0  1G24
  23115103.258   121470685.984       -4974.293          48.000  
 16  4  2 12  2 39.8000000  0  1G24
  23115197.922   121471183.480       -4976.621          48.000  
 16  4  2 12  2 39.9000000  0  1G24
  23115292.648   121471681.254       -4979.211          48.000  
 16  4  2 12  2 40.0000000  0  1G24
  23115387.438   121472179.383       -4982.820          48.000  
 16  4  2 12  2 40.1000000  0  1G24
  23115482.273   121472677.762       -4985.516          48.000  
 16  4  2 12  2 40.2000000  0  1G24
  23115577.180   121473176.461       -4988.309          48.000  
 16  4  2 12  2 40.3000000  0  1G24
  23115672.125   121473675.391       -4990.766          48.000  
 16  4  2 12  2 40.4000000  0  1G24
  23115767.125   121474174.633       -4993.840          48.000  
 16  4  2 12  2 40.5000000  0  1G24
  23115862.188   121474674.203       -4997.137          48.000  
 16  4  2 12  2 40.6000000  0  1G24
  23115957.305   121475174.074       -5000.480          48.000  
 16  4  2 12  2 40.7000000  0  1G24
  23116052.492   121475674.254       -5003.422          48.000  
 16  4  2 12  2 40.8000000  0  1G24
  23116147.719   121476174.691       -5005.793          48.000  
 16  4  2 12  2 40.9000000  0  1G24
  23116243.008   121476675.430       -5009.043          48.000  
 16  4  2 12  2 41.0000000  0  1G24
  23116338.367   121477176.539       -5012.754          48.000  
 16  4  2 12  2 41.1000000  0  1G24
  23116433.766   121477677.859       -5014.734          48.000  
 16  4  2 12  2 41.2000000  0  1G24
  23116529.227   121478179.516       -5018.160          48.000  
 16  4  2 12  2 41.3000000  0  1G24
  23116624.742   121478681.445       -5020.703          48.000  
 16  4  2 12  2 41.4000000  0  1G24
  23116720.312   121479183.680       -5023.930          48.000  
 16  4  2 12  2 41.5000000  0  1G24
  23116815.945   121479686.215       -5026.816          48.000  
 16  4  2 12  2 41.6000000  0  1G24
  23116911.625   121480189.039       -5029.961          48.000  
 16  4  2 12  2 41.7000000  0  1G24
  23117007.375   121480692.191       -5033.016          48.000  
 16  4  2 12  2 41.8000000  0  1G24
  23117103.180   121481195.645       -5036.289          48.000  
 16  4  2 12  2 41.9000000  0  1G24
  23117199.039   121481699.398       -5039.102          48.000  
 16  4  2 12  2 42.0000000  0  1G24
  23117294.945   121482203.391       -5041.570          48.000  
 16  4  2 12  2 42.1000000  0  1G24
  23117390.914   121482707.719       -5044.781          48.000  
 16  4  2 12  2 42.2000000  0  1G24
  23117486.938   121483212.344       -5047.684          48.000  
 16  4  2 12  2 42.3000000  0  1G24
  23117583.008   121483717.184       -5049.973          48.000  
 16  4  2 12  2 42.4000000  0  1G24
  23117679.141   121484222.371       -5053.172          48.000  
 16  4  2 12  2 42.5000000  0  1G24
  23117775.336   121484727.883       -5056.891          48.000  
 16  4  2 12  2 42.6000000  0  1G24
  23117871.594   121485233.688       -5059.648          48.000  
 16  4  2 12  2 42.7000000  0  1G24
  23117967.898   121485739.793       -5062.773          48.000  
 16  4  2 12  2 42.8000000  0  1G24
  23118064.266   121486246.219       -5065.609          48.000  
 16  4  2 12  2 42.9000000  0  1G24
  23118160.695   121486752.965       -5069.043          48.000  
 16  4  2 12  2 43.0000000  0  1G24
  23118257.195   121487260.047       -5072.520          48.000  
 16  4  2 12  2 43.1000000  0  1G24
  23118353.734   121487767.398       -5075.246          48.000  
 16  4  2 12  2 43.2000000  0  1G24
  23118450.336   121488275.012       -5077.645          48.000  
 16  4  2 12  2 43.3000000  0  1G24
  23118547.008   121488783.027       -5081.871          48.000  
 16  4  2 12  2 43.4000000  0  1G24
  23118643.727   121489291.312       -5084.344          48.000  
 16  4  2 12  2 43.5000000  0  1G24
  23118740.492   121489799.781       -5086.293          48.000  
 16  4  2 12  2 43.6000000  0  1G24
  23118837.312   121490308.598       -5089.754          48.000  
 16  4  2 12  2 43.7000000  0  1G24
  23118934.195   121490817.707       -5092.469          48.000  
 16  4  2 12  2 43.8000000  0  1G24
  23119031.125   121491327.074       -5095.324          48.000  
 16  4  2 12  2 43.9000000  0  1G24
  23119128.109   121491836.746       -5098.223          48.000  
 16  4  2 12  2 44.0000000  0  1G24
  23119225.156   121492346.711       -5101.129          48.000  
 16  4  2 12  2 44.1000000  0  1G24
  23119322.258   121492856.992       -5104.555          48.000  
 16  4  2 12  2 44.2000000  0  1G24
  23119419.422   121493367.590       -5107.691          48.000  
 16  4  2 12  2 44.3000000  0  1G24
  23119516.648   121493878.512       -5110.617          48.000  
 16  4  2 12  2 44.4000000  0  1G24
  23119613.930   121494389.715       -5113.859          48.000  
 16  4  2 12  2 44.5000000  0  1G24
  23119711.258   121494901.180       -5116.176          48.000  
 16  4  2 12  2 44.6000000  0  1G24
  23119808.641   121495412.949       -5119.164          48.000  
 16  4  2 12  2 44.7000000  0  1G24
  23119906.086   121495925.039       -5122.523          48.000  
 16  4  2 12  2 44.8000000  0  1G24
  23120003.578   121496437.379       -5124.750          48.000  
 16  4  2 12  2 44.9000000  0  1G24
  23120101.125   121496949.961       -5127.262          48.000  
 16  4  2 12  2 45.0000000  0  1G24
  23120198.727   121497462.867       -5130.645          48.000  
 16  4  2 12  2 45.1000000  0  1G24
  23120296.391   121497976.105       -5133.770          48.000  
 16  4  2 12  2 45.2000000  0  1G24
  23120394.102   121498489.559       -5136.109          48.000  
 16  4  2 12  2 45.3000000  0  1G24
  23120491.859   121499003.301       -5138.980          48.000  
 16  4  2 12  2 45.4000000  0  1G24
  23120589.695   121499517.414       -5142.863          48.000  
 16  4  2 12  2 45.5000000  0  1G24
  23120687.594   121500031.887       -5146.598          48.000  
 16  4  2 12  2 45.6000000  0  1G24
  23120785.531   121500546.570       -5148.500          48.000  
 16  4  2 12  2 45.7000000  0  1G24
  23120883.523   121501061.527       -5151.117          48.000  
 16  4  2 12  2 45.8000000  0  1G24
  23120981.578   121501576.797       -5154.250          48.000  
 16  4  2 12  2 45.9000000  0  1G24
  23121079.703   121502092.438       -5157.977          48.000  
 16  4  2 12  2 46.0000000  0  1G24
  23121177.875   121502608.297       -5160.367          48.000  
 16  4  2 12  2 46.1000000  0  1G24
  23121276.102   121503124.492       -5163.699          48.000  
 16  4  2 12  2 46.2000000  0  1G24
  23121374.391   121503640.992       -5166.480          48.000  
 16  4  2 12  2 46.3000000  0  1G24
  23121472.727   121504157.777       -5169.605          48.000  
 16  4  2 12  2 46.4000000  0  1G24
  23121571.141   121504674.949       -5173.152          48.000  
 16  4  2 12  2 46.5000000  0  1G24
  23121669.602   121505192.348       -5175.609          48.000  
 16  4  2 12  2 46.6000000  0  1G24
  23121768.117   121505710.059       -5178.469          48.000  
 16  4  2 12  2 46.7000000  0  1G24
  23121866.680   121506228.020       -5181.320          48.000  
 16  4  2 12  2 46.8000000  0  1G24
  23121965.312   121506746.340       -5184.797          48.000  
 16  4  2 12  2 46.9000000  0  1G24
  23122064.000   121507264.941       -5187.770          48.000  
 16  4  2 12  2 47.0000000  0  1G24
  23122162.734   121507783.781       -5189.926          48.000  
 16  4  2 12  2 47.1000000  0  1G24
  23122261.531   121508302.969       -5193.465          48.000  
 16  4  2 12  2 47.2000000  0  1G24
  23122360.383   121508822.445       -5196.508          48.000  
 16  4  2 12  2 47.3000000  0  1G24
  23122459.297   121509342.242       -5199.664          48.000  
 16  4  2 12  2 47.4000000  0  1G24
  23122558.273   121509862.355       -5202.441          48.000  
 16  4  2 12  2 47.5000000  0  1G24
  23122657.297   121510382.715       -5205.207          48.000  
 16  4  2 12  2 47.6000000  0  1G24
  23122756.391   121510903.434       -5208.746          48.000  
 16  4  2 12  2 47.7000000  0  1G24
  23122855.531   121511424.434       -5211.637          48.000  
 16  4  2 12  2 47.8000000  0  1G24
  23122954.727   121511945.711       -5214.078          48.000  
 16  4  2 12  2 47.9000000  0  1G24
  23123053.961   121512467.199       -5216.348          48.000  
 16  4  2 12  2 48.0000000  0  1G24
  23123153.266   121512989.066       -5220.414          48.000  
 16  4  2 12  2 48.1000000  0  1G24
  23123252.633   121513511.211       -5223.020          48.000  
 16  4  2 12  2 48.2000000  0  1G24
  23123352.047   121514033.629       -5225.723          48.000  
 16  4  2 12  2 48.3000000  0  1G24
  23123451.523   121514556.402       -5229.105          48.000  
 16  4  2 12  2 48.4000000  0  1G24
  23123551.039   121515079.379       -5231.297          48.000  
 16  4  2 12  2 48.5000000  0  1G24
  23123650.641   121515602.773       -5235.605          48.000  
 16  4  2 12  2 48.6000000  0  1G24
  23123750.281   121516126.387       -5237.855          48.000  
 16  4  2 12  2 48.7000000  0  1G24
  23123849.977   121516650.281       -5240.363          48.000  
 16  4  2 12  2 48.8000000  0  1G24
  23123949.727   121517174.488       -5243.656          48.000  
 16  4  2 12  2 48.9000000  0  1G24
  23124049.539   121517699.008       -5246.863          48.000  
 16  4  2 12  2 49.0000000  0  1G24
  23124149.422   121518223.871       -5250.281          48.000  
 16  4  2 12  2 49.1000000  0  1G24
  23124249.352   121518749.031       -5253.234          48.000  
 16  4  2 12  2 49.2000000  0  1G24
  23124349.328   121519274.406       -5255.352          48.000  
 16  4  2 12  2 49.3000000  0  1G24
  23124449.375   121519800.137       -5258.867          48.000  
 16  4  2 12  2 49.4000000  0  1G24
  23124549.484   121520326.223       -5262.531          48.000  
 16  4  2 12  2 49.5000000  0  1G24
  23124649.641   121520852.555       -5264.973          48.000  
 16  4  2 12  2 49.6000000  0  1G24
  23124749.852   121521379.168       -5267.648          48.000  
 16  4  2 12  2 49.7000000  0  1G24
  23124850.125   121521906.105       -5270.734          48.000  
 16  4  2 12  2 49.8000000  0  1G24
  23124950.445   121522433.273       -5273.352          48.000  
 16  4  2 12  2 49.9000000  0  1G24
  23125050.836   121522960.820       -5277.172          48.000  
 16  4  2 12  2 50.0000000  0  1G24
  23125151.289   121523488.703       -5280.324          48.000  
 16  4  2 12  2 50.1000000  0  1G24
  23125251.789   121524016.844       -5283.031          48.000  
 16  4  2 12  2 50.2000000  0  1G24
  23125352.344   121524545.270       -5285.781          48.000  
 16  4  2 12  2 50.3000000  0  1G24
  23125452.953   121525073.984       -5288.777          48.000  
 16  4  2 12  2 50.4000000  0  1G24
  23125553.625   121525603.023       -5291.879          48.000  
 16  4  2 12  2 50.5000000  0  1G24
  23125654.352   121526132.340       -5294.871          48.000  
 16  4  2 12  2 50.6000000  0  1G24
  23125755.141   121526661.977       -5297.973          48.000  
 16  4  2 12  2 50.7000000  0  1G24
  23125855.984   121527191.891       -5300.934          48.000  
 16  4  2 12  2 50.8000000  0  1G24
  23125956.883   121527722.145       -5304.047          48.000  
 16  4  2 12  2 50.9000000  0  1G24
  23126057.836   121528252.641       -5306.422          48.000  
 16  4  2 12  2 51.0000000  0  1G24
  23126158.836   121528783.410       -5309.250          48.000  
 16  4  2 12  2 51.1000000  0  1G24
  23126259.906   121529314.520       -5312.789          48.000  
 16  4  2 12  2 51.2000000  0  1G24
  23126361.023   121529845.898       -5315.348          48.000  
 16  4  2 12  2 51.3000000  0  1G24
  23126462.195   121530377.559       -5317.965          48.000  
 16  4  2 12  2 51.4000000  0  1G24
  23126563.422   121530909.512       -5321.184          48.000  
 16  4  2 12  2 51.5000000  0  1G24
  23126664.703   121531441.734       -5323.766          48.000  
 16  4  2 12  2 51.6000000  0  1G24
  23126766.031   121531974.246       -5326.422          48.000  
 16  4  2 12  2 51.7000000  0  1G24
  23126867.422   121532507.059       -5329.684          48.000  
 16  4  2 12  2 51.8000000  0  1G24
  23126968.867   121533040.145       -5332.512          48.000  
 16  4  2 12  2 51.9000000  0  1G24
  23127070.383   121533573.602       -5336.215          48.000  
 16  4  2 12  2 52.0000000  0  1G24
  23127171.953   121534107.336       -5338.801          48.000  
 16  4  2 12  2 52.1000000  0  1G24
  23127273.562   121534641.316       -5341.426          48.000  
 16  4  2 12  2 52.2000000  0  1G24
  23127375.242   121535175.633       -5344.848          48.000  
 16  4  2 12  2 52.3000000  0  1G24
  23127476.977   121535710.273       -5348.055          48.000  
 16  4  2 12  2 52.4000000  0  1G24
  23127578.758   121536245.141       -5350.215          48.000  
 16  4  2 12  2 52.5000000  0  1G24
  23127680.594   121536780.297       -5353.004          48.000  
 16  4  2 12  2 52.6000000  0  1G24
  23127782.500   121537315.785       -5356.480          48.000  
 16  4  2 12  2 52.7000000  0  1G24
  23127884.445   121537851.543       -5359.074          48.000  
 16  4  2 12  2 52.8000000  0  1G24
  23127986.445   121538387.531       -5361.559          48.000  
 16  4  2 12  2 52.9000000  0  1G24
  23128088.508   121538923.887       -5364.867          48.000  
 16  4  2 12  2 53.0000000  0  1G24
  23128190.625   121539460.504       -5367.969          48.000  
 16  4  2 12  2 53.1000000  0  1G24
  23128292.805   121539997.449       -5371.027          48.000  
 16  4  2 12  2 53.2000000  0  1G24
  23128395.039   121540534.695       -5374.059          48.000  
 16  4  2 12  2 53.3000000  0  1G24
  23128497.336   121541072.254       -5377.133          48.000  
 16  4  2 12  2 53.4000000  0  1G24
  23128599.672   121541610.035       -5379.457          48.000  
 16  4  2 12  2 53.5000000  0  1G24
  23128702.070   121542148.168       -5382.898          48.000  
 16  4  2 12  2 53.6000000  0  1G24
  23128804.531   121542686.602       -5385.977          48.000  
 16  4  2 12  2 53.7000000  0  1G24
  23128907.062   121543225.395       -5389.730          48.000  
 16  4  2 12  2 53.8000000  0  1G24
  23129009.633   121543764.414       -5391.820          48.000  
 16  4  2 12  2 53.9000000  0  1G24
  23129112.266   121544303.754       -5394.820          48.000  
 16  4  2 12  2 54.0000000  0  1G24
  23129214.953   121544843.383       -5397.676          48.000  
 16  4  2 12  2 54.1000000  0  1G24
  23129317.688   121545383.250       -5400.535          48.000  
 16  4  2 12  2 54.2000000  0  1G24
  23129420.500   121545923.527       -5404.211          48.000  
 16  4  2 12  2 54.3000000  0  1G24
  23129523.359   121546464.055       -5406.914          48.000  
 16  4  2 12  2 54.4000000  0  1G24
  23129626.273   121547004.891       -5409.777          48.000  
 16  4  2 12  2 54.5000000  0  1G24
  23129729.258   121547546.066       -5413.449          48.000  
 16  4  2 12  2 54.6000000  0  1G24
  23129832.281   121548087.457       -5415.602          48.000  
 16  4  2 12  2 54.7000000  0  1G24
  23129935.375   121548629.207       -5418.883          48.000  
 16  4  2 12  2 54.8000000  0  1G24
  23130038.523   121549171.246       -5422.148          48.000  
 16  4  2 12  2 54.9000000  0  1G24
  23130141.719   121549713.562       -5424.562          48.000  
 16  4  2 12  2 55.0000000  0  1G24
  23130244.977   121550256.180       -5427.691          48.000  
 16  4  2 12  2 55.1000000  0  1G24
  23130348.289   121550799.062       -5430.512          48.000  
 16  4  2 12  2 55.2000000  0  1G24
  23130451.656   121551342.293       -5433.969          48.000  
 16  4  2 12  2 55.3000000  0  1G24
  23130555.086   121551885.812       -5436.832          48.000  
 16  4  2 12  2 55.4000000  0  1G24
  23130658.570   121552429.637       -5439.824          48.000  
 16  4  2 12  2 55.5000000  0  1G24
  23130762.102   121552973.703       -5442.207          48.000  
 16  4  2 12  2 55.6000000  0  1G24
  23130865.695   121553518.059       -5444.930          48.000  
 16  4  2 12  2 55.7000000  0  1G24
  23130969.336   121554062.707       -5448.113          48.000  
 16  4  2 12  2 55.8000000  0  1G24
  23131073.047   121554607.711       -5451.664          48.000  
 16  4  2 12  2 55.9000000  0  1G24
  23131176.820   121555153.020       -5454.469          48.000  
 16  4  2 12  2 56.0000000  0  1G24
  23131280.633   121555698.574       -5457.203          48.000  
 16  4  2 12  2 56.1000000  0  1G24
  23131384.500   121556244.402       -5459.863          48.000  
 16  4  2 12  2 56.2000000  0  1G24
  23131488.445   121556790.617       -5463.926          48.000  
 16  4  2 12  2 56.3000000  0  1G24
  23131592.445   121557337.148       -5467.105          48.000  
 16  4  2 12  2 56.4000000  0  1G24
  23131696.492   121557883.934       -5469.465          48.000  
 16  4  2 12  2 56.5000000  0  1G24
  23131800.594   121558430.988       -5472.168          48.000  
 16  4  2 12  2 56.6000000  0  1G24
  23131904.758   121558978.355       -5475.230          48.000  
 16  4  2 12  2 56.7000000  0  1G24
  23132008.977   121559526.043       -5478.340          48.000  
 16  4  2 12  2 56.8000000  0  1G24
  23132113.258   121560074.039       -5481.668          48.000  
 16  4  2 12  2 56.9000000  0  1G24
  23132217.586   121560622.285       -5483.891          48.000  
 16  4  2 12  2 57.0000000  0  1G24
  23132321.961   121561170.766       -5486.312          48.000  
 16  4  2 12  2 57.1000000  0  1G24
  23132426.406   121561719.652       -5490.320          48.000  
 16  4  2 12  2 57.2000000  0  1G24
  23132530.898   121562268.758       -5492.664          48.000  
 16  4  2 12  2 57.3000000  0  1G24
  23132635.461   121562818.203       -5496.027          48.000  
 16  4  2 12  2 57.4000000  0  1G24
  23132740.078   121563367.980       -5499.312          48.000  
 16  4  2 12  2 57.5000000  0  1G24
  23132844.742   121563917.992       -5501.621          48.000  
 16  4  2 12  2 57.6000000  0  1G24
  23132949.477   121564468.340       -5504.980          48.000  
 16  4  2 12  2 57.7000000  0  1G24
  23133054.273   121565019.039       -5508.895          48.000  
 16  4  2 12  2 57.8000000  0  1G24
  23133159.125   121565570.066       -5511.898          48.000  
 16  4  2 12  2 57.9000000  0  1G24
  23133264.023   121566121.320       -5514.453          48.000  
 16  4  2 12  2 58.0000000  0  1G24
  23133368.992   121566672.898       -5517.406          48.000  
 16  4  2 12  2 58.1000000  0  1G24
  23133474.008   121567224.746       -5519.812          48.000  
 16  4  2 12  2 58.2000000  0  1G24
  23133579.062   121567776.824       -5522.207          48.000  
 16  4  2 12  2 58.3000000  0  1G24
  23133684.180   121568329.203       -5525.305          48.000  
 16  4  2 12  2 58.4000000  0  1G24
  23133789.352   121568881.906       -5528.520          48.000  
 16  4  2 12  2 58.5000000  0  1G24
  23133894.586   121569434.910       -5531.418          48.000  
 16  4  2 12  2 58.6000000  0  1G24
  23133999.875   121569988.180       -5534.426          48.000  
 16  4  2 12  2 58.7000000  0  1G24
  23134105.227   121570541.805       -5537.617          48.000  
 16  4  2 12  2 58.8000000  0  1G24
  23134210.625   121571095.707       -5540.621          48.000  
 16  4  2 12  2 58.9000000  0  1G24
  23134316.094   121571649.949       -5544.258          48.000  
 16  4  2 12  2 59.0000000  0  1G24
  23134421.625   121572204.508       -5547.242          48.000  
 16  4  2 12  2 59.1000000  0  1G24
  23134527.211   121572759.352       -5550.090          48.000  
 16  4  2 12  2 59.2000000  0  1G24
  23134632.836   121573314.453       -5552.562          48.000  
 16  4  2 12  2 59.3000000  0  1G24
  23134738.531   121573869.859       -5555.438          48.000  
 16  4  2 12  2 59.4000000  0  1G24
  23134844.273   121574425.547       -5558.457          48.000  
 16  4  2 12  2 59.5000000  0  1G24
  23134950.070   121574981.527       -5561.156          48.000  
 16  4  2 12  2 59.6000000  0  1G24
  23135055.922   121575537.754       -5563.754          48.000  
 16  4  2 12  2 59.7000000  0  1G24
  23135161.812   121576094.238       -5566.164          48.000  
 16  4  2 12  2 59.8000000  0  1G24
  23135267.766   121576651.016       -5569.426          48.000  
 16  4  2 12  2 59.9000000  0  1G24
  23135373.789   121577208.172       -5573.219          48.000  
 16  4  2 12  3  0.0000000  0  1G24
  23135479.852   121577765.559       -5575.371          48.000  
 16  4  2 12  3  0.1000000  0  1G24
  23135585.977   121578323.242       -5578.516          48.000  
 16  4  2 12  3  0.2000000  0  1G24
  23135692.164   121578881.262       -5581.789          48.000  
 16  4  2 12  3  0.3000000  0  1G24
  23135798.406   121579439.535       -5584.602          48.000  
 16  4  2 12  3  0.4000000  0  1G24
  23135904.703   121579998.152       -5587.801          48.000  
 16  4  2 12  3  0.5000000  0  1G24
  23136011.070   121580557.086       -5590.992          48.000  
 16  4  2 12  3  0.6000000  0  1G24
  23136117.477   121581116.285       -5593.625          48.000  
 16  4  2 12  3  0.7000000  0  1G24
  23136223.953   121581675.820       -5596.832          48.000  
 16  4  2 12  3  0.8000000  0  1G24
  23136330.477   121582235.594       -5599.395          48.000  
 16  4  2 12  3  0.9000000  0  1G24
  23136437.062   121582795.699       -5602.422          48.000  
 16  4  2 12  3  1.0000000  0  1G24
  23136543.695   121583356.059       -5605.117          48.000  
 16  4  2 12  3  1.1000000  0  1G24
  23136650.383   121583916.719       -5607.930          48.000  
 16  4  2 12  3  1.2000000  0  1G24
  23136757.117   121584477.609       -5610.457          48.000  
 16  4  2 12  3  1.3000000  0  1G24
  23136863.906   121585038.781       -5613.137          48.000  
 16  4  2 12  3  1.4000000  0  1G24
  23136970.766   121585600.332       -5617.125          48.000  
 16  4  2 12  3  1.5000000  0  1G24
  23137077.672   121586162.125       -5619.793          48.000  
 16  4  2 12  3  1.6000000  0  1G24
  23137184.648   121586724.281       -5623.273          48.000  
 16  4  2 12  3  1.7000000  0  1G24
  23137291.680   121587286.727       -5626.164          48.000  
 16  4  2 12  3  1.8000000  0  1G24
  23137398.766   121587849.484       -5629.129          48.000  
 16  4  2 12  3  1.9000000  0  1G24
  23137505.906   121588412.508       -5631.660          48.000  
 16  4  2 12  3  2.0000000  0  1G24
  23137613.102   121588975.832       -5634.789          48.000  
 16  4  2 12  3  2.1000000  0  1G24
  23137720.352   121589539.398       -5637.449          48.000  
 16  4  2 12  3  2.2000000  0  1G24
  23137827.664   121590103.316       -5640.508          48.000  
 16  4  2 12  3  2.3000000  0  1G24
  23137935.023   121590667.500       -5643.570          48.000  
 16  4  2 12  3  2.4000000  0  1G24
  23138042.453   121591232.043       -5646.852          48.000  
 16  4  2 12  3  2.5000000  0  1G24
  23138149.930   121591796.844       -5649.500          48.000  
 16  4  2 12  3  2.6000000  0  1G24
  23138257.445   121592361.840       -5651.426          48.000  
 16  4  2 12  3  2.7000000  0  1G24
  23138365.031   121592927.199       -5655.164          48.000  
 16  4  2 12  3  2.8000000  0  1G24
  23138472.680   121593492.898       -5658.414          48.000  
 16  4  2 12  3  2.9000000  0  1G24
  23138580.383   121594058.902       -5661.809          48.000  
 16  4  2 12  3  3.0000000  0  1G24
  23138688.156   121594625.234       -5664.930          48.000  
 16  4  2 12  3  3.1000000  0  1G24
  23138795.977   121595191.828       -5667.414          48.000  
 16  4  2 12  3  3.2000000  0  1G24
  23138903.852   121595758.695       -5670.074          48.000  
 16  4  2 12  3  3.3000000  0  1G24
  23139011.781   121596325.879       -5673.336          48.000  
 16  4  2 12  3  3.4000000  0  1G24
  23139119.766   121596893.316       -5675.867          48.000  
 16  4  2 12  3  3.5000000  0  1G24
  23139227.805   121597461.082       -5679.332          48.000  
 16  4  2 12  3  3.6000000  0  1G24
  23139335.906   121598029.172       -5682.480          48.000  
 16  4  2 12  3  3.7000000  0  1G24
  23139444.055   121598597.520       -5685.227          48.000  
 16  4  2 12  3  3.8000000  0  1G24
  23139552.266   121599166.164       -5688.004          48.000  
 16  4  2 12  3  3.9000000  0  1G24
  23139660.531   121599735.102       -5690.926          48.000  
 16  4  2 12  3  4.0000000  0  1G24
  23139768.859   121600304.363       -5694.176          48.000  
 16  4  2 12  3  4.1000000  0  1G24
  23139877.227   121600873.863       -5696.523          48.000  
 16  4  2 12  3  4.2000000  0  1G24
  23139985.664   121601443.676       -5699.535          48.000  
 16  4  2 12 10 36.7000000  0  1G10
  18314109.133    96241291.602       -6647.727          49.000  
 16  4  2 12 10 36.8000000  0  1G10
  18314235.703    96241956.738       -6654.285          49.000  
 16  4  2 12 32 49.5000000  0  1G04
  22137664.422   116334211.570       15041.648          49.000  
 16  4  2 12 32 49.6000000  0  1G04
  22137378.219   116332707.578       15037.688          49.000  
 16  4  2 12 32 49.7000000  0  1G04
  22137092.133   116331204.066       15032.711          49.000  
 16  4  2 12 32 49.8000000  0  1G04
  22136806.109   116329701.016       15028.230          49.000  
 16  4  2 12 32 49.9000000  0  1G04
  22136520.148   116328198.398       15024.082          49.000  
 16  4  2 12 32 50.0000000  0  1G04
  22136234.289   116326696.203       15019.730          49.000  
 16  4  2 12 32 50.1000000  0  1G04
  22135948.523   116325194.500       15014.762          49.000  
 16  4  2 12 32 50.2000000  0  1G04
  22135662.844   116323693.238       15010.559          49.000  
 16  4  2 12 32 50.3000000  0  1G04
  22135377.250   116322192.426       15005.762          49.000  
 16  4  2 12 32 50.4000000  0  1G04
  22135091.734   116320692.051       15001.328          49.000  
 16  4  2 12 32 50.5000000  0  1G04
  22134806.320   116319192.188       14996.355          49.000  
 16  4  2 12 32 50.6000000  0  1G04
  22134520.977   116317692.695       14992.652          49.000  
 16  4  2 12 32 50.7000000  0  1G04
  22134235.734   116316193.684       14987.906          49.000  
 16  4  2 12 32 50.8000000  0  1G04
  22133950.570   116314695.164       14982.914          49.000  
 16  4  2 12 32 50.9000000  0  1G04
  22133665.523   116313197.094       14978.328          49.000  
 16  4  2 12 32 51.0000000  0  1G04
  22133380.531   116311699.469       14974.086          49.000  
 16  4  2 12 32 51.1000000  0  1G04
  22133095.641   116310202.254       14969.914          49.000  
 16  4  2 12 32 51.2000000  0  1G04
  22132810.820   116308705.523       14965.246          49.000  
 16  4  2 12 32 51.3000000  0  1G04
  22132526.094   116307209.297       14960.012          49.000  
 16  4  2 12 32 51.4000000  0  1G04
  22132241.445   116305713.422       14956.414          49.000  
 16  4  2 12 32 51.5000000  0  1G04
  22131956.883   116304218.035       14951.586          49.000  
 16  4  2 12 32 51.6000000  0  1G04
  22131672.414   116302723.168       14946.262          49.000  
 16  4  2 12 32 51.7000000  0  1G04
  22131388.039   116301228.762       14941.703          49.000  
 16  4  2 12 32 51.8000000  0  1G04
  22131103.734   116299734.754       14937.855          49.000  
 16  4  2 12 32 51.9000000  0  1G04
  22130819.516   116298241.223       14933.199          49.000  
 16  4  2 12 32 52.0000000  0  1G04
  22130535.398   116296748.168       14928.281          49.000  
 16  4  2 12 32 52.1000000  0  1G04
  22130251.398   116295255.527       14924.172          49.000  
 16  4  2 12 32 52.2000000  0  1G04
  22129967.453   116293763.383       14919.312          49.000  
 16  4  2 12 32 52.3000000  0  1G04
  22129683.586   116292271.668       14914.809          49.000  
 16  4  2 12 32 52.4000000  0  1G04
  22129399.812   116290780.426       14910.199          49.000  
 16  4  2 12 32 52.5000000  0  1G04
  22129116.125   116289289.648       14905.527          49.000  
 16  4  2 12 32 52.6000000  0  1G04
  22128832.523   116287799.332       14900.871          49.000  
 16  4  2 12 32 52.7000000  0  1G04
  22128548.984   116286309.473       14896.141          49.000  
 16  4  2 12 32 52.8000000  0  1G04
  22128265.555   116284820.031       14892.148          49.000  
 16  4  2 12 32 52.9000000  0  1G04
  22127982.250   116283331.066       14887.504          49.000  
 16  4  2 12 32 53.0000000  0  1G04
  22127698.992   116281842.508       14883.449          49.000  
 16  4  2 12 32 53.1000000  0  1G04
  22127415.797   116280354.395       14878.918          49.000  
 16  4  2 12 32 53.2000000  0  1G04
  22127132.719   116278866.801       14873.652          49.000  
 16  4  2 12 32 53.3000000  0  1G04
  22126849.719   116277379.570       14870.062          49.000  
 16  4  2 12 32 53.4000000  0  1G04
  22126566.805   116275892.844       14865.117          49.000  
 16  4  2 12 32 53.5000000  0  1G04
  22126283.953   116274406.559       14860.555          49.000  
 16  4  2 12 32 53.6000000  0  1G04
  22126001.227   116272920.781       14855.465          49.000  
 16  4  2 12 32 53.7000000  0  1G04
  22125718.547   116271435.398       14851.496          49.000  
 16  4  2 12 32 53.8000000  0  1G04
  22125435.977   116269950.500       14846.703          49.000  
 16  4  2 12 32 53.9000000  0  1G04
  22125153.484   116268466.055       14842.352          49.000  
 16  4  2 12 32 54.0000000  0  1G04
  22124871.094   116266982.074       14837.559          49.000  
 16  4  2 12 32 54.1000000  0  1G04
  22124588.773   116265498.496       14833.383          49.000  
 16  4  2 12 32 54.2000000  0  1G04
  22124306.547   116264015.391       14828.922          49.000  
 16  4  2 12 32 54.3000000  0  1G04
  22124024.391   116262532.762       14823.840          49.000  
 16  4  2 12 32 54.4000000  0  1G04
  22123742.344   116261050.566       14819.867          49.000  
 16  4  2 12 32 54.5000000  0  1G04
  22123460.359   116259568.770       14815.758          49.000  
 16  4  2 12 32 54.6000000  0  1G04
  22123178.477   116258087.465       14810.797          49.000  
 16  4  2 12 32 54.7000000  0  1G04
  22122896.680   116256606.594       14806.320          49.000  
 16  4  2 12 32 54.8000000  0  1G04
  22122614.977   116255126.227       14801.383          49.000  
 16  4  2 12 32 54.9000000  0  1G04
  22122333.352   116253646.297       14797.027          49.000  
 16  4  2 12 32 55.0000000  0  1G04
  22122051.812   116252166.812       14792.586          49.000  
 16  4  2 12 32 55.1000000  0  1G04
  22121770.359   116250687.754       14788.137          49.000  
 16  4  2 12 32 55.2000000  0  1G04
  22121489.000   116249209.215       14783.129          49.000  
 16  4  2 12 32 55.3000000  0  1G04
  22121207.719   116247731.102       14778.832          49.000  
 16  4  2 12 32 55.4000000  0  1G04
  22120926.531   116246253.457       14774.246          49.000  
 16  4  2 12 32 55.5000000  0  1G04
  22120645.406   116244776.254       14769.891          49.000  
 16  4  2 12 32 55.6000000  0  1G04
  22120364.391   116243299.504       14765.383          49.000  
 16  4  2 12 32 55.7000000  0  1G04
  22120083.453   116241823.230       14760.422          49.000  
 16  4  2 12 32 55.8000000  0  1G04
  22119802.602   116240347.344       14756.613          49.000  
 16  4  2 12 32 55.9000000  0  1G04
  22119521.805   116238871.926       14752.078          49.000  
 16  4  2 12 32 56.0000000  0  1G04
  22119241.133   116237396.988       14747.008          49.000  
 16  4  2 12 32 56.1000000  0  1G04
  22118960.539   116235922.469       14743.246          49.000  
 16  4  2 12 32 56.2000000  0  1G04
  22118680.039   116234448.418       14738.105          49.000  
 16  4  2 12 32 56.3000000  0  1G04
  22118399.648   116232974.930       14732.582          49.000  
 16  4  2 12 32 56.4000000  0  1G04
  22118119.320   116231501.801       14728.781          49.000  
 16  4  2 12 32 56.5000000  0  1G04
  22117839.094   116230029.168       14723.953          49.000  
 16  4  2 12 32 56.6000000  0  1G04
  22117558.945   116228556.973       14719.742          49.000  
 16  4  2 12 32 56.7000000  0  1G04
  22117278.867   116227085.184       14715.684          49.000  
 16  4  2 12 32 56.8000000  0  1G04
  22116998.891   116225613.914       14710.324          49.000  
 16  4  2 12 32 56.9000000  0  1G04
  22116719.016   116224143.086       14705.906          49.000  
 16  4  2 12 32 57.0000000  0  1G04
  22116439.211   116222672.711       14701.461          49.000  
 16  4  2 12 32 57.1000000  0  1G04
  22116159.492   116221202.781       14697.113          49.000  
 16  4  2 12 32 57.2000000  0  1G04
  22115879.859   116219733.305       14692.398          49.000  
 16  4  2 12 32 57.3000000  0  1G04
  22115600.312   116218264.285       14688.055          49.000  
 16  4  2 12 32 57.4000000  0  1G04
  22115320.852   116216795.707       14683.477          49.000  
 16  4  2 12 32 57.5000000  0  1G04
  22115041.484   116215327.641       14678.258          49.000  
 16  4  2 12 32 57.6000000  0  1G04
  22114762.203   116213860.016       14673.801          49.000  
 16  4  2 12 32 57.7000000  0  1G04
  22114483.016   116212392.812       14669.902          49.000  
 16  4  2 12 32 57.8000000  0  1G04
  22114203.891   116210926.016       14665.730          49.000  
 16  4  2 12 32 57.9000000  0  1G04
  22113924.875   116209459.711       14660.828          49.000  
 16  4  2 12 32 58.0000000  0  1G04
  22113645.914   116207993.785       14656.832          49.000  
 16  4  2 12 32 58.1000000  0  1G04
  22113367.070   116206528.379       14651.840          49.000  
 16  4  2 12 32 58.2000000  0  1G04
  22113088.305   116205063.461       14646.941          49.000  
 16  4  2 12 32 58.3000000  0  1G04
  22112809.609   116203598.934       14642.820          49.000  
 16  4  2 12 32 58.4000000  0  1G04
  22112531.008   116202134.898       14638.121          49.000  
 16  4  2 12 32 58.5000000  0  1G04
  22112252.523   116200671.312       14633.742          49.000  
 16  4  2 12 32 58.6000000  0  1G04
  22111974.094   116199208.168       14629.250          49.000  
 16  4  2 12 32 58.7000000  0  1G04
  22111695.758   116197745.516       14624.207          49.000  
 16  4  2 12 32 58.8000000  0  1G04
  22111417.500   116196283.273       14620.043          49.000  
 16  4  2 12 32 58.9000000  0  1G04
  22111139.305   116194821.500       14615.488          49.000  
 16  4  2 12 32 59.0000000  0  1G04
  22110861.242   116193360.250       14610.094          49.000  
 16  4  2 12 32 59.1000000  0  1G04
  22110583.242   116191899.406       14606.117          49.000  
 16  4  2 12 32 59.2000000  0  1G04
  22110305.320   116190438.938       14602.504          49.000  
 16  4  2 12 32 59.3000000  0  1G04
  22110027.484   116188978.910       14598.410          49.000  
 16  4  2 12 32 59.4000000  0  1G04
  22109749.727   116187519.289       14594.109          49.000  
 16  4  2 12 32 59.5000000  0  1G04
  22109472.086   116186060.188       14588.789          49.000  
 16  4  2 12 32 59.6000000  0  1G04
  22109194.516   116184601.555       14583.938          49.000  
 16  4  2 12 32 59.7000000  0  1G04
  22108917.039   116183143.418       14579.070          49.000  
 16  4  2 12 32 59.8000000  0  1G04
  22108639.633   116181685.652       14575.109          49.000  
 16  4  2 12 32 59.9000000  0  1G04
  22108362.328   116180228.367       14570.699          49.000  
 16  4  2 12 33  0.0000000  0  1G04
  22108085.109   116178771.586       14565.594          49.000  
 16  4  2 12 33  0.1000000  0  1G04
  22107807.969   116177315.246       14561.012          49.000  
 16  4  2 12 33  0.2000000  0  1G04
  22107530.914   116175859.309       14557.086          49.000  
 16  4  2 12 33  0.3000000  0  1G04
  22107253.938   116174403.824       14552.629          49.000  
 16  4  2 12 33  0.4000000  0  1G04
  22106977.055   116172948.789       14548.090          49.000  
 16  4  2 12 33  0.5000000  0  1G04
  22106700.266   116171494.230       14543.340          49.000  
 16  4  2 12 33  0.6000000  0  1G04
  22106423.555   116170040.121       14538.719          49.000  
 16  4  2 12 33  0.7000000  0  1G04
  22106146.938   116168586.516       14533.727          49.000  
 16  4  2 12 33  0.8000000  0  1G04
  22105870.406   116167133.332       14529.406          49.000  
 16  4  2 12 33  0.9000000  0  1G04
  22105593.969   116165680.609       14524.992          49.000  
 16  4  2 12 33  1.0000000  0  1G04
  22105317.617   116164228.359       14520.270          49.000  
 16  4  2 12 33  1.1000000  0  1G04
  22105041.336   116162776.504       14516.266          49.000  
 16  4  2 12 33  1.2000000  0  1G04
  22104765.141   116161325.105       14511.734          49.000  
 16  4  2 12 33  1.3000000  0  1G04
  22104489.039   116159874.188       14507.023          49.000  
 16  4  2 12 33  1.4000000  0  1G04
  22104213.016   116158423.652       14502.977          49.000  
 16  4  2 12 33  1.5000000  0  1G04
  22103937.070   116156973.633       14498.148          49.000  
 16  4  2 12 33  1.6000000  0  1G04
  22103661.211   116155524.008       14494.031          49.000  
 16  4  2 12 33  1.7000000  0  1G04
  22103385.461   116154074.898       14488.691          49.000  
 16  4  2 12 33  1.8000000  0  1G04
  22103109.789   116152626.230       14484.387          49.000  
 16  4  2 12 33  1.9000000  0  1G04
  22102834.195   116151178.008       14479.805          49.000  
 16  4  2 12 33  2.0000000  0  1G04
  22102558.695   116149730.238       14475.586          49.000  
 16  4  2 12 33  2.1000000  0  1G04
  22102283.281   116148282.879       14471.371          49.000  
 16  4  2 12 33  2.2000000  0  1G04
  22102007.953   116146836.051       14466.070          49.000  
 16  4  2 12 33  2.3000000  0  1G04
  22101732.711   116145389.605       14462.188          49.000  
 16  4  2 12 33  2.4000000  0  1G04
  22101457.555   116143943.633       14457.512          49.000  
 16  4  2 12 33  2.5000000  0  1G04
  22101182.484   116142498.152       14452.680          49.000  
 16  4  2 12 33  2.6000000  0  1G04
  22100907.516   116141053.172       14447.336          49.000  
 16  4  2 12 33  2.7000000  0  1G04
  22100632.625   116139608.621       14442.984          49.000  
 16  4  2 12 33  2.8000000  0  1G04
  22100357.828   116138164.547       14438.551          49.000  
 16  4  2 12 33  2.9000000  0  1G04
  22100083.117   116136720.914       14433.996          49.000  
 16  4  2 12 33  3.0000000  0  1G04
  22099808.477   116135277.695       14430.039          49.000  
 16  4  2 12 33  3.1000000  0  1G04
  22099533.922   116133834.922       14425.688          49.000  
 16  4  2 12 33  3.2000000  0  1G04
  22099259.453   116132392.594       14421.000          49.000  
 16  4  2 12 33  3.3000000  0  1G04
  22098985.086   116130950.738       14416.332          49.000  
 16  4  2 12 33  3.4000000  0  1G04
  22098710.789   116129509.320       14412.090          49.000  
 16  4  2 12 33  3.5000000  0  1G04
  22098436.578   116128068.332       14407.547          49.000  
 16  4  2 12 33  3.6000000  0  1G04
  22098162.453   116126627.820       14403.027          49.000  
 16  4  2 12 33  3.7000000  0  1G04
  22097888.438   116125187.801       14397.832          49.000  
 16  4  2 12 33  3.8000000  0  1G04
  22097614.500   116123748.230       14393.320          49.000  
 16  4  2 12 33  3.9000000  0  1G04
  22097340.656   116122309.141       14388.520          49.000  
 16  4  2 12 33  4.0000000  0  1G04
  22097066.891   116120870.508       14384.164          49.000  
 16  4  2 12 33  4.1000000  0  1G04
  22096793.219   116119432.312       14379.719          49.000  
 16  4  2 12 33  4.2000000  0  1G04
  22096519.625   116117994.582       14374.871          49.000  
 16  4  2 12 33  4.3000000  0  1G04
  22096246.125   116116557.352       14370.039          49.000  
 16  4  2 12 33  4.4000000  0  1G04
  22095972.711   116115120.520       14366.117          49.000  
 16  4  2 12 33  4.5000000  0  1G04
  22095699.375   116113684.113       14361.980          49.000  
 16  4  2 12 33  4.6000000  0  1G04
  22095426.117   116112248.160       14357.387          49.000  
 16  4  2 12 40 37.3000000  0  1G23
  22518625.195   118336172.812        2371.633          50.000  
 16  4  2 12 40 37.5000000  0  1G04
  21379782.000   112351512.293       -7517.199          49.000  
 16  4  2 12 40 37.6000000  0  1G04
  21379925.117   112352264.363       -7522.996          49.000  
 16  4  2 12 40 37.7000000  0  1G04
  21380068.312   112353016.883       -7527.719          49.000  
 16  4  2 12 40 37.8000000  0  1G04
  21380211.609   112353769.883       -7532.344          49.000  
 16  4  2 12 40 37.9000000  0  1G04
  21380355.000   112354523.402       -7537.520          49.000  
 16  4  2 12 40 38.0000000  0  1G04
  21380498.484   112355277.438       -7542.777          49.000  
 16  4  2 12 40 38.1000000  0  1G04
  21380642.078   112356032.012       -7548.215          49.000  
 16  4  2 12 40 38.2000000  0  1G04
  21380785.750   112356787.035       -7552.664          49.000  
 16  4  2 12 40 38.3000000  0  1G04
  21380929.531   112357542.617       -7558.238          49.000  
 16  4  2 12 40 38.4000000  0  1G04
  21381073.422   112358298.742       -7563.695          49.000  
 16  4  2 12 40 38.5000000  0  1G04
  21381217.414   112359055.379       -7568.941          49.000  
 16  4  2 12 40 38.6000000  0  1G04
  21381361.492   112359812.492       -7573.535          49.000  
 16  4  2 12 40 38.7000000  0  1G04
  21381505.641   112360570.016       -7577.504          49.000  
 16  4  2 12 40 38.8000000  0  1G04
  21381649.906   112361328.141       -7583.461          49.000  
 16  4  2 12 40 38.9000000  0  1G04
  21381794.242   112362086.699       -7587.984          49.000  
 16  4  2 12 40 39.0000000  0  1G04
  21381938.711   112362845.883       -7594.195          49.000  
 16  4  2 12 40 39.1000000  0  1G04
  21382083.273   112363605.508       -7598.773          49.000  
 16  4  2 12 40 39.2000000  0  1G04
  21382227.922   112364365.645       -7603.684          49.000  
 16  4  2 12 40 39.3000000  0  1G04
  21382372.648   112365126.262       -7608.637          49.000  
 16  4  2 12 40 39.4000000  0  1G04
  21382517.492   112365887.398       -7613.551          49.000  
 16  4  2 12 40 39.5000000  0  1G04
  21382662.406   112366649.051       -7618.984          49.000  
 16  4  2 12 40 39.6000000  0  1G04
  21382807.445   112367411.258       -7624.641          49.000  
 16  4  2 12 40 39.7000000  0  1G04
  21382952.570   112368173.977       -7629.789          49.000  
 16  4  2 12 40 39.8000000  0  1G04
  21383097.805   112368937.199       -7634.633          49.000  
 16  4  2 12 40 39.9000000  0  1G04
  21383243.125   112369700.898       -7639.391          49.000  
 16  4  2 12 40 40.0000000  0  1G04
  21383388.555   112370465.109       -7644.398          49.000  
 16  4  2 12 40 40.1000000  0  1G04
  21383534.062   112371229.766       -7648.922          49.000  
 16  4  2 12 40 40.2000000  0  1G04
  21383679.672   112371994.930       -7653.973          49.000  
 16  4  2 12 40 40.3000000  0  1G04
  21383825.398   112372760.645       -7659.492          49.000  
 16  4  2 12 40 40.4000000  0  1G04
  21383971.195   112373526.824       -7664.258          49.000  
 16  4  2 12 40 40.5000000  0  1G04
  21384117.109   112374293.531       -7669.488          49.000  
 16  4  2 12 40 40.6000000  0  1G04
  21384263.117   112375060.809       -7675.305          49.000  
 16  4  2 12 40 40.7000000  0  1G04
  21384409.203   112375828.582       -7680.180          49.000  
 16  4  2 12 40 40.8000000  0  1G04
  21384555.406   112376596.859       -7685.367          49.000  
 16  4  2 12 40 40.9000000  0  1G04
  21384701.719   112377365.730       -7691.090          49.000  
 16  4  2 12 40 41.0000000  0  1G04
  21384848.117   112378135.035       -7695.539          49.000  
 16  4  2 12 40 41.1000000  0  1G04
  21384994.602   112378904.859       -7700.473          49.000  
 16  4  2 12 40 41.2000000  0  1G04
  21385141.188   112379675.160       -7705.430          49.000  
 16  4  2 12 40 41.3000000  0  1G04
  21385287.875   112380445.984       -7710.551          49.000  
 16  4  2 12 40 41.4000000  0  1G04
  21385434.664   112381217.344       -7716.086          49.000  
 16  4  2 12 40 41.5000000  0  1G04
  21385581.531   112381989.145       -7720.332          49.000  
 16  4  2 12 40 41.6000000  0  1G04
  21385728.508   112382761.508       -7726.176          49.000  
 16  4  2 12 40 41.7000000  0  1G04
  21385875.578   112383534.379       -7731.273          49.000  
 16  4  2 12 40 41.8000000  0  1G04
  21386022.750   112384307.762       -7736.227          49.000  
 16  4  2 12 40 41.9000000  0  1G04
  21386170.023   112385081.656       -7741.371          49.000  
 16  4  2 12 40 42.0000000  0  1G04
  21386317.383   112385856.039       -7746.332          49.000  
 16  4  2 12 40 42.1000000  0  1G04
  21386464.828   112386630.914       -7751.188          49.000  
 16  4  2 12 40 42.2000000  0  1G04
  21386612.391   112387406.359       -7756.902          49.000  
 16  4  2 12 40 42.3000000  0  1G04
  21386760.070   112388182.312       -7762.230          49.000  
 16  4  2 12 40 42.4000000  0  1G04
  21386907.836   112388958.824       -7767.602          49.000  
 16  4  2 12 40 42.5000000  0  1G04
  21387055.703   112389735.773       -7771.938          49.000  
 16  4  2 12 40 42.6000000  0  1G04
  21387203.641   112390513.215       -7776.766          49.000  
 16  4  2 12 40 42.7000000  0  1G04
  21387351.680   112391291.141       -7781.617          49.000  
 16  4  2 12 40 42.8000000  0  1G04
  21387499.820   112392069.617       -7787.125          49.000  
 16  4  2 12 40 42.9000000  0  1G04
  21387648.039   112392848.598       -7792.301          49.000  
 16  4  2 12 40 43.0000000  0  1G04
  21387796.375   112393628.090       -7797.340          49.000  
 16  4  2 12 40 43.1000000  0  1G04
  21387944.789   112394408.027       -7801.723          49.000  
 16  4  2 12 40 43.2000000  0  1G04
  21388093.320   112395188.566       -7807.852          49.000  
 16  4  2 12 40 43.3000000  0  1G04
  21388241.922   112395969.496       -7811.602          49.000  
 16  4  2 12 40 43.4000000  0  1G04
  21388390.625   112396750.945       -7816.637          49.000  
 16  4  2 12 40 43.5000000  0  1G04
  21388539.430   112397532.910       -7822.125          49.000  
 16  4  2 12 40 43.6000000  0  1G04
  21388688.328   112398315.387       -7827.191          49.000  
 16  4  2 12 40 43.7000000  0  1G04
  21388837.336   112399098.383       -7832.352          49.000  
 16  4  2 12 40 43.8000000  0  1G04
  21388986.422   112399881.867       -7837.359          49.000  
 16  4  2 12 40 43.9000000  0  1G04
  21389135.641   112400665.945       -7843.234          49.000  
 16  4  2 12 40 44.0000000  0  1G04
  21389284.930   112401450.469       -7847.668          49.000  
 16  4  2 12 40 44.1000000  0  1G04
  21389434.320   112402235.438       -7851.984          49.000  
 16  4  2 12 40 44.2000000  0  1G04
  21389583.797   112403020.953       -7857.305          49.000  
 16  4  2 12 40 44.3000000  0  1G04
  21389733.367   112403806.953       -7862.391          49.000  
 16  4  2 12 40 44.4000000  0  1G04
  21389883.039   112404593.473       -7867.609          49.000  
 16  4  2 12 40 44.5000000  0  1G04
  21390032.797   112405380.512       -7872.723          49.000  
 16  4  2 12 40 44.6000000  0  1G04
  21390182.656   112406168.023       -7877.484          49.000  
 16  4  2 12 40 44.7000000  0  1G04
  21390332.586   112406956.016       -7882.211          49.000  
 16  4  2 12 40 44.8000000  0  1G04
  21390482.641   112407744.523       -7887.262          49.000  
 16  4  2 12 40 44.9000000  0  1G04
  21390632.789   112408533.527       -7892.520          49.000  
 16  4  2 12 40 45.0000000  0  1G04
  21390783.039   112409323.098       -7898.219          49.000  
 16  4  2 12 40 45.1000000  0  1G04
  21390933.375   112410113.152       -7903.074          49.000  
 16  4  2 12 40 45.2000000  0  1G04
  21391083.812   112410903.730       -7908.105          49.000  
 16  4  2 12 40 45.3000000  0  1G04
  21391234.352   112411694.734       -7912.539          49.000  
 16  4  2 12 40 45.4000000  0  1G04
  21391384.984   112412486.297       -7918.004          49.000  
 16  4  2 12 40 45.5000000  0  1G04
  21391535.711   112413278.375       -7923.109          49.000  
 16  4  2 12 40 45.6000000  0  1G04
  21391686.531   112414070.938       -7927.938          49.000  
 16  4  2 12 40 45.7000000  0  1G04
  21391837.461   112414864.012       -7933.055          49.000  
 16  4  2 12 40 45.8000000  0  1G04
  21391988.461   112415657.527       -7937.430          49.000  
 16  4  2 12 40 45.9000000  0  1G04
  21392139.555   112416451.562       -7942.684          49.000  
 16  4  2 12 40 46.0000000  0  1G04
  21392290.758   112417246.160       -7948.293          49.000  
 16  4  2 12 40 46.1000000  0  1G04
  21392442.055   112418041.156       -7952.336          49.000  
 16  4  2 12 40 46.2000000  0  1G04
  21392593.445   112418836.719       -7957.977          49.000  
 16  4  2 12 40 46.3000000  0  1G04
  21392744.953   112419632.852       -7963.664          49.000  
 16  4  2 12 40 46.4000000  0  1G04
  21392896.531   112420429.430       -7968.375          49.000  
 16  4  2 12 40 46.5000000  0  1G04
  21393048.219   112421226.523       -7973.242          49.000  
 16  4  2 12 40 46.6000000  0  1G04
  21393199.992   112422024.102       -7978.012          49.000  
 16  4  2 12 40 46.7000000  0  1G04
  21393351.859   112422822.199       -7983.309          49.000  
 16  4  2 12 40 46.8000000  0  1G04
  21393503.828   112423620.805       -7988.551          49.000  
 16  4  2 12 40 46.9000000  0  1G04
  21393655.914   112424419.934       -7993.820          49.000  
 16  4  2 12 40 47.0000000  0  1G04
  21393808.078   112425219.578       -7998.914          49.000  
 16  4  2 12 40 47.1000000  0  1G04
  21393960.352   112426019.734       -8003.977          49.000  
 16  4  2 12 40 47.2000000  0  1G04
  21394112.711   112426820.375       -8008.828          49.000  
 16  4  2 12 40 47.3000000  0  1G04
  21394265.156   112427621.488       -8013.516          49.000  
 16  4  2 12 40 47.4000000  0  1G04
  21394417.703   112428423.164       -8019.117          49.000  
 16  4  2 12 40 47.5000000  0  1G04
  21394570.312   112429225.234       -8022.984          49.000  
 16  4  2 12 40 47.6000000  0  1G04
  21394723.039   112430027.824       -8028.258          49.000  
 16  4  2 12 40 47.7000000  0  1G04
  21394875.859   112430830.906       -8033.188          49.000  
 16  4  2 12 40 47.8000000  0  1G04
  21395028.781   112431634.523       -8038.656          49.000  
 16  4  2 12 40 47.9000000  0  1G04
  21395181.789   112432438.617       -8043.332          49.000  
 16  4  2 12 40 48.0000000  0  1G04
  21395334.898   112433243.211       -8048.398          49.000  
 16  4  2 12 40 48.1000000  0  1G04
  21395488.094   112434048.305       -8053.266          49.000  
 16  4  2 12 40 48.2000000  0  1G04
  21395641.398   112434853.902       -8058.383          49.000  
 16  4  2 12 40 48.3000000  0  1G04
  21395794.797   112435660.027       -8063.590          49.000  
 16  4  2 12 40 48.4000000  0  1G04
  21395948.289   112436466.629       -8068.438          49.000  
 16  4  2 12 40 48.5000000  0  1G04
  21396101.891   112437273.793       -8074.215          49.000  
 16  4  2 12 40 48.6000000  0  1G04
  21396255.570   112438081.406       -8078.566          49.000  
 16  4  2 12 40 48.7000000  0  1G04
  21396409.383   112438889.617       -8084.441          49.000  
 16  4  2 12 40 48.8000000  0  1G04
  21396563.273   112439698.316       -8089.508          49.000  
 16  4  2 12 40 48.9000000  0  1G04
  21396717.250   112440507.469       -8094.051          49.000  
 16  4  2 12 40 49.0000000  0  1G04
  21396871.336   112441317.195       -8099.543          49.000  
 16  4  2 12 40 49.1000000  0  1G04
  21397025.516   112442127.352       -8103.824          49.000  
 16  4  2 12 40 49.2000000  0  1G04
  21397179.789   112442938.059       -8109.379          49.000  
 16  4  2 12 40 49.3000000  0  1G04
  21397334.172   112443749.293       -8114.797          49.000  
 16  4  2 12 40 49.4000000  0  1G04
  21397488.625   112444560.980       -8119.293          49.000  
 16  4  2 12 40 49.5000000  0  1G04
  21397643.180   112445373.148       -8123.918          49.000  
 16  4  2 12 40 49.6000000  0  1G04
  21397797.828   112446185.828       -8129.090          49.000  
 16  4  2 12 40 49.7000000  0  1G04
  21397952.578   112446999.039       -8134.504          49.000  
 16  4  2 12 40 49.8000000  0  1G04
  21398107.422   112447812.742       -8139.441          49.000  
 16  4  2 12 40 49.9000000  0  1G04
  21398262.359   112448626.945       -8144.262          49.000  
 16  4  2 12 40 50.0000000  0  1G04
  21398417.383   112449441.598       -8148.934          49.000  
 16  4  2 12 40 50.1000000  0  1G04
  21398572.516   112450256.828       -8154.629          49.000  
 16  4  2 12 40 50.2000000  0  1G04
  21398727.734   112451072.500       -8159.168          49.000  
 16  4  2 12 40 50.3000000  0  1G04
  21398883.039   112451888.672       -8164.023          49.000  
 16  4  2 12 40 50.4000000  0  1G04
  21399038.445   112452705.332       -8169.051          49.000  
 16  4  2 12 40 50.5000000  0  1G04
  21399193.930   112453522.559       -8174.582          49.000  
 16  4  2 12 40 50.6000000  0  1G04
  21399349.539   112454340.281       -8179.781          49.000  
 16  4  2 12 40 50.7000000  0  1G04
  21399505.250   112455158.520       -8184.777          49.000  
 16  4  2 12 40 50.8000000  0  1G04
  21399661.047   112455977.262       -8189.793          49.000  
 16  4  2 12 40 50.9000000  0  1G04
  21399816.938   112456796.441       -8194.086          49.000  
 16  4  2 12 40 51.0000000  0  1G04
  21399972.930   112457616.176       -8199.605          49.000  
 16  4  2 12 40 51.1000000  0  1G04
  21400129.016   112458436.422       -8205.023          49.000  
 16  4  2 12 40 51.2000000  0  1G04
  21400285.195   112459257.148       -8209.715          49.000  
 16  4  2 12 40 51.3000000  0  1G04
  21400441.469   112460078.383       -8214.656          49.000  
 16  4  2 12 40 51.4000000  0  1G04
  21400597.828   112460900.059       -8219.191          49.000  
 16  4  2 12 40 51.5000000  0  1G04
  21400754.289   112461722.285       -8224.527          49.000  
 16  4  2 12 40 51.6000000  0  1G04
  21400910.844   112462545.004       -8229.629          49.000  
 16  4  2 12 40 51.7000000  0  1G04
  21401067.500   112463368.188       -8234.262          49.000  
 16  4  2 12 40 51.8000000  0  1G04
  21401224.242   112464191.891       -8239.453          49.000  
 16  4  2 12 40 51.9000000  0  1G04
  21401381.086   112465016.121       -8244.676          49.000  
 16  4  2 12 40 52.0000000  0  1G04
  21401538.023   112465840.836       -8249.492          49.000  
 16  4  2 12 40 52.1000000  0  1G04
  21401695.039   112466666.020       -8254.281          49.000  
 16  4  2 12 40 52.2000000  0  1G04
  21401852.164   112467491.711       -8259.258          49.000  
 16  4  2 12 40 52.3000000  0  1G04
  21402009.383   112468317.867       -8263.754          49.000  
 16  4  2 12 40 52.4000000  0  1G04
  21402166.695   112469144.570       -8269.383          49.000  
 16  4  2 12 40 52.5000000  0  1G04
  21402324.102   112469971.750       -8274.188          49.000  
 16  4  2 12 40 52.6000000  0  1G04
  21402481.602   112470799.387       -8278.676          49.000  
 16  4  2 12 40 52.7000000  0  1G04
  21402639.180   112471627.512       -8283.512          49.000  
 16  4  2 12 40 52.8000000  0  1G04
  21402796.875   112472456.215       -8289.457          49.000  
 16  4  2 12 40 52.9000000  0  1G04
  21402954.648   112473285.375       -8293.941          49.000  
 16  4  2 12 40 53.0000000  0  1G04
  21403112.531   112474115.062       -8299.379          49.000  
 16  4  2 12 40 53.1000000  0  1G04
  21403270.508   112474945.254       -8304.367          49.000  
 16  4  2 12 40 53.2000000  0  1G04
  21403428.586   112475775.973       -8309.543          49.000  
 16  4  2 12 40 53.3000000  0  1G04
  21403586.750   112476607.113       -8313.973          49.000  
 16  4  2 12 40 53.4000000  0  1G04
  21403745.023   112477438.844       -8319.633          49.000  
 16  4  2 12 40 53.5000000  0  1G04
  21403903.398   112478271.098       -8325.023          49.000  
 16  4  2 12 40 53.6000000  0  1G04
  21404061.859   112479103.828       -8329.715          49.000  
 16  4  2 12 40 53.7000000  0  1G04
  21404220.422   112479937.074       -8334.828          49.000  
 16  4  2 12 40 53.8000000  0  1G04
  21404379.070   112480770.785       -8339.301          49.000  
 16  4  2 12 40 53.9000000  0  1G04
  21404537.805   112481604.996       -8344.617          49.000  
 16  4  2 12 40 54.0000000  0  1G04
  21404696.656   112482439.762       -8350.172          49.000  
 16  4  2 12 40 54.1000000  0  1G04
  21404855.586   112483274.984       -8354.621          49.000  
 16  4  2 12 40 54.2000000  0  1G04
  21405014.625   112484110.727       -8359.824          49.000  
 16  4  2 12 40 54.3000000  0  1G04
  21405173.742   112484946.902       -8364.074          49.000  
 16  4  2 12 40 54.4000000  0  1G04
  21405332.961   112485783.609       -8369.387          49.000  
 16  4  2 12 40 54.5000000  0  1G04
  21405492.289   112486620.879       -8375.039          49.000  
 16  4  2 12 40 54.6000000  0  1G04
  21405651.688   112487458.531       -8378.988          49.000  
 16  4  2 12 40 54.7000000  0  1G04
  21405811.203   112488296.730       -8384.219          49.000  
 16  4  2 12 40 54.8000000  0  1G04
  21405970.805   112489135.477       -8389.910          49.000  
 16  4  2 12 40 54.9000000  0  1G04
  21406130.492   112489974.664       -8394.355          49.000  
 16  4  2 12 40 55.0000000  0  1G04
  21406290.289   112490814.363       -8399.297          49.000  
 16  4  2 12 40 55.1000000  0  1G04
  21406450.172   112491654.523       -8404.031          49.000  
 16  4  2 12 40 55.2000000  0  1G04
  21406610.141   112492495.188       -8408.840          49.000  
 16  4  2 12 40 55.3000000  0  1G04
  21406770.219   112493336.363       -8414.203          49.000  
 16  4  2 12 40 55.4000000  0  1G04
  21406930.391   112494178.043       -8419.203          49.000  
 16  4  2 12 40 55.5000000  0  1G04
  21407090.656   112495020.258       -8424.480          49.000  
 16  4  2 12 40 55.6000000  0  1G04
  21407251.008   112495862.930       -8429.141          49.000  
 16  4  2 12 40 55.7000000  0  1G04
  21407411.453   112496706.090       -8433.746          49.000  
 16  4  2 12 40 55.8000000  0  1G04
  21407572.000   112497549.746       -8438.949          49.000  
 16  4  2 12 40 55.9000000  0  1G04
  21407732.633   112498393.922       -8444.078          49.000  
 16  4  2 12 40 56.0000000  0  1G04
  21407893.367   112499238.562       -8448.906          49.000  
 16  4  2 12 40 56.1000000  0  1G04
  21408054.195   112500083.719       -8453.984          49.000  
 16  4  2 12 40 56.2000000  0  1G04
  21408215.125   112500929.418       -8459.336          49.000  
 16  4  2 12 40 56.3000000  0  1G04
  21408376.133   112501775.555       -8463.684          49.000  
 16  4  2 12 40 56.4000000  0  1G04
  21408537.242   112502622.172       -8468.457          49.000  
 16  4  2 12 40 56.5000000  0  1G04
  21408698.445   112503469.316       -8473.699          49.000  
 16  4  2 12 40 56.6000000  0  1G04
  21408859.742   112504316.965       -8478.898          49.000  
 16  4  2 12 40 56.7000000  0  1G04
  21409021.148   112505165.121       -8483.914          49.000  
 16  4  2 12 40 56.8000000  0  1G04
  21409182.633   112506013.754       -8488.672          49.000  
 16  4  2 12 40 56.9000000  0  1G04
  21409344.234   112506862.902       -8493.727          49.000  
 16  4  2 12 40 57.0000000  0  1G04
  21409505.930   112507712.609       -8499.586          49.000  
 16  4  2 12 40 57.1000000  0  1G04
  21409667.703   112508562.758       -8503.934          49.000  
 16  4  2 12 40 57.2000000  0  1G04
  21409829.578   112509413.418       -8508.906          49.000  
 16  4  2 12 40 57.3000000  0  1G04
  21409991.539   112510264.559       -8513.840          49.000  
 16  4  2 12 40 57.4000000  0  1G04
  21410153.609   112511116.234       -8519.141          49.000  
 16  4  2 12 40 57.5000000  0  1G04
  21410315.781   112511968.422       -8524.246          49.000  
 16  4  2 12 40 57.6000000  0  1G04
  21410478.039   112512821.090       -8529.254          49.000  
 16  4  2 12 40 57.7000000  0  1G04
  21410640.391   112513674.258       -8533.824          49.000  
 16  4  2 12 40 57.8000000  0  1G04
  21410802.836   112514527.902       -8538.875          49.000  
 16  4  2 12 40 57.9000000  0  1G04
  21410965.375   112515382.059       -8543.875          49.000  
 16  4  2 12 40 58.0000000  0  1G04
  21411128.008   112516236.668       -8548.336          49.000  
 16  4  2 12 40 58.1000000  0  1G04
  21411290.742   112517091.816       -8553.766          49.000  
 16  4  2 12 40 58.2000000  0  1G04
  21411453.562   112517947.449       -8558.812          49.000  
 16  4  2 12 40 58.3000000  0  1G04
  21411616.469   112518803.598       -8563.816          49.000  
 16  4  2 12 40 58.4000000  0  1G04
  21411779.477   112519660.215       -8568.492          49.000  
 16  4  2 12 40 58.5000000  0  1G04
  21411942.578   112520517.301       -8573.090          49.000  
 16  4  2 12 40 58.6000000  0  1G04
  21412105.773   112521374.891       -8578.188          49.000  
 16  4  2 12 40 58.7000000  0  1G04
  21412269.055   112522232.984       -8583.375          49.000  
 16  4  2 12 40 58.8000000  0  1G04
  21412432.453   112523091.641       -8588.992          49.000  
 16  4  2 12 40 58.9000000  0  1G04
  21412595.945   112523950.785       -8593.953          49.000  
 16  4  2 12 40 59.0000000  0  1G04
  21412759.539   112524810.465       -8599.164          49.000  
 16  4  2 12 40 59.1000000  0  1G04
  21412923.219   112525670.637       -8604.156          49.000  
 16  4  2 12 40 59.2000000  0  1G04
  21413086.984   112526531.262       -8608.625          49.000  
 16  4  2 12 40 59.3000000  0  1G04
  21413250.852   112527392.367       -8613.266          49.000  
 16  4  2 12 40 59.4000000  0  1G04
  21413414.812   112528254.000       -8618.832          49.000  
 16  4  2 12 40 59.5000000  0  1G04
  21413578.875   112529116.160       -8624.105          49.000  
 16  4  2 12 40 59.6000000  0  1G04
  21413743.023   112529978.781       -8628.641          49.000  
 16  4  2 12 40 59.7000000  0  1G04
  21413907.258   112530841.883       -8633.219          49.000  
 16  4  2 12 40 59.8000000  0  1G04
  21414071.594   112531705.465       -8638.188          49.000  
 16  4  2 12 40 59.9000000  0  1G04
  21414236.031   112532569.547       -8643.160          49.000  
 16  4  2 12 41  0.0000000  0  1G04
  21414400.562   112533434.156       -8648.477          49.000  
 16  4  2 12 41  0.1000000  0  1G04
  21414565.172   112534299.230       -8653.203          49.000  
 16  4  2 12 41  0.2000000  0  1G04
  21414729.891   112535164.836       -8658.641          49.000  
 16  4  2 12 41  0.3000000  0  1G04
  21414894.711   112536030.926       -8663.281          49.000  
 16  4  2 12 41  0.4000000  0  1G04
  21415059.602   112536897.461       -8667.621          49.000  
 16  4  2 12 41  0.5000000  0  1G04
  21415224.594   112537764.465       -8672.289          49.000  
 16  4  2 12 41  0.6000000  0  1G04
  21415389.672   112538631.953       -8677.270          49.000  
 16  4  2 12 41  0.7000000  0  1G04
  21415554.852   112539500.012       -8682.879          49.000  
 16  4  2 12 41  0.8000000  0  1G04
  21415720.141   112540368.578       -8688.027          49.000  
 16  4  2 12 41  0.9000000  0  1G04
  21415885.516   112541237.633       -8692.988          49.000  
 16  4  2 12 41  1.0000000  0  1G04
  21416050.984   112542107.180       -8697.793          49.000  
 16  4  2 12 41  1.1000000  0  1G04
  21416216.539   112542977.195       -8702.465          49.000  
 16  4  2 12 41  1.2000000  0  1G04
  21416382.188   112543847.684       -8707.305          49.000  
 16  4  2 12 41  1.3000000  0  1G04
  21416547.953   112544718.715       -8712.605          49.000  
 16  4  2 12 41  1.4000000  0  1G04
  21416713.797   112545590.219       -8717.516          49.000  
 16  4  2 12 41  1.5000000  0  1G04
  21416879.734   112546462.230       -8722.500          49.000  
 16  4  2 12 41  1.6000000  0  1G04
  21417045.773   112547334.777       -8727.953          49.000  
 16  4  2 12 41  1.7000000  0  1G04
  21417211.898   112548207.750       -8732.145          49.000  
 16  4  2 12 41  1.8000000  0  1G04
  21417378.117   112549081.246       -8737.219          49.000  
 16  4  2 12 41  1.9000000  0  1G04
  21417544.430   112549955.219       -8742.172          49.000  
 16  4  2 12 41  2.0000000  0  1G04
  21417710.859   112550829.801       -8748.230          49.000  
 16  4  2 12 41  2.1000000  0  1G04
  21417877.352   112551704.734       -8751.879          49.000  
 16  4  2 12 41  2.2000000  0  1G04
  21418043.953   112552580.211       -8756.891          49.000  
 16  4  2 12 41  2.3000000  0  1G04
  21418210.633   112553456.117       -8761.398          49.000  
 16  4  2 12 41  2.4000000  0  1G04
  21418377.414   112554332.578       -8766.930          49.000  
 16  4  2 12 41  2.5000000  0  1G04
  21418544.297   112555209.547       -8772.133          49.000  
 16  4  2 12 41  2.6000000  0  1G04
  21418711.258   112556086.934       -8776.223          49.000  
 16  4  2 12 41  2.7000000  0  1G04
  21418878.336   112556964.867       -8781.723          49.000  
 16  4  2 12 41  2.8000000  0  1G04
  21419045.492   112557843.305       -8786.801          49.000  
 16  4  2 12 41  2.9000000  0  1G04
  21419212.758   112558722.230       -8791.645          49.000  
 16  4  2 12 41  3.0000000  0  1G04
  21419380.102   112559601.648       -8796.527          49.000  
 16  4  2 12 41  3.1000000  0  1G04
  21419547.547   112560481.562       -8801.434          49.000  
 16  4  2 12 41  3.2000000  0  1G04
  21419715.078   112561361.957       -8806.285          49.000  
 16  4  2 12 41  3.3000000  0  1G04
  21419882.711   112562242.875       -8811.484          49.000  
 16  4  2 12 41  3.4000000  0  1G04
  21420050.438   112563124.305       -8816.586          49.000  
 16  4  2 12 41  3.5000000  0  1G04
  21420218.258   112564006.199       -8821.340          49.000  
 16  4  2 12 41  3.6000000  0  1G04
  21420386.156   112564888.520       -8825.559          49.000  
 16  4  2 12 41  3.7000000  0  1G04
  21420554.164   112565771.430       -8831.320          49.000  
 16  4  2 12 41  3.8000000  0  1G04
  21420722.273   112566654.824       -8836.383          49.000  
 16  4  2 12 41  3.9000000  0  1G04
  21420890.461   112567538.684       -8840.840          49.000  
 16  4  2 12 41  4.0000000  0  1G04
  21421058.750   112568423.020       -8845.711          49.000  
 16  4  2 12 41  4.1000000  0  1G04
  21421227.125   112569307.840       -8850.578          49.000  
 16  4  2 12 41  4.2000000  0  1G04
  21421395.609   112570193.227       -8856.246          49.000  
 16  4  2 12 41  4.3000000  0  1G04
  21421564.172   112571079.059       -8860.879          49.000  
 16  4  2 12 41  4.4000000  0  1G04
  21421732.836   112571965.414       -8865.793          49.000  
 16  4  2 12 41  4.5000000  0  1G04
  21421901.586   112572852.199       -8870.121          49.000  
 16  4  2 12 41  4.6000000  0  1G04
  21422070.430   112573739.461       -8874.812          49.000  
 16  4  2 12 41  4.7000000  0  1G04
  21422239.359   112574627.207       -8879.859          49.000  
 16  4  2 12 41  4.8000000  0  1G04
  21422408.398   112575515.508       -8885.391          49.000  
 16  4  2 12 41  4.9000000  0  1G04
  21422577.531   112576404.316       -8890.500          49.000  
 16  4  2 12 41  5.0000000  0  1G04
  21422746.758   112577293.613       -8895.391          49.000  
 16  4  2 12 41  5.1000000  0  1G04
  21422916.078   112578183.375       -8899.895          49.000  
 16  4  2 12 41  5.2000000  0  1G04
  21423085.484   112579073.609       -8904.484          49.000  
 16  4  2 12 41  5.3000000  0  1G04
  21423254.977   112579964.320       -8909.359          49.000  
 16  4  2 12 41  5.4000000  0  1G04
  21423424.555   112580855.484       -8913.949          49.000  
 16  4  2 12 41  5.5000000  0  1G04
  21423594.258   112581747.242       -8919.961          49.000  
 16  4  2 12 41  5.6000000  0  1G04
  21423764.047   112582639.496       -8925.027          49.000  
 16  4  2 12 41  5.7000000  0  1G04
  21423933.930   112583532.238       -8929.941          49.000  
 16  4  2 12 41  5.8000000  0  1G04
  21424103.906   112584425.480       -8934.773          49.000  
 16  4  2 12 41  5.9000000  0  1G04
  21424273.969   112585319.164       -8939.105          49.000  
 16  4  2 12 41  6.0000000  0  1G04
  21424444.125   112586213.305       -8943.570          49.000  
 16  4  2 12 41  6.1000000  0  1G04
  21424614.367   112587107.949       -8948.613          49.000  
 16  4  2 12 41  6.2000000  0  1G04
  21424784.711   112588003.113       -8953.914          49.000  
 16  4  2 12 41  6.3000000  0  1G04
  21424955.141   112588898.750       -8958.773          49.000  
 16  4  2 12 41  6.4000000  0  1G04
  21425125.664   112589794.875       -8963.559          49.000  
 16  4  2 12 41  6.5000000  0  1G04
  21425296.289   112590691.500       -8968.535          49.000  
 16  4  2 12 41  6.6000000  0  1G04
  21425467.008   112591588.594       -8973.238          49.000  
 16  4  2 12 41  6.7000000  0  1G04
  21425637.812   112592486.168       -8977.988          49.000  
 16  4  2 12 41  6.8000000  0  1G04
  21425808.703   112593384.223       -8982.738          49.000  
 16  4  2 12 41  6.9000000  0  1G04
  21425979.695   112594282.801       -8988.203          49.000  
 16  4  2 12 41  7.0000000  0  1G04
  21426150.781   112595181.863       -8993.047          49.000  
 16  4  2 12 41  7.1000000  0  1G04
  21426321.969   112596081.457       -8998.316          49.000  
 16  4  2 12 41  7.2000000  0  1G04
  21426493.258   112596981.566       -9003.594          49.000  
 16  4  2 12 41  7.3000000  0  1G04
  21426664.633   112597882.156       -9008.266          49.000  
 16  4  2 12 41  7.4000000  0  1G04
  21426836.109   112598783.273       -9013.602          49.000  
 16  4  2 12 41  7.5000000  0  1G04
  21427007.672   112599684.852       -9018.164          49.000  
 16  4  2 12 41  7.6000000  0  1G04
  21427179.336   112600586.949       -9023.391          49.000  
 16  4  2 12 41  7.7000000  0  1G04
  21427351.094   112601489.543       -9028.391          49.000  
 16  4  2 12 41  7.8000000  0  1G04
  21427522.938   112602392.605       -9032.988          49.000  
 16  4  2 12 41  7.9000000  0  1G04
  21427694.883   112603296.137       -9037.594          49.000  
 16  4  2 12 41  8.0000000  0  1G04
  21427866.922   112604200.207       -9042.996          49.000  
 16  4  2 12 41  8.1000000  0  1G04
  21428039.039   112605104.695       -9047.066          49.000  
 16  4  2 12 41  8.2000000  0  1G04
  21428211.250   112606009.645       -9051.812          49.000  
 16  4  2 12 41  8.3000000  0  1G04
  21428383.570   112606915.145       -9057.344          49.000  
 16  4  2 12 41  8.4000000  0  1G04
  21428555.977   112607821.160       -9062.688          49.000  
 16  4  2 12 41  8.5000000  0  1G04
  21428728.477   112608727.664       -9067.426          49.000  
 16  4  2 12 41  8.6000000  0  1G04
  21428901.055   112609634.578       -9071.445          49.000  
 16  4  2 12 41  8.7000000  0  1G04
  21429073.734   112610542.008       -9076.570          49.000  
 16  4  2 12 41  8.8000000  0  1G04
  21429246.516   112611449.980       -9081.941          49.000  
 16  4  2 12 41  8.9000000  0  1G04
  21429419.391   112612358.438       -9087.078          49.000  
 16  4  2 12 41  9.0000000  0  1G04
  21429592.367   112613267.402       -9091.898          49.000  
 16  4  2 12 41  9.1000000  0  1G04
  21429765.422   112614176.801       -9096.359          49.000  
 16  4  2 12 41  9.2000000  0  1G04
  21429938.570   112615086.711       -9101.469          49.000  
 16  4  2 12 41  9.3000000  0  1G04
  21430111.820   112615997.117       -9106.449          49.000  
 16  4  2 12 41  9.4000000  0  1G04
  21430285.172   112616908.082       -9112.008          49.000  
 16  4  2 12 41  9.5000000  0  1G04
  21430458.609   112617819.488       -9116.344          49.000  
 16  4  2 12 41  9.6000000  0  1G04
  21430632.133   112618731.344       -9120.648          49.000  
 16  4  2 12 41  9.7000000  0  1G04
  21430805.750   112619643.742       -9126.215          49.000  
 16  4  2 12 41  9.8000000  0  1G04
  21430979.461   112620556.598       -9130.953          49.000  
 16  4  2 12 41  9.9000000  0  1G04
  21431153.258   112621469.914       -9135.586          49.000  
 16  4  2 12 41 10.0000000  0  1G04
  21431327.156   112622383.777       -9140.949          49.000  
 16  4  2 12 41 10.1000000  0  1G04
  21431501.156   112623298.105       -9145.473          49.000  
 16  4  2 12 41 10.2000000  0  1G04
  21431675.234   112624212.887       -9150.051          49.000  
 16  4  2 12 41 10.3000000  0  1G04
  21431849.406   112625128.160       -9155.000          49.000  
 16  4  2 12 41 10.4000000  0  1G04
  21432023.672   112626043.934       -9160.055          49.000  
 16  4  2 12 41 10.5000000  0  1G04
  21432198.047   112626960.293       -9165.875          49.000  
 16  4  2 12 41 10.6000000  0  1G04
  21432372.508   112627877.105       -9170.559          49.000  
 16  4  2 12 41 10.7000000  0  1G04
  21432547.062   112628794.355       -9174.852          49.000  
 16  4  2 12 41 10.8000000  0  1G04
  21432721.711   112629712.148       -9180.367          49.000  
 16  4  2 12 41 10.9000000  0  1G04
  21432896.461   112630630.461       -9185.359          49.000  
 16  4  2 12 41 11.0000000  0  1G04
  21433071.297   112631549.199       -9189.723          49.000  
 16  4  2 12 41 11.1000000  0  1G04
  21433246.219   112632468.402       -9194.230          49.000  
 16  4  2 12 41 11.2000000  0  1G04
  21433421.242   112633388.129       -9199.613          49.000  
 16  4  2 12 41 11.3000000  0  1G04
  21433596.367   112634308.422       -9205.328          49.000  
 16  4  2 12 41 11.4000000  0  1G04
  21433771.578   112635229.164       -9209.875          49.000  
 16  4  2 12 41 11.5000000  0  1G04
  21433946.883   112636150.402       -9214.824          49.000  
 16  4  2 12 41 11.6000000  0  1G04
  21434122.297   112637072.199       -9220.281          49.000  
 16  4  2 12 41 11.7000000  0  1G04
  21434297.781   112637994.391       -9224.363          49.000  
 16  4  2 12 41 11.8000000  0  1G04
  21434473.367   112638917.102       -9229.453          49.000  
 16  4  2 12 41 11.9000000  0  1G04
  21434649.047   112639840.293       -9234.160          49.000  
 16  4  2 12 41 12.0000000  0  1G04
  21434824.820   112640764.008       -9239.512          49.000  
 16  4  2 12 41 12.1000000  0  1G04
  21435000.695   112641688.184       -9244.164          49.000  
 16  4  2 12 41 12.2000000  0  1G04
  21435176.656   112642612.852       -9248.965          49.000  
 16  4  2 12 41 12.3000000  0  1G04
  21435352.695   112643537.949       -9253.219          49.000  
 16  4  2 12 41 12.4000000  0  1G04
  21435528.836   112644463.562       -9258.488          49.000  
 16  4  2 12 41 12.5000000  0  1G04
  21435705.055   112645389.625       -9262.898          49.000  
 16  4  2 12 41 12.6000000  0  1G04
  21435881.383   112646316.207       -9268.117          49.000  
 16  4  2 12 41 12.7000000  0  1G04
  21436057.820   112647243.383       -9274.141          49.000  
 16  4  2 12 41 12.8000000  0  1G04
  21436234.336   112648171.000       -9278.617          49.000  
 16  4  2 12 41 12.9000000  0  1G04
  21436410.945   112649099.074       -9283.164          49.000  
 16  4  2 12 41 13.0000000  0  1G04
  21436587.648   112650027.660       -9288.039          49.000  
 16  4  2 12 41 13.1000000  0  1G04
  21436764.445   112650956.742       -9293.055          49.000  
 16  4  2 12 41 13.2000000  0  1G04
  21436941.328   112651886.281       -9297.605          49.000  
 16  4  2 12 41 13.3000000  0  1G04
  21437118.305   112652816.273       -9302.211          49.000  
 16  4  2 12 41 13.4000000  0  1G04
  21437295.367   112653746.766       -9307.211          49.000  
 16  4  2 12 41 13.5000000  0  1G04
  21437472.531   112654677.758       -9312.215          49.000  
 16  4  2 12 41 13.6000000  0  1G04
  21437649.781   112655609.184       -9316.562          49.000  
 16  4  2 12 41 13.7000000  0  1G04
  21437827.125   112656541.121       -9321.660          49.000  
 16  4  2 12 41 13.8000000  0  1G04
  21438004.555   112657473.539       -9326.555          49.000  
 16  4  2 12 41 13.9000000  0  1G04
  21438182.094   112658406.516       -9332.070          49.000  
 16  4  2 12 41 14.0000000  0  1G04
  21438359.727   112659339.973       -9336.902          49.000  
 16  4  2 12 41 14.1000000  0  1G04
  21438537.445   112660273.926       -9341.938          49.000  
 16  4  2 12 41 14.2000000  0  1G04
  21438715.273   112661208.383       -9346.965          49.000  
 16  4  2 12 41 14.3000000  0  1G04
  21438893.180   112662143.281       -9351.512          49.000  
 16  4  2 12 41 14.4000000  0  1G04
  21439071.172   112663078.660       -9356.090          49.000  
 16  4  2 12 41 14.5000000  0  1G04
  21439249.266   112664014.523       -9360.828          49.000  
 16  4  2 12 41 14.6000000  0  1G04
  21439427.445   112664950.863       -9365.668          49.000  
 16  4  2 12 41 14.7000000  0  1G04
  21439605.719   112665887.711       -9370.797          49.000  
 16  4  2 12 41 14.8000000  0  1G04
  21439784.086   112666825.059       -9375.887          49.000  
 16  4  2 12 41 14.9000000  0  1G04
  21439962.547   112667762.848       -9380.273          49.000  
 16  4  2 12 41 15.0000000  0  1G04
  21440141.094   112668701.121       -9384.988          49.000  
 16  4  2 12 41 15.1000000  0  1G04
  21440319.719   112669639.824       -9389.340          49.000  
 16  4  2 12 41 15.2000000  0  1G04
  21440498.453   112670579.082       -9394.855          49.000  
 16  4  2 12 41 15.3000000  0  1G04
  21440677.289   112671518.871       -9400.301          49.000  
 16  4  2 12 41 15.4000000  0  1G04
  21440856.203   112672459.074       -9404.355          49.000  
 16  4  2 12 41 15.5000000  0  1G04
  21441035.211   112673399.797       -9409.504          49.000  
 16  4  2 12 41 15.6000000  0  1G04
  21441214.312   112674340.984       -9414.164          49.000  
 16  4  2 12 41 15.7000000  0  1G04
  21441393.516   112675282.715       -9419.641          49.000  
 16  4  2 12 41 15.8000000  0  1G04
  21441572.812   112676224.914       -9424.312          49.000  
 16  4  2 12 41 15.9000000  0  1G04
  21441752.195   112677167.562       -9428.805          49.000  
 16  4  2 12 41 16.0000000  0  1G04
  21441931.672   112678110.723       -9433.875          49.000  
 16  4  2 12 41 16.1000000  0  1G04
  21442111.250   112679054.383       -9438.922          49.000  
 16  4  2 12 41 16.2000000  0  1G04
  21442290.906   112679998.508       -9443.602          49.000  
 16  4  2 12 41 16.3000000  0  1G04
  21442470.672   112680943.133       -9448.559          49.000  
 16  4  2 12 41 16.4000000  0  1G04
  21442650.531   112681888.297       -9454.016          49.000  
 16  4  2 12 41 16.5000000  0  1G04
  21442830.484   112682833.914       -9458.523          49.000  
 16  4  2 12 41 16.6000000  0  1G04
  21443010.516   112683779.980       -9462.980          49.000  
 16  4  2 12 41 16.7000000  0  1G04
  21443190.641   112684726.539       -9467.914          49.000  
 16  4  2 12 41 16.8000000  0  1G04
  21443370.859   112685673.605       -9472.910          49.000  
 16  4  2 12 41 16.9000000  0  1G04
  21443551.180   112686621.180       -9478.094          49.000  
 16  4  2 12 41 17.0000000  0  1G04
  21443731.578   112687569.203       -9482.676          49.000  
 16  4  2 12 41 17.1000000  0  1G04
  21443912.094   112688517.770       -9488.109          49.000  
 16  4  2 12 41 17.2000000  0  1G04
  21444092.703   112689466.883       -9493.426          49.000  
 16  4  2 12 41 17.3000000  0  1G04
  21444273.383   112690416.367       -9497.035          49.000  
 16  4  2 12 41 17.4000000  0  1G04
  21444454.172   112691366.395       -9502.496          49.000  
 16  4  2 12 41 17.5000000  0  1G04
  21444635.055   112692316.891       -9507.305          49.000  
 16  4  2 12 41 17.6000000  0  1G04
  21444816.016   112693267.871       -9512.109          49.000  
 16  4  2 12 41 17.7000000  0  1G04
  21444997.102   112694219.445       -9518.188          49.000  
 16  4  2 12 41 17.8000000  0  1G04
  21445178.258   112695171.422       -9522.156          49.000  
 16  4  2 12 41 17.9000000  0  1G04
  21445359.500   112696123.895       -9527.090          49.000  
 16  4  2 12 41 18.0000000  0  1G04
  21445540.852   112697076.887       -9532.188          49.000  
 16  4  2 12 41 18.1000000  0  1G04
  21445722.297   112698030.375       -9537.359          49.000  
 16  4  2 12 41 18.2000000  0  1G04
  21445903.820   112698984.297       -9541.480          49.000  
 16  4  2 12 41 18.3000000  0  1G04
  21446085.430   112699938.684       -9546.031          49.000  
 16  4  2 12 41 18.4000000  0  1G04
  21446267.141   112700893.578       -9551.051          49.000  
 16  4  2 12 41 18.5000000  0  1G04
  21446448.938   112701848.918       -9555.812          49.000  
 16  4  2 12 41 18.6000000  0  1G04
  21446630.828   112702804.754       -9560.738          49.000  
 16  4  2 12 41 18.7000000  0  1G04
  21446812.812   112703761.102       -9565.793          49.000  
 16  4  2 12 41 18.8000000  0  1G04
  21446994.898   112704717.949       -9570.918          49.000  
 16  4  2 12 41 18.9000000  0  1G04
  21447177.070   112705675.277       -9575.531          49.000  
 16  4  2 12 41 19.0000000  0  1G04
  21447359.336   112706633.070       -9580.121          49.000  
 16  4  2 12 41 19.1000000  0  1G04
  21447541.672   112707591.285       -9584.469          49.000  
 16  4  2 12 41 19.2000000  0  1G04
  21447724.117   112708550.051       -9589.867          49.000  
 16  4  2 12 41 19.3000000  0  1G04
  21447906.664   112709509.301       -9594.965          49.000  
 16  4  2 12 41 19.4000000  0  1G04
  21448089.297   112710469.055       -9599.824          49.000  
 16  4  2 12 41 19.5000000  0  1G04
  21448272.008   112711429.238       -9604.031          49.000  
 16  4  2 12 41 19.6000000  0  1G04
  21448454.820   112712389.910       -9609.051          49.000  
 16  4  2 12 41 19.7000000  0  1G04
  21448637.719   112713351.074       -9613.809          49.000  
 16  4  2 12 41 19.8000000  0  1G04
  21448820.711   112714312.711       -9618.746          49.000  
 16  4  2 12 41 19.9000000  0  1G04
  21449003.812   112715274.902       -9624.258          49.000  
 16  4  2 12 41 20.0000000  0  1G04
  21449187.000   112716237.527       -9628.621          49.000  
 16  4  2 12 41 20.1000000  0  1G04
  21449370.289   112717200.719       -9634.391          49.000  
 16  4  2 12 41 20.2000000  0  1G04
  21449553.656   112718164.328       -9638.434          49.000  
 16  4  2 12 41 20.3000000  0  1G04
  21449737.109   112719128.410       -9643.023          49.000  
 16  4  2 12 41 20.4000000  0  1G04
  21449920.672   112720093.020       -9648.410          49.000  
 16  4  2 12 41 20.5000000  0  1G04
  21450104.305   112721058.074       -9652.922          49.000  
 16  4  2 12 41 20.6000000  0  1G04
  21450288.047   112722023.613       -9657.652          49.000  
 16  4  2 12 41 20.7000000  0  1G04
  21450471.867   112722989.617       -9662.254          49.000  
 16  4  2 12 41 20.8000000  0  1G04
  21450655.789   112723956.133       -9667.477          49.000  
 16  4  2 12 41 20.9000000  0  1G04
  21450839.805   112724923.129       -9672.371          49.000  
 16  4  2 12 41 21.0000000  0  1G04
  21451023.906   112725890.582       -9676.758          49.000  
 16  4  2 12 41 21.1000000  0  1G04
  21451208.102   112726858.562       -9682.035          49.000  
 16  4  2 12 41 21.2000000  0  1G04
  21451392.383   112727826.969       -9686.422          49.000  
 16  4  2 12 41 21.3000000  0  1G04
  21451576.750   112728795.824       -9690.879          49.000  
 16  4  2 12 41 21.4000000  0  1G04
  21451761.227   112729765.266       -9696.699          49.000  
 16  4  2 12 41 21.5000000  0  1G04
  21451945.789   112730735.133       -9701.062          49.000  
 16  4  2 12 41 21.6000000  0  1G04
  21452130.445   112731705.504       -9706.168          49.000  
 16  4  2 12 41 21.7000000  0  1G04
  21452315.195   112732676.332       -9710.602          49.000  
 16  4  2 12 41 21.8000000  0  1G04
  21452500.039   112733647.699       -9716.004          49.000  
 16  4  2 12 41 21.9000000  0  1G04
  21452684.984   112734619.574       -9721.051          49.000  
 16  4  2 12 41 22.0000000  0  1G04
  21452870.016   112735591.918       -9725.773          49.000  
 16  4  2 12 41 22.1000000  0  1G04
  21453055.125   112736564.695       -9729.949          49.000  
 16  4  2 12 41 22.2000000  0  1G04
  21453240.336   112737537.969       -9734.934          49.000  
 16  4  2 12 41 22.3000000  0  1G04
  21453425.633   112738511.730       -9739.930          49.000  
 16  4  2 12 41 22.4000000  0  1G04
  21453611.031   112739485.988       -9744.836          49.000  
 16  4  2 12 41 22.5000000  0  1G04
  21453796.516   112740460.703       -9749.348          49.000  
 16  4  2 12 41 22.6000000  0  1G04
  21453982.094   112741435.898       -9754.184          49.000  
 16  4  2 12 41 22.7000000  0  1G04
  21454167.773   112742411.645       -9759.773          49.000  
 16  4  2 12 41 22.8000000  0  1G04
  21454353.531   112743387.832       -9764.348          49.000  
 16  4  2 12 41 22.9000000  0  1G04
  21454539.383   112744364.512       -9769.059          49.000  
 16  4  2 12 41 23.0000000  0  1G04
  21454725.320   112745341.605       -9773.180          49.000  
 16  4  2 12 41 23.1000000  0  1G04
  21454911.352   112746319.227       -9778.594          49.000  
 16  4  2 12 41 23.2000000  0  1G04
  21455097.477   112747297.352       -9783.605          49.000  
 16  4  2 12 41 23.3000000  0  1G04
  21455283.703   112748275.992       -9788.832          49.000  
 16  4  2 12 41 23.4000000  0  1G04
  21455470.023   112749255.105       -9793.457          49.000  
 16  4  2 12 41 23.5000000  0  1G04
  21455656.438   112750234.676       -9798.062          49.000  
 16  4  2 12 41 23.6000000  0  1G04
  21455842.930   112751214.730       -9802.656          49.000  
 16  4  2 12 41 23.7000000  0  1G04
  21456029.523   112752195.277       -9807.871          49.000  
 16  4  2 12 41 23.8000000  0  1G04
  21456216.211   112753176.332       -9812.859          49.000  
 16  4  2 12 41 23.9000000  0  1G04
  21456402.992   112754157.875       -9817.824          49.000  
 16  4  2 12 41 24.0000000  0  1G04
  21456589.859   112755139.855       -9822.125          49.000  
 16  4  2 12 41 24.1000000  0  1G04
  21456776.820   112756122.383       -9827.613          49.000  
 16  4  2 12 41 24.2000000  0  1G04
  21456963.883   112757105.383       -9832.348          49.000  
 16  4  2 12 41 24.3000000  0  1G04
  21457151.023   112758088.832       -9836.656          49.000  
 16  4  2 12 41 24.4000000  0  1G04
  21457338.250   112759072.730       -9841.297          49.000  
 16  4  2 12 41 24.5000000  0  1G04
  21457525.586   112760057.188       -9846.816          49.000  
 16  4  2 12 41 24.6000000  0  1G04
  21457713.008   112761042.086       -9851.266          49.000  
 16  4  2 12 41 24.7000000  0  1G04
  21457900.516   112762027.434       -9855.609          49.000  
 16  4  2 12 41 24.8000000  0  1G04
  21458088.125   112763013.328       -9861.277          49.000  
 16  4  2 12 41 24.9000000  0  1G04
  21458275.820   112763999.668       -9865.777          49.000  
 16  4  2 12 41 25.0000000  0  1G04
  21458463.602   112764986.492       -9870.531          49.000  
 16  4  2 12 41 25.1000000  0  1G04
  21458651.477   112765973.762       -9875.117          49.000  
 16  4  2 12 41 25.2000000  0  1G04
  21458839.453   112766961.578       -9880.359          49.000  
 16  4  2 12 41 25.3000000  0  1G04
  21459027.516   112767949.805       -9884.570          49.000  
 16  4  2 12 41 25.4000000  0  1G04
  21459215.664   112768938.531       -9889.684          49.000  
 16  4  2 12 41 25.5000000  0  1G04
  21459403.906   112769927.750       -9894.492          49.000  
 16  4  2 12 41 25.6000000  0  1G04
  21459592.242   112770917.473       -9899.758          49.000  
 16  4  2 12 41 25.7000000  0  1G04
  21459780.672   112771907.695       -9904.562          49.000  
 16  4  2 12 41 25.8000000  0  1G04
  21459969.188   112772898.363       -9908.895          49.000  
 16  4  2 12 41 25.9000000  0  1G04
  21460157.805   112773889.512       -9913.656          49.000  
 16  4  2 12 41 26.0000000  0  1G04
  21460346.508   112774881.133       -9918.348          49.000  
 16  4  2 12 41 26.1000000  0  1G04
  21460535.289   112775873.223       -9923.281          49.000  
 16  4  2 12 41 26.2000000  0  1G04
  21460724.180   112776865.828       -9928.363          49.000  
 16  4  2 12 41 26.3000000  0  1G04
  21460913.156   112777858.891       -9932.871          49.000  
 16  4  2 12 41 26.4000000  0  1G04
  21461102.219   112778852.422       -9937.523          49.000  
 16  4  2 12 41 26.5000000  0  1G04
  21461291.383   112779846.488       -9942.953          49.000  
 16  4  2 12 41 26.6000000  0  1G04
  21461480.625   112780840.980       -9947.238          49.000  
 16  4  2 12 41 26.7000000  0  1G04
  21461669.969   112781835.965       -9952.086          49.000  
 16  4  2 12 41 26.8000000  0  1G04
  21461859.398   112782831.449       -9957.062          49.000  
 16  4  2 12 41 26.9000000  0  1G04
  21462048.914   112783827.367       -9961.270          49.000  
 16  4  2 12 41 27.0000000  0  1G04
  21462238.531   112784823.797       -9966.566          49.000  
 16  4  2 12 41 27.1000000  0  1G04
  21462428.242   112785820.742       -9971.609          49.000  
 16  4  2 12 41 27.2000000  0  1G04
  21462618.031   112786818.094       -9975.727          49.000  
 16  4  2 12 41 27.3000000  0  1G04
  21462807.922   112787815.949       -9980.859          49.000  
 16  4  2 12 41 27.4000000  0  1G04
  21462997.898   112788814.297       -9985.668          49.000  
 16  4  2 12 41 27.5000000  0  1G04
  21463187.969   112789813.141       -9990.758          49.000  
 16  4  2 12 41 27.6000000  0  1G04
  21463378.141   112790812.477       -9995.770          49.000  
 16  4  2 12 41 27.7000000  0  1G04
  21463568.391   112791812.285      -10000.410          49.000  
 16  4  2 12 41 27.8000000  0  1G04
  21463758.734   112792812.574      -10005.211          49.000  
 16  4  2 12 41 27.9000000  0  1G04
  21463949.180   112793813.344      -10010.078          49.000  
 16  4  2 12 41 28.0000000  0  1G04
  21464139.711   112794814.590      -10014.746          49.000  
 16  4  2 12 41 28.1000000  0  1G04
  21464330.336   112795816.355      -10020.008          49.000  
 16  4  2 12 41 28.2000000  0  1G04
  21464521.047   112796818.527      -10024.008          49.000  
 16  4  2 12 41 28.3000000  0  1G04
  21464711.852   112797821.191      -10028.930          49.000  
 16  4  2 12 41 28.4000000  0  1G04
  21464902.750   112798824.383      -10034.176          49.000  
 16  4  2 12 41 28.5000000  0  1G04
  21465093.734   112799828.004      -10038.445          49.000  
 16  4  2 12 41 28.6000000  0  1G04
  21465284.812   112800832.117      -10043.406          49.000  
 16  4  2 12 41 28.7000000  0  1G04
  21465475.984   112801836.711      -10048.203          49.000  
 16  4  2 12 41 28.8000000  0  1G04
  21465667.242   112802841.785      -10052.906          49.000  
 16  4  2 12 41 28.9000000  0  1G04
  21465858.586   112803847.312      -10057.488          49.000  
 16  4  2 12 41 29.0000000  0  1G04
  21466050.023   112804853.305      -10062.168          49.000  
 16  4  2 12 41 29.1000000  0  1G04
  21466241.547   112805859.801      -10067.250          49.000  
 16  4  2 12 41 29.2000000  0  1G04
  21466433.172   112806866.777      -10072.086          49.000  
 16  4  2 12 41 29.3000000  0  1G04
  21466624.891   112807874.234      -10077.082          49.000  
 16  4  2 12 41 29.4000000  0  1G04
  21466816.711   112808882.258      -10082.461          49.000  
 16  4  2 12 41 29.5000000  0  1G04
  21467008.609   112809890.699      -10086.785          49.000  
 16  4  2 12 41 29.6000000  0  1G04
  21467200.594   112810899.590      -10091.223          49.000  
 16  4  2 12 41 29.7000000  0  1G04
  21467392.688   112811909.008      -10096.395          49.000  
 16  4  2 12 41 29.8000000  0  1G04
  21467584.867   112812918.906      -10101.289          49.000  
 16  4  2 12 41 29.9000000  0  1G04
  21467777.141   112813929.262      -10105.891          49.000  
 16  4  2 12 41 30.0000000  0  1G04
  21467969.484   112814940.066      -10110.320          49.000  
 16  4  2 12 41 30.1000000  0  1G04
  21468161.945   112815951.434      -10115.848          49.000  
 16  4  2 12 41 30.2000000  0  1G04
  21468354.484   112816963.242      -10120.473          49.000  
 16  4  2 12 41 30.3000000  0  1G04
  21468547.117   112817975.512      -10125.023          49.000  
 16  4  2 12 41 30.4000000  0  1G04
  21468739.836   112818988.266      -10129.699          49.000  
 16  4  2 12 41 30.5000000  0  1G04
  21468932.648   112820001.520      -10134.793          49.000  
 16  4  2 12 41 30.6000000  0  1G04
  21469125.570   112821015.316      -10140.328          49.000  
 16  4  2 12 41 30.7000000  0  1G04
  21469318.570   112822029.566      -10144.918          49.000  
 16  4  2 12 41 30.8000000  0  1G04
  21469511.672   112823044.297      -10149.789          49.000  
 16  4  2 12 41 30.9000000  0  1G04
  21469704.859   112824059.520      -10154.539          49.000  
 16  4  2 12 41 31.0000000  0  1G04
  21469898.125   112825075.137      -10158.457          49.000  
 16  4  2 12 41 31.1000000  0  1G04
  21470091.484   112826091.234      -10163.152          49.000  
 16  4  2 12 41 31.2000000  0  1G04
  21470284.938   112827107.855      -10168.543          49.000  
 16  4  2 12 41 31.3000000  0  1G04
  21470478.492   112828124.996      -10173.688          49.000  
 16  4  2 12 41 31.4000000  0  1G04
  21470672.133   112829142.566      -10178.145          49.000  
 16  4  2 12 41 31.5000000  0  1G04
  21470865.867   112830160.652      -10183.078          49.000  
 16  4  2 12 41 31.6000000  0  1G04
  21471059.688   112831179.168      -10187.402          49.000  
 16  4  2 12 41 31.7000000  0  1G04
  21471253.602   112832198.223      -10192.656          49.000  
 16  4  2 12 41 31.8000000  0  1G04
  21471447.602   112833217.703      -10196.965          49.000  
 16  4  2 12 41 31.9000000  0  1G04
  21471641.703   112834237.711      -10202.324          49.000  
 16  4  2 12 41 32.0000000  0  1G04
  21471835.891   112835258.168      -10207.074          49.000  
 16  4  2 12 41 32.1000000  0  1G04
  21472030.164   112836279.094      -10211.531          49.000  
 16  4  2 12 41 32.2000000  0  1G04
  21472224.547   112837300.566      -10217.102          49.000  
 16  4  2 12 41 32.3000000  0  1G04
  21472419.008   112838322.461      -10221.109          49.000  
 16  4  2 12 41 32.4000000  0  1G04
  21472613.547   112839344.793      -10225.613          49.000  
 16  4  2 12 41 32.5000000  0  1G04
  21472808.180   112840367.598      -10230.219          49.000  
 16  4  2 12 41 32.6000000  0  1G04
  21473002.914   112841390.914      -10235.230          49.000  
 16  4  2 12 41 32.7000000  0  1G04
  21473197.727   112842414.699      -10240.207          49.000  
 16  4  2 12 41 32.8000000  0  1G04
  21473392.648   112843439.012      -10245.520          49.000  
 16  4  2 12 41 32.9000000  0  1G04
  21473587.656   112844463.766      -10249.828          49.000  
 16  4  2 12 41 33.0000000  0  1G04
  21473782.750   112845489.004      -10254.633          49.000  
 16  4  2 12 41 33.1000000  0  1G04
  21473977.938   112846514.711      -10259.324          49.000  
 16  4  2 12 41 33.2000000  0  1G04
  21474173.219   112847540.918      -10264.375          49.000  
 16  4  2 12 41 33.3000000  0  1G04
  21474368.594   112848567.621      -10269.410          49.000  
 16  4  2 12 41 33.4000000  0  1G04
  21474564.039   112849594.684      -10272.664          49.000  
 16  4  2 12 41 33.5000000  0  1G04
  21474759.570   112850622.238      -10277.840          49.000  
 16  4  2 12 41 33.6000000  0  1G04
  21474955.195   112851650.258      -10282.398          49.000  
 16  4  2 12 41 33.7000000  0  1G04
  21475150.922   112852678.809      -10287.879          49.000  
 16  4  2 12 41 33.8000000  0  1G04
  21475346.742   112853707.828      -10292.691          49.000  
 16  4  2 12 41 33.9000000  0  1G04
  21475542.664   112854737.391      -10297.898          49.000  
 16  4  2 12 41 34.0000000  0  1G04
  21475738.656   112855767.352      -10301.898          49.000  
 16  4  2 12 41 34.1000000  0  1G04
  21475934.750   112856797.812      -10306.859          49.000  
 16  4  2 12 41 34.2000000  0  1G04
  21476130.930   112857828.770      -10311.910          49.000  
 16  4  2 12 41 34.3000000  0  1G04
  21476327.211   112858860.223      -10316.863          49.000  
 16  4  2 12 41 34.4000000  0  1G04
  21476523.586   112859892.180      -10321.938          49.000  
 16  4  2 12 41 34.5000000  0  1G04
  21476720.055   112860924.590      -10326.457          49.000  
 16  4  2 12 41 34.6000000  0  1G04
  21476916.594   112861957.406      -10330.203          49.000  
 16  4  2 12 41 34.7000000  0  1G04
  21477113.227   112862990.727      -10335.520          49.000  
 16  4  2 12 41 34.8000000  0  1G04
  21477309.961   112864024.594      -10340.887          49.000  
 16  4  2 12 41 34.9000000  0  1G04
  21477506.773   112865058.863      -10345.129          49.000  
 16  4  2 12 41 35.0000000  0  1G04
  21477703.680   112866093.609      -10349.672          49.000  
 16  4  2 12 41 35.1000000  0  1G04
  21477900.680   112867128.812      -10354.355          49.000  
 16  4  2 12 41 35.2000000  0  1G04
  21478097.766   112868164.535      -10359.531          49.000  
 16  4  2 12 41 35.3000000  0  1G04
  21478294.953   112869200.750      -10364.523          49.000  
 16  4  2 12 41 35.4000000  0  1G04
  21478492.219   112870237.398      -10368.812          49.000  
 16  4  2 12 41 35.5000000  0  1G04
  21478689.586   112871274.551      -10373.738          49.000  
 16  4  2 12 41 35.6000000  0  1G04
  21478887.031   112872312.125      -10377.934          49.000  
 16  4  2 12 41 35.7000000  0  1G04
  21479084.586   112873350.258      -10383.621          49.000  
 16  4  2 12 41 35.8000000  0  1G04
  21479282.227   112874388.883      -10388.723          49.000  
 16  4  2 12 41 35.9000000  0  1G04
  21479479.953   112875427.945      -10392.855          49.000  
 16  4  2 12 41 36.0000000  0  1G04
  21479677.773   112876467.500      -10397.781          49.000  
 16  4  2 12 41 36.1000000  0  1G04
  21479875.695   112877507.543      -10402.734          49.000  
 16  4  2 12 41 36.2000000  0  1G04
  21480073.695   112878548.062      -10407.469          49.000  
 16  4  2 12 41 36.3000000  0  1G04
  21480271.797   112879589.094      -10412.641          49.000  
 16  4  2 12 41 36.4000000  0  1G04
  21480469.992   112880630.609      -10417.434          49.000  
 16  4  2 12 41 36.5000000  0  1G04
  21480668.281   112881672.605      -10422.297          49.000  
 16  4  2 12 41 36.6000000  0  1G04
  21480866.664   112882715.137      -10427.637          49.000  
 16  4  2 12 41 36.7000000  0  1G04
  21481065.133   112883758.074      -10431.711          49.000  
 16  4  2 12 41 36.8000000  0  1G04
  21481263.688   112884801.512      -10436.609          49.000  
 16  4  2 12 41 36.9000000  0  1G04
  21481462.344   112885845.438      -10441.484          49.000  
 16  4  2 12 41 37.0000000  0  1G04
  21481661.078   112886889.793      -10445.922          49.000  
