     2.10           Observation         G (GPS)             RINEX VERSION / TYPE
novaRinex v2.1 9/07 ARL:UT/GPSTk        20160822 211414 UTC PGM / RUN BY / DATE
                                                            MARKER NAME
                    ARL:UT/GPSTk                            OBSERVER / AGENCY
                    Novatel             OEM4                REC # / TYPE / VERS
                                                            ANT # / TYPE
        0.0000        0.0000        0.0000                  APPROX POSITION XYZ
        0.0000        0.0000        0.0000                  ANTENNA: DELTA H/E/N
     1     1                                                WAVELENGTH FACT L1/2
     4    C1    L1    D1    S1                              # / TYPES OF OBSERV
     0.100                                                  INTERVAL
  2016     4     2    12    20   36.6000000                 TIME OF FIRST OBS
  2016     4     2    14    32    1.9000000                 TIME OF LAST OBS
Created by GPSTK program novaRinex v2.1 9/072016/08/22 21:14COMMENT
    19                                                      # OF SATELLITES
   G02   783   783   783   783                              PRN / # OF OBS
   G03   238   238   238   238                              PRN / # OF OBS
   G04  2493  2493  2493  2493                              PRN / # OF OBS
   G05  1700  1700  1700  1700                              PRN / # OF OBS
   G06     2     2     2     2                              PRN / # OF OBS
   G07  1563  1563  1563  1563                              PRN / # OF OBS
   G09  1699  1699  1699  1699                              PRN / # OF OBS
   G14     3     3     3     3                              PRN / # OF OBS
   G15     4     4     4     4                              PRN / # OF OBS
   G16  1571  1571  1571  1571                              PRN / # OF OBS
   G17     4     4     4     4                              PRN / # OF OBS
   G20     3     3     3     3                              PRN / # OF OBS
   G21   849   849   849   849                              PRN / # OF OBS
   G23   854   854   854   854                              PRN / # OF OBS
   G25   142   142   142   142                              PRN / # OF OBS
   G26   851   851   851   851                              PRN / # OF OBS
   G27   783   783   783   783                              PRN / # OF OBS
   G29   853   853   853   853                              PRN / # OF OBS
   G30   845   845   845   845                              PRN / # OF OBS
                                                            END OF HEADER
 16  4  2 12 20 36.6000000  0  1G14
  21798763.969   114553277.156       -4693.605          50.000  
 16  4  2 12 20 36.7000000  0  2G14G21
  21798853.359   114553746.895       -4700.438          50.000  
  25289412.453   132896759.176       -3575.320          48.000  
 16  4  2 12 30 37.0000000  0  1G16
  22492015.898   118196340.000        2477.496          49.000  
 16  4  2 12 30 37.1000000  0  1G16
  22491968.797   118196092.461        2473.352          49.000  
 16  4  2 12 30 37.2000000  0  1G16
  22491921.758   118195845.285        2469.555          49.000  
 16  4  2 12 30 37.3000000  0  2G03G16
  25411317.125   133537372.000       -1497.562          49.000  
  22491874.828   118195598.672        2463.727          49.000  
 16  4  2 12 30 37.4000000  0  2G03G16
  25411345.664   133537521.961       -1501.750          49.000  
  22491827.984   118195352.504        2459.340          49.000  
 16  4  2 12 30 37.5000000  0  2G03G16
  25411374.281   133537672.297       -1505.645          49.000  
  22491781.219   118195106.734        2455.320          49.000  
 16  4  2 12 30 37.6000000  0  2G03G16
  25411402.969   133537823.074       -1509.824          49.000  
  22491734.547   118194861.449        2450.730          49.000  
 16  4  2 12 30 37.7000000  0  2G03G16
  25411431.727   133537974.246       -1514.047          49.000  
  22491687.945   118194616.574        2446.281          49.000  
 16  4  2 12 30 37.8000000  0  2G03G16
  25411460.578   133538125.863       -1518.340          49.000  
  22491641.445   118194372.168        2441.758          49.000  
 16  4  2 12 30 37.9000000  0  2G03G16
  25411489.508   133538277.875       -1522.051          49.000  
  22491595.016   118194128.195        2437.574          49.000  
 16  4  2 12 30 38.0000000  0  2G03G16
  25411518.508   133538430.262       -1525.969          49.000  
  22491548.664   118193884.609        2433.512          49.000  
 16  4  2 12 30 38.1000000  0  2G03G16
  25411547.602   133538583.125       -1530.703          48.000  
  22491502.414   118193641.535        2428.480          49.000  
 16  4  2 12 30 38.2000000  0  2G03G16
  25411576.773   133538736.445       -1535.371          48.000  
  22491456.242   118193398.930        2423.781          49.000  
 16  4  2 12 30 38.3000000  0  2G03G16
  25411606.016   133538890.102       -1538.695          48.000  
  22491410.148   118193156.719        2419.910          49.000  
 16  4  2 12 30 38.4000000  0  2G03G16
  25411635.344   133539044.234       -1543.395          48.000  
  22491364.141   118192914.988        2414.957          49.000  
 16  4  2 12 30 38.5000000  0  2G03G16
  25411664.758   133539198.852       -1548.348          48.000  
  22491318.242   118192673.770        2409.816          49.000  
 16  4  2 12 30 38.6000000  0  2G03G16
  25411694.258   133539353.867       -1552.285          48.000  
  22491272.414   118192432.977        2405.609          49.000  
 16  4  2 12 30 38.7000000  0  2G03G16
  25411723.836   133539509.285       -1556.316          48.000  
  22491226.680   118192192.621        2401.234          49.000  
 16  4  2 12 30 38.8000000  0  2G03G16
  25411753.484   133539665.102       -1560.332          48.000  
  22491181.016   118191952.672        2397.215          49.000  
 16  4  2 12 30 38.9000000  0  2G03G16
  25411783.227   133539821.367       -1564.832          48.000  
  22491135.445   118191713.219        2392.238          49.000  
 16  4  2 12 30 39.0000000  0  2G03G16
  25411813.047   133539978.113       -1569.719          48.000  
  22491089.969   118191474.258        2387.223          49.000  
 16  4  2 12 30 39.1000000  0  2G03G16
  25411842.938   133540135.215       -1573.270          49.000  
  22491044.570   118191235.680        2383.477          49.000  
 16  4  2 12 30 39.2000000  0  2G03G16
  25411872.922   133540292.742       -1577.523          49.000  
  22490999.281   118190997.574        2378.738          49.000  
 16  4  2 12 30 39.3000000  0  2G03G16
  25411902.992   133540450.691       -1581.570          49.000  
  22490954.055   118190759.898        2374.566          49.000  
 16  4  2 12 30 39.4000000  0  2G03G16
  25411933.125   133540609.043       -1585.812          48.000  
  22490908.930   118190522.656        2370.004          49.000  
 16  4  2 12 30 39.5000000  0  2G03G16
  25411963.375   133540767.898       -1590.707          49.000  
  22490863.883   118190285.941        2364.816          49.000  
 16  4  2 12 30 39.6000000  0  2G03G16
  25411993.680   133540927.168       -1594.996          49.000  
  22490818.906   118190049.672        2360.277          49.000  
 16  4  2 12 30 39.7000000  0  2G03G16
  25412024.047   133541086.824       -1598.754          49.000  
  22490774.023   118189813.812        2356.273          49.000  
 16  4  2 12 30 39.8000000  0  2G03G16
  25412054.523   133541246.965       -1603.590          49.000  
  22490729.250   118189578.469        2351.121          49.000  
 16  4  2 12 30 39.9000000  0  2G03G16
  25412085.070   133541407.512       -1607.633          49.000  
  22490684.547   118189343.559        2346.781          49.000  
 16  4  2 12 30 40.0000000  0  2G03G16
  25412115.695   133541568.473       -1611.699          49.000  
  22490639.930   118189109.082        2342.555          49.000  
 16  4  2 12 30 40.1000000  0  2G03G16
  25412146.398   133541729.832       -1615.746          48.000  
  22490595.391   118188875.035        2338.109          49.000  
 16  4  2 12 30 40.2000000  0  2G03G16
  25412177.180   133541891.594       -1619.855          49.000  
  22490550.930   118188641.410        2333.879          49.000  
 16  4  2 12 30 40.3000000  0  2G03G16
  25412208.055   133542053.824       -1624.496          49.000  
  22490506.570   118188408.297        2328.859          49.000  
 16  4  2 12 30 40.4000000  0  2G03G16
  25412239.008   133542216.492       -1628.918          49.000  
  22490462.297   118188175.641        2324.172          49.000  
 16  4  2 12 30 40.5000000  0  2G03G16
  25412270.055   133542379.586       -1633.277          49.000  
  22490418.109   118187943.426        2319.602          49.000  
 16  4  2 12 30 40.6000000  0  2G03G16
  25412301.156   133542543.047       -1636.781          49.000  
  22490373.992   118187711.613        2315.809          49.000  
 16  4  2 12 30 40.7000000  0  2G03G16
  25412332.344   133542706.906       -1640.762          48.000  
  22490329.961   118187480.230        2311.676          49.000  
 16  4  2 12 30 40.8000000  0  2G03G16
  25412363.602   133542871.176       -1644.711          48.000  
  22490286.008   118187249.281        2307.238          49.000  
 16  4  2 12 30 40.9000000  0  2G03G16
  25412394.977   133543035.977       -1650.340          48.000  
  22490242.164   118187018.883        2301.465          49.000  
 16  4  2 12 30 41.0000000  0  2G03G16
  25412426.406   133543201.176       -1654.242          48.000  
  22490198.406   118186788.922        2297.227          49.000  
 16  4  2 12 30 41.1000000  0  2G03G16
  25412457.914   133543366.734       -1657.754          48.000  
  22490154.719   118186559.336        2293.613          49.000  
 16  4  2 12 30 41.2000000  0  2G03G16
  25412489.492   133543532.691       -1661.574          49.000  
  22490111.109   118186330.188        2289.379          49.000  
 16  4  2 12 30 41.3000000  0  2G03G16
  25412521.148   133543699.102       -1666.121          48.000  
  22490067.594   118186101.512        2284.453          49.000  
 16  4  2 12 30 41.4000000  0  2G03G16
  25412552.898   133543865.965       -1670.906          48.000  
  22490024.172   118185873.309        2279.684          49.000  
 16  4  2 12 30 41.5000000  0  2G03G16
  25412584.734   133544033.254       -1675.004          48.000  
  22489980.836   118185645.578        2275.020          49.000  
 16  4  2 12 30 41.6000000  0  2G03G16
  25412616.641   133544200.918       -1678.676          48.000  
  22489937.562   118185418.242        2271.074          49.000  
 16  4  2 12 30 41.7000000  0  2G03G16
  25412648.641   133544369.051       -1683.621          48.000  
  22489894.398   118185191.387        2266.039          49.000  
 16  4  2 12 30 41.8000000  0  2G03G16
  25412680.719   133544537.656       -1688.074          48.000  
  22489851.312   118184965.031        2261.430          49.000  
 16  4  2 12 30 41.9000000  0  2G03G16
  25412712.867   133544706.602       -1691.730          48.000  
  22489808.312   118184739.059        2257.336          49.000  
 16  4  2 12 30 42.0000000  0  2G03G16
  25412745.102   133544876.004       -1696.039          48.000  
  22489765.398   118184513.566        2252.754          49.000  
 16  4  2 12 30 42.1000000  0  2G03G16
  25412777.422   133545045.789       -1700.250          49.000  
  22489722.562   118184288.477        2248.344          49.000  
 16  4  2 12 30 42.2000000  0  2G03G16
  25412809.805   133545215.977       -1703.773          48.000  
  22489679.820   118184063.832        2244.367          49.000  
 16  4  2 12 30 42.3000000  0  2G03G16
  25412842.273   133545386.613       -1708.414          49.000  
  22489637.164   118183839.645        2239.555          49.000  
 16  4  2 12 30 42.4000000  0  2G03G16
  25412874.828   133545557.688       -1712.984          48.000  
  22489594.594   118183615.941        2234.590          49.000  
 16  4  2 12 30 42.5000000  0  2G03G16
  25412907.461   133545729.207       -1717.320          48.000  
  22489552.109   118183392.699        2230.082          49.000  
 16  4  2 12 30 42.6000000  0  2G03G16
  25412940.180   133545901.141       -1721.527          49.000  
  22489509.719   118183169.887        2225.707          49.000  
 16  4  2 12 30 42.7000000  0  2G03G16
  25412972.969   133546073.500       -1725.668          49.000  
  22489467.406   118182947.535        2221.289          49.000  
 16  4  2 12 30 42.8000000  0  2G03G16
  25413005.852   133546246.289       -1729.938          48.000  
  22489425.180   118182725.645        2216.844          49.000  
 16  4  2 12 30 42.9000000  0  2G03G16
  25413038.812   133546419.414       -1733.387          48.000  
  22489383.023   118182504.117        2213.016          49.000  
 16  4  2 12 30 43.0000000  0  2G03G16
  25413071.852   133546593.020       -1738.234          49.000  
  22489340.969   118182283.094        2207.988          49.000  
 16  4  2 12 30 43.1000000  0  2G03G16
  25413104.953   133546767.039       -1742.395          49.000  
  22489298.992   118182062.516        2203.445          49.000  
 16  4  2 12 30 43.2000000  0  2G03G16
  25413138.141   133546941.461       -1746.348          48.000  
  22489257.109   118181842.367        2199.172          49.000  
 16  4  2 12 30 43.3000000  0  2G03G16
  25413171.422   133547116.320       -1750.863          48.000  
  22489215.305   118181622.676        2194.500          49.000  
 16  4  2 12 30 43.4000000  0  2G03G16
  25413204.781   133547291.633       -1755.270          48.000  
  22489173.586   118181403.473        2189.746          49.000  
 16  4  2 12 30 43.5000000  0  2G03G16
  25413238.211   133547467.387       -1759.570          49.000  
  22489131.961   118181184.734        2185.141          49.000  
 16  4  2 12 30 43.6000000  0  2G03G16
  25413271.734   133547643.535       -1763.730          49.000  
  22489090.422   118180966.422        2180.797          49.000  
 16  4  2 12 30 43.7000000  0  2G03G16
  25413305.336   133547820.105       -1767.898          48.000  
  22489048.961   118180748.555        2176.211          49.000  
 16  4  2 12 30 43.8000000  0  2G03G16
  25413339.008   133547997.086       -1771.863          48.000  
  22489007.578   118180531.121        2172.047          49.000  
 16  4  2 12 30 43.9000000  0  2G03G16
  25413372.773   133548174.492       -1776.219          48.000  
  22488966.289   118180314.137        2167.625          49.000  
 16  4  2 12 30 44.0000000  0  2G03G16
  25413406.625   133548352.398       -1781.316          48.000  
  22488925.094   118180097.688        2162.105          49.000  
 16  4  2 12 30 44.1000000  0  2G03G16
  25413440.562   133548530.660       -1784.805          48.000  
  22488883.984   118179881.625        2158.285          49.000  
 16  4  2 12 30 44.2000000  0  2G03G16
  25413474.562   133548709.312       -1788.578          48.000  
  22488842.961   118179665.973        2154.262          49.000  
 16  4  2 12 30 44.3000000  0  2G03G16
  25413508.633   133548888.367       -1792.664          48.000  
  22488802.008   118179450.758        2149.945          49.000  
 16  4  2 12 30 44.4000000  0  2G03G16
  25413542.797   133549067.898       -1797.207          48.000  
  22488761.148   118179236.031        2145.125          49.000  
 16  4  2 12 30 44.5000000  0  2G03G16
  25413577.031   133549247.809       -1801.523          48.000  
  22488720.367   118179021.723        2140.613          49.000  
 16  4  2 12 30 44.6000000  0  2G03G16
  25413611.359   133549428.203       -1806.051          48.000  
  22488679.680   118178807.926        2135.668          49.000  
 16  4  2 12 30 44.7000000  0  2G03G16
  25413645.758   133549608.961       -1809.723          48.000  
  22488639.070   118178594.512        2131.992          49.000  
 16  4  2 12 30 44.8000000  0  2G03G16
  25413680.227   133549790.121       -1813.797          48.000  
  22488598.555   118178381.535        2127.477          49.000  
 16  4  2 12 30 44.9000000  0  2G03G16
  25413714.797   133549971.754       -1818.598          48.000  
  22488558.125   118178169.062        2122.414          49.000  
 16  4  2 12 30 45.0000000  0  2G03G16
  25413749.430   133550153.742       -1821.859          48.000  
  22488517.766   118177956.969        2118.762          49.000  
 16  4  2 12 30 45.1000000  0  2G03G16
  25413784.156   133550336.211       -1826.879          48.000  
  22488477.500   118177745.371        2113.574          49.000  
 16  4  2 12 30 45.2000000  0  2G03G16
  25413818.961   133550519.105       -1831.129          48.000  
  22488437.328   118177534.242        2108.969          49.000  
 16  4  2 12 30 45.3000000  0  2G03G16
  25413853.828   133550702.383       -1834.852          48.000  
  22488397.227   118177323.520        2104.961          49.000  
 16  4  2 12 30 45.4000000  0  2G03G16
  25413888.781   133550886.043       -1838.426          48.000  
  22488357.203   118177113.199        2101.223          49.000  
 16  4  2 12 30 45.5000000  0  2G03G16
  25413923.820   133551070.160       -1843.246          49.000  
  22488317.273   118176903.367        2096.070          49.000  
 16  4  2 12 30 45.6000000  0  2G03G16
  25413958.930   133551254.656       -1847.047          49.000  
  22488277.422   118176693.949        2091.887          49.000  
 16  4  2 12 30 45.7000000  0  2G03G16
  25413994.125   133551439.602       -1851.512          49.000  
  22488237.656   118176485.000        2087.215          49.000  
 16  4  2 12 30 45.8000000  0  2G03G16
  25414029.391   133551624.941       -1855.531          49.000  
  22488197.977   118176276.469        2083.039          49.000  
 16  4  2 12 30 45.9000000  0  2G03G16
  25414064.742   133551810.707       -1859.852          48.000  
  22488158.383   118176068.395        2078.398          49.000  
 16  4  2 12 30 46.0000000  0  2G03G16
  25414100.172   133551996.887       -1863.992          48.000  
  22488118.867   118175860.766        2074.109          49.000  
 16  4  2 12 30 46.1000000  0  2G03G16
  25414135.672   133552183.473       -1868.031          49.000  
  22488079.438   118175653.566        2069.641          49.000  
 16  4  2 12 30 46.2000000  0  2G03G16
  25414171.266   133552370.520       -1872.520          49.000  
  22488040.094   118175446.855        2064.824          49.000  
 16  4  2 12 30 46.3000000  0  2G03G16
  25414206.930   133552557.953       -1876.555          48.000  
  22488000.836   118175240.566        2060.586          49.000  
 16  4  2 12 30 46.4000000  0  2G03G16
  25414242.680   133552745.809       -1880.664          48.000  
  22487961.672   118175034.719        2056.156          49.000  
 16  4  2 12 30 46.5000000  0  2G03G16
  25414278.508   133552934.090       -1885.031          48.000  
  22487922.586   118174829.328        2051.547          49.000  
 16  4  2 12 30 46.6000000  0  2G03G16
  25414314.406   133553122.773       -1888.855          48.000  
  22487883.586   118174624.355        2047.562          49.000  
 16  4  2 12 30 46.7000000  0  2G03G16
  25414350.383   133553311.832       -1892.699          48.000  
  22487844.664   118174419.805        2043.301          49.000  
 16  4  2 12 30 46.8000000  0  2G03G16
  25414386.453   133553501.363       -1897.391          48.000  
  22487805.844   118174215.734        2038.410          49.000  
 16  4  2 12 30 46.9000000  0  2G03G16
  25414422.609   133553691.328       -1901.879          49.000  
  22487767.102   118174012.141        2033.609          49.000  
 16  4  2 12 30 47.0000000  0  2G03G16
  25414458.828   133553881.668       -1905.441          48.000  
  22487728.445   118173808.945        2029.707          49.000  
 16  4  2 12 30 47.1000000  0  2G03G16
  25414495.117   133554072.418       -1909.633          48.000  
  22487689.859   118173606.188        2025.250          49.000  
 16  4  2 12 30 47.2000000  0  2G03G16
  25414531.508   133554263.668       -1914.590          48.000  
  22487651.383   118173403.949        2020.090          49.000  
 16  4  2 12 30 47.3000000  0  2G03G16
  25414567.984   133554455.336       -1918.906          49.000  
  22487612.984   118173202.156        2015.625          49.000  
 16  4  2 12 30 47.4000000  0  2G03G16
  25414604.531   133554647.398       -1922.836          48.000  
  22487574.672   118173000.797        2011.223          49.000  
 16  4  2 12 30 47.5000000  0  2G03G16
  25414641.164   133554839.848       -1926.664          49.000  
  22487536.438   118172799.852        2007.145          49.000  
 16  4  2 12 30 47.6000000  0  2G03G16
  25414677.875   133555032.781       -1931.508          49.000  
  22487498.297   118172599.410        2002.098          49.000  
 16  4  2 12 30 47.7000000  0  2G03G16
  25414714.680   133555226.129       -1935.816          49.000  
  22487460.234   118172399.418        1997.367          49.000  
 16  4  2 12 30 47.8000000  0  2G03G16
  25414751.562   133555419.938       -1939.914          49.000  
  22487422.273   118172199.898        1993.059          49.000  
 16  4  2 12 30 47.9000000  0  2G03G16
  25414788.523   133555614.137       -1944.254          48.000  
  22487384.391   118172000.816        1988.445          49.000  
 16  4  2 12 30 48.0000000  0  2G03G16
  25414825.570   133555808.793       -1948.750          49.000  
  22487346.594   118171802.211        1983.680          49.000  
 16  4  2 12 30 48.1000000  0  2G03G16
  25414862.688   133556003.852       -1952.613          49.000  
  22487308.875   118171604.023        1979.660          49.000  
 16  4  2 12 30 48.2000000  0  2G03G16
  25414899.875   133556199.246       -1955.977          49.000  
  22487271.234   118171406.219        1975.883          49.000  
 16  4  2 12 30 48.3000000  0  2G03G16
  25414937.141   133556395.102       -1960.508          48.000  
  22487233.680   118171208.895        1971.070          49.000  
 16  4  2 12 30 48.4000000  0  2G03G16
  25414974.477   133556591.289       -1963.910          48.000  
  22487196.203   118171011.930        1967.480          49.000  
 16  4  2 12 30 48.5000000  0  2G03G16
  25415011.898   133556787.961       -1968.758          48.000  
  22487158.820   118170815.473        1962.469          49.000  
 16  4  2 12 30 48.6000000  0  2G03G16
  25415049.391   133556985.004       -1972.715          48.000  
  22487121.516   118170619.422        1958.078          49.000  
 16  4  2 12 30 48.7000000  0  2G03G16
  25415086.984   133557182.562       -1977.789          48.000  
  22487084.312   118170423.910        1952.809          49.000  
 16  4  2 12 30 48.8000000  0  2G03G16
  25415124.641   133557380.441       -1980.984          48.000  
  22487047.172   118170228.746        1949.320          49.000  
 16  4  2 12 30 48.9000000  0  2G03G16
  25415162.375   133557578.762       -1985.230          48.000  
  22487010.125   118170034.055        1944.680          49.000  
 16  4  2 12 30 49.0000000  0  2G03G16
  25415200.195   133557777.543       -1989.816          48.000  
  22486973.164   118169839.855        1939.938          49.000  
 16  4  2 12 30 49.1000000  0  2G03G16
  25415238.117   133557976.723       -1994.164          48.000  
  22486936.281   118169646.062        1935.410          49.000  
 16  4  2 12 30 49.2000000  0  2G03G16
  25415276.086   133558176.277       -1997.902          48.000  
  22486899.500   118169452.699        1931.180          49.000  
 16  4  2 12 30 49.3000000  0  2G03G16
  25415314.148   133558376.301       -2002.277          48.000  
  22486862.789   118169259.812        1926.621          49.000  
 16  4  2 12 30 49.4000000  0  2G03G16
  25415352.297   133558576.773       -2007.098          48.000  
  22486826.180   118169067.414        1921.504          49.000  
 16  4  2 12 30 49.5000000  0  2G03G16
  25415390.531   133558777.641       -2010.871          48.000  
  22486789.641   118168875.434        1917.414          49.000  
 16  4  2 12 30 49.6000000  0  2G03G16
  25415428.844   133558978.941       -2015.113          48.000  
  22486753.195   118168683.914        1912.902          49.000  
 16  4  2 12 30 49.7000000  0  2G03G16
  25415467.219   133559180.660       -2019.363          48.000  
  22486716.836   118168492.840        1908.469          49.000  
 16  4  2 12 30 49.8000000  0  2G03G16
  25415505.680   133559382.762       -2023.180          48.000  
  22486680.555   118168302.176        1904.344          49.000  
 16  4  2 12 30 49.9000000  0  2G03G16
  25415544.219   133559585.293       -2027.195          48.000  
  22486644.359   118168111.961        1900.156          49.000  
 16  4  2 12 30 50.0000000  0  2G03G16
  25415582.836   133559788.227       -2031.555          48.000  
  22486608.250   118167922.195        1895.293          49.000  
 16  4  2 12 30 50.1000000  0  2G03G16
  25415621.547   133559991.652       -2036.375          48.000  
  22486572.234   118167732.941        1890.250          49.000  
 16  4  2 12 30 50.2000000  0  2G03G16
  25415660.328   133560195.414       -2039.816          48.000  
  22486536.281   118167544.047        1886.656          49.000  
 16  4  2 12 30 50.3000000  0  2G03G16
  25415699.188   133560399.621       -2044.109          48.000  
  22486500.430   118167355.629        1881.996          49.000  
 16  4  2 12 30 50.4000000  0  2G03G16
  25415738.117   133560604.227       -2048.121          48.000  
  22486464.656   118167167.641        1877.562          49.000  
 16  4  2 12 30 50.5000000  0  2G03G16
  25415777.133   133560809.238       -2052.156          48.000  
  22486428.961   118166980.090        1873.199          49.000  
 16  4  2 12 30 50.6000000  0  2G03G16
  25415816.227   133561014.680       -2056.609          48.000  
  22486393.359   118166792.977        1868.758          49.000  
 16  4  2 12 30 50.7000000  0  2G03G16
  25415855.406   133561220.551       -2060.797          49.000  
  22486357.844   118166606.336        1864.191          49.000  
 16  4  2 12 30 50.8000000  0  2G03G16
  25415894.664   133561426.832       -2064.984          48.000  
  22486322.414   118166420.137        1859.613          49.000  
 16  4  2 12 30 50.9000000  0  2G03G16
  25415934.008   133561633.531       -2069.066          49.000  
  22486287.062   118166234.367        1855.457          49.000  
 16  4  2 12 30 51.0000000  0  2G03G16
  25415973.414   133561840.633       -2073.125          49.000  
  22486251.797   118166049.039        1850.988          49.000  
 16  4  2 12 30 51.1000000  0  2G03G16
  25416012.883   133562048.098       -2076.715          49.000  
  22486216.602   118165864.105        1847.195          49.000  
 16  4  2 12 30 51.2000000  0  2G03G16
  25416052.453   133562256.031       -2081.344          49.000  
  22486181.500   118165679.664        1842.258          49.000  
 16  4  2 12 30 51.3000000  0  2G03G16
  25416092.102   133562464.348       -2085.203          49.000  
  22486146.484   118165495.637        1838.062          49.000  
 16  4  2 12 30 51.4000000  0  2G03G16
  25416131.805   133562673.016       -2088.809          49.000  
  22486111.547   118165311.984        1834.266          49.000  
 16  4  2 12 30 51.5000000  0  2G03G16
  25416171.617   133562882.195       -2093.770          49.000  
  22486076.695   118165128.867        1829.023          49.000  
 16  4  2 12 30 51.6000000  0  2G03G16
  25416211.500   133563091.785       -2098.000          49.000  
  22486041.938   118164946.203        1824.352          49.000  
 16  4  2 12 30 51.7000000  0  2G03G16
  25416251.469   133563301.812       -2102.508          49.000  
  22486007.266   118164763.992        1819.664          49.000  
 16  4  2 12 30 51.8000000  0  2G03G16
  25416291.516   133563512.234       -2106.457          49.000  
  22485972.688   118164582.211        1815.340          49.000  
 16  4  2 12 30 51.9000000  0  2G03G16
  25416331.641   133563723.109       -2110.750          49.000  
  22485938.180   118164400.898        1811.047          49.000  
 16  4  2 12 30 52.0000000  0  2G03G16
  25416371.836   133563934.336       -2114.512          49.000  
  22485903.750   118164219.980        1806.809          49.000  
 16  4  2 12 30 52.1000000  0  2G03G16
  25416412.117   133564146.035       -2118.984          48.000  
  22485869.414   118164039.551        1802.090          49.000  
 16  4  2 12 30 52.2000000  0  2G03G16
  25416452.477   133564358.129       -2123.133          48.000  
  22485835.172   118163859.547        1797.723          49.000  
 16  4  2 12 30 52.3000000  0  2G03G16
  25416492.898   133564570.582       -2126.523          48.000  
  22485800.992   118163679.941        1793.906          49.000  
 16  4  2 12 30 52.4000000  0  2G03G16
  25416533.406   133564783.449       -2130.746          48.000  
  22485766.898   118163500.754        1789.633          49.000  
 16  4  2 12 30 52.5000000  0  2G03G16
  25416574.000   133564996.801       -2135.551          49.000  
  22485732.898   118163322.098        1784.387          49.000  
 16  4  2 12 30 52.6000000  0  2G03G16
  25416614.680   133565210.562       -2139.836          49.000  
  22485698.984   118163143.879        1779.832          49.000  
 16  4  2 12 30 52.7000000  0  2G03G16
  25416655.445   133565424.758       -2144.051          48.000  
  22485665.156   118162966.125        1775.273          49.000  
 16  4  2 12 30 52.8000000  0  2G03G16
  25416696.273   133565639.340       -2147.941          49.000  
  22485631.406   118162788.766        1771.348          49.000  
 16  4  2 12 30 52.9000000  0  2G03G16
  25416737.180   133565854.293       -2151.652          48.000  
  22485597.742   118162611.840        1767.066          49.000  
 16  4  2 12 30 53.0000000  0  2G03G16
  25416778.172   133566069.695       -2156.098          49.000  
  22485564.156   118162435.367        1762.430          49.000  
 16  4  2 12 30 53.1000000  0  2G03G16
  25416819.234   133566285.531       -2160.277          49.000  
  22485530.664   118162259.359        1757.848          49.000  
 16  4  2 12 30 53.2000000  0  2G03G16
  25416860.375   133566501.762       -2164.504          49.000  
  22485497.258   118162083.773        1753.625          49.000  
 16  4  2 12 30 53.3000000  0  2G03G16
  25416901.617   133566718.457       -2169.023          49.000  
  22485463.938   118161908.688        1748.574          49.000  
 16  4  2 12 30 53.4000000  0  2G03G16
  25416942.930   133566935.547       -2173.004          49.000  
  22485430.703   118161734.012        1744.359          49.000  
 16  4  2 12 30 53.5000000  0  2G03G16
  25416984.312   133567153.066       -2177.137          49.000  
  22485397.555   118161559.797        1739.980          49.000  
 16  4  2 12 30 53.6000000  0  2G03G16
  25417025.781   133567370.992       -2181.434          49.000  
  22485364.484   118161386.023        1735.508          49.000  
 16  4  2 12 30 53.7000000  0  2G03G16
  25417067.344   133567589.383       -2186.051          49.000  
  22485331.508   118161212.738        1730.570          49.000  
 16  4  2 12 30 53.8000000  0  2G03G16
  25417108.984   133567808.199       -2190.395          48.000  
  22485298.609   118161039.891        1726.047          49.000  
 16  4  2 12 30 53.9000000  0  2G03G16
  25417150.688   133568027.352       -2193.566          49.000  
  22485265.789   118160867.441        1722.383          49.000  
 16  4  2 12 30 54.0000000  0  2G03G16
  25417192.461   133568246.883       -2197.352          49.000  
  22485233.055   118160695.391        1718.340          49.000  
 16  4  2 12 30 54.1000000  0  2G03G16
  25417234.328   133568466.902       -2202.219          49.000  
  22485200.406   118160523.840        1713.379          49.000  
 16  4  2 12 30 54.2000000  0  2G03G16
  25417276.266   133568687.312       -2206.379          48.000  
  22485167.844   118160352.723        1708.785          49.000  
 16  4  2 12 30 54.3000000  0  2G03G16
  25417318.297   133568908.164       -2210.637          48.000  
  22485135.367   118160182.070        1704.305          49.000  
 16  4  2 12 30 54.4000000  0  2G03G16
  25417360.391   133569129.383       -2214.461          48.000  
  22485102.969   118160011.812        1700.113          49.000  
 16  4  2 12 30 54.5000000  0  2G03G16
  25417402.586   133569351.086       -2219.336          49.000  
  22485070.664   118159842.066        1695.055          49.000  
 16  4  2 12 30 54.6000000  0  2G03G16
  25417444.844   133569573.180       -2222.805          49.000  
  22485038.445   118159672.730        1691.289          49.000  
 16  4  2 12 30 54.7000000  0  2G03G16
  25417487.188   133569795.668       -2227.133          49.000  
  22485006.305   118159503.832        1686.680          49.000  
 16  4  2 12 30 54.8000000  0  2G03G16
  25417529.609   133570018.598       -2231.180          49.000  
  22484974.250   118159335.402        1682.270          49.000  
 16  4  2 12 30 54.9000000  0  2G03G16
  25417572.094   133570241.891       -2234.953          49.000  
  22484942.273   118159167.355        1678.328          49.000  
 16  4  2 12 30 55.0000000  0  2G03G16
  25417614.656   133570465.586       -2238.988          49.000  
  22484910.391   118158999.746        1673.926          49.000  
 16  4  2 12 30 55.1000000  0  2G03G16
  25417657.305   133570689.695       -2243.105          49.000  
  22484878.578   118158832.574        1669.543          49.000  
 16  4  2 12 30 55.2000000  0  2G03G16
  25417700.031   133570914.238       -2247.457          49.000  
  22484846.852   118158665.867        1664.824          49.000  
 16  4  2 12 30 55.3000000  0  2G03G16
  25417742.828   133571139.195       -2251.840          49.000  
  22484815.219   118158499.602        1660.312          49.000  
 16  4  2 12 30 55.4000000  0  2G03G16
  25417785.734   133571364.637       -2256.734          49.000  
  22484783.680   118158333.848        1655.109          49.000  
 16  4  2 12 30 55.5000000  0  2G03G16
  25417828.688   133571590.414       -2259.867          49.000  
  22484752.211   118158168.465        1651.629          49.000  
 16  4  2 12 30 55.6000000  0  2G03G16
  25417871.727   133571816.566       -2263.418          49.000  
  22484720.812   118158003.480        1647.762          49.000  
 16  4  2 12 30 55.7000000  0  2G03G16
  25417914.852   133572043.203       -2268.484          49.000  
  22484689.516   118157839.004        1642.562          49.000  
 16  4  2 12 30 55.8000000  0  2G03G16
  25417958.047   133572270.203       -2272.156          49.000  
  22484658.312   118157674.930        1638.441          49.000  
 16  4  2 12 30 55.9000000  0  2G03G16
  25418001.328   133572497.684       -2277.027          48.000  
  22484627.188   118157511.359        1633.246          49.000  
 16  4  2 12 30 56.0000000  0  2G03G16
  25418044.703   133572725.590       -2280.941          49.000  
  22484596.148   118157348.238        1629.238          49.000  
 16  4  2 12 30 56.1000000  0  2G03G16
  25418088.125   133572953.809       -2284.531          48.000  
  22484565.172   118157185.457        1625.340          49.000  
 16  4  2 12 30 56.2000000  0  2G03G16
  25418131.648   133573182.492       -2288.695          48.000  
  22484534.289   118157023.180        1620.777          49.000  
 16  4  2 12 30 56.3000000  0  2G03G16
  25418175.227   133573411.586       -2293.020          48.000  
  22484503.492   118156861.336        1616.156          49.000  
 16  4  2 12 30 56.4000000  0  2G03G16
  25418218.891   133573641.051       -2296.781          48.000  
  22484472.773   118156699.887        1612.316          49.000  
 16  4  2 12 30 56.5000000  0  2G03G16
  25418262.648   133573870.988       -2301.523          48.000  
  22484442.148   118156538.945        1607.176          49.000  
 16  4  2 12 30 56.6000000  0  2G03G16
  25418306.484   133574101.359       -2305.855          48.000  
  22484411.609   118156378.465        1602.594          49.000  
 16  4  2 12 30 56.7000000  0  2G03G16
  25418350.391   133574332.047       -2308.867          48.000  
  22484381.133   118156218.324        1599.188          49.000  
 16  4  2 12 30 56.8000000  0  2G03G16
  25418394.367   133574563.141       -2312.941          48.000  
  22484350.758   118156058.621        1594.895          49.000  
 16  4  2 12 30 56.9000000  0  2G03G16
  25418438.422   133574794.668       -2317.238          48.000  
  22484320.453   118155899.387        1590.242          49.000  
 16  4  2 12 30 57.0000000  0  2G03G16
  25418482.578   133575026.703       -2322.418          48.000  
  22484290.242   118155740.676        1584.812          49.000  
 16  4  2 12 30 57.1000000  0  2G03G16
  25418526.805   133575259.078       -2326.125          48.000  
  22484260.109   118155582.340        1580.930          49.000  
 16  4  2 12 30 57.2000000  0  2G03G16
  25418571.102   133575491.887       -2330.102          48.000  
  22484230.070   118155424.465        1576.680          49.000  
 16  4  2 12 30 57.3000000  0  2G03G16
  25418615.469   133575725.051       -2333.719          48.000  
  22484200.102   118155266.988        1572.613          49.000  
 16  4  2 12 30 57.4000000  0  2G03G16
  25418659.922   133575958.660       -2338.203          48.000  
  22484170.219   118155109.973        1567.918          49.000  
 16  4  2 12 30 57.5000000  0  2G03G16
  25418704.453   133576192.676       -2342.090          48.000  
  22484140.422   118154953.383        1563.746          49.000  
 16  4  2 12 30 57.6000000  0  2G03G16
  25418749.062   133576427.074       -2346.168          48.000  
  22484110.711   118154797.215        1559.324          49.000  
 16  4  2 12 30 57.7000000  0  2G03G16
  25418793.742   133576661.930       -2350.723          48.000  
  22484081.086   118154641.527        1554.598          49.000  
 16  4  2 12 30 57.8000000  0  2G03G16
  25418838.516   133576897.219       -2355.035          48.000  
  22484051.539   118154486.309        1549.918          49.000  
 16  4  2 12 30 57.9000000  0  2G03G16
  25418883.359   133577132.859       -2358.570          48.000  
  22484022.070   118154331.480        1545.953          49.000  
 16  4  2 12 30 58.0000000  0  2G03G16
  25418928.281   133577368.949       -2362.820          48.000  
  22483992.695   118154177.098        1541.695          49.000  
 16  4  2 12 30 58.1000000  0  2G03G16
  25418973.297   133577605.449       -2367.117          48.000  
  22483963.406   118154023.176        1536.996          49.000  
 16  4  2 12 30 58.2000000  0  2G03G16
  25419018.359   133577842.293       -2370.488          48.000  
  22483934.195   118153869.637        1533.223          49.000  
 16  4  2 12 30 58.3000000  0  2G03G16
  25419063.508   133578079.559       -2374.730          48.000  
  22483905.055   118153716.527        1528.777          49.000  
 16  4  2 12 30 58.4000000  0  2G03G16
  25419108.742   133578317.277       -2379.293          48.000  
  22483876.023   118153563.906        1523.992          49.000  
 16  4  2 12 30 58.5000000  0  2G03G16
  25419154.070   133578555.434       -2383.680          48.000  
  22483847.070   118153411.762        1519.125          49.000  
 16  4  2 12 30 58.6000000  0  2G03G16
  25419199.453   133578793.953       -2387.309          48.000  
  22483818.188   118153259.984        1515.457          49.000  
 16  4  2 12 30 58.7000000  0  2G03G16
  25419244.930   133579032.867       -2391.090          48.000  
  22483789.391   118153108.656        1511.234          49.000  
 16  4  2 12 30 58.8000000  0  2G03G16
  25419290.461   133579272.152       -2394.828          48.000  
  22483760.664   118152957.715        1507.254          49.000  
 16  4  2 12 30 58.9000000  0  2G03G16
  25419336.086   133579511.930       -2399.973          49.000  
  22483732.039   118152807.289        1502.082          49.000  
 16  4  2 12 30 59.0000000  0  2G03G16
  25419381.797   133579752.113       -2404.047          48.000  
  22483703.500   118152657.312        1497.469          49.000  
 16  4  2 12 30 59.1000000  0  2G03G16
  25419427.555   133579992.602       -2406.906          48.000  
  22483675.023   118152507.668        1494.160          49.000  
 16  4  2 12 30 59.2000000  0  2G03G16
  25419473.414   133580233.594       -2411.969          48.000  
  22483646.648   118152358.539        1488.949          49.000  
 16  4  2 12 30 59.3000000  0  2G03G16
  25419519.352   133580474.992       -2415.988          48.000  
  22483618.359   118152209.871        1484.621          49.000  
 16  4  2 12 30 59.4000000  0  2G03G16
  25419565.352   133580716.703       -2419.219          48.000  
  22483590.125   118152061.520        1481.277          49.000  
 16  4  2 12 30 59.5000000  0  2G03G16
  25419611.438   133580958.840       -2423.414          48.000  
  22483561.984   118151913.633        1476.656          49.000  
 16  4  2 12 30 59.6000000  0  2G03G16
  25419657.602   133581201.430       -2428.000          48.000  
  22483533.930   118151766.230        1471.926          49.000  
 16  4  2 12 30 59.7000000  0  2G03G16
  25419703.836   133581444.430       -2432.051          48.000  
  22483505.961   118151619.270        1467.402          49.000  
 16  4  2 12 30 59.8000000  0  2G03G16
  25419750.156   133581687.828       -2436.199          48.000  
  22483478.078   118151472.738        1462.910          49.000  
 16  4  2 12 30 59.9000000  0  2G03G16
  25419796.555   133581931.625       -2440.027          48.000  
  22483450.273   118151326.629        1458.926          49.000  
 16  4  2 12 31  0.0000000  0  2G03G16
  25419843.031   133582175.891       -2444.891          48.000  
  22483422.570   118151181.012        1453.719          49.000  
 16  4  2 12 31  0.1000000  0  2G03G16
  25419889.602   133582420.590       -2449.145          48.000  
  22483394.945   118151035.855        1449.316          49.000  
 16  4  2 12 31  0.2000000  0  2G03G16
  25419936.227   133582665.605       -2452.348          48.000  
  22483367.391   118150891.059        1445.672          49.000  
 16  4  2 12 31  0.3000000  0  2G03G16
  25419982.938   133582911.137       -2457.477          48.000  
  22483339.938   118150746.793        1440.258          49.000  
 16  4  2 12 31  0.4000000  0  2G03G16
  25420029.742   133583157.098       -2461.824          48.000  
  22483312.578   118150602.992        1435.684          49.000  
 16  4  2 12 31  0.5000000  0  2G03G16
  25420076.633   133583403.453       -2465.703          48.000  
  22483285.289   118150459.602        1431.609          49.000  
 16  4  2 12 31  0.6000000  0  2G03G16
  25420123.586   133583650.215       -2469.781          49.000  
  22483258.086   118150316.664        1427.168          49.000  
 16  4  2 12 31  0.7000000  0  2G03G16
  25420170.625   133583897.414       -2474.086          49.000  
  22483230.977   118150174.191        1422.496          49.000  
 16  4  2 12 31  0.8000000  0  2G03G16
  25420217.742   133584144.992       -2477.684          48.000  
  22483203.930   118150032.113        1418.703          49.000  
 16  4  2 12 31  0.9000000  0  2G03G16
  25420264.922   133584392.957       -2481.836          49.000  
  22483176.977   118149890.469        1414.168          49.000  
 16  4  2 12 31  1.0000000  0  2G03G16
  25420312.172   133584641.262       -2484.973          49.000  
  22483150.086   118149749.172        1410.785          49.000  
 16  4  2 12 31  1.1000000  0  1G16
  22483123.289   118149608.371        1405.828          49.000  
 16  4  2 12 31  1.2000000  0  1G16
  22483096.578   118149467.973        1401.641          49.000  
 16  4  2 12 31  1.3000000  0  1G16
  22483069.938   118149327.992        1397.551          49.000  
 16  4  2 12 31  1.4000000  0  1G16
  22483043.391   118149188.457        1393.094          49.000  
 16  4  2 12 31  1.5000000  0  1G16
  22483016.922   118149049.371        1388.887          49.000  
 16  4  2 12 31  1.6000000  0  1G16
  22482990.555   118148910.793        1383.137          49.000  
 16  4  2 12 31  1.7000000  0  1G16
  22482964.258   118148772.605        1379.641          49.000  
 16  4  2 12 31  1.8000000  0  1G16
  22482938.047   118148634.805        1375.738          49.000  
 16  4  2 12 31  1.9000000  0  1G16
  22482911.922   118148497.527        1370.500          49.000  
 16  4  2 12 31  2.0000000  0  1G16
  22482885.883   118148360.703        1365.660          49.000  
 16  4  2 12 31  2.1000000  0  1G16
  22482859.922   118148224.305        1361.770          49.000  
 16  4  2 12 31  2.2000000  0  1G16
  22482834.047   118148088.344        1357.367          49.000  
 16  4  2 12 31  2.3000000  0  1G16
  22482808.258   118147952.824        1352.949          49.000  
 16  4  2 12 31  2.4000000  0  1G16
  22482782.555   118147817.730        1348.551          49.000  
 16  4  2 12 31  2.5000000  0  1G16
  22482756.930   118147683.066        1344.480          49.000  
 16  4  2 12 31  2.6000000  0  1G16
  22482731.383   118147548.812        1340.281          49.000  
 16  4  2 12 31  2.7000000  0  1G16
  22482705.922   118147415.027        1335.648          49.000  
 16  4  2 12 31  2.8000000  0  1G16
  22482680.547   118147281.691        1331.133          49.000  
 16  4  2 12 31  2.9000000  0  1G16
  22482655.250   118147148.766        1326.926          49.000  
 16  4  2 12 31  3.0000000  0  1G16
  22482630.031   118147016.246        1323.062          49.000  
 16  4  2 12 31  3.1000000  0  1G16
  22482604.906   118146884.215        1317.969          49.000  
 16  4  2 12 31  3.2000000  0  1G16
  22482579.875   118146752.637        1313.523          49.000  
 16  4  2 12 31  3.3000000  0  1G16
  22482554.922   118146621.531        1308.789          49.000  
 16  4  2 12 31  3.4000000  0  1G16
  22482530.047   118146490.785        1305.352          49.000  
 16  4  2 12 31  3.5000000  0  1G16
  22482505.258   118146360.520        1300.703          49.000  
 16  4  2 12 31  3.6000000  0  1G16
  22482480.547   118146230.660        1296.309          49.000  
 16  4  2 12 31  3.7000000  0  1G16
  22482455.930   118146101.328        1290.945          49.000  
 16  4  2 12 31  3.8000000  0  1G16
  22482431.398   118145972.383        1287.242          49.000  
 16  4  2 12 31  3.9000000  0  1G16
  22482406.945   118145843.887        1282.562          49.000  
 16  4  2 12 31  4.0000000  0  1G16
  22482382.570   118145715.797        1278.797          49.000  
 16  4  2 12 31  4.1000000  0  1G16
  22482358.266   118145588.086        1274.961          49.000  
 16  4  2 12 31  4.2000000  0  1G16
  22482334.062   118145460.867        1270.098          49.000  
 16  4  2 12 31  4.3000000  0  1G16
  22482309.938   118145334.090        1265.363          49.000  
 16  4  2 12 31  4.4000000  0  1G16
  22482285.906   118145207.777        1260.883          49.000  
 16  4  2 12 31  4.5000000  0  1G16
  22482261.953   118145081.883        1256.672          49.000  
 16  4  2 12 31  4.6000000  0  1G16
  22482238.070   118144956.410        1252.445          49.000  
 16  4  2 12 31  4.7000000  0  1G16
  22482214.289   118144831.426        1247.676          49.000  
 16  4  2 12 31  4.8000000  0  1G16
  22482190.586   118144706.898        1243.113          49.000  
 16  4  2 12 31  4.9000000  0  1G16
  22482166.953   118144582.730        1239.559          49.000  
 16  4  2 12 31  5.0000000  0  1G16
  22482143.422   118144459.059        1234.574          49.000  
 16  4  2 12 31  5.1000000  0  1G16
  22482119.969   118144335.781        1230.547          49.000  
 16  4  2 12 31  5.2000000  0  1G16
  22482096.609   118144213.023        1225.332          49.000  
 16  4  2 12 31  5.3000000  0  1G16
  22482073.320   118144090.645        1221.324          49.000  
 16  4  2 12 31  5.4000000  0  1G16
  22482050.102   118143968.641        1217.965          49.000  
 16  4  2 12 31  5.5000000  0  1G16
  22482026.977   118143847.121        1212.977          49.000  
 16  4  2 12 31  5.6000000  0  1G16
  22482003.945   118143726.082        1208.336          49.000  
 16  4  2 12 31  5.7000000  0  1G16
  22481980.992   118143605.457        1203.934          49.000  
 16  4  2 12 31  5.8000000  0  1G16
  22481958.109   118143485.211        1200.293          49.000  
 16  4  2 12 31  5.9000000  0  1G16
  22481935.328   118143365.508        1194.777          49.000  
 16  4  2 12 31  6.0000000  0  1G16
  22481912.633   118143246.211        1190.570          49.000  
 16  4  2 12 31  6.1000000  0  1G16
  22481890.008   118143127.340        1186.391          49.000  
 16  4  2 12 31  6.2000000  0  1G16
  22481867.492   118143008.941        1181.793          49.000  
 16  4  2 12 31  6.3000000  0  1G16
  22481845.031   118142890.910        1178.164          49.000  
 16  4  2 12 31  6.4000000  0  1G16
  22481822.641   118142773.309        1174.012          49.000  
 16  4  2 12 31  6.5000000  0  1G16
  22481800.344   118142656.133        1169.633          49.000  
 16  4  2 12 31  6.6000000  0  1G16
  22481778.133   118142539.434        1164.715          49.000  
 16  4  2 12 31  6.7000000  0  1G16
  22481756.008   118142423.156        1160.367          49.000  
 16  4  2 12 31  6.8000000  0  1G16
  22481733.969   118142307.344        1156.055          49.000  
 16  4  2 12 31  6.9000000  0  1G16
  22481712.008   118142191.938        1151.695          49.000  
 16  4  2 12 31  7.0000000  0  1G16
  22481690.141   118142077.000        1147.316          49.000  
 16  4  2 12 31  7.1000000  0  1G16
  22481668.344   118141962.480        1142.996          49.000  
 16  4  2 12 31  7.2000000  0  1G16
  22481646.633   118141848.438        1138.027          49.000  
 16  4  2 12 31  7.3000000  0  1G16
  22481625.000   118141734.758        1134.484          49.000  
 16  4  2 12 31  7.4000000  0  1G16
  22481603.469   118141621.637        1128.785          49.000  
 16  4  2 12 31  7.5000000  0  1G16
  22481582.023   118141508.965        1124.516          49.000  
 16  4  2 12 31  7.6000000  0  1G16
  22481560.648   118141396.645        1120.887          49.000  
 16  4  2 12 31  7.7000000  0  1G16
  22481539.367   118141284.793        1116.730          49.000  
 16  4  2 12 31  7.8000000  0  1G16
  22481518.156   118141173.359        1111.957          49.000  
 16  4  2 12 31  7.9000000  0  1G16
  22481497.039   118141062.383        1107.527          49.000  
 16  4  2 12 31  8.0000000  0  1G16
  22481476.008   118140951.844        1103.355          49.000  
 16  4  2 12 31  8.1000000  0  1G16
  22481455.055   118140841.746        1098.574          49.000  
 16  4  2 12 31  8.2000000  0  1G16
  22481434.195   118140732.094        1094.281          49.000  
 16  4  2 12 31  8.3000000  0  1G16
  22481413.414   118140622.871        1089.953          49.000  
 16  4  2 12 31  8.4000000  0  1G16
  22481392.703   118140514.074        1085.793          49.000  
 16  4  2 12 31  8.5000000  0  1G16
  22481372.094   118140405.773        1080.777          49.000  
 16  4  2 12 31  8.6000000  0  1G16
  22481351.562   118140297.863        1076.895          49.000  
 16  4  2 12 31  8.7000000  0  1G16
  22481331.109   118140190.383        1072.551          49.000  
 16  4  2 12 31  8.8000000  0  1G16
  22481310.734   118140083.309        1068.574          49.000  
 16  4  2 12 31  8.9000000  0  1G16
  22481290.453   118139976.711        1063.613          49.000  
 16  4  2 12 31  9.0000000  0  1G16
  22481270.258   118139870.566        1059.258          49.000  
 16  4  2 12 31  9.1000000  0  1G16
  22481250.133   118139764.824        1055.062          49.000  
 16  4  2 12 31  9.2000000  0  1G16
  22481230.094   118139659.547        1050.496          49.000  
 16  4  2 12 31  9.3000000  0  1G16
  22481210.148   118139554.723        1045.891          49.000  
 16  4  2 12 31  9.4000000  0  1G16
  22481190.281   118139450.324        1041.656          49.000  
 16  4  2 12 31  9.5000000  0  1G16
  22481170.492   118139346.355        1037.383          49.000  
 16  4  2 12 31  9.6000000  0  1G16
  22481150.805   118139242.883        1032.535          49.000  
 16  4  2 12 31  9.7000000  0  1G16
  22481131.188   118139139.816        1028.301          49.000  
 16  4  2 12 31  9.8000000  0  1G16
  22481111.664   118139037.207        1023.840          49.000  
 16  4  2 12 31  9.9000000  0  1G16
  22481092.211   118138934.977        1020.070          49.000  
 16  4  2 12 31 10.0000000  0  1G16
  22481072.852   118138833.195        1015.445          49.000  
 16  4  2 12 31 10.1000000  0  1G16
  22481053.570   118138731.871        1011.051          49.000  
 16  4  2 12 31 10.2000000  0  1G16
  22481034.383   118138631.062        1005.785          49.000  
 16  4  2 12 31 10.3000000  0  1G16
  22481015.273   118138530.633        1001.941          49.000  
 16  4  2 12 31 10.4000000  0  1G16
  22480996.250   118138430.688         997.137          49.000  
 16  4  2 12 31 10.5000000  0  1G16
  22480977.305   118138331.148         993.203          49.000  
 16  4  2 12 31 10.6000000  0  1G16
  22480958.445   118138232.055         988.660          49.000  
 16  4  2 12 31 10.7000000  0  1G16
  22480939.680   118138133.422         984.156          49.000  
 16  4  2 12 31 10.8000000  0  1G16
  22480920.984   118138035.184         980.250          49.000  
 16  4  2 12 31 10.9000000  0  1G16
  22480902.359   118137937.316         976.559          49.000  
 16  4  2 12 31 11.0000000  0  1G16
  22480883.828   118137839.938         971.844          49.000  
 16  4  2 12 31 11.1000000  0  1G16
  22480865.367   118137742.938         967.750          49.000  
 16  4  2 12 31 11.2000000  0  1G16
  22480847.008   118137646.426         963.094          49.000  
 16  4  2 12 31 11.3000000  0  1G16
  22480828.719   118137550.320         958.715          49.000  
 16  4  2 12 31 11.4000000  0  1G16
  22480810.523   118137454.727         953.500          49.000  
 16  4  2 12 31 11.5000000  0  1G16
  22480792.414   118137359.543         949.555          49.000  
 16  4  2 12 31 11.6000000  0  1G16
  22480774.391   118137264.871         944.387          49.000  
 16  4  2 12 31 11.7000000  0  1G16
  22480756.453   118137170.598         940.535          49.000  
 16  4  2 12 31 11.8000000  0  1G16
  22480738.602   118137076.797         935.648          49.000  
 16  4  2 12 31 11.9000000  0  1G16
  22480720.828   118136983.398         931.750          49.000  
 16  4  2 12 31 12.0000000  0  1G16
  22480703.133   118136890.418         927.465          49.000  
 16  4  2 12 31 12.1000000  0  1G16
  22480685.531   118136797.938         922.691          49.000  
 16  4  2 12 31 12.2000000  0  1G16
  22480668.016   118136705.855         918.348          49.000  
 16  4  2 12 31 12.3000000  0  1G16
  22480650.562   118136614.176         914.633          49.000  
 16  4  2 12 31 12.4000000  0  1G16
  22480633.211   118136522.980         909.637          49.000  
 16  4  2 12 31 12.5000000  0  1G16
  22480615.945   118136432.270         904.910          49.000  
 16  4  2 12 31 12.6000000  0  1G16
  22480598.750   118136341.891         901.547          49.000  
 16  4  2 12 31 12.7000000  0  1G16
  22480581.641   118136251.961         897.059          49.000  
 16  4  2 12 31 12.8000000  0  1G16
  22480564.617   118136162.516         892.340          49.000  
 16  4  2 12 31 12.9000000  0  1G16
  22480547.672   118136073.473         888.297          49.000  
 16  4  2 12 31 13.0000000  0  1G16
  22480530.812   118135984.867         883.711          49.000  
 16  4  2 12 31 13.1000000  0  1G16
  22480514.039   118135896.750         878.871          49.000  
 16  4  2 12 31 13.2000000  0  1G16
  22480497.352   118135809.070         874.582          49.000  
 16  4  2 12 31 13.3000000  0  1G16
  22480480.742   118135721.797         870.445          49.000  
 16  4  2 12 31 13.4000000  0  1G16
  22480464.219   118135634.973         866.188          49.000  
 16  4  2 12 31 13.5000000  0  1G16
  22480447.781   118135548.586         861.418          49.000  
 16  4  2 12 31 13.6000000  0  1G16
  22480431.438   118135462.707         856.363          49.000  
 16  4  2 12 31 13.7000000  0  1G16
  22480415.180   118135377.262         852.176          49.000  
 16  4  2 12 31 13.8000000  0  1G16
  22480399.000   118135292.219         848.199          49.000  
 16  4  2 12 31 13.9000000  0  1G16
  22480382.891   118135207.590         844.152          49.000  
 16  4  2 12 31 14.0000000  0  1G16
  22480366.867   118135123.387         839.957          49.000  
 16  4  2 12 31 14.1000000  0  1G16
  22480350.930   118135039.641         835.234          49.000  
 16  4  2 12 31 14.2000000  0  1G16
  22480335.086   118134956.352         830.613          49.000  
 16  4  2 12 31 14.3000000  0  1G16
  22480319.320   118134873.523         825.934          49.000  
 16  4  2 12 31 14.4000000  0  1G16
  22480303.648   118134791.156         821.508          49.000  
 16  4  2 12 31 14.5000000  0  1G16
  22480288.039   118134709.129         817.996          49.000  
 16  4  2 12 31 14.6000000  0  1G16
  22480272.531   118134627.602         813.020          49.000  
 16  4  2 12 31 14.7000000  0  1G16
  22480257.094   118134546.504         808.652          49.000  
 16  4  2 12 31 14.8000000  0  1G16
  22480241.750   118134465.828         804.629          49.000  
 16  4  2 12 31 14.9000000  0  1G16
  22480226.477   118134385.590         800.168          49.000  
 16  4  2 12 31 15.0000000  0  1G16
  22480211.297   118134305.793         795.754          49.000  
 16  4  2 12 31 15.1000000  0  1G16
  22480196.188   118134226.418         791.500          49.000  
 16  4  2 12 31 15.2000000  0  1G16
  22480181.180   118134147.543         786.441          49.000  
 16  4  2 12 31 15.3000000  0  1G16
  22480166.242   118134069.082         782.238          49.000  
 16  4  2 12 31 15.4000000  0  1G16
  22480151.406   118133991.082         777.680          49.000  
 16  4  2 12 31 15.5000000  0  1G16
  22480136.641   118133913.484         773.812          49.000  
 16  4  2 12 31 15.6000000  0  1G16
  22480121.961   118133836.328         769.340          49.000  
 16  4  2 12 31 15.7000000  0  1G16
  22480107.359   118133759.621         764.828          49.000  
 16  4  2 12 31 15.8000000  0  1G16
  22480092.844   118133683.336         760.660          49.000  
 16  4  2 12 31 15.9000000  0  1G16
  22480078.398   118133607.426         756.641          49.000  
 16  4  2 12 31 16.0000000  0  1G16
  22480064.070   118133532.113         751.172          49.000  
 16  4  2 12 31 16.1000000  0  1G16
  22480049.797   118133457.102         747.809          49.000  
 16  4  2 12 31 16.2000000  0  1G16
  22480035.602   118133382.508         743.793          49.000  
 16  4  2 12 31 16.3000000  0  1G16
  22480021.500   118133308.395         739.086          49.000  
 16  4  2 12 31 16.4000000  0  1G16
  22480007.469   118133234.672         734.848          49.000  
 16  4  2 12 31 16.5000000  0  1G16
  22479993.539   118133161.469         729.828          49.000  
 16  4  2 12 31 16.6000000  0  1G16
  22479979.688   118133088.684         725.680          49.000  
 16  4  2 12 31 16.7000000  0  1G16
  22479965.914   118133016.281         721.719          49.000  
 16  4  2 12 31 16.8000000  0  1G16
  22479952.227   118132944.367         716.945          49.000  
 16  4  2 12 31 16.9000000  0  1G16
  22479938.617   118132872.832         713.141          49.000  
 16  4  2 12 31 17.0000000  0  1G16
  22479925.086   118132801.746         708.773          49.000  
 16  4  2 12 31 17.1000000  0  1G16
  22479911.648   118132731.137         703.773          49.000  
 16  4  2 12 31 17.2000000  0  1G16
  22479898.297   118132660.977         699.480          49.000  
 16  4  2 12 31 17.3000000  0  1G16
  22479885.023   118132591.215         695.316          49.000  
 16  4  2 12 31 17.4000000  0  1G16
  22479871.828   118132521.887         690.988          49.000  
 16  4  2 12 31 17.5000000  0  1G16
  22479858.727   118132453.051         686.043          49.000  
 16  4  2 12 31 17.6000000  0  1G16
  22479845.719   118132384.672         681.527          49.000  
 16  4  2 12 31 17.7000000  0  1G16
  22479832.797   118132316.781         676.461          49.000  
 16  4  2 12 31 17.8000000  0  1G16
  22479819.969   118132249.348         671.949          49.000  
 16  4  2 12 31 17.9000000  0  1G16
  22479807.203   118132182.297         668.363          49.000  
 16  4  2 12 31 18.0000000  0  1G16
  22479794.516   118132115.652         664.289          49.000  
 16  4  2 12 31 18.1000000  0  1G16
  22479781.922   118132049.449         659.930          49.000  
 16  4  2 12 31 18.2000000  0  1G16
  22479769.406   118131983.707         655.305          49.000  
 16  4  2 12 31 18.3000000  0  1G16
  22479756.961   118131918.309         651.820          49.000  
 16  4  2 12 31 18.4000000  0  1G16
  22479744.609   118131853.355         647.453          49.000  
 16  4  2 12 31 18.5000000  0  1G16
  22479732.328   118131788.848         642.820          49.000  
 16  4  2 12 31 18.6000000  0  1G16
  22479720.148   118131724.797         638.301          49.000  
 16  4  2 12 31 18.7000000  0  1G16
  22479708.055   118131661.238         633.266          49.000  
 16  4  2 12 31 18.8000000  0  1G16
  22479696.039   118131598.086         629.363          49.000  
 16  4  2 12 31 18.9000000  0  1G16
  22479684.102   118131535.367         624.871          49.000  
 16  4  2 12 31 19.0000000  0  1G16
  22479672.258   118131473.102         620.414          49.000  
 16  4  2 12 31 19.1000000  0  1G16
  22479660.492   118131411.258         616.152          49.000  
 16  4  2 12 31 19.2000000  0  1G16
  22479648.805   118131349.867         611.680          49.000  
 16  4  2 12 31 19.3000000  0  1G16
  22479637.203   118131288.891         607.621          49.000  
 16  4  2 12 31 19.4000000  0  1G16
  22479625.688   118131228.363         602.820          49.000  
 16  4  2 12 31 19.5000000  0  1G16
  22479614.250   118131168.254         599.035          49.000  
 16  4  2 12 31 19.6000000  0  1G16
  22479602.891   118131108.562         594.773          49.000  
 16  4  2 12 31 19.7000000  0  1G16
  22479591.617   118131049.340         589.957          49.000  
 16  4  2 12 31 19.8000000  0  1G16
  22479580.438   118130990.617         584.934          49.000  
 16  4  2 12 31 19.9000000  0  1G16
  22479569.336   118130932.285         580.867          49.000  
 16  4  2 12 31 20.0000000  0  1G16
  22479558.320   118130874.414         576.484          49.000  
 16  4  2 12 31 20.1000000  0  1G16
  22479547.383   118130816.953         572.414          49.000  
 16  4  2 12 31 20.2000000  0  1G16
  22479536.531   118130759.922         568.141          49.000  
 16  4  2 12 31 20.3000000  0  1G16
  22479525.766   118130703.336         563.410          49.000  
 16  4  2 12 31 20.4000000  0  1G16
  22479515.086   118130647.211         559.004          49.000  
 16  4  2 12 31 20.5000000  0  1G16
  22479504.484   118130591.527         554.578          49.000  
 16  4  2 12 31 20.6000000  0  1G16
  22479493.961   118130536.246         550.535          49.000  
 16  4  2 12 31 20.7000000  0  1G16
  22479483.539   118130481.469         545.609          49.000  
 16  4  2 12 31 20.8000000  0  1G16
  22479473.188   118130427.035         542.270          49.000  
 16  4  2 12 31 20.9000000  0  1G16
  22479462.922   118130373.094         537.250          49.000  
 16  4  2 12 31 21.0000000  0  1G16
  22479452.734   118130319.578         533.102          49.000  
 16  4  2 12 31 21.1000000  0  1G16
  22479442.625   118130266.430         529.078          49.000  
 16  4  2 12 31 21.2000000  0  1G16
  22479432.586   118130213.711         525.035          49.000  
 16  4  2 12 31 21.3000000  0  1G16
  22479422.641   118130161.445         520.562          49.000  
 16  4  2 12 31 21.4000000  0  1G16
  22479412.781   118130109.621         515.891          49.000  
 16  4  2 12 31 21.5000000  0  1G16
  22479403.000   118130058.242         511.469          49.000  
 16  4  2 12 31 21.6000000  0  1G16
  22479393.305   118130007.266         507.332          49.000  
 16  4  2 12 31 21.7000000  0  1G16
  22479383.711   118129956.828         502.078          49.000  
 16  4  2 12 31 21.8000000  0  1G16
  22479374.195   118129906.785         498.184          49.000  
 16  4  2 12 31 21.9000000  0  1G16
  22479364.750   118129857.156         494.074          49.000  
 16  4  2 12 31 22.0000000  0  1G16
  22479355.398   118129807.996         489.547          49.000  
 16  4  2 12 31 22.1000000  0  1G16
  22479346.117   118129759.227         485.488          49.000  
 16  4  2 12 31 22.2000000  0  1G16
  22479336.914   118129710.875         481.410          49.000  
 16  4  2 12 31 22.3000000  0  1G16
  22479327.797   118129662.945         477.133          49.000  
 16  4  2 12 31 22.4000000  0  1G16
  22479318.773   118129615.535         471.578          49.000  
 16  4  2 12 31 22.5000000  0  1G16
  22479309.836   118129568.551         467.480          49.000  
 16  4  2 12 31 22.6000000  0  1G16
  22479300.984   118129522.031         462.906          49.000  
 16  4  2 12 31 22.7000000  0  1G16
  22479292.219   118129475.996         458.027          49.000  
 16  4  2 12 31 22.8000000  0  1G16
  22479283.531   118129430.312         454.555          49.000  
 16  4  2 12 31 22.9000000  0  1G16
  22479274.922   118129385.102         450.016          49.000  
 16  4  2 12 31 23.0000000  0  1G16
  22479266.414   118129340.383         444.953          49.000  
 16  4  2 12 31 23.1000000  0  1G16
  22479257.992   118129296.102         440.562          49.000  
 16  4  2 12 31 23.2000000  0  1G16
  22479249.633   118129252.184         436.863          49.000  
 16  4  2 12 31 23.3000000  0  1G16
  22479241.352   118129208.680         432.918          49.000  
 16  4  2 12 31 23.4000000  0  1G16
  22479233.164   118129165.637         428.367          49.000  
 16  4  2 12 31 23.5000000  0  1G16
  22479225.055   118129122.996         423.984          49.000  
 16  4  2 12 31 23.6000000  0  1G16
  22479217.039   118129080.852         418.957          49.000  
 16  4  2 12 31 23.7000000  0  1G16
  22479209.102   118129039.160         414.727          49.000  
 16  4  2 12 31 23.8000000  0  1G16
  22479201.250   118128997.891         410.516          49.000  
 16  4  2 12 31 23.9000000  0  1G16
  22479193.477   118128957.070         406.012          49.000  
 16  4  2 12 31 24.0000000  0  1G16
  22479185.797   118128916.699         401.543          49.000  
 16  4  2 12 31 24.1000000  0  1G16
  22479178.188   118128876.711         397.570          49.000  
 16  4  2 12 31 24.2000000  0  1G16
  22479170.672   118128837.246         392.520          49.000  
 16  4  2 12 31 24.3000000  0  1G16
  22479163.227   118128798.125         389.023          49.000  
 16  4  2 12 31 24.4000000  0  1G16
  22479155.859   118128759.410         384.969          49.000  
 16  4  2 12 31 24.5000000  0  1G16
  22479148.586   118128721.195         380.020          49.000  
 16  4  2 12 31 24.6000000  0  1G16
  22479141.391   118128683.410         375.625          49.000  
 16  4  2 12 31 24.7000000  0  1G16
  22479134.281   118128646.055         371.363          49.000  
 16  4  2 12 31 24.8000000  0  1G16
  22479127.258   118128609.141         366.668          49.000  
 16  4  2 12 31 24.9000000  0  1G16
  22479120.312   118128572.656         362.711          49.000  
 16  4  2 12 31 25.0000000  0  1G16
  22479113.461   118128536.617         358.230          49.000  
 16  4  2 12 31 25.1000000  0  1G16
  22479106.680   118128500.988         354.086          49.000  
 16  4  2 12 31 25.2000000  0  1G16
  22479099.992   118128465.812         349.637          49.000  
 16  4  2 12 31 25.3000000  0  1G16
  22479093.375   118128431.055         345.207          49.000  
 16  4  2 12 31 25.4000000  0  1G16
  22479086.844   118128396.719         341.352          49.000  
 16  4  2 12 31 25.5000000  0  1G16
  22479080.391   118128362.828         336.664          49.000  
 16  4  2 12 31 25.6000000  0  1G16
  22479074.031   118128329.410         332.086          49.000  
 16  4  2 12 31 25.7000000  0  1G16
  22479067.750   118128296.383         327.879          49.000  
 16  4  2 12 31 25.8000000  0  1G16
  22479061.562   118128263.852         323.219          49.000  
 16  4  2 12 31 25.9000000  0  1G16
  22479055.453   118128231.754         318.523          49.000  
 16  4  2 12 31 26.0000000  0  1G16
  22479049.438   118128200.113         314.199          49.000  
 16  4  2 12 31 26.1000000  0  1G16
  22479043.500   118128168.922         309.652          49.000  
 16  4  2 12 31 26.2000000  0  1G16
  22479037.641   118128138.129         305.625          49.000  
 16  4  2 12 31 26.3000000  0  1G16
  22479031.867   118128107.797         301.082          49.000  
 16  4  2 12 31 26.4000000  0  1G16
  22479026.164   118128077.836         297.574          49.000  
 16  4  2 12 31 26.5000000  0  1G16
  22479020.555   118128048.359         292.664          49.000  
 16  4  2 12 31 26.6000000  0  1G16
  22479015.031   118128019.293         288.266          49.000  
 16  4  2 12 31 26.7000000  0  1G16
  22479009.602   118127990.750         283.223          49.000  
 16  4  2 12 31 26.8000000  0  1G16
  22479004.234   118127962.609         278.953          49.000  
 16  4  2 12 31 26.9000000  0  1G16
  22478998.977   118127934.969         274.164          49.000  
 16  4  2 12 31 27.0000000  0  1G16
  22478993.789   118127907.699         270.402          49.000  
 16  4  2 12 31 27.1000000  0  1G16
  22478988.680   118127880.840         266.621          49.000  
 16  4  2 12 31 27.2000000  0  1G16
  22478983.641   118127854.359         262.770          49.000  
 16  4  2 12 31 27.3000000  0  1G16
  22478978.703   118127828.414         257.203          49.000  
 16  4  2 12 31 27.4000000  0  1G16
  22478973.844   118127802.891         252.816          49.000  
 16  4  2 12 31 27.5000000  0  1G16
  22478969.062   118127777.797         248.539          49.000  
 16  4  2 12 31 27.6000000  0  1G16
  22478964.367   118127753.113         244.656          49.000  
 16  4  2 12 31 27.7000000  0  1G16
  22478959.758   118127728.871         240.238          49.000  
 16  4  2 12 31 27.8000000  0  1G16
  22478955.219   118127705.055         235.879          49.000  
 16  4  2 12 31 27.9000000  0  1G16
  22478950.766   118127681.664         231.770          49.000  
 16  4  2 12 31 28.0000000  0  1G16
  22478946.406   118127658.727         227.316          49.000  
 16  4  2 12 31 28.1000000  0  1G16
  22478942.117   118127636.188         223.098          49.000  
 16  4  2 12 31 28.2000000  0  1G16
  22478937.906   118127614.082         219.012          49.000  
 16  4  2 12 31 28.3000000  0  1G16
  22478933.789   118127592.418         214.293          49.000  
 16  4  2 12 31 28.4000000  0  1G16
  22478929.758   118127571.258         209.305          49.000  
 16  4  2 12 31 28.5000000  0  1G16
  22478925.805   118127550.473         205.492          49.000  
 16  4  2 12 31 28.6000000  0  1G16
  22478921.938   118127530.172         200.809          49.000  
 16  4  2 12 31 28.7000000  0  1G16
  22478918.164   118127510.348         195.906          49.000  
 16  4  2 12 31 28.8000000  0  1G16
  22478914.461   118127490.887         192.445          49.000  
 16  4  2 12 31 28.9000000  0  1G16
  22478910.844   118127471.859         188.055          49.000  
 16  4  2 12 31 29.0000000  0  1G16
  22478907.312   118127453.312         183.273          49.000  
 16  4  2 12 31 29.1000000  0  1G16
  22478903.867   118127435.223         178.652          49.000  
 16  4  2 12 31 29.2000000  0  1G16
  22478900.500   118127417.555         174.457          49.000  
 16  4  2 12 31 29.3000000  0  1G16
  22478897.211   118127400.270         170.715          49.000  
 16  4  2 12 31 29.4000000  0  1G16
  22478894.016   118127383.477         165.633          49.000  
 16  4  2 12 31 29.5000000  0  1G16
  22478890.891   118127367.051         162.219          49.000  
 16  4  2 12 31 29.6000000  0  1G16
  22478887.844   118127351.051         157.988          49.000  
 16  4  2 12 31 29.7000000  0  1G16
  22478884.891   118127335.520         153.180          49.000  
 16  4  2 12 31 29.8000000  0  1G16
  22478882.016   118127320.418         148.734          49.000  
 16  4  2 12 31 29.9000000  0  1G16
  22478879.234   118127305.793         143.906          49.000  
 16  4  2 12 31 30.0000000  0  1G16
  22478876.531   118127291.617         139.539          49.000  
 16  4  2 12 31 30.1000000  0  1G16
  22478873.914   118127277.844         135.363          49.000  
 16  4  2 12 31 30.2000000  0  1G16
  22478871.383   118127264.520         131.145          49.000  
 16  4  2 12 31 30.3000000  0  1G16
  22478868.938   118127251.652         126.527          49.000  
 16  4  2 12 31 30.4000000  0  1G16
  22478866.555   118127239.148         122.777          49.000  
 16  4  2 12 31 30.5000000  0  1G16
  22478864.266   118127227.102         118.359          49.000  
 16  4  2 12 31 30.6000000  0  1G16
  22478862.070   118127215.523         113.512          49.000  
 16  4  2 12 31 30.7000000  0  1G16
  22478859.945   118127204.371         109.246          49.000  
 16  4  2 12 31 30.8000000  0  1G16
  22478857.906   118127193.660         104.910          49.000  
 16  4  2 12 31 30.9000000  0  1G16
  22478855.953   118127183.375         100.668          49.000  
 16  4  2 12 31 31.0000000  0  1G16
  22478854.078   118127173.547          96.059          49.000  
 16  4  2 12 31 31.1000000  0  1G16
  22478852.289   118127164.156          91.742          49.000  
 16  4  2 12 31 31.2000000  0  1G16
  22478850.586   118127155.184          87.496          49.000  
 16  4  2 12 31 31.3000000  0  1G16
  22478848.945   118127146.582          83.941          49.000  
 16  4  2 12 31 31.4000000  0  1G16
  22478847.406   118127138.461          78.938          49.000  
 16  4  2 12 31 31.5000000  0  1G16
  22478845.953   118127130.828          74.059          49.000  
 16  4  2 12 31 31.6000000  0  1G16
  22478844.586   118127123.637          69.613          49.000  
 16  4  2 12 31 31.7000000  0  1G16
  22478843.289   118127116.816          66.141          49.000  
 16  4  2 12 31 31.8000000  0  1G16
  22478842.055   118127110.359          62.516          49.000  
 16  4  2 12 31 31.9000000  0  1G16
  22478840.922   118127104.383          57.488          49.000  
 16  4  2 12 31 32.0000000  0  1G16
  22478839.883   118127098.926          52.305          49.000  
 16  4  2 12 31 32.1000000  0  1G16
  22478838.914   118127093.836          48.699          49.000  
 16  4  2 12 31 32.2000000  0  1G16
  22478838.023   118127089.180          44.359          49.000  
 16  4  2 12 31 32.3000000  0  1G16
  22478837.234   118127085.016          39.281          49.000  
 16  4  2 12 31 32.4000000  0  1G16
  22478836.531   118127081.289          34.949          49.000  
 16  4  2 12 31 32.5000000  0  1G16
  22478835.891   118127077.930          31.258          49.000  
 16  4  2 12 31 32.6000000  0  1G16
  22478835.344   118127075.070          26.410          49.000  
 16  4  2 12 31 32.7000000  0  1G16
  22478834.891   118127072.668          21.691          49.000  
 16  4  2 12 31 32.8000000  0  1G16
  22478834.500   118127070.598          18.598          49.000  
 16  4  2 12 31 32.9000000  0  1G16
  22478834.211   118127069.094          12.762          49.000  
 16  4  2 12 31 33.0000000  0  1G16
  22478834.000   118127068.016           8.547          49.000  
 16  4  2 12 31 33.1000000  0  1G16
  22478833.867   118127067.316           4.613          49.000  
 16  4  2 12 31 33.2000000  0  1G16
  22478833.812   118127067.047           0.465          49.000  
 16  4  2 12 31 33.3000000  0  1G16
  22478833.852   118127067.250          -4.301          49.000  
 16  4  2 12 31 33.4000000  0  1G16
  22478833.977   118127067.926          -9.148          49.000  
 16  4  2 12 31 33.5000000  0  1G16
  22478834.195   118127069.066         -13.621          49.000  
 16  4  2 12 31 33.6000000  0  1G16
  22478834.484   118127070.590         -17.500          49.000  
 16  4  2 12 31 33.7000000  0  1G16
  22478834.859   118127072.555         -21.781          49.000  
 16  4  2 12 31 33.8000000  0  1G16
  22478835.320   118127074.977         -26.426          49.000  
 16  4  2 12 31 33.9000000  0  1G16
  22478835.867   118127077.848         -31.008          49.000  
 16  4  2 12 31 34.0000000  0  1G16
  22478836.484   118127081.102         -34.945          49.000  
 16  4  2 12 31 34.1000000  0  1G16
  22478837.180   118127084.781         -38.961          49.000  
 16  4  2 12 31 34.2000000  0  1G16
  22478837.961   118127088.859         -42.727          49.000  
 16  4  2 12 31 34.3000000  0  1G16
  22478838.828   118127093.422         -47.793          49.000  
 16  4  2 12 31 34.4000000  0  1G16
  22478839.781   118127098.445         -52.406          49.000  
 16  4  2 12 31 34.5000000  0  1G16
  22478840.812   118127103.855         -56.523          49.000  
 16  4  2 12 31 34.6000000  0  1G16
  22478841.922   118127109.688         -60.523          49.000  
 16  4  2 12 31 34.7000000  0  1G16
  22478843.133   118127116.027         -65.730          49.000  
 16  4  2 12 31 34.8000000  0  1G16
  22478844.430   118127122.863         -70.566          49.000  
 16  4  2 12 31 34.9000000  0  1G16
  22478845.797   118127130.035         -74.184          49.000  
 16  4  2 12 31 35.0000000  0  1G16
  22478847.258   118127137.719         -78.992          49.000  
 16  4  2 12 31 35.1000000  0  1G16
  22478848.797   118127145.781         -82.719          49.000  
 16  4  2 12 31 35.2000000  0  1G16
  22478850.406   118127154.293         -87.270          49.000  
 16  4  2 12 31 35.3000000  0  1G16
  22478852.102   118127163.203         -91.277          49.000  
 16  4  2 12 31 35.4000000  0  1G16
  22478853.875   118127172.555         -95.645          49.000  
 16  4  2 12 31 35.5000000  0  1G16
  22478855.742   118127182.344        -100.094          49.000  
 16  4  2 12 31 35.6000000  0  1G16
  22478857.695   118127192.609        -104.906          49.000  
 16  4  2 12 31 35.7000000  0  1G16
  22478859.734   118127203.332        -109.594          49.000  
 16  4  2 12 31 35.8000000  0  1G16
  22478861.859   118127214.500        -114.062          49.000  
 16  4  2 12 31 35.9000000  0  1G16
  22478864.062   118127226.109        -118.402          49.000  
 16  4  2 12 31 36.0000000  0  1G16
  22478866.359   118127238.156        -122.590          49.000  
 16  4  2 12 31 36.1000000  0  1G16
  22478868.727   118127250.602        -126.672          49.000  
 16  4  2 12 31 36.2000000  0  1G16
  22478871.172   118127263.500        -131.328          49.000  
 16  4  2 12 31 36.3000000  0  1G16
  22478873.711   118127276.805        -135.250          49.000  
 16  4  2 12 31 36.4000000  0  1G16
  22478876.328   118127290.582        -140.004          49.000  
 16  4  2 12 31 36.5000000  0  1G16
  22478879.031   118127304.781        -144.074          49.000  
 16  4  2 12 31 36.6000000  0  1G16
  22478881.805   118127319.391        -148.516          49.000  
 16  4  2 12 31 36.7000000  0  1G16
  22478884.680   118127334.488        -153.133          49.000  
 16  4  2 12 31 36.8000000  0  1G16
  22478887.625   118127349.957        -156.992          49.000  
 16  4  2 12 31 36.9000000  0  1G16
  22478890.656   118127365.875        -161.336          49.000  
 16  4  2 12 31 37.0000000  0  1G16
  22478893.773   118127382.258        -165.848          49.000  
 16  4  2 12 31 37.1000000  0  1G16
  22478896.969   118127399.043        -170.180          49.000  
 16  4  2 12 31 37.2000000  0  1G16
  22478900.250   118127416.305        -174.832          49.000  
 16  4  2 12 31 37.3000000  0  1G16
  22478903.609   118127433.961        -179.074          49.000  
 16  4  2 12 31 37.4000000  0  1G16
  22478907.070   118127452.133        -183.766          49.000  
 16  4  2 12 31 37.5000000  0  1G16
  22478910.602   118127470.676        -187.676          49.000  
 16  4  2 12 31 37.6000000  0  1G16
  22478914.211   118127489.656        -191.953          49.000  
 16  4  2 12 31 37.7000000  0  1G16
  22478917.906   118127509.070        -196.258          49.000  
 16  4  2 12 31 37.8000000  0  1G16
  22478921.664   118127528.828        -199.551          49.000  
 16  4  2 12 31 37.9000000  0  1G16
  22478925.523   118127549.098        -204.922          49.000  
 16  4  2 12 31 38.0000000  0  1G16
  22478929.453   118127569.785        -209.125          49.000  
 16  4  2 12 31 38.1000000  0  1G16
  22478933.477   118127590.930        -213.543          49.000  
 16  4  2 12 31 38.2000000  0  1G16
  22478937.586   118127612.496        -217.836          49.000  
 16  4  2 12 31 38.3000000  0  1G16
  22478941.781   118127634.559        -222.906          49.000  
 16  4  2 12 31 38.4000000  0  1G16
  22478946.055   118127657.031        -226.914          49.000  
 16  4  2 12 31 38.5000000  0  1G16
  22478950.414   118127679.945        -231.512          49.000  
 16  4  2 12 31 38.6000000  0  1G16
  22478954.867   118127703.340        -236.176          49.000  
 16  4  2 12 31 38.7000000  0  1G16
  22478959.406   118127727.207        -241.094          49.000  
 16  4  2 12 31 38.8000000  0  1G16
  22478964.008   118127751.383        -243.926          49.000  
 16  4  2 12 31 38.9000000  0  1G16
  22478968.703   118127776.031        -248.613          49.000  
 16  4  2 12 31 39.0000000  0  1G16
  22478973.477   118127801.109        -252.941          49.000  
 16  4  2 12 31 39.1000000  0  1G16
  22478978.336   118127826.648        -257.918          49.000  
 16  4  2 12 31 39.2000000  0  1G16
  22478983.281   118127852.648        -262.188          49.000  
 16  4  2 12 31 39.3000000  0  1G16
  22478988.305   118127879.023        -266.188          49.000  
 16  4  2 12 31 39.4000000  0  1G16
  22478993.430   118127905.934        -271.281          49.000  
 16  4  2 12 31 39.5000000  0  1G16
  22478998.617   118127933.227        -275.270          49.000  
 16  4  2 12 31 39.6000000  0  1G16
  22479003.906   118127960.980        -279.840          49.000  
 16  4  2 12 31 39.7000000  0  1G16
  22479009.266   118127989.172        -284.129          49.000  
 16  4  2 12 31 39.8000000  0  1G16
  22479014.719   118128017.820        -288.656          49.000  
 16  4  2 12 31 39.9000000  0  1G16
  22479020.242   118128046.848        -292.402          49.000  
 16  4  2 12 31 40.0000000  0  1G16
  22479025.844   118128076.273        -296.465          49.000  
 16  4  2 12 31 40.1000000  0  1G16
  22479031.531   118128106.133        -300.617          49.000  
 16  4  2 12 31 40.2000000  0  1G16
  22479037.297   118128136.438        -305.355          49.000  
 16  4  2 12 31 40.3000000  0  1G16
  22479043.148   118128167.199        -309.754          49.000  
 16  4  2 12 31 40.4000000  0  1G16
  22479049.078   118128198.336        -313.582          49.000  
 16  4  2 12 31 40.5000000  0  1G16
  22479055.094   118128229.961        -318.445          49.000  
 16  4  2 12 31 40.6000000  0  1G16
  22479061.203   118128262.031        -323.109          49.000  
 16  4  2 12 31 40.7000000  0  1G16
  22479067.391   118128294.535        -327.312          49.000  
 16  4  2 12 31 40.8000000  0  1G16
  22479073.656   118128327.484        -331.703          49.000  
 16  4  2 12 31 40.9000000  0  1G16
  22479080.016   118128360.883        -336.355          49.000  
 16  4  2 12 31 41.0000000  0  1G16
  22479086.461   118128394.734        -340.875          49.000  
 16  4  2 12 31 41.1000000  0  1G16
  22479092.977   118128428.992        -344.684          49.000  
 16  4  2 12 31 41.2000000  0  1G16
  22479099.570   118128463.648        -348.809          49.000  
 16  4  2 12 31 41.3000000  0  1G16
  22479106.266   118128498.824        -354.020          49.000  
 16  4  2 12 31 41.4000000  0  1G16
  22479113.039   118128534.406        -358.230          49.000  
 16  4  2 12 31 41.5000000  0  1G16
  22479119.898   118128570.461        -362.766          49.000  
 16  4  2 12 31 41.6000000  0  1G16
  22479126.844   118128606.957        -367.273          49.000  
 16  4  2 12 31 41.7000000  0  1G16
  22479133.867   118128643.875        -371.383          49.000  
 16  4  2 12 31 41.8000000  0  1G16
  22479140.977   118128681.223        -375.730          49.000  
 16  4  2 12 31 41.9000000  0  1G16
  22479148.172   118128719.043        -380.410          49.000  
 16  4  2 12 31 42.0000000  0  1G16
  22479155.453   118128757.293        -384.746          49.000  
 16  4  2 12 31 42.1000000  0  1G16
  22479162.805   118128795.926        -388.562          49.000  
 16  4  2 12 31 42.2000000  0  1G16
  22479170.258   118128835.105        -394.020          49.000  
 16  4  2 12 31 42.3000000  0  1G16
  22479177.789   118128874.664        -397.602          49.000  
 16  4  2 12 31 42.4000000  0  1G16
  22479185.391   118128914.637        -402.074          49.000  
 16  4  2 12 31 42.5000000  0  1G16
  22479193.078   118128955.055        -406.387          49.000  
 16  4  2 12 31 42.6000000  0  1G16
  22479200.852   118128995.887        -410.277          49.000  
 16  4  2 12 31 42.7000000  0  1G16
  22479208.711   118129037.191        -415.539          49.000  
 16  4  2 12 31 42.8000000  0  1G16
  22479216.664   118129078.957        -419.930          49.000  
 16  4  2 12 31 42.9000000  0  1G16
  22479224.688   118129121.133        -423.918          49.000  
 16  4  2 12 31 43.0000000  0  1G16
  22479232.781   118129163.707        -427.969          49.000  
 16  4  2 12 31 43.1000000  0  1G16
  22479240.961   118129206.711        -432.125          49.000  
 16  4  2 12 31 43.2000000  0  1G16
  22479249.242   118129250.199        -437.180          49.000  
 16  4  2 12 31 43.3000000  0  1G16
  22479257.594   118129294.109        -441.527          49.000  
 16  4  2 12 31 43.4000000  0  1G16
  22479266.023   118129338.402        -444.863          49.000  
 16  4  2 12 31 43.5000000  0  1G16
  22479274.539   118129383.152        -449.773          49.000  
 16  4  2 12 31 43.6000000  0  1G16
  22479283.156   118129428.418        -454.938          49.000  
 16  4  2 12 31 43.7000000  0  1G16
  22479291.844   118129474.102        -459.262          49.000  
 16  4  2 12 31 43.8000000  0  1G16
  22479300.625   118129520.219        -463.414          49.000  
 16  4  2 12 31 43.9000000  0  1G16
  22479309.484   118129566.773        -467.730          49.000  
 16  4  2 12 31 44.0000000  0  1G16
  22479318.430   118129613.789        -472.270          49.000  
 16  4  2 12 31 44.1000000  0  1G16
  22479327.453   118129661.191        -476.469          49.000  
 16  4  2 12 31 44.2000000  0  1G16
  22479336.562   118129709.078        -481.113          49.000  
 16  4  2 12 31 44.3000000  0  1G16
  22479345.750   118129757.344        -484.797          49.000  
 16  4  2 12 31 44.4000000  0  1G16
  22479355.016   118129806.043        -489.188          49.000  
 16  4  2 12 31 44.5000000  0  1G16
  22479364.359   118129855.152        -493.250          49.000  
 16  4  2 12 31 44.6000000  0  1G16
  22479373.797   118129904.703        -497.754          49.000  
 16  4  2 12 31 44.7000000  0  1G16
  22479383.312   118129954.715        -502.188          49.000  
 16  4  2 12 31 44.8000000  0  1G16
  22479392.906   118130005.164        -506.777          49.000  
 16  4  2 12 31 44.9000000  0  1G16
  22479402.594   118130056.039        -511.051          49.000  
 16  4  2 12 31 45.0000000  0  1G16
  22479412.352   118130107.316        -514.949          49.000  
 16  4  2 12 31 45.1000000  0  1G16
  22479422.203   118130159.070        -519.672          49.000  
 16  4  2 12 31 45.2000000  0  1G16
  22479432.125   118130211.211        -523.629          49.000  
 16  4  2 12 31 45.3000000  0  1G16
  22479442.133   118130263.793        -528.039          49.000  
 16  4  2 12 31 45.4000000  0  1G16
  22479452.227   118130316.832        -532.551          49.000  
 16  4  2 12 31 45.5000000  0  1G16
  22479462.398   118130370.270        -536.680          49.000  
 16  4  2 12 31 45.6000000  0  1G16
  22479472.664   118130424.227        -541.645          49.000  
 16  4  2 12 31 45.7000000  0  1G16
  22479482.992   118130478.512        -545.141          49.000  
 16  4  2 12 31 45.8000000  0  1G16
  22479493.414   118130533.266        -549.730          49.000  
 16  4  2 12 31 45.9000000  0  1G16
  22479503.914   118130588.445        -554.027          49.000  
 16  4  2 12 31 46.0000000  0  1G16
  22479514.500   118130644.098        -558.844          49.000  
 16  4  2 12 31 46.1000000  0  1G16
  22479525.172   118130700.188        -563.109          49.000  
 16  4  2 12 31 46.2000000  0  1G16
  22479535.930   118130756.695        -567.316          49.000  
 16  4  2 12 31 46.3000000  0  1G16
  22479546.758   118130813.605        -571.234          49.000  
 16  4  2 12 31 46.4000000  0  1G16
  22479557.664   118130870.945        -575.434          49.000  
 16  4  2 12 31 46.5000000  0  1G16
  22479568.672   118130928.766        -580.613          49.000  
 16  4  2 12 31 46.6000000  0  1G16
  22479579.766   118130987.051        -585.289          49.000  
 16  4  2 12 31 46.7000000  0  1G16
  22479590.930   118131045.723        -588.980          49.000  
 16  4  2 12 31 46.8000000  0  1G16
  22479602.172   118131104.820        -593.082          49.000  
 16  4  2 12 31 46.9000000  0  1G16
  22479613.516   118131164.418        -598.133          49.000  
 16  4  2 12 31 47.0000000  0  1G16
  22479624.922   118131224.371        -601.809          49.000  
 16  4  2 12 31 47.1000000  0  1G16
  22479636.422   118131284.801        -606.582          49.000  
 16  4  2 12 31 47.2000000  0  1G16
  22479648.008   118131345.680        -611.031          49.000  
 16  4  2 12 31 47.3000000  0  1G16
  22479659.680   118131406.992        -615.352          49.000  
 16  4  2 12 31 47.4000000  0  1G16
  22479671.422   118131468.715        -619.363          49.000  
 16  4  2 12 31 47.5000000  0  1G16
  22479683.250   118131530.859        -623.867          49.000  
 16  4  2 12 31 47.6000000  0  1G16
  22479695.172   118131593.496        -628.551          49.000  
 16  4  2 12 31 47.7000000  0  1G16
  22479707.164   118131656.539        -632.617          49.000  
 16  4  2 12 31 47.8000000  0  1G16
  22479719.242   118131720.012        -636.973          49.000  
 16  4  2 12 31 47.9000000  0  1G16
  22479731.414   118131783.953        -641.574          49.000  
 16  4  2 12 31 48.0000000  0  1G16
  22479743.664   118131848.344        -646.230          49.000  
 16  4  2 12 31 48.1000000  0  1G16
  22479755.992   118131913.125        -649.879          49.000  
 16  4  2 12 31 48.2000000  0  1G16
  22479768.398   118131978.324        -654.074          49.000  
 16  4  2 12 31 48.3000000  0  1G16
  22479780.891   118132043.961        -658.660          49.000  
 16  4  2 12 31 48.4000000  0  1G16
  22479793.477   118132110.113        -663.664          49.000  
 16  4  2 12 31 48.5000000  0  1G16
  22479806.133   118132176.609        -666.984          49.000  
 16  4  2 12 31 48.6000000  0  1G16
  22479818.867   118132243.512        -671.293          49.000  
 16  4  2 12 31 48.7000000  0  1G16
  22479831.688   118132310.910        -676.246          49.000  
 16  4  2 12 31 48.8000000  0  1G16
  22479844.602   118132378.770        -680.988          49.000  
 16  4  2 12 31 48.9000000  0  1G16
  22479857.602   118132447.074        -685.340          49.000  
 16  4  2 12 31 49.0000000  0  1G16
  22479870.688   118132515.824        -689.844          49.000  
 16  4  2 12 31 49.1000000  0  1G16
  22479883.859   118132585.059        -694.512          49.000  
 16  4  2 12 31 49.2000000  0  1G16
  22479897.109   118132654.676        -698.352          49.000  
 16  4  2 12 31 49.3000000  0  1G16
  22479910.430   118132724.672        -702.137          49.000  
 16  4  2 12 31 49.4000000  0  1G16
  22479923.852   118132795.184        -707.219          49.000  
 16  4  2 12 31 49.5000000  0  1G16
  22479937.352   118132866.148        -711.898          49.000  
 16  4  2 12 31 49.6000000  0  1G16
  22479950.945   118132937.555        -716.418          49.000  
 16  4  2 12 31 49.7000000  0  1G16
  22479964.609   118133009.359        -720.246          49.000  
 16  4  2 12 31 49.8000000  0  1G16
  22479978.352   118133081.609        -724.812          49.000  
 16  4  2 12 31 49.9000000  0  1G16
  22479992.195   118133154.359        -729.781          49.000  
 16  4  2 12 31 50.0000000  0  1G16
  22480006.117   118133227.480        -733.477          49.000  
 16  4  2 12 31 50.1000000  0  1G16
  22480020.109   118133301.035        -737.613          49.000  
 16  4  2 12 31 50.2000000  0  1G16
  22480034.203   118133375.051        -742.254          49.000  
 16  4  2 12 31 50.3000000  0  1G16
  22480048.359   118133449.477        -746.516          49.000  
 16  4  2 12 31 50.4000000  0  1G16
  22480062.609   118133524.344        -750.883          49.000  
 16  4  2 12 31 50.5000000  0  1G16
  22480076.938   118133599.637        -755.102          49.000  
 16  4  2 12 31 50.6000000  0  1G16
  22480091.344   118133675.383        -759.828          49.000  
 16  4  2 12 31 50.7000000  0  1G16
  22480105.836   118133751.539        -763.598          49.000  
 16  4  2 12 31 50.8000000  0  1G16
  22480120.406   118133828.102        -767.859          49.000  
 16  4  2 12 31 50.9000000  0  1G16
  22480135.078   118133905.211        -773.324          49.000  
 16  4  2 12 31 51.0000000  0  1G16
  22480149.820   118133982.684        -777.055          49.000  
 16  4  2 12 31 51.1000000  0  1G16
  22480164.648   118134060.602        -781.430          49.000  
 16  4  2 12 31 51.2000000  0  1G16
  22480179.555   118134138.953        -785.699          49.000  
 16  4  2 12 31 51.3000000  0  1G16
  22480194.539   118134217.723        -789.887          49.000  
 16  4  2 12 31 51.4000000  0  1G16
  22480209.617   118134296.945        -794.617          49.000  
 16  4  2 12 31 51.5000000  0  1G16
  22480224.766   118134376.562        -798.375          49.000  
 16  4  2 12 31 51.6000000  0  1G16
  22480240.000   118134456.613        -802.609          49.000  
 16  4  2 12 31 51.7000000  0  1G16
  22480255.320   118134537.117        -807.312          49.000  
 16  4  2 12 31 51.8000000  0  1G16
  22480270.727   118134618.086        -811.906          49.000  
 16  4  2 12 31 51.9000000  0  1G16
  22480286.211   118134699.441        -815.648          49.000  
 16  4  2 12 31 52.0000000  0  1G16
  22480301.781   118134781.266        -820.441          49.000  
 16  4  2 12 31 52.1000000  0  1G16
  22480317.430   118134863.504        -824.637          49.000  
 16  4  2 12 31 52.2000000  0  1G16
  22480333.164   118134946.145        -828.559          49.000  
 16  4  2 12 31 52.3000000  0  1G16
  22480348.969   118135029.211        -832.926          49.000  
 16  4  2 12 31 52.4000000  0  1G16
  22480364.875   118135112.789        -838.094          49.000  
 16  4  2 12 31 52.5000000  0  1G16
  22480380.852   118135196.750        -842.016          49.000  
 16  4  2 12 31 52.6000000  0  1G16
  22480396.922   118135281.207        -846.855          49.000  
 16  4  2 12 31 52.7000000  0  1G16
  22480413.070   118135366.070        -850.734          49.000  
 16  4  2 12 31 52.8000000  0  1G16
  22480429.297   118135451.340        -854.906          49.000  
 16  4  2 12 31 52.9000000  0  1G16
  22480445.602   118135537.051        -859.215          49.000  
 16  4  2 12 31 53.0000000  0  1G16
  22480462.000   118135623.191        -863.680          49.000  
 16  4  2 12 31 53.1000000  0  1G16
  22480478.477   118135709.793        -868.316          49.000  
 16  4  2 12 31 53.2000000  0  1G16
  22480495.039   118135796.836        -872.621          49.000  
 16  4  2 12 31 53.3000000  0  1G16
  22480511.680   118135884.289        -876.770          49.000  
 16  4  2 12 31 53.4000000  0  1G16
  22480528.406   118135972.188        -881.074          49.000  
 16  4  2 12 31 53.5000000  0  1G16
  22480545.203   118136060.465        -884.848          49.000  
 16  4  2 12 31 53.6000000  0  1G16
  22480562.094   118136149.207        -889.629          49.000  
 16  4  2 12 31 53.7000000  0  1G16
  22480579.055   118136238.348        -893.617          49.000  
 16  4  2 12 31 53.8000000  0  1G16
  22480596.094   118136327.910        -897.711          49.000  
 16  4  2 12 31 53.9000000  0  1G16
  22480613.234   118136417.961        -902.789          49.000  
 16  4  2 12 31 54.0000000  0  1G16
  22480630.453   118136508.445        -907.168          49.000  
 16  4  2 12 31 54.1000000  0  1G16
  22480647.758   118136599.363        -911.527          49.000  
 16  4  2 12 31 54.2000000  0  1G16
  22480665.141   118136690.727        -916.004          49.000  
 16  4  2 12 31 54.3000000  0  1G16
  22480682.609   118136782.520        -920.254          49.000  
 16  4  2 12 31 54.4000000  0  1G16
  22480700.164   118136874.754        -924.625          49.000  
 16  4  2 12 31 54.5000000  0  1G16
  22480717.797   118136967.410        -928.707          49.000  
 16  4  2 12 31 54.6000000  0  1G16
  22480735.508   118137060.469        -932.695          49.000  
 16  4  2 12 31 54.7000000  0  1G16
  22480753.297   118137153.969        -937.270          49.000  
 16  4  2 12 31 54.8000000  0  1G16
  22480771.188   118137247.973        -942.230          49.000  
 16  4  2 12 31 54.9000000  0  1G16
  22480789.148   118137342.387        -946.414          49.000  
 16  4  2 12 31 55.0000000  0  1G16
  22480807.195   118137437.203        -950.535          49.000  
 16  4  2 12 31 55.1000000  0  1G16
  22480825.320   118137532.469        -954.957          49.000  
 16  4  2 12 31 55.2000000  0  1G16
  22480843.539   118137628.188        -959.387          49.000  
 16  4  2 12 31 55.3000000  0  1G16
  22480861.828   118137724.328        -963.449          49.000  
 16  4  2 12 31 55.4000000  0  1G16
  22480880.211   118137820.887        -967.746          49.000  
 16  4  2 12 31 55.5000000  0  1G16
  22480898.664   118137917.879        -972.156          49.000  
 16  4  2 12 31 55.6000000  0  1G16
  22480917.211   118138015.320        -976.773          49.000  
 16  4  2 12 31 55.7000000  0  1G16
  22480935.836   118138113.215        -981.164          49.000  
 16  4  2 12 31 55.8000000  0  1G16
  22480954.555   118138211.578        -986.086          49.000  
 16  4  2 12 31 55.9000000  0  1G16
  22480973.359   118138310.375        -990.066          49.000  
 16  4  2 12 31 56.0000000  0  1G16
  22480992.227   118138409.543        -993.898          49.000  
 16  4  2 12 31 56.1000000  0  1G16
  22481011.188   118138509.152        -998.176          49.000  
 16  4  2 12 31 56.2000000  0  1G16
  22481030.219   118138609.191       -1002.312          49.000  
 16  4  2 12 31 56.3000000  0  1G16
  22481049.344   118138709.676       -1007.332          49.000  
 16  4  2 12 31 56.4000000  0  1G16
  22481068.547   118138810.613       -1011.633          49.000  
 16  4  2 12 31 56.5000000  0  1G16
  22481087.836   118138911.965       -1015.836          49.000  
 16  4  2 12 31 56.6000000  0  1G16
  22481107.203   118139013.738       -1019.879          49.000  
 16  4  2 12 31 56.7000000  0  1G16
  22481126.656   118139115.969       -1024.629          49.000  
 16  4  2 12 31 56.8000000  0  1G16
  22481146.188   118139218.625       -1028.773          49.000  
 16  4  2 12 31 56.9000000  0  1G16
  22481165.797   118139321.688       -1032.781          49.000  
 16  4  2 12 31 57.0000000  0  1G16
  22481185.508   118139425.242       -1037.797          49.000  
 16  4  2 12 31 57.1000000  0  1G16
  22481205.289   118139529.176       -1041.523          49.000  
 16  4  2 12 31 57.2000000  0  1G16
  22481225.156   118139633.578       -1046.324          49.000  
 16  4  2 12 31 57.3000000  0  1G16
  22481245.102   118139738.410       -1050.672          49.000  
 16  4  2 12 31 57.4000000  0  1G16
  22481265.141   118139843.699       -1055.254          49.000  
 16  4  2 12 31 57.5000000  0  1G16
  22481285.258   118139949.445       -1059.805          49.000  
 16  4  2 12 31 57.6000000  0  1G16
  22481305.461   118140055.590       -1063.621          49.000  
 16  4  2 12 31 57.7000000  0  1G16
  22481325.742   118140162.176       -1068.090          49.000  
 16  4  2 12 31 57.8000000  0  1G16
  22481346.109   118140269.184       -1072.344          49.000  
 16  4  2 12 31 57.9000000  0  1G16
  22481366.555   118140376.621       -1076.629          49.000  
 16  4  2 12 31 58.0000000  0  1G16
  22481387.070   118140484.484       -1080.621          49.000  
 16  4  2 12 31 58.1000000  0  1G16
  22481407.680   118140592.770       -1085.203          49.000  
 16  4  2 12 31 58.2000000  0  1G16
  22481428.375   118140701.547       -1089.895          49.000  
 16  4  2 12 31 58.3000000  0  1G16
  22481449.148   118140810.715       -1093.793          49.000  
 16  4  2 12 31 58.4000000  0  1G16
  22481470.008   118140920.305       -1098.172          49.000  
 16  4  2 12 31 58.5000000  0  1G16
  22481490.953   118141030.383       -1103.125          49.000  
 16  4  2 12 31 58.6000000  0  1G16
  22481511.977   118141140.848       -1106.668          49.000  
 16  4  2 12 31 58.7000000  0  1G16
  22481533.070   118141251.730       -1111.012          49.000  
 16  4  2 12 31 58.8000000  0  1G16
  22481554.258   118141363.062       -1115.641          49.000  
 16  4  2 12 31 58.9000000  0  1G16
  22481575.547   118141474.926       -1120.773          49.000  
 16  4  2 12 31 59.0000000  0  1G16
  22481596.906   118141587.164       -1124.648          49.000  
 16  4  2 12 31 59.1000000  0  1G16
  22481618.344   118141699.836       -1128.707          49.000  
 16  4  2 12 31 59.2000000  0  1G16
  22481639.859   118141812.910       -1132.930          49.000  
 16  4  2 12 31 59.3000000  0  1G16
  22481661.469   118141926.461       -1137.637          49.000  
 16  4  2 12 31 59.4000000  0  1G16
  22481683.156   118142040.434       -1142.012          49.000  
 16  4  2 12 31 59.5000000  0  1G16
  22481704.930   118142154.867       -1146.762          49.000  
 16  4  2 12 31 59.6000000  0  1G16
  22481726.789   118142269.750       -1151.055          49.000  
 16  4  2 12 31 59.7000000  0  1G16
  22481748.742   118142385.094       -1155.688          49.000  
 16  4  2 12 31 59.8000000  0  1G16
  22481770.766   118142500.844       -1159.824          49.000  
 16  4  2 12 31 59.9000000  0  1G16
  22481792.875   118142617.043       -1164.020          49.000  
 16  4  2 12 32  0.0000000  0  1G16
  22481815.070   118142733.688       -1168.727          49.000  
 16  4  2 12 32  0.1000000  0  1G16
  22481837.336   118142850.695       -1172.176          49.000  
 16  4  2 12 32  0.2000000  0  1G16
  22481859.688   118142968.148       -1176.664          49.000  
 16  4  2 12 32  0.3000000  0  1G16
  22481882.125   118143086.043       -1181.004          49.000  
 16  4  2 12 32  0.4000000  0  1G16
  22481904.641   118143204.367       -1185.398          49.000  
 16  4  2 12 32  0.5000000  0  1G16
  22481927.242   118143323.148       -1189.836          49.000  
 16  4  2 12 32  0.6000000  0  1G16
  22481949.922   118143442.328       -1194.074          49.000  
 16  4  2 12 32  0.7000000  0  1G16
  22481972.695   118143562.012       -1199.051          49.000  
 16  4  2 12 32  0.8000000  0  1G16
  22481995.547   118143682.082       -1202.984          49.000  
 16  4  2 12 32  0.9000000  0  1G16
  22482018.477   118143802.594       -1207.309          49.000  
 16  4  2 12 32  1.0000000  0  1G16
  22482041.492   118143923.531       -1211.398          49.000  
 16  4  2 12 32  1.1000000  0  1G16
  22482064.570   118144044.816       -1215.199          49.000  
 16  4  2 12 32  1.2000000  0  1G16
  22482087.758   118144166.660       -1220.543          49.000  
 16  4  2 12 32  1.3000000  0  1G16
  22482111.016   118144288.895       -1224.523          49.000  
 16  4  2 12 32  1.4000000  0  1G16
  22482134.352   118144411.496       -1228.340          49.000  
 16  4  2 12 32  1.5000000  0  1G16
  22482157.781   118144534.652       -1233.723          49.000  
 16  4  2 12 32  1.6000000  0  1G16
  22482181.305   118144658.234       -1238.188          49.000  
 16  4  2 12 32  1.7000000  0  1G16
  22482204.898   118144782.254       -1242.582          49.000  
 16  4  2 12 32  1.8000000  0  1G16
  22482228.578   118144906.691       -1246.723          49.000  
 16  4  2 12 40 36.8000000  0  1G04
  21383803.266   112372644.105       -7627.945          50.000  
 16  4  2 12 40 36.9000000  0  1G04
  21383948.477   112373407.211       -7633.203          50.000  
 16  4  2 12 40 37.0000000  0  2G04G23
  21384093.781   112374170.762       -7637.836          50.000  
  22523787.188   118363300.469        2245.227          50.000  
 16  4  2 12 40 37.1000000  0  2G04G23
  21384239.164   112374934.734       -7641.863          50.000  
  22523744.500   118363076.168        2240.160          50.000  
 16  4  2 12 40 37.2000000  0  2G04G23
  21384384.641   112375699.258       -7647.516          50.000  
  22523701.945   118362852.520        2233.449          50.000  
 16  4  2 12 40 37.3000000  0  2G04G23
  21384530.227   112376464.305       -7652.918          50.000  
  22523659.508   118362629.516        2226.895          50.000  
 16  4  2 12 40 37.4000000  0  2G04G23
  21384675.922   112377229.895       -7658.414          50.000  
  22523617.172   118362407.148        2220.441          50.000  
 16  4  2 12 40 37.5000000  0  2G04G23
  21384821.711   112377996.016       -7663.652          50.000  
  22523574.984   118362185.418        2214.059          50.000  
 16  4  2 12 40 37.6000000  0  2G04G23
  21384967.594   112378762.598       -7668.207          50.000  
  22523532.875   118361964.266        2208.367          50.000  
 16  4  2 12 40 37.7000000  0  2G04G23
  21385113.562   112379529.676       -7673.027          50.000  
  22523490.898   118361743.707        2202.562          50.000  
 16  4  2 12 40 37.8000000  0  2G04G23
  21385259.641   112380297.328       -7678.801          50.000  
  22523449.055   118361523.820        2195.742          50.000  
 16  4  2 12 40 37.9000000  0  2G04G23
  21385405.805   112381065.406       -7683.207          50.000  
  22523407.320   118361304.484        2190.242          50.000  
 16  4  2 12 40 38.0000000  0  2G04G23
  21385552.086   112381834.043       -7688.648          50.000  
  22523365.719   118361085.801        2183.762          50.000  
 16  4  2 12 40 38.1000000  0  2G04G23
  21385698.445   112382603.184       -7693.887          50.000  
  22523324.219   118360867.730        2177.461          50.000  
 16  4  2 12 40 38.2000000  0  2G04G23
  21385844.914   112383372.785       -7698.391          50.000  
  22523282.812   118360650.223        2172.039          50.000  
 16  4  2 12 40 38.3000000  0  2G04G23
  21385991.477   112384142.980       -7704.453          50.000  
  22523241.555   118360433.418        2164.801          50.000  
 16  4  2 12 40 38.4000000  0  2G04G23
  21386138.141   112384913.711       -7709.793          50.000  
  22523200.406   118360217.266        2158.383          50.000  
 16  4  2 12 40 38.5000000  0  2G04G23
  21386284.891   112385684.895       -7714.328          50.000  
  22523159.383   118360001.660        2152.816          50.000  
 16  4  2 12 40 38.6000000  0  2G04G23
  21386431.727   112386456.523       -7718.594          50.000  
  22523118.453   118359786.609        2147.500          50.000  
 16  4  2 12 40 38.7000000  0  2G04G23
  21386578.664   112387228.715       -7724.133          50.000  
  22523077.664   118359572.234        2140.738          50.000  
 16  4  2 12 40 38.8000000  0  2G04G23
  21386725.695   112388001.383       -7729.109          50.000  
  22523036.977   118359358.426        2134.879          50.000  
 16  4  2 12 40 38.9000000  0  2G04G23
  21386872.828   112388774.574       -7734.324          50.000  
  22522996.414   118359145.273        2128.434          50.000  
 16  4  2 12 40 39.0000000  0  2G04G23
  21387020.055   112389548.254       -7739.172          50.000  
  22522955.953   118358932.691        2122.688          50.000  
 16  4  2 12 40 39.1000000  0  2G04G23
  21387167.367   112390322.406       -7743.879          50.000  
  22522915.609   118358720.703        2116.863          50.000  
 16  4  2 12 40 39.2000000  0  2G04G23
  21387314.773   112391097.078       -7749.031          49.000  
  22522875.383   118358509.332        2110.570          50.000  
 16  4  2 12 40 39.3000000  0  2G04G23
  21387462.289   112391872.250       -7754.188          49.000  
  22522835.273   118358298.566        2104.438          50.000  
 16  4  2 12 40 39.4000000  0  2G04G23
  21387609.883   112392647.977       -7759.828          49.000  
  22522795.289   118358088.473        2097.617          50.000  
 16  4  2 12 40 39.5000000  0  2G04G23
  21387757.602   112393424.223       -7764.879          49.000  
  22522755.430   118357879.004        2091.523          50.000  
 16  4  2 12 40 39.6000000  0  2G04G23
  21387905.406   112394200.902       -7769.176          49.000  
  22522715.656   118357670.066        2086.129          50.000  
 16  4  2 12 40 39.7000000  0  2G04G23
  21388053.305   112394978.109       -7774.324          49.000  
  22522676.023   118357461.766        2080.000          50.000  
 16  4  2 12 40 39.8000000  0  2G04G23
  21388201.312   112395755.895       -7780.336          49.000  
  22522636.508   118357254.156        2072.852          50.000  
 16  4  2 12 40 39.9000000  0  2G04G23
  21388349.414   112396534.156       -7785.086          49.000  
  22522597.117   118357047.129        2066.953          50.000  
 16  4  2 12 40 40.0000000  0  2G04G23
  21388497.602   112397312.891       -7789.738          49.000  
  22522557.828   118356840.668        2061.465          50.000  
 16  4  2 12 40 40.1000000  0  2G04G23
  21388645.883   112398092.105       -7794.453          49.000  
  22522518.648   118356634.809        2055.586          50.000  
 16  4  2 12 40 40.2000000  0  2G04G23
  21388794.273   112398871.852       -7799.770          49.000  
  22522479.594   118356429.578        2049.219          50.000  
 16  4  2 12 40 40.3000000  0  2G04G23
  21388942.750   112399652.121       -7805.066          49.000  
  22522440.664   118356224.988        2042.758          50.000  
 16  4  2 12 40 40.4000000  0  2G04G23
  21389091.320   112400432.871       -7810.051          49.000  
  22522401.852   118356020.988        2036.641          50.000  
 16  4  2 12 40 40.5000000  0  2G04G23
  21389240.000   112401214.180       -7815.609          49.000  
  22522363.148   118355817.641        2030.168          50.000  
 16  4  2 12 40 40.6000000  0  2G04G23
  21389388.773   112401995.992       -7820.441          49.000  
  22522324.570   118355614.902        2024.406          50.000  
 16  4  2 12 40 40.7000000  0  2G04G23
  21389537.617   112402778.195       -7824.508          49.000  
  22522286.094   118355412.676        2019.098          50.000  
 16  4  2 12 40 40.8000000  0  2G04G23
  21389686.570   112403560.980       -7830.168          49.000  
  22522247.727   118355211.137        2012.387          50.000  
 16  4  2 12 40 40.9000000  0  2G04G23
  21389835.633   112404344.281       -7835.387          49.000  
  22522209.492   118355010.207        2006.219          50.000  
 16  4  2 12 40 41.0000000  0  2G04G23
  21389984.781   112405128.062       -7840.461          49.000  
  22522171.375   118354809.891        1999.762          50.000  
 16  4  2 12 40 41.1000000  0  2G04G23
  21390134.031   112405912.359       -7845.184          49.000  
  22522133.367   118354610.168        1994.242          50.000  
 16  4  2 12 40 41.2000000  0  2G04G23
  21390283.359   112406697.082       -7849.570          49.000  
  22522095.461   118354410.992        1988.641          50.000  
 16  4  2 12 40 41.3000000  0  2G04G23
  21390432.797   112407482.355       -7855.148          49.000  
  22522057.688   118354212.465        1982.113          50.000  
 16  4  2 12 40 41.4000000  0  2G04G23
  21390582.320   112408268.145       -7860.145          49.000  
  22522020.023   118354014.570        1976.012          50.000  
 16  4  2 12 40 41.5000000  0  2G04G23
  21390731.938   112409054.414       -7865.195          49.000  
  22521982.477   118353817.273        1969.723          50.000  
 16  4  2 12 40 41.6000000  0  2G04G23
  21390881.664   112409841.207       -7870.242          49.000  
  22521945.055   118353620.590        1963.754          50.000  
 16  4  2 12 40 41.7000000  0  2G04G23
  21391031.484   112410628.500       -7875.234          49.000  
  22521907.742   118353424.512        1957.816          50.000  
 16  4  2 12 40 41.8000000  0  2G04G23
  21391181.391   112411416.238       -7879.824          49.000  
  22521870.539   118353229.004        1952.043          50.000  
 16  4  2 12 40 41.9000000  0  2G04G23
  21391331.391   112412204.500       -7884.934          49.000  
  22521833.461   118353034.121        1945.730          50.000  
 16  4  2 12 40 42.0000000  0  2G04G23
  21391481.492   112412993.297       -7890.285          49.000  
  22521796.500   118352839.875        1939.367          50.000  
 16  4  2 12 40 42.1000000  0  2G04G23
  21391631.695   112413782.629       -7895.762          49.000  
  22521759.656   118352646.273        1932.758          50.000  
 16  4  2 12 40 42.2000000  0  2G04G23
  21391781.992   112414572.387       -7899.922          49.000  
  22521722.914   118352453.203        1927.594          50.000  
 16  4  2 12 40 42.3000000  0  2G04G23
  21391932.375   112415362.652       -7904.926          49.000  
  22521686.289   118352260.754        1921.438          50.000  
 16  4  2 12 40 42.4000000  0  2G04G23
  21392082.867   112416153.453       -7910.281          49.000  
  22521649.789   118352068.941        1915.094          50.000  
 16  4  2 12 40 42.5000000  0  2G04G23
  21392233.445   112416944.730       -7915.227          49.000  
  22521613.406   118351877.719        1909.051          50.000  
 16  4  2 12 40 42.6000000  0  2G04G23
  21392384.117   112417736.492       -7920.082          49.000  
  22521577.117   118351687.078        1903.203          50.000  
 16  4  2 12 40 42.7000000  0  2G04G23
  21392534.891   112418528.809       -7925.512          49.000  
  22521540.969   118351497.117        1896.547          50.000  
 16  4  2 12 40 42.8000000  0  2G04G23
  21392685.750   112419321.590       -7930.195          49.000  
  22521504.922   118351307.715        1890.938          50.000  
 16  4  2 12 40 42.9000000  0  2G04G23
  21392836.703   112420114.883       -7935.320          49.000  
  22521468.992   118351118.934        1884.715          50.000  
 16  4  2 12 40 43.0000000  0  2G04G23
  21392987.766   112420908.695       -7940.562          49.000  
  22521433.203   118350930.793        1878.211          50.000  
 16  4  2 12 40 43.1000000  0  2G04G23
  21393138.914   112421702.957       -7944.965          49.000  
  22521397.500   118350743.195        1872.801          50.000  
 16  4  2 12 40 43.2000000  0  2G04G23
  21393290.148   112422497.750       -7950.242          49.000  
  22521361.922   118350556.238        1866.422          50.000  
 16  4  2 12 40 43.3000000  0  2G04G23
  21393441.484   112423293.055       -7955.535          49.000  
  22521326.461   118350369.898        1860.219          50.000  
 16  4  2 12 40 43.4000000  0  2G04G23
  21393592.938   112424088.828       -7960.121          49.000  
  22521291.117   118350184.145        1854.371          50.000  
 16  4  2 12 40 43.5000000  0  2G04G23
  21393744.461   112424885.109       -7965.129          49.000  
  22521255.891   118349999.004        1848.320          50.000  
 16  4  2 12 40 43.6000000  0  2G04G23
  21393896.102   112425681.949       -7970.883          49.000  
  22521220.773   118349814.523        1841.602          50.000  
 16  4  2 12 40 43.7000000  0  2G04G23
  21394047.836   112426479.301       -7976.051          49.000  
  22521185.789   118349630.664        1835.355          50.000  
 16  4  2 12 40 43.8000000  0  2G04G23
  21394199.664   112427277.164       -7981.117          49.000  
  22521150.938   118349447.434        1829.117          50.000  
 16  4  2 12 40 43.9000000  0  2G04G23
  21394351.594   112428075.539       -7986.125          49.000  
  22521116.180   118349264.812        1823.129          50.000  
 16  4  2 12 40 44.0000000  0  2G04G23
  21394503.609   112428874.426       -7991.316          49.000  
  22521081.555   118349082.816        1816.680          50.000  
 16  4  2 12 40 44.1000000  0  2G04G23
  21394655.734   112429673.828       -7996.418          49.000  
  22521047.039   118348901.441        1810.699          50.000  
 16  4  2 12 40 44.2000000  0  2G04G23
  21394807.938   112430473.707       -8001.211          49.000  
  22521012.641   118348720.656        1804.742          50.000  
 16  4  2 12 40 44.3000000  0  2G04G23
  21394960.250   112431274.090       -8006.137          49.000  
  22520978.359   118348540.484        1798.672          50.000  
 16  4  2 12 40 44.4000000  0  2G04G23
  21395112.648   112432074.965       -8011.031          49.000  
  22520944.180   118348360.898        1792.777          50.000  
 16  4  2 12 40 44.5000000  0  2G04G23
  21395265.125   112432876.230       -8014.918          49.000  
  22520910.109   118348181.832        1787.672          50.000  
 16  4  2 12 40 44.6000000  0  2G04G23
  21395417.711   112433678.098       -8020.895          49.000  
  22520876.164   118348003.461        1780.672          50.000  
 16  4  2 12 40 44.7000000  0  2G04G23
  21395570.398   112434480.457       -8025.949          49.000  
  22520842.336   118347825.691        1774.578          50.000  
 16  4  2 12 40 44.8000000  0  2G04G23
  21395723.180   112435283.273       -8030.551          49.000  
  22520808.625   118347648.496        1768.766          50.000  
 16  4  2 12 40 44.9000000  0  2G04G23
  21395876.070   112436086.711       -8036.840          49.000  
  22520775.039   118347472.020        1761.613          50.000  
 16  4  2 12 40 45.0000000  0  2G04G23
  21396029.047   112436890.578       -8041.188          49.000  
  22520741.547   118347296.082        1756.086          50.000  
 16  4  2 12 40 45.1000000  0  2G04G23
  21396182.117   112437694.973       -8046.273          49.000  
  22520708.195   118347120.793        1749.820          50.000  
 16  4  2 12 40 45.2000000  0  2G04G23
  21396335.289   112438499.898       -8051.660          49.000  
  22520674.938   118346946.133        1743.391          50.000  
 16  4  2 12 40 45.3000000  0  2G04G23
  21396488.555   112439305.301       -8056.566          49.000  
  22520641.812   118346772.062        1737.434          50.000  
 16  4  2 12 40 45.4000000  0  2G04G23
  21396641.914   112440111.199       -8061.121          49.000  
  22520608.797   118346598.594        1731.750          50.000  
 16  4  2 12 40 45.5000000  0  2G04G23
  21396795.352   112440917.539       -8065.621          49.000  
  22520575.891   118346425.668        1726.234          50.000  
 16  4  2 12 40 45.6000000  0  2G04G23
  21396948.891   112441724.383       -8070.742          49.000  
  22520543.102   118346253.375        1719.980          50.000  
 16  4  2 12 40 45.7000000  0  2G04G23
  21397102.523   112442531.738       -8075.793          49.000  
  22520510.430   118346081.684        1713.863          50.000  
 16  4  2 12 40 45.8000000  0  2G04G23
  21397256.250   112443339.621       -8081.340          49.000  
  22520477.875   118345910.637        1707.219          50.000  
 16  4  2 12 40 45.9000000  0  2G04G23
  21397410.094   112444148.051       -8086.688          49.000  
  22520445.445   118345740.234        1700.863          50.000  
 16  4  2 12 40 46.0000000  0  2G04G23
  21397564.023   112444956.965       -8091.609          49.000  
  22520413.148   118345570.445        1694.734          50.000  
 16  4  2 12 40 46.1000000  0  2G04G23
  21397718.047   112445766.383       -8096.715          49.000  
  22520380.953   118345401.254        1688.652          50.000  
 16  4  2 12 40 46.2000000  0  2G04G23
  21397872.164   112446576.273       -8101.273          49.000  
  22520348.867   118345232.652        1682.984          50.000  
 16  4  2 12 40 46.3000000  0  2G04G23
  21398026.383   112447386.672       -8106.375          49.000  
  22520316.898   118345064.660        1676.695          50.000  
 16  4  2 12 40 46.4000000  0  2G04G23
  21398180.711   112448197.656       -8112.305          49.000  
  22520285.062   118344897.359        1669.809          50.000  
 16  4  2 12 40 46.5000000  0  2G04G23
  21398335.117   112449009.055       -8116.367          49.000  
  22520253.328   118344730.594        1664.621          50.000  
 16  4  2 12 40 46.6000000  0  2G04G23
  21398489.617   112449820.930       -8120.961          49.000  
  22520221.711   118344564.410        1658.820          50.000  
 16  4  2 12 40 46.7000000  0  2G04G23
  21398644.227   112450633.391       -8126.988          49.000  
  22520190.219   118344398.910        1651.855          50.000  
 16  4  2 12 40 46.8000000  0  2G04G23
  21398798.938   112451446.340       -8132.047          49.000  
  22520158.828   118344234.023        1645.531          50.000  
 16  4  2 12 40 46.9000000  0  2G04G23
  21398953.742   112452259.812       -8137.043          49.000  
  22520127.570   118344069.758        1639.637          50.000  
 16  4  2 12 40 47.0000000  0  2G04G23
  21399108.617   112453073.703       -8141.375          49.000  
  22520096.406   118343906.027        1634.082          50.000  
 16  4  2 12 40 47.1000000  0  2G04G23
  21399263.602   112453888.145       -8146.691          49.000  
  22520065.375   118343742.949        1627.777          50.000  
 16  4  2 12 40 47.2000000  0  2G04G23
  21399418.664   112454703.059       -8151.324          49.000  
  22520034.445   118343580.461        1621.953          50.000  
 16  4  2 12 40 47.3000000  0  2G04G23
  21399573.828   112455518.441       -8156.125          49.000  
  22520003.633   118343418.535        1616.168          50.000  
 16  4  2 12 40 47.4000000  0  2G04G23
  21399729.109   112456334.426       -8162.402          49.000  
  22519972.953   118343257.336        1608.781          50.000  
 16  4  2 12 40 47.5000000  0  2G04G23
  21399884.477   112457150.895       -8167.227          49.000  
  22519942.391   118343096.723        1602.906          50.000  
 16  4  2 12 40 47.6000000  0  2G04G23
  21400039.930   112457967.789       -8171.277          49.000  
  22519911.945   118342936.652        1597.703          50.000  
 16  4  2 12 40 47.7000000  0  2G04G23
  21400195.477   112458785.172       -8175.930          49.000  
  22519881.594   118342777.172        1591.941          50.000  
 16  4  2 12 40 47.8000000  0  2G04G23
  21400351.125   112459603.078       -8181.301          49.000  
  22519851.359   118342618.328        1585.562          50.000  
 16  4  2 12 40 47.9000000  0  2G04G23
  21400506.859   112460421.449       -8186.188          49.000  
  22519821.242   118342460.051        1579.543          50.000  
 16  4  2 12 40 48.0000000  0  2G04G23
  21400662.703   112461240.410       -8191.977          49.000  
  22519791.266   118342302.488        1572.543          50.000  
 16  4  2 12 40 48.1000000  0  2G04G23
  21400818.633   112462059.816       -8196.512          49.000  
  22519761.383   118342145.469        1566.953          50.000  
 16  4  2 12 40 48.2000000  0  2G04G23
  21400974.656   112462879.695       -8201.086          49.000  
  22519731.617   118341989.039        1561.246          50.000  
 16  4  2 12 40 48.3000000  0  2G04G23
  21401130.773   112463700.078       -8206.023          49.000  
  22519701.961   118341833.211        1555.367          50.000  
 16  4  2 12 40 48.4000000  0  2G04G23
  21401286.984   112464520.938       -8210.879          49.000  
  22519672.438   118341677.977        1549.355          50.000  
 16  4  2 12 40 48.5000000  0  2G04G23
  21401443.281   112465342.320       -8216.199          49.000  
  22519643.016   118341523.371        1543.035          50.000  
 16  4  2 12 40 48.6000000  0  2G04G23
  21401599.664   112466164.145       -8220.520          49.000  
  22519613.695   118341369.324        1537.418          50.000  
 16  4  2 12 40 48.7000000  0  2G04G23
  21401756.156   112466986.508       -8225.855          49.000  
  22519584.508   118341215.922        1531.039          50.000  
 16  4  2 12 40 48.8000000  0  2G04G23
  21401912.734   112467809.332       -8230.527          49.000  
  22519555.422   118341063.098        1525.250          50.000  
 16  4  2 12 40 48.9000000  0  2G04G23
  21402069.406   112468632.637       -8235.398          49.000  
  22519526.445   118340910.836        1519.430          50.000  
 16  4  2 12 40 49.0000000  0  2G04G23
  21402226.172   112469456.445       -8240.301          49.000  
  22519497.586   118340759.219        1513.227          50.000  
 16  4  2 12 40 49.1000000  0  2G04G23
  21402383.039   112470280.773       -8245.684          49.000  
  22519468.852   118340608.215        1506.832          50.000  
 16  4  2 12 40 49.2000000  0  2G04G23
  21402540.008   112471105.660       -8251.301          49.000  
  22519440.250   118340457.891        1500.152          50.000  
 16  4  2 12 40 49.3000000  0  2G04G23
  21402697.070   112471931.004       -8255.766          49.000  
  22519411.750   118340308.121        1494.586          50.000  
 16  4  2 12 40 49.4000000  0  2G04G23
  21402854.219   112472756.801       -8260.309          49.000  
  22519383.352   118340158.914        1489.027          50.000  
 16  4  2 12 40 49.5000000  0  2G04G23
  21403011.461   112473583.117       -8265.488          49.000  
  22519355.086   118340010.355        1482.547          50.000  
 16  4  2 12 40 49.6000000  0  2G04G23
  21403168.812   112474409.941       -8270.469          49.000  
  22519326.938   118339862.395        1476.574          50.000  
 16  4  2 12 40 49.7000000  0  2G04G23
  21403326.258   112475237.293       -8275.961          49.000  
  22519298.898   118339715.074        1469.973          50.000  
 16  4  2 12 40 49.8000000  0  2G04G23
  21403483.781   112476065.105       -8280.512          49.000  
  22519270.969   118339568.336        1464.277          50.000  
 16  4  2 12 40 49.9000000  0  2G04G23
  21403641.406   112476893.430       -8285.414          49.000  
  22519243.156   118339422.207        1458.398          50.000  
 16  4  2 12 40 50.0000000  0  2G04G23
  21403799.125   112477722.238       -8290.387          49.000  
  22519215.469   118339276.676        1452.219          50.000  
 16  4  2 12 40 50.1000000  0  2G04G23
  21403956.922   112478551.477       -8294.512          49.000  
  22519187.883   118339131.688        1447.062          50.000  
 16  4  2 12 40 50.2000000  0  2G04G23
  21404114.828   112479381.246       -8299.930          49.000  
  22519160.406   118338987.336        1440.469          50.000  
 16  4  2 12 40 50.3000000  0  2G04G23
  21404272.820   112480211.484       -8304.742          49.000  
  22519133.047   118338843.555        1434.734          50.000  
 16  4  2 12 40 50.4000000  0  2G04G23
  21404430.898   112481042.199       -8309.609          49.000  
  22519105.797   118338700.387        1428.477          50.000  
 16  4  2 12 40 50.5000000  0  2G04G23
  21404589.086   112481873.477       -8315.223          49.000  
  22519078.680   118338557.871        1421.906          50.000  
 16  4  2 12 40 50.6000000  0  2G04G23
  21404747.367   112482705.262       -8320.320          49.000  
  22519051.688   118338415.977        1415.785          50.000  
 16  4  2 12 40 50.7000000  0  2G04G23
  21404905.727   112483537.418       -8323.898          49.000  
  22519024.773   118338274.566        1411.035          50.000  
 16  4  2 12 40 50.8000000  0  2G04G23
  21405064.164   112484370.113       -8328.930          49.000  
  22518997.992   118338133.801        1404.891          50.000  
 16  4  2 12 40 50.9000000  0  2G04G23
  21405222.719   112485203.297       -8334.160          49.000  
  22518971.320   118337993.637        1398.531          50.000  
 16  4  2 12 40 51.0000000  0  2G04G23
  21405381.375   112486037.059       -8340.062          49.000  
  22518944.773   118337854.168        1391.559          50.000  
 16  4  2 12 40 51.1000000  0  2G04G23
  21405540.117   112486871.246       -8344.414          49.000  
  22518918.328   118337715.223        1386.133          50.000  
 16  4  2 12 40 51.2000000  0  2G04G23
  21405698.961   112487706.020       -8350.125          49.000  
  22518892.031   118337576.980        1379.258          50.000  
 16  4  2 12 40 51.3000000  0  2G04G23
  21405857.906   112488541.258       -8354.840          49.000  
  22518865.836   118337439.309        1373.535          50.000  
 16  4  2 12 40 51.4000000  0  2G04G23
  21406016.938   112489377.008       -8359.926          49.000  
  22518839.750   118337302.262        1367.285          50.000  
 16  4  2 12 40 51.5000000  0  2G04G23
  21406176.062   112490213.219       -8364.430          49.000  
  22518813.781   118337165.797        1361.676          50.000  
 16  4  2 12 40 51.6000000  0  2G04G23
  21406335.273   112491049.891       -8368.891          49.000  
  22518787.922   118337029.891        1356.102          50.000  
 16  4  2 12 40 51.7000000  0  2G04G23
  21406494.594   112491887.094       -8374.215          49.000  
  22518762.180   118336894.625        1349.746          50.000  
 16  4  2 12 40 51.8000000  0  2G04G23
  21406653.992   112492724.762       -8379.051          49.000  
  22518736.555   118336759.945        1343.699          50.000  
 16  4  2 12 40 51.9000000  0  2G04G23
  21406813.484   112493562.922       -8383.883          49.000  
  22518711.039   118336625.855        1337.812          50.000  
 16  4  2 12 40 52.0000000  0  2G04G23
  21406973.070   112494401.566       -8388.801          49.000  
  22518685.641   118336492.367        1331.738          50.000  
 16  4  2 12 40 52.1000000  0  2G04G23
  21407132.742   112495240.625       -8392.754          49.000  
  22518660.336   118336359.410        1326.680          50.000  
 16  4  2 12 40 52.2000000  0  2G04G23
  21407292.508   112496080.180       -8397.766          49.000  
  22518635.156   118336227.051        1320.586          50.000  
 16  4  2 12 40 52.3000000  0  2G04G23
  21407452.375   112496920.281       -8403.398          49.000  
  22518610.094   118336095.344        1313.949          50.000  
 16  4  2 12 40 52.4000000  0  2G04G23
  21407612.344   112497760.895       -8408.656          49.000  
  22518585.156   118335964.281        1307.336          50.000  
 16  4  2 12 40 52.5000000  0  2G04G23
  21407772.406   112498602.039       -8413.805          49.000  
  22518560.336   118335833.840        1301.195          50.000  
 16  4  2 12 40 52.6000000  0  2G04G23
  21407932.555   112499443.633       -8418.242          49.000  
  22518535.625   118335703.957        1295.887          50.000  
 16  4  2 12 40 52.7000000  0  2G04G23
  21408092.797   112500285.680       -8422.844          49.000  
  22518511.023   118335574.664        1289.836          50.000  
 16  4  2 12 40 52.8000000  0  2G04G23
  21408253.125   112501128.250       -8428.008          49.000  
  22518486.531   118335445.977        1283.660          50.000  
 16  4  2 12 40 52.9000000  0  2G04G23
  21408413.562   112501971.332       -8433.148          49.000  
  22518462.156   118335317.918        1277.473          50.000  
 16  4  2 12 40 53.0000000  0  2G04G23
  21408574.086   112502814.926       -8438.504          49.000  
  22518437.906   118335190.496        1270.930          50.000  
 16  4  2 12 40 53.1000000  0  2G04G23
  21408734.711   112503658.984       -8442.969          49.000  
  22518413.766   118335063.633        1265.535          50.000  
 16  4  2 12 40 53.2000000  0  2G04G23
  21408895.414   112504503.523       -8447.664          49.000  
  22518389.734   118334937.371        1259.656          50.000  
 16  4  2 12 40 53.3000000  0  2G04G23
  21409056.219   112505348.531       -8452.383          49.000  
  22518365.820   118334811.691        1253.770          50.000  
 16  4  2 12 40 53.4000000  0  2G04G23
  21409217.141   112506194.125       -8458.215          49.000  
  22518342.031   118334686.699        1246.867          50.000  
 16  4  2 12 40 53.5000000  0  2G04G23
  21409378.148   112507040.211       -8463.445          49.000  
  22518318.367   118334562.316        1240.492          50.000  
 16  4  2 12 40 53.6000000  0  2G04G23
  21409539.242   112507886.797       -8468.363          49.000  
  22518294.820   118334438.539        1234.562          50.000  
 16  4  2 12 40 53.7000000  0  2G04G23
  21409700.430   112508733.836       -8472.809          49.000  
  22518271.367   118334315.328        1228.949          50.000  
 16  4  2 12 40 53.8000000  0  2G04G23
  21409861.719   112509581.422       -8478.215          49.000  
  22518248.047   118334192.781        1222.316          50.000  
 16  4  2 12 40 53.9000000  0  2G04G23
  21410023.109   112510429.523       -8483.512          49.000  
  22518224.844   118334070.859        1215.875          50.000  
 16  4  2 12 40 54.0000000  0  2G04G23
  21410184.609   112511278.184       -8489.133          49.000  
  22518201.781   118333949.602        1209.305          50.000  
 16  4  2 12 40 54.1000000  0  2G04G23
  21410346.180   112512127.270       -8493.387          49.000  
  22518178.812   118333828.891        1203.828          50.000  
 16  4  2 12 40 54.2000000  0  2G04G23
  21410507.852   112512976.809       -8497.660          49.000  
  22518155.938   118333708.727        1198.707          50.000  
 16  4  2 12 40 54.3000000  0  2G04G23
  21410669.602   112513826.844       -8502.695          49.000  
  22518133.195   118333589.191        1192.301          50.000  
 16  4  2 12 40 54.4000000  0  2G04G23
  21410831.461   112514677.391       -8507.738          49.000  
  22518110.555   118333470.262        1186.309          50.000  
 16  4  2 12 40 54.5000000  0  2G04G23
  21410993.398   112515528.406       -8512.680          49.000  
  22518088.039   118333351.922        1180.215          50.000  
 16  4  2 12 40 54.6000000  0  2G04G23
  21411155.438   112516379.926       -8517.508          49.000  
  22518065.633   118333234.195        1174.199          50.000  
 16  4  2 12 40 54.7000000  0  2G04G23
  21411317.562   112517231.871       -8521.570          49.000  
  22518043.328   118333117.004        1168.984          50.000  
 16  4  2 12 40 54.8000000  0  2G04G23
  21411479.766   112518084.320       -8526.719          49.000  
  22518021.148   118333000.438        1162.684          50.000  
 16  4  2 12 40 54.9000000  0  2G04G23
  21411642.086   112518937.309       -8532.137          49.000  
  22517999.086   118332884.504        1156.262          50.000  
 16  4  2 12 40 55.0000000  0  2G04G23
  21411804.500   112519790.789       -8537.344          49.000  
  22517977.148   118332769.188        1149.848          50.000  
 16  4  2 12 40 55.1000000  0  2G04G23
  21411967.016   112520644.797       -8542.367          49.000  
  22517955.320   118332654.504        1143.855          50.000  
 16  4  2 12 40 55.2000000  0  2G04G23
  21412129.609   112521499.258       -8547.125          49.000  
  22517933.617   118332540.391        1137.855          50.000  
 16  4  2 12 40 55.3000000  0  2G04G23
  21412292.305   112522354.227       -8551.980          49.000  
  22517912.016   118332426.891        1131.941          50.000  
 16  4  2 12 40 55.4000000  0  2G04G23
  21412455.094   112523209.691       -8557.043          49.000  
  22517890.539   118332314.000        1125.715          50.000  
 16  4  2 12 40 55.5000000  0  2G04G23
  21412617.977   112524065.664       -8562.234          49.000  
  22517869.180   118332201.727        1119.473          50.000  
 16  4  2 12 40 55.6000000  0  2G04G23
  21412780.953   112524922.102       -8566.598          49.000  
  22517847.922   118332090.035        1114.066          50.000  
 16  4  2 12 40 55.7000000  0  2G04G23
  21412944.016   112525779.027       -8571.648          49.000  
  22517826.781   118331978.941        1107.820          50.000  
 16  4  2 12 40 55.8000000  0  2G04G23
  21413107.180   112526636.441       -8576.609          49.000  
  22517805.758   118331868.453        1101.707          50.000  
 16  4  2 12 40 55.9000000  0  2G04G23
  21413270.445   112527494.402       -8581.852          49.000  
  22517784.852   118331758.613        1095.398          50.000  
 16  4  2 12 40 56.0000000  0  2G04G23
  21413433.805   112528352.871       -8587.125          49.000  
  22517764.070   118331649.402        1088.793          50.000  
 16  4  2 12 40 56.1000000  0  2G04G23
  21413597.242   112529211.758       -8591.125          49.000  
  22517743.391   118331540.707        1084.027          50.000  
 16  4  2 12 40 56.2000000  0  2G04G23
  21413760.773   112530071.137       -8596.082          49.000  
  22517722.820   118331432.625        1077.715          50.000  
 16  4  2 12 40 56.3000000  0  2G04G23
  21413924.406   112530931.031       -8601.246          49.000  
  22517702.375   118331325.184        1071.320          50.000  
 16  4  2 12 40 56.4000000  0  2G04G23
  21414088.133   112531791.426       -8606.203          49.000  
  22517682.047   118331218.328        1065.445          50.000  
 16  4  2 12 40 56.5000000  0  2G04G23
  21414251.953   112532652.312       -8611.336          49.000  
  22517661.836   118331112.102        1059.195          50.000  
 16  4  2 12 40 56.6000000  0  2G04G23
  21414415.867   112533513.672       -8615.949          49.000  
  22517641.742   118331006.441        1053.500          50.000  
 16  4  2 12 40 56.7000000  0  2G04G23
  21414579.875   112534375.523       -8620.887          49.000  
  22517621.750   118330901.391        1047.438          50.000  
 16  4  2 12 40 56.8000000  0  2G04G23
  21414743.969   112535237.855       -8625.656          49.000  
  22517601.867   118330796.941        1041.469          50.000  
 16  4  2 12 40 56.9000000  0  2G04G23
  21414908.156   112536100.695       -8630.566          49.000  
  22517582.109   118330693.098        1035.539          50.000  
 16  4  2 12 40 57.0000000  0  2G04G23
  21415072.438   112536964.008       -8635.461          49.000  
  22517562.469   118330589.855        1029.324          50.000  
 16  4  2 12 40 57.1000000  0  2G04G23
  21415236.820   112537827.828       -8640.516          49.000  
  22517542.938   118330487.223        1023.211          50.000  
 16  4  2 12 40 57.2000000  0  2G04G23
  21415401.297   112538692.148       -8645.738          49.000  
  22517523.523   118330385.199        1016.875          50.000  
 16  4  2 12 40 57.3000000  0  2G04G23
  21415565.867   112539556.953       -8650.328          49.000  
  22517504.227   118330283.770        1011.305          50.000  
 16  4  2 12 40 57.4000000  0  2G04G23
  21415730.516   112540422.230       -8655.207          49.000  
  22517485.039   118330182.938        1005.129          50.000  
 16  4  2 12 40 57.5000000  0  2G04G23
  21415895.273   112541288.066       -8660.699          49.000  
  22517465.977   118330082.766         998.543          50.000  
 16  4  2 12 40 57.6000000  0  2G04G23
  21416060.133   112542154.418       -8665.785          49.000  
  22517447.031   118329983.230         992.375          50.000  
 16  4  2 12 40 57.7000000  0  2G04G23
  21416225.062   112543021.152       -8669.648          49.000  
  22517428.180   118329884.188         987.398          50.000  
 16  4  2 12 40 57.8000000  0  2G04G23
  21416390.086   112543888.379       -8674.348          49.000  
  22517409.453   118329785.742         981.680          50.000  
 16  4  2 12 40 57.9000000  0  2G04G23
  21416555.211   112544756.102       -8679.605          49.000  
  22517390.836   118329687.914         975.109          50.000  
 16  4  2 12 40 58.0000000  0  2G04G23
  21416720.438   112545624.383       -8685.273          49.000  
  22517372.359   118329590.754         968.410          50.000  
 16  4  2 12 40 58.1000000  0  2G04G23
  21416885.758   112546493.141       -8690.121          49.000  
  22517353.977   118329494.180         962.461          50.000  
 16  4  2 12 40 58.2000000  0  2G04G23
  21417051.172   112547362.387       -8694.871          49.000  
  22517335.711   118329398.211         956.527          50.000  
 16  4  2 12 40 58.3000000  0  2G04G23
  21417216.672   112548232.105       -8699.465          49.000  
  22517317.562   118329302.828         950.773          50.000  
 16  4  2 12 40 58.4000000  0  2G04G23
  21417382.281   112549102.410       -8705.445          49.000  
  22517299.539   118329208.137         943.719          50.000  
 16  4  2 12 40 58.5000000  0  2G04G23
  21417547.977   112549973.133       -8709.734          49.000  
  22517281.625   118329113.984         938.215          50.000  
 16  4  2 12 40 58.6000000  0  2G04G23
  21417713.766   112550844.375       -8714.734          49.000  
  22517263.836   118329020.457         932.156          50.000  
 16  4  2 12 40 58.7000000  0  2G04G23
  21417879.648   112551716.105       -8719.586          49.000  
  22517246.148   118328927.527         926.285          50.000  
 16  4  2 12 40 58.8000000  0  2G04G23
  21418045.617   112552588.273       -8724.039          49.000  
  22517228.570   118328835.152         920.637          50.000  
 16  4  2 12 40 58.9000000  0  2G04G23
  21418211.695   112553460.992       -8729.488          49.000  
  22517211.117   118328743.445         914.031          50.000  
 16  4  2 12 40 59.0000000  0  2G04G23
  21418377.859   112554334.246       -8735.066          49.000  
  22517193.789   118328652.379         907.418          50.000  
 16  4  2 12 40 59.1000000  0  2G04G23
  21418544.109   112555207.895       -8738.957          49.000  
  22517176.555   118328561.828         902.312          50.000  
 16  4  2 12 40 59.2000000  0  2G04G23
  21418710.469   112556082.074       -8743.910          49.000  
  22517159.453   118328471.930         896.211          50.000  
 16  4  2 12 40 59.3000000  0  2G04G23
  21418876.898   112556956.680       -8748.348          49.000  
  22517142.445   118328382.547         890.703          50.000  
 16  4  2 12 40 59.4000000  0  2G04G23
  21419043.422   112557831.781       -8753.199          49.000  
  22517125.562   118328293.781         884.773          50.000  
 16  4  2 12 40 59.5000000  0  2G04G23
  21419210.039   112558707.383       -8758.414          49.000  
  22517108.781   118328205.625         878.480          50.000  
 16  4  2 12 40 59.6000000  0  2G04G23
  21419376.766   112559583.543       -8763.980          49.000  
  22517092.141   118328118.148         871.629          50.000  
 16  4  2 12 40 59.7000000  0  2G04G23
  21419543.578   112560460.145       -8768.578          49.000  
  22517075.602   118328031.223         865.930          50.000  
 16  4  2 12 40 59.8000000  0  2G04G23
  21419710.484   112561337.254       -8773.438          49.000  
  22517059.180   118327944.930         859.859          50.000  
 16  4  2 12 40 59.9000000  0  2G04G23
  21419877.484   112562214.855       -8778.273          49.000  
  22517042.875   118327859.219         854.055          50.000  
 16  4  2 12 41  0.0000000  0  2G04G23
  21420044.586   112563092.930       -8783.137          49.000  
  22517026.672   118327774.121         848.043          50.000  
 16  4  2 12 41  0.1000000  0  2G04G23
  21420211.766   112563971.473       -8787.637          49.000  
  22517010.586   118327689.578         842.465          50.000  
 16  4  2 12 41  0.2000000  0  2G04G23
  21420379.047   112564850.512       -8792.820          49.000  
  22516994.617   118327605.660         836.016          50.000  
 16  4  2 12 41  0.3000000  0  2G04G23
  21420546.414   112565730.062       -8797.816          49.000  
  22516978.773   118327522.363         829.973          50.000  
 16  4  2 12 41  0.4000000  0  2G04G23
  21420713.883   112566610.090       -8802.555          49.000  
  22516963.031   118327439.648         824.129          50.000  
 16  4  2 12 41  0.5000000  0  2G04G23
  21420881.422   112567490.531       -8806.848          49.000  
  22516947.391   118327357.480         818.371          50.000  
 16  4  2 12 41  0.6000000  0  2G04G23
  21421049.078   112568371.555       -8812.586          49.000  
  22516931.883   118327275.980         811.914          50.000  
 16  4  2 12 41  0.7000000  0  2G04G23
  21421216.812   112569253.016       -8816.926          49.000  
  22516916.484   118327195.059         806.145          50.000  
 16  4  2 12 41  0.8000000  0  2G04G23
  21421384.648   112570134.984       -8821.926          49.000  
  22516901.203   118327114.738         800.137          50.000  
 16  4  2 12 41  0.9000000  0  2G04G23
  21421552.578   112571017.453       -8826.910          49.000  
  22516886.031   118327035.035         794.168          50.000  
 16  4  2 12 41  1.0000000  0  2G04G23
  21421720.602   112571900.398       -8831.988          49.000  
  22516870.984   118326955.926         787.789          50.000  
 16  4  2 12 41  1.1000000  0  2G04G23
  21421888.711   112572783.844       -8836.695          49.000  
  22516856.047   118326877.426         782.016          50.000  
 16  4  2 12 41  1.2000000  0  2G04G23
  21422056.914   112573667.742       -8841.402          49.000  
  22516841.211   118326799.496         776.141          50.000  
 16  4  2 12 41  1.3000000  0  2G04G23
  21422225.195   112574552.090       -8845.605          49.000  
  22516826.492   118326722.125         770.824          50.000  
 16  4  2 12 41  1.4000000  0  2G04G23
  21422393.562   112575436.891       -8850.148          49.000  
  22516811.883   118326645.328         765.094          50.000  
 16  4  2 12 41  1.5000000  0  2G04G23
  21422562.047   112576322.266       -8856.137          49.000  
  22516797.398   118326569.219         757.973          50.000  
 16  4  2 12 41  1.6000000  0  2G04G23
  21422730.617   112577208.086       -8860.695          49.000  
  22516783.023   118326493.652         752.512          50.000  
 16  4  2 12 41  1.7000000  0  2G04G23
  21422899.266   112578094.359       -8865.141          49.000  
  22516768.758   118326418.676         746.688          50.000  
 16  4  2 12 41  1.8000000  0  2G04G23
  21423068.008   112578981.113       -8869.836          49.000  
  22516754.602   118326344.277         740.832          50.000  
 16  4  2 12 41  1.9000000  0  2G04G23
  21423236.844   112579868.359       -8874.680          49.000  
  22516740.562   118326270.492         734.871          50.000  
 16  4  2 12 41  2.0000000  0  2G04G23
  21423405.789   112580756.129       -8880.086          49.000  
  22516726.641   118326197.336         728.398          50.000  
 16  4  2 12 41  2.1000000  0  2G04G23
  21423574.820   112581644.418       -8885.301          49.000  
  22516712.844   118326124.820         721.961          50.000  
 16  4  2 12 41  2.2000000  0  2G04G23
  21423743.953   112582533.203       -8890.285          49.000  
  22516699.164   118326052.910         715.871          50.000  
 16  4  2 12 41  2.3000000  0  2G04G23
  21423913.172   112583422.484       -8895.152          49.000  
  22516685.594   118325981.613         709.887          50.000  
 16  4  2 12 41  2.4000000  0  2G04G23
  21424082.484   112584312.227       -8899.617          49.000  
  22516672.133   118325910.883         704.340          50.000  
 16  4  2 12 41  2.5000000  0  2G04G23
  21424251.883   112585202.430       -8904.328          49.000  
  22516658.781   118325840.738         698.309          50.000  
 16  4  2 12 41  2.6000000  0  2G04G23
  21424421.383   112586093.141       -8909.328          49.000  
  22516645.555   118325771.211         692.223          50.000  
 16  4  2 12 41  2.7000000  0  2G04G23
  21424590.969   112586984.348       -8914.391          49.000  
  22516632.445   118325702.285         686.070          50.000  
 16  4  2 12 41  2.8000000  0  2G04G23
  21424760.641   112587876.008       -8919.043          49.000  
  22516619.438   118325633.938         680.332          50.000  
 16  4  2 12 41  2.9000000  0  2G04G23
  21424930.422   112588768.219       -8924.441          49.000  
  22516606.555   118325566.258         673.629          50.000  
 16  4  2 12 41  3.0000000  0  2G04G23
  21425100.305   112589660.934       -8929.543          49.000  
  22516593.797   118325499.180         667.559          50.000  
 16  4  2 12 41  3.1000000  0  2G04G23
  21425270.281   112590554.125       -8934.387          49.000  
  22516581.148   118325432.707         661.461          50.000  
 16  4  2 12 41  3.2000000  0  2G04G23
  21425440.344   112591447.809       -8939.203          49.000  
  22516568.609   118325366.824         655.777          50.000  
 16  4  2 12 41  3.3000000  0  2G04G23
  21425610.484   112592341.918       -8943.332          49.000  
  22516556.180   118325301.488         650.391          50.000  
 16  4  2 12 41  3.4000000  0  2G04G23
  21425780.719   112593236.531       -8948.555          49.000  
  22516543.867   118325236.789         643.828          50.000  
 16  4  2 12 41  3.5000000  0  2G04G23
  21425951.047   112594131.582       -8952.754          49.000  
  22516531.656   118325172.617         638.715          50.000  
 16  4  2 12 41  3.6000000  0  2G04G23
  21426121.477   112595027.188       -8958.230          49.000  
  22516519.570   118325109.121         631.988          50.000  
 16  4  2 12 41  3.7000000  0  2G04G23
  21426291.984   112595923.227       -8962.652          49.000  
  22516507.594   118325046.184         626.316          50.000  
 16  4  2 12 41  3.8000000  0  2G04G23
  21426462.594   112596819.820       -8968.344          49.000  
  22516495.758   118324983.906         619.578          50.000  
 16  4  2 12 41  3.9000000  0  2G04G23
  21426633.297   112597716.871       -8972.973          49.000  
  22516484.016   118324922.188         614.023          50.000  
 16  4  2 12 41  4.0000000  0  2G04G23
  21426804.086   112598614.371       -8977.227          49.000  
  22516472.383   118324861.055         608.539          50.000  
 16  4  2 12 41  4.1000000  0  2G04G23
  21426974.961   112599512.316       -8981.703          49.000  
  22516460.859   118324800.473         602.766          50.000  
 16  4  2 12 41  4.2000000  0  2G04G23
  21427145.922   112600410.738       -8986.438          49.000  
  22516449.438   118324740.477         596.938          50.000  
 16  4  2 12 41  4.3000000  0  2G04G23
  21427316.992   112601309.715       -8992.055          49.000  
  22516438.148   118324681.145         590.137          50.000  
 16  4  2 12 41  4.4000000  0  2G04G23
  21427488.148   112602209.137       -8996.520          49.000  
  22516426.969   118324622.387         584.551          50.000  
 16  4  2 12 41  4.5000000  0  2G04G23
  21427659.398   112603109.043       -9001.410          49.000  
  22516415.898   118324564.215         578.652          50.000  
 16  4  2 12 41  4.6000000  0  2G04G23
  21427830.750   112604009.480       -9006.699          49.000  
  22516404.961   118324506.707         571.965          50.000  
 16  4  2 12 41  4.7000000  0  2G04G23
  21428002.195   112604910.445       -9011.973          49.000  
  22516394.141   118324449.828         565.727          50.000  
 16  4  2 12 41  4.8000000  0  2G04G23
  21428173.719   112605811.820       -9016.129          49.000  
  22516383.414   118324393.469         560.438          50.000  
 16  4  2 12 41  4.9000000  0  2G04G23
  21428345.344   112606713.688       -9020.973          49.000  
  22516372.805   118324337.727         554.281          50.000  
 16  4  2 12 41  5.0000000  0  2G04G23
  21428517.062   112607616.047       -9025.926          49.000  
  22516362.305   118324282.586         548.238          50.000  
 16  4  2 12 41  5.1000000  0  2G04G23
  21428688.867   112608518.898       -9030.859          49.000  
  22516351.930   118324228.043         542.355          50.000  
 16  4  2 12 41  5.2000000  0  2G04G23
  21428860.766   112609422.254       -9035.973          49.000  
  22516341.664   118324174.129         536.043          50.000  
 16  4  2 12 41  5.3000000  0  2G04G23
  21429032.766   112610326.121       -9041.086          49.000  
  22516331.523   118324120.844         529.656          50.000  
 16  4  2 12 41  5.4000000  0  2G04G23
  21429204.852   112611230.473       -9045.824          49.000  
  22516321.500   118324068.152         523.801          50.000  
 16  4  2 12 41  5.5000000  0  2G04G23
  21429377.039   112612135.309       -9050.621          49.000  
  22516311.586   118324016.055         517.977          50.000  
 16  4  2 12 41  5.6000000  0  2G04G23
  21429549.305   112613040.605       -9055.336          49.000  
  22516301.781   118323964.543         512.000          50.000  
 16  4  2 12 41  5.7000000  0  2G04G23
  21429721.680   112613946.426       -9060.551          49.000  
  22516292.102   118323913.672         505.594          50.000  
 16  4  2 12 41  5.8000000  0  2G04G23
  21429894.141   112614852.711       -9065.230          49.000  
  22516282.531   118323863.367         499.941          50.000  
 16  4  2 12 41  5.9000000  0  2G04G23
  21430066.695   112615759.500       -9070.176          49.000  
  22516273.078   118323813.695         493.680          50.000  
 16  4  2 12 41  6.0000000  0  2G04G23
  21430239.344   112616666.734       -9074.672          49.000  
  22516263.719   118323764.570         488.184          50.000  
 16  4  2 12 41  6.1000000  0  2G04G23
  21430412.086   112617574.504       -9079.988          49.000  
  22516254.500   118323716.109         481.562          50.000  
 16  4  2 12 41  6.2000000  0  2G04G23
  21430584.922   112618482.754       -9084.723          49.000  
  22516245.383   118323668.230         475.766          50.000  
 16  4  2 12 41  6.3000000  0  2G04G23
  21430757.844   112619391.461       -9089.383          49.000  
  22516236.383   118323620.934         469.887          50.000  
 16  4  2 12 41  6.4000000  0  2G04G23
  21430930.875   112620300.734       -9095.121          49.000  
  22516227.508   118323574.297         463.234          50.000  
 16  4  2 12 41  6.5000000  0  2G04G23
  21431103.984   112621210.438       -9099.438          49.000  
  22516218.742   118323528.234         457.523          50.000  
 16  4  2 12 41  6.6000000  0  2G04G23
  21431277.195   112622120.641       -9104.293          49.000  
  22516210.086   118323482.762         451.605          50.000  
 16  4  2 12 41  6.7000000  0  2G04G23
  21431450.492   112623031.344       -9109.355          49.000  
  22516201.555   118323437.922         445.348          50.000  
 16  4  2 12 41  6.8000000  0  2G04G23
  21431623.891   112623942.539       -9114.301          49.000  
  22516193.133   118323393.684         439.324          50.000  
 16  4  2 12 41  6.9000000  0  2G04G23
  21431797.375   112624854.227       -9119.332          49.000  
  22516184.828   118323350.055         433.152          50.000  
 16  4  2 12 41  7.0000000  0  2G04G23
  21431970.953   112625766.379       -9123.840          49.000  
  22516176.641   118323307.008         427.457          50.000  
 16  4  2 12 41  7.1000000  0  2G04G23
  21432144.617   112626678.984       -9128.453          49.000  
  22516168.555   118323264.520         421.605          50.000  
 16  4  2 12 41  7.2000000  0  2G04G23
  21432318.398   112627592.156       -9133.957          49.000  
  22516160.602   118323222.719         415.047          50.000  
 16  4  2 12 41  7.3000000  0  2G04G23
  21432492.250   112628505.777       -9138.391          49.000  
  22516152.758   118323181.477         409.473          50.000  
 16  4  2 12 41  7.4000000  0  2G04G23
  21432666.188   112629419.828       -9142.883          49.000  
  22516145.008   118323140.789         403.648          50.000  
 16  4  2 12 41  7.5000000  0  2G04G23
  21432840.227   112630334.406       -9147.996          49.000  
  22516137.391   118323100.738         397.492          50.000  
 16  4  2 12 41  7.6000000  0  2G04G23
  21433014.359   112631249.504       -9153.344          49.000  
  22516129.883   118323061.324         390.910          50.000  
 16  4  2 12 41  7.7000000  0  2G04G23
  21433188.578   112632165.035       -9157.477          49.000  
  22516122.492   118323022.453         385.703          50.000  
 16  4  2 12 41  7.8000000  0  2G04G23
  21433362.898   112633081.059       -9162.449          49.000  
  22516115.211   118322984.191         379.641          50.000  
 16  4  2 12 41  7.9000000  0  2G04G23
  21433537.312   112633997.609       -9167.719          49.000  
  22516108.055   118322946.578         373.219          50.000  
 16  4  2 12 41  8.0000000  0  2G04G23
  21433711.812   112634914.617       -9172.363          49.000  
  22516101.000   118322909.527         367.496          50.000  
 16  4  2 12 41  8.1000000  0  2G04G23
  21433886.398   112635832.059       -9176.754          49.000  
  22516094.055   118322873.043         361.781          50.000  
 16  4  2 12 41  8.2000000  0  2G04G23
  21434061.086   112636750.055       -9182.336          49.000  
  22516087.242   118322837.215         355.078          50.000  
 16  4  2 12 41  8.3000000  0  2G04G23
  21434235.867   112637668.566       -9187.488          49.000  
  22516080.539   118322802.012         348.914          50.000  
 16  4  2 12 41  8.4000000  0  2G04G23
  21434410.742   112638587.547       -9192.371          49.000  
  22516073.961   118322767.406         342.809          50.000  
 16  4  2 12 41  8.5000000  0  2G04G23
  21434585.719   112639507.066       -9197.508          49.000  
  22516067.492   118322733.449         336.512          50.000  
 16  4  2 12 41  8.6000000  0  2G04G23
  21434760.773   112640426.969       -9201.355          49.000  
  22516061.133   118322700.004         331.359          50.000  
 16  4  2 12 41  8.7000000  0  2G04G23
  21434935.930   112641347.418       -9206.691          49.000  
  22516054.891   118322667.211         324.914          50.000  
 16  4  2 12 41  8.8000000  0  2G04G23
  21435111.180   112642268.375       -9211.848          49.000  
  22516048.766   118322635.035         318.590          50.000  
 16  4  2 12 41  8.9000000  0  2G04G23
  21435286.531   112643189.852       -9217.090          49.000  
  22516042.766   118322603.496         312.164          50.000  
 16  4  2 12 41  9.0000000  0  2G04G23
  21435461.969   112644111.770       -9221.473          49.000  
  22516036.867   118322572.516         306.742          50.000  
 16  4  2 12 41  9.1000000  0  2G04G23
  21435637.484   112645034.133       -9225.844          49.000  
  22516031.078   118322542.105         301.152          50.000  
 16  4  2 12 41  9.2000000  0  2G04G23
  21435813.094   112645956.949       -9230.312          49.000  
  22516025.406   118322512.254         295.504          50.000  
 16  4  2 12 41  9.3000000  0  2G04G23
  21435988.789   112646880.219       -9234.801          49.000  
  22516019.828   118322482.977         289.828          50.000  
 16  4  2 12 41  9.4000000  0  2G04G23
  21436164.586   112647804.020       -9240.203          49.000  
  22516014.383   118322454.336         283.367          50.000  
 16  4  2 12 41  9.5000000  0  2G04G23
  21436340.477   112648728.320       -9245.352          49.000  
  22516009.055   118322426.320         277.043          50.000  
 16  4  2 12 41  9.6000000  0  2G04G23
  21436516.453   112649653.066       -9249.773          49.000  
  22516003.836   118322398.867         271.457          50.000  
 16  4  2 12 41  9.7000000  0  2G04G23
  21436692.523   112650578.309       -9254.750          49.000  
  22515998.727   118322372.012         265.535          50.000  
 16  4  2 12 41  9.8000000  0  2G04G23
  21436868.688   112651504.094       -9260.355          49.000  
  22515993.742   118322345.836         258.461          50.000  
 16  4  2 12 41  9.9000000  0  2G04G23
  21437044.953   112652430.367       -9265.230          49.000  
  22515988.875   118322320.250         252.695          50.000  
 16  4  2 12 41 10.0000000  0  2G04G23
  21437221.289   112653357.027       -9268.949          49.000  
  22515984.109   118322295.172         247.637          50.000  
 16  4  2 12 41 10.1000000  0  2G04G23
  21437397.734   112654284.234       -9274.293          49.000  
  22515979.461   118322270.758         241.156          50.000  
 16  4  2 12 41 10.2000000  0  2G04G23
  21437574.258   112655211.926       -9279.203          49.000  
  22515974.930   118322246.949         235.027          50.000  
 16  4  2 12 41 10.3000000  0  2G04G23
  21437750.875   112656140.059       -9283.684          49.000  
  22515970.508   118322223.680         229.625          50.000  
 16  4  2 12 41 10.4000000  0  2G04G23
  21437927.594   112657068.684       -9288.484          49.000  
  22515966.195   118322201.043         223.316          50.000  
 16  4  2 12 41 10.5000000  0  2G04G23
  21438104.406   112657997.824       -9293.578          49.000  
  22515962.008   118322179.020         217.320          50.000  
 16  4  2 12 41 10.6000000  0  2G04G23
  21438281.297   112658927.391       -9297.965          49.000  
  22515957.914   118322157.543         211.715          50.000  
 16  4  2 12 41 10.7000000  0  2G04G23
  21438458.289   112659857.488       -9303.242          49.000  
  22515953.953   118322136.715         205.246          50.000  
 16  4  2 12 41 10.8000000  0  2G04G23
  21438635.375   112660788.070       -9308.191          49.000  
  22515950.102   118322116.484         199.191          50.000  
 16  4  2 12 41 10.9000000  0  2G04G23
  21438812.547   112661719.121       -9312.805          49.000  
  22515946.359   118322096.840         193.410          50.000  
 16  4  2 12 41 11.0000000  0  2G04G23
  21438989.820   112662650.684       -9317.992          49.000  
  22515942.742   118322077.832         187.039          50.000  
 16  4  2 12 41 11.1000000  0  2G04G23
  21439167.172   112663582.676       -9322.215          49.000  
  22515939.227   118322059.355         181.656          50.000  
 16  4  2 12 41 11.2000000  0  2G04G23
  21439344.633   112664515.223       -9327.805          49.000  
  22515935.844   118322041.555         174.980          50.000  
 16  4  2 12 41 11.3000000  0  2G04G23
  21439522.180   112665448.234       -9332.477          49.000  
  22515932.562   118322024.344         169.070          50.000  
 16  4  2 12 41 11.4000000  0  2G04G23
  21439699.820   112666381.734       -9337.426          49.000  
  22515929.406   118322007.727         162.996          50.000  
 16  4  2 12 41 11.5000000  0  2G04G23
  21439877.547   112667315.703       -9341.887          49.000  
  22515926.352   118321991.699         157.348          50.000  
 16  4  2 12 41 11.6000000  0  2G04G23
  21440055.359   112668250.105       -9346.422          49.000  
  22515923.406   118321976.223         151.605          50.000  
 16  4  2 12 41 11.7000000  0  2G04G23
  21440233.273   112669185.055       -9351.809          49.000  
  22515920.594   118321961.414         145.098          50.000  
 16  4  2 12 41 11.8000000  0  2G04G23
  21440411.266   112670120.457       -9356.496          49.000  
  22515917.875   118321947.164         139.324          50.000  
 16  4  2 12 41 11.9000000  0  2G04G23
  21440589.352   112671056.332       -9360.863          49.000  
  22515915.281   118321933.516         133.543          50.000  
 16  4  2 12 41 12.0000000  0  2G04G23
  21440767.547   112671992.727       -9366.258          49.000  
  22515912.805   118321920.492         127.234          50.000  
 16  4  2 12 41 12.1000000  0  2G04G23
  21440945.828   112672929.629       -9371.594          49.000  
  22515910.445   118321908.094         120.703          50.000  
 16  4  2 12 41 12.2000000  0  2G04G23
  21441124.203   112673866.992       -9376.059          49.000  
  22515908.188   118321896.273         114.973          50.000  
 16  4  2 12 41 12.3000000  0  2G04G23
  21441302.672   112674804.816       -9380.555          49.000  
  22515906.055   118321885.043         109.230          50.000  
 16  4  2 12 41 12.4000000  0  2G04G23
  21441481.227   112675743.129       -9385.582          49.000  
  22515904.031   118321874.398         103.176          50.000  
 16  4  2 12 41 12.5000000  0  2G04G23
  21441659.875   112676681.949       -9390.469          49.000  
  22515902.133   118321864.395          96.980          50.000  
 16  4  2 12 41 12.6000000  0  2G04G23
  21441838.617   112677621.262       -9395.293          49.000  
  22515900.336   118321854.984          91.113          50.000  
 16  4  2 12 41 12.7000000  0  2G04G23
  21442017.445   112678560.988       -9399.602          49.000  
  22515898.648   118321846.113          85.691          50.000  
 16  4  2 12 41 12.8000000  0  2G04G23
  21442196.375   112679501.273       -9405.301          49.000  
  22515897.094   118321837.930          78.688          50.000  
 16  4  2 12 41 12.9000000  0  2G04G23
  21442375.406   112680442.082       -9410.625          49.000  
  22515895.656   118321830.363          72.406          50.000  
 16  4  2 12 41 13.0000000  0  2G04G23
  21442554.516   112681383.332       -9414.863          49.000  
  22515894.328   118321823.375          66.805          50.000  
 16  4  2 12 41 13.1000000  0  2G04G23
  21442733.711   112682324.992       -9418.652          49.000  
  22515893.094   118321816.902          61.875          50.000  
 16  4  2 12 41 13.2000000  0  2G04G23
  21442913.000   112683267.188       -9424.090          49.000  
  22515891.984   118321811.078          55.398          50.000  
 16  4  2 12 41 13.3000000  0  2G04G23
  21443092.383   112684209.852       -9429.074          49.000  
  22515890.992   118321805.848          49.246          50.000  
 16  4  2 12 41 13.4000000  0  2G04G23
  21443271.867   112685153.035       -9434.215          49.000  
  22515890.117   118321801.258          42.727          50.000  
 16  4  2 12 41 13.5000000  0  2G04G23
  21443451.438   112686096.664       -9438.594          49.000  
  22515889.352   118321797.227          37.168          50.000  
 16  4  2 12 41 13.6000000  0  2G04G23
  21443631.102   112687040.836       -9443.945          49.000  
  22515888.711   118321793.844          30.922          50.000  
 16  4  2 12 41 13.7000000  0  2G04G23
  21443810.844   112687985.375       -9447.672          49.000  
  22515888.164   118321790.965          25.672          50.000  
 16  4  2 12 41 13.8000000  0  2G04G23
  21443990.703   112688930.492       -9453.465          49.000  
  22515887.742   118321788.762          18.953          50.000  
 16  4  2 12 41 13.9000000  0  2G04G23
  21444170.648   112689876.129       -9458.703          49.000  
  22515887.445   118321787.207          12.484          50.000  
 16  4  2 12 41 14.0000000  0  2G04G23
  21444350.672   112690822.195       -9462.898          49.000  
  22515887.250   118321786.195           7.035          50.000  
 16  4  2 12 41 14.1000000  0  2G04G23
  21444530.789   112691768.695       -9467.246          49.000  
  22515887.164   118321785.734           1.559          50.000  
 16  4  2 12 41 14.2000000  0  2G04G23
  21444711.000   112692715.719       -9472.418          49.000  
  22515887.195   118321785.914          -4.734          50.000  
 16  4  2 12 41 14.3000000  0  2G04G23
  21444891.305   112693663.242       -9477.609          49.000  
  22515887.344   118321786.711         -11.188          50.000  
 16  4  2 12 41 14.4000000  0  2G04G23
  21445071.711   112694611.238       -9482.449          49.000  
  22515887.609   118321788.098         -17.168          50.000  
 16  4  2 12 41 14.5000000  0  2G04G23
  21445252.211   112695559.758       -9487.469          49.000  
  22515887.992   118321790.125         -23.270          50.000  
 16  4  2 12 41 14.6000000  0  2G04G23
  21445432.781   112696508.664       -9491.461          49.000  
  22515888.477   118321792.656         -28.438          50.000  
 16  4  2 12 41 14.7000000  0  2G04G23
  21445613.461   112697458.129       -9496.953          49.000  
  22515889.086   118321795.863         -35.113          50.000  
 16  4  2 12 41 14.8000000  0  2G04G23
  21445794.227   112698408.047       -9501.469          49.000  
  22515889.805   118321799.641         -40.859          50.000  
 16  4  2 12 41 14.9000000  0  2G04G23
  21445975.086   112699358.461       -9506.352          49.000  
  22515890.641   118321804.043         -46.961          50.000  
 16  4  2 12 41 15.0000000  0  2G04G23
  21446156.039   112700309.348       -9511.164          49.000  
  22515891.586   118321809.016         -52.844          50.000  
 16  4  2 12 41 15.1000000  0  2G04G23
  21446337.070   112701260.703       -9515.676          49.000  
  22515892.648   118321814.586         -58.566          50.000  
 16  4  2 12 41 15.2000000  0  2G04G23
  21446518.203   112702212.523       -9520.383          49.000  
  22515893.820   118321820.734         -64.480          50.000  
 16  4  2 12 41 15.3000000  0  2G04G23
  21446699.414   112703164.820       -9525.145          49.000  
  22515895.102   118321827.477         -70.336          50.000  
 16  4  2 12 41 15.4000000  0  2G04G23
  21446880.734   112704117.641       -9530.504          49.000  
  22515896.508   118321834.859         -76.863          50.000  
 16  4  2 12 41 15.5000000  0  2G04G23
  21447062.141   112705070.922       -9535.172          49.000  
  22515898.023   118321842.828         -82.848          50.000  
 16  4  2 12 41 15.6000000  0  2G04G23
  21447243.633   112706024.715       -9540.113          49.000  
  22515899.656   118321851.418         -88.820          50.000  
 16  4  2 12 41 15.7000000  0  2G04G23
  21447425.219   112706978.953       -9544.699          49.000  
  22515901.398   118321860.570         -94.629          50.000  
 16  4  2 12 41 15.8000000  0  2G04G23
  21447606.898   112707933.672       -9549.320          49.000  
  22515903.258   118321870.332        -100.434          50.000  
 16  4  2 12 41 15.9000000  0  2G04G23
  21447788.664   112708888.840       -9554.148          49.000  
  22515905.219   118321880.648        -106.566          50.000  
 16  4  2 12 41 16.0000000  0  2G04G23
  21447970.516   112709844.512       -9558.816          49.000  
  22515907.305   118321891.582        -112.195          50.000  
 16  4  2 12 41 16.1000000  0  2G04G23
  21448152.445   112710800.574       -9562.957          49.000  
  22515909.484   118321903.039        -117.602          50.000  
 16  4  2 12 41 16.2000000  0  2G04G23
  21448334.484   112711757.145       -9567.762          49.000  
  22515911.781   118321915.117        -123.594          50.000  
 16  4  2 12 41 16.3000000  0  2G04G23
  21448516.609   112712714.234       -9573.246          49.000  
  22515914.195   118321927.832        -130.242          50.000  
 16  4  2 12 41 16.4000000  0  2G04G23
  21448698.828   112713671.812       -9578.164          49.000  
  22515916.727   118321941.148        -136.305          50.000  
 16  4  2 12 41 16.5000000  0  2G04G23
  21448881.156   112714629.945       -9583.727          49.000  
  22515919.391   118321955.137        -143.004          50.000  
 16  4  2 12 41 16.6000000  0  2G04G23
  21449063.570   112715588.543       -9588.500          49.000  
  22515922.164   118321969.719        -149.043          50.000  
 16  4  2 12 41 16.7000000  0  2G04G23
  21449246.070   112716547.555       -9592.281          49.000  
  22515925.039   118321984.828        -154.035          50.000  
 16  4  2 12 41 16.8000000  0  2G04G23
  21449428.656   112717507.059       -9597.230          49.000  
  22515928.031   118322000.527        -159.996          50.000  
 16  4  2 12 41 16.9000000  0  2G04G23
  21449611.336   112718467.051       -9602.148          49.000  
  22515931.141   118322016.855        -166.172          50.000  
 16  4  2 12 41 17.0000000  0  2G04G23
  21449794.102   112719427.496       -9606.742          49.000  
  22515934.352   118322033.750        -171.930          50.000  
 16  4  2 12 41 17.1000000  0  2G04G23
  21449976.961   112720388.434       -9611.719          49.000  
  22515937.688   118322051.262        -178.285          50.000  
 16  4  2 12 41 17.2000000  0  2G04G23
  21450159.922   112721349.914       -9617.129          49.000  
  22515941.148   118322069.422        -184.766          50.000  
 16  4  2 12 41 17.3000000  0  2G04G23
  21450342.977   112722311.879       -9621.980          49.000  
  22515944.719   118322088.195        -190.801          50.000  
 16  4  2 12 41 17.4000000  0  2G04G23
  21450526.117   112723274.250       -9625.852          49.000  
  22515948.391   118322107.484        -195.863          50.000  
 16  4  2 12 41 17.5000000  0  2G04G23
  21450709.336   112724237.066       -9630.340          49.000  
  22515952.164   118322127.332        -201.480          50.000  
 16  4  2 12 41 17.6000000  0  2G04G23
  21450892.656   112725200.426       -9635.746          49.000  
  22515956.070   118322147.855        -208.168          50.000  
 16  4  2 12 41 17.7000000  0  2G04G23
  21451076.070   112726164.273       -9640.852          49.000  
  22515960.094   118322168.984        -214.430          50.000  
 16  4  2 12 41 17.8000000  0  2G04G23
  21451259.578   112727128.613       -9645.793          49.000  
  22515964.227   118322190.703        -220.387          50.000  
 16  4  2 12 41 17.9000000  0  2G04G23
  21451443.188   112728093.477       -9651.227          49.000  
  22515968.484   118322213.074        -227.051          50.000  
 16  4  2 12 41 18.0000000  0  2G04G23
  21451626.891   112729058.816       -9655.641          49.000  
  22515972.859   118322236.055        -232.758          50.000  
 16  4  2 12 41 18.1000000  0  2G04G23
  21451810.664   112730024.551       -9659.555          49.000  
  22515977.320   118322259.531        -237.688          50.000  
 16  4  2 12 41 18.2000000  0  2G04G23
  21451994.539   112730990.820       -9665.117          49.000  
  22515981.922   118322283.672        -244.660          50.000  
 16  4  2 12 41 18.3000000  0  2G04G23
  21452178.508   112731957.602       -9670.191          49.000  
  22515986.633   118322308.430        -250.824          50.000  
 16  4  2 12 41 18.4000000  0  2G04G23
  21452362.578   112732924.879       -9675.035          49.000  
  22515991.461   118322333.828        -257.031          50.000  
 16  4  2 12 41 18.5000000  0  2G04G23
  21452546.734   112733892.633       -9679.801          49.000  
  22515996.398   118322359.781        -262.707          50.000  
 16  4  2 12 41 18.6000000  0  2G04G23
  21452730.992   112734860.863       -9684.574          49.000  
  22516001.461   118322386.363        -268.805          50.000  
 16  4  2 12 41 18.7000000  0  2G04G23
  21452915.328   112735829.566       -9689.387          49.000  
  22516006.625   118322413.520        -274.633          50.000  
 16  4  2 12 41 18.8000000  0  2G04G23
  21453099.758   112736798.754       -9694.137          49.000  
  22516011.914   118322441.281        -280.676          50.000  
 16  4  2 12 41 18.9000000  0  2G04G23
  21453284.266   112737768.352       -9698.129          49.000  
  22516017.297   118322469.582        -285.934          50.000  
 16  4  2 12 41 19.0000000  0  2G04G23
  21453468.875   112738738.461       -9703.309          49.000  
  22516022.805   118322498.492        -292.219          50.000  
 16  4  2 12 41 19.1000000  0  2G04G23
  21453653.578   112739709.082       -9708.520          49.000  
  22516028.430   118322528.043        -298.516          50.000  
 16  4  2 12 41 19.2000000  0  2G04G23
  21453838.367   112740680.164       -9713.066          49.000  
  22516034.164   118322558.184        -304.383          50.000  
 16  4  2 12 41 19.3000000  0  2G04G23
  21454023.242   112741651.688       -9717.355          49.000  
  22516040.008   118322588.879        -309.875          50.000  
 16  4  2 12 41 19.4000000  0  2G04G23
  21454208.211   112742623.695       -9722.301          49.000  
  22516045.969   118322620.164        -315.883          50.000  
 16  4  2 12 41 19.5000000  0  2G04G23
  21454393.273   112743596.223       -9727.535          49.000  
  22516052.047   118322652.102        -322.438          50.000  
 16  4  2 12 41 19.6000000  0  2G04G23
  21454578.422   112744569.199       -9732.191          49.000  
  22516058.227   118322684.605        -328.246          50.000  
 16  4  2 12 41 19.7000000  0  2G04G23
  21454763.672   112745542.668       -9736.992          49.000  
  22516064.531   118322717.719        -334.172          50.000  
 16  4  2 12 41 19.8000000  0  2G04G23
  21454949.000   112746516.621       -9741.738          49.000  
  22516070.938   118322751.430        -340.059          50.000  
 16  4  2 12 41 19.9000000  0  2G04G23
  21455134.422   112747491.023       -9746.172          49.000  
  22516077.461   118322785.715        -345.676          50.000  
 16  4  2 12 41 20.0000000  0  2G04G23
  21455319.945   112748465.938       -9751.422          49.000  
  22516084.109   118322820.633        -352.227          50.000  
 16  4  2 12 41 20.1000000  0  2G04G23
  21455505.555   112749441.324       -9756.109          49.000  
  22516090.867   118322856.137        -358.008          50.000  
 16  4  2 12 41 20.2000000  0  2G04G23
  21455691.258   112750417.172       -9760.758          49.000  
  22516097.734   118322892.219        -363.883          50.000  
 16  4  2 12 41 20.3000000  0  2G04G23
  21455877.047   112751393.512       -9765.660          49.000  
  22516104.719   118322928.914        -370.008          50.000  
 16  4  2 12 41 20.4000000  0  2G04G23
  21456062.930   112752370.355       -9770.707          49.000  
  22516111.812   118322966.238        -376.285          50.000  
 16  4  2 12 41 20.5000000  0  2G04G23
  21456248.914   112753347.684       -9775.656          49.000  
  22516119.031   118323004.156        -382.348          50.000  
 16  4  2 12 41 20.6000000  0  2G04G23
  21456434.977   112754325.449       -9779.922          49.000  
  22516126.352   118323042.641        -387.867          50.000  
 16  4  2 12 41 20.7000000  0  2G04G23
  21456621.141   112755303.754       -9785.383          49.000  
  22516133.797   118323081.766        -394.492          50.000  
 16  4  2 12 41 20.8000000  0  2G04G23
  21456807.383   112756282.496       -9789.836          49.000  
  22516141.352   118323121.465        -400.078          50.000  
 16  4  2 12 41 20.9000000  0  2G04G23
  21456993.727   112757261.711       -9794.375          49.000  
  22516149.023   118323161.750        -405.773          50.000  
 16  4  2 12 41 21.0000000  0  2G04G23
  21457180.156   112758241.410       -9799.258          49.000  
  22516156.797   118323202.645        -412.004          50.000  
 16  4  2 12 41 21.1000000  0  2G04G23
  21457366.672   112759221.559       -9803.727          49.000  
  22516164.688   118323244.098        -417.535          50.000  
 16  4  2 12 41 21.2000000  0  2G04G23
  21457553.281   112760202.203       -9808.805          49.000  
  22516172.695   118323286.164        -423.848          50.000  
 16  4  2 12 41 21.3000000  0  2G04G23
  21457739.992   112761183.367       -9813.973          49.000  
  22516180.828   118323328.883        -430.273          50.000  
 16  4  2 12 41 21.4000000  0  2G04G23
  21457926.781   112762164.961       -9818.289          49.000  
  22516189.055   118323372.141        -435.707          50.000  
 16  4  2 12 41 21.5000000  0  2G04G23
  21458113.664   112763147.059       -9823.254          49.000  
  22516197.414   118323416.027        -441.961          50.000  
 16  4  2 12 41 21.6000000  0  2G04G23
  21458300.633   112764129.590       -9827.520          49.000  
  22516205.867   118323460.465        -447.434          50.000  
 16  4  2 12 41 21.7000000  0  2G04G23
  21458487.711   112765112.699       -9833.254          49.000  
  22516214.453   118323505.590        -454.258          50.000  
 16  4  2 12 41 21.8000000  0  2G04G23
  21458674.867   112766096.207       -9837.414          49.000  
  22516223.141   118323551.234        -459.559          50.000  
 16  4  2 12 41 21.9000000  0  2G04G23
  21458862.125   112767080.258       -9842.762          49.000  
  22516231.953   118323597.555        -466.215          50.000  
 16  4  2 12 41 22.0000000  0  2G04G23
  21459049.469   112768064.730       -9847.020          49.000  
  22516240.875   118323644.414        -471.613          50.000  
 16  4  2 12 41 22.1000000  0  2G04G23
  21459236.898   112769049.660       -9851.414          49.000  
  22516249.898   118323691.848        -477.359          50.000  
 16  4  2 12 41 22.2000000  0  2G04G23
  21459424.414   112770035.121       -9856.746          49.000  
  22516259.039   118323739.918        -483.645          50.000  
 16  4  2 12 41 22.3000000  0  2G04G23
  21459612.023   112771021.004       -9861.109          49.000  
  22516268.297   118323788.547        -489.273          50.000  
 16  4  2 12 41 22.4000000  0  2G04G23
  21459799.719   112772007.352       -9865.621          49.000  
  22516277.664   118323837.750        -494.957          50.000  
 16  4  2 12 41 22.5000000  0  2G04G23
  21459987.508   112772994.215       -9871.070          49.000  
  22516287.148   118323887.594        -501.699          50.000  
 16  4  2 12 41 22.6000000  0  2G04G23
  21460175.406   112773981.617       -9876.410          49.000  
  22516296.758   118323938.098        -508.246          50.000  
 16  4  2 12 41 22.7000000  0  2G04G23
  21460363.391   112774969.461       -9880.840          49.000  
  22516306.469   118323989.152        -513.746          50.000  
 16  4  2 12 41 22.8000000  0  2G04G23
  21460551.453   112775957.781       -9885.434          49.000  
  22516316.297   118324040.805        -519.480          50.000  
 16  4  2 12 41 22.9000000  0  2G04G23
  21460739.609   112776946.555       -9889.996          49.000  
  22516326.242   118324093.047        -525.426          50.000  
 16  4  2 12 41 23.0000000  0  2G04G23
  21460927.875   112777935.863       -9895.555          49.000  
  22516336.297   118324145.930        -532.129          50.000  
 16  4  2 12 41 23.1000000  0  2G04G23
  21461116.219   112778925.641       -9900.160          49.000  
  22516346.469   118324199.395        -537.766          50.000  
 16  4  2 12 41 23.2000000  0  2G04G23
  21461304.656   112779915.883       -9904.656          49.000  
  22516356.758   118324253.465        -543.602          50.000  
 16  4  2 12 41 23.3000000  0  2G04G23
  21461493.188   112780906.625       -9909.629          49.000  
  22516367.164   118324308.141        -549.762          50.000  
 16  4  2 12 41 23.4000000  0  2G04G23
  21461681.805   112781897.797       -9913.918          49.000  
  22516377.680   118324363.367        -555.211          50.000  
 16  4  2 12 41 23.5000000  0  2G04G23
  21461870.523   112782889.508       -9919.398          49.000  
  22516388.312   118324419.254        -561.934          50.000  
 16  4  2 12 41 23.6000000  0  2G04G23
  21462059.336   112783881.719       -9924.379          49.000  
  22516399.062   118324475.762        -568.109          50.000  
 16  4  2 12 41 23.7000000  0  2G04G23
  21462248.234   112784874.375       -9928.898          49.000  
  22516409.922   118324532.824        -573.703          50.000  
 16  4  2 12 41 23.8000000  0  2G04G23
  21462437.227   112785867.555       -9934.129          49.000  
  22516420.906   118324590.543        -580.320          50.000  
 16  4  2 12 41 23.9000000  0  2G04G23
  21462626.312   112786861.215       -9938.992          49.000  
  22516432.000   118324648.859        -586.352          50.000  
 16  4  2 12 41 24.0000000  0  2G04G23
  21462815.484   112787855.301       -9943.211          49.000  
  22516443.203   118324707.723        -591.738          50.000  
 16  4  2 12 41 24.1000000  0  2G04G23
  21463004.750   112788849.902       -9948.102          49.000  
  22516454.523   118324767.215        -597.828          50.000  
 16  4  2 12 41 24.2000000  0  2G04G23
  21463194.102   112789844.945       -9952.668          49.000  
  22516465.953   118324827.273        -603.574          50.000  
 16  4  2 12 41 24.3000000  0  2G04G23
  21463383.531   112790840.402       -9956.703          49.000  
  22516477.484   118324887.867        -608.832          50.000  
 16  4  2 12 41 24.4000000  0  2G04G23
  21463573.055   112791836.383       -9962.129          49.000  
  22516489.133   118324949.098        -615.406          50.000  
 16  4  2 12 41 24.5000000  0  2G04G23
  21463762.672   112792832.820       -9966.770          49.000  
  22516500.898   118325010.902        -621.137          50.000  
 16  4  2 12 41 24.6000000  0  2G04G23
  21463952.375   112793829.711       -9971.137          49.000  
  22516512.773   118325073.309        -627.078          50.000  
 16  4  2 12 41 24.7000000  0  2G04G23
  21464142.164   112794827.094       -9975.969          49.000  
  22516524.758   118325136.289        -632.848          50.000  
 16  4  2 12 41 24.8000000  0  2G04G23
  21464332.062   112795825.020       -9981.684          49.000  
  22516536.867   118325199.953        -639.852          50.000  
 16  4  2 12 41 24.9000000  0  2G04G23
  21464522.055   112796823.410       -9986.238          49.000  
  22516549.094   118325264.199        -645.504          50.000  
 16  4  2 12 41 25.0000000  0  2G04G23
  21464712.125   112797822.223       -9990.371          49.000  
  22516561.422   118325328.977        -650.707          50.000  
 16  4  2 12 41 25.1000000  0  2G04G23
  21464902.266   112798821.449       -9994.422          49.000  
  22516573.852   118325394.309        -656.270          50.000  
 16  4  2 12 41 25.2000000  0  2G04G23
  21465092.516   112799821.168       -9999.270          49.000  
  22516586.398   118325460.246        -662.234          50.000  
 16  4  2 12 41 25.3000000  0  2G04G23
  21465282.859   112800821.453      -10005.387          49.000  
  22516599.078   118325526.867        -669.555          50.000  
 16  4  2 12 41 25.4000000  0  2G04G23
  21465473.312   112801822.273      -10010.645          49.000  
  22516611.883   118325594.137        -675.812          50.000  
 16  4  2 12 41 25.5000000  0  2G04G23
  21465663.836   112802823.465      -10014.336          49.000  
  22516624.781   118325661.910        -680.883          50.000  
 16  4  2 12 41 25.6000000  0  2G04G23
  21465854.453   112803825.203      -10019.637          49.000  
  22516637.797   118325730.336        -687.234          50.000  
 16  4  2 12 41 25.7000000  0  2G04G23
  21466045.164   112804827.406      -10024.422          49.000  
  22516650.938   118325799.363        -693.461          50.000  
 16  4  2 12 41 25.8000000  0  2G04G23
  21466235.977   112805830.098      -10029.090          49.000  
  22516664.180   118325868.992        -699.273          50.000  
 16  4  2 12 41 25.9000000  0  2G04G23
  21466426.875   112806833.258      -10033.887          49.000  
  22516677.547   118325939.215        -705.293          50.000  
 16  4  2 12 41 26.0000000  0  2G04G23
  21466617.859   112807836.891      -10038.617          49.000  
  22516691.023   118326010.027        -711.156          50.000  
 16  4  2 12 41 26.1000000  0  2G04G23
  21466808.930   112808841.008      -10043.547          49.000  
  22516704.609   118326081.441        -717.414          50.000  
 16  4  2 12 41 26.2000000  0  2G04G23
  21467000.109   112809845.625      -10048.543          49.000  
  22516718.312   118326153.480        -723.504          50.000  
 16  4  2 12 41 26.3000000  0  2G04G23
  21467191.367   112810850.730      -10053.227          49.000  
  22516732.133   118326226.121        -729.395          50.000  
 16  4  2 12 41 26.4000000  0  2G04G23
  21467382.719   112811856.285      -10057.973          49.000  
  22516746.070   118326299.344        -735.410          50.000  
 16  4  2 12 41 26.5000000  0  2G04G23
  21467574.156   112812862.293      -10062.309          49.000  
  22516760.109   118326373.129        -740.879          50.000  
 16  4  2 12 41 26.6000000  0  2G04G23
  21467765.680   112813868.766      -10066.871          49.000  
  22516774.258   118326447.496        -746.621          50.000  
 16  4  2 12 41 26.7000000  0  2G04G23
  21467957.289   112814875.707      -10071.555          49.000  
  22516788.523   118326522.473        -752.637          50.000  
 16  4  2 12 41 26.8000000  0  2G04G23
  21468149.008   112815883.168      -10076.844          49.000  
  22516802.914   118326598.074        -759.059          50.000  
 16  4  2 12 41 26.9000000  0  2G04G23
  21468340.805   112816891.062      -10081.285          49.000  
  22516817.406   118326674.227        -764.645          50.000  
 16  4  2 12 41 27.0000000  0  2G04G23
  21468532.688   112817899.457      -10086.152          49.000  
  22516832.023   118326751.016        -770.840          50.000  
 16  4  2 12 41 27.1000000  0  2G04G23
  21468724.680   112818908.352      -10091.375          49.000  
  22516846.750   118326828.402        -777.164          50.000  
 16  4  2 12 41 27.2000000  0  2G04G23
  21468916.750   112819917.703      -10095.930          49.000  
  22516861.586   118326906.383        -782.953          50.000  
 16  4  2 12 41 27.3000000  0  2G04G23
  21469108.922   112820927.586      -10101.219          49.000  
  22516876.555   118326985.020        -789.539          50.000  
 16  4  2 12 41 27.4000000  0  2G04G23
  21469301.203   112821938.016      -10106.605          49.000  
  22516891.641   118327064.316        -796.062          50.000  
 16  4  2 12 41 27.5000000  0  2G04G23
  21469493.562   112822948.875      -10110.859          49.000  
  22516906.836   118327144.164        -801.508          50.000  
 16  4  2 12 41 27.6000000  0  2G04G23
  21469686.008   112823960.152      -10114.984          49.000  
  22516922.141   118327224.555        -806.984          50.000  
 16  4  2 12 41 27.7000000  0  2G04G23
  21469878.539   112824971.922      -10119.922          49.000  
  22516937.555   118327305.555        -812.914          50.000  
 16  4  2 12 41 27.8000000  0  2G04G23
  21470071.180   112825984.219      -10125.176          49.000  
  22516953.094   118327387.188        -819.266          50.000  
 16  4  2 12 41 27.9000000  0  2G04G23
  21470263.898   112826996.961      -10129.855          49.000  
  22516968.742   118327469.422        -825.516          50.000  
 16  4  2 12 41 28.0000000  0  2G04G23
  21470456.719   112828010.223      -10134.793          49.000  
  22516984.508   118327552.266        -831.379          50.000  
 16  4  2 12 41 28.1000000  0  2G04G23
  21470649.609   112829023.875      -10138.855          49.000  
  22517000.375   118327635.633        -836.719          50.000  
 16  4  2 12 41 28.2000000  0  2G04G23
  21470842.602   112830038.059      -10144.156          49.000  
  22517016.359   118327719.656        -843.246          50.000  
 16  4  2 12 41 28.3000000  0  2G04G23
  21471035.680   112831052.699      -10148.676          49.000  
  22517032.461   118327804.262        -849.137          50.000  
 16  4  2 12 41 28.4000000  0  2G04G23
  21471228.836   112832067.762      -10152.805          49.000  
  22517048.656   118327889.387        -854.180          50.000  
 16  4  2 12 41 28.5000000  0  2G04G23
  21471422.102   112833083.375      -10158.465          49.000  
  22517064.992   118327975.207        -861.277          50.000  
 16  4  2 12 41 28.6000000  0  2G04G23
  21471615.453   112834099.418      -10162.645          49.000  
  22517081.430   118328061.574        -866.566          50.000  
 16  4  2 12 41 28.7000000  0  2G04G23
  21471808.891   112835115.945      -10167.656          49.000  
  22517097.977   118328148.543        -872.875          50.000  
 16  4  2 12 41 28.8000000  0  2G04G23
  21472002.422   112836132.965      -10172.336          49.000  
  22517114.641   118328236.125        -878.672          50.000  
 16  4  2 12 41 28.9000000  0  2G04G23
  21472196.031   112837150.391      -10176.551          49.000  
  22517131.414   118328324.242        -884.203          50.000  
 16  4  2 12 41 29.0000000  0  2G04G23
  21472389.742   112838168.352      -10181.855          49.000  
  22517148.305   118328412.996        -890.668          50.000  
 16  4  2 12 41 29.1000000  0  2G04G23
  21472583.555   112839186.840      -10187.418          49.000  
  22517165.320   118328502.414        -897.570          50.000  
 16  4  2 12 41 29.2000000  0  2G04G23
  21472777.469   112840205.859      -10192.492          49.000  
  22517182.461   118328592.484        -903.703          50.000  
 16  4  2 12 41 29.3000000  0  2G04G23
  21472971.469   112841225.316      -10196.875          49.000  
  22517199.711   118328683.105        -909.328          50.000  
 16  4  2 12 41 29.4000000  0  2G04G23
  21473165.547   112842245.219      -10201.273          49.000  
  22517217.055   118328774.301        -914.969          50.000  
 16  4  2 12 41 29.5000000  0  2G04G23
  21473359.727   112843265.637      -10206.484          49.000  
  22517234.531   118328866.133        -921.352          50.000  
 16  4  2 12 41 29.6000000  0  2G04G23
  21473554.000   112844286.543      -10211.402          49.000  
  22517252.125   118328958.570        -927.371          50.000  
 16  4  2 12 41 29.7000000  0  2G04G23
  21473748.352   112845307.863      -10215.492          49.000  
  22517269.820   118329051.562        -933.121          50.000  
 16  4  2 12 41 29.8000000  0  2G04G23
  21473942.812   112846329.781      -10221.434          49.000  
  22517287.648   118329145.238        -939.863          50.000  
 16  4  2 12 41 29.9000000  0  2G04G23
  21474137.367   112847352.148      -10225.898          49.000  
  22517305.586   118329239.512        -945.629          50.000  
 16  4  2 12 41 30.0000000  0  2G04G23
  21474331.992   112848374.922      -10229.941          49.000  
  22517323.625   118329334.309        -950.938          50.000  
 16  4  2 12 41 30.1000000  0  2G04G23
  21474526.703   112849398.133      -10234.176          49.000  
  22517341.766   118329429.660        -956.387          50.000  
 16  4  2 12 41 30.2000000  0  2G04G23
  21474721.508   112850421.824      -10239.137          49.000  
  22517360.023   118329525.605        -962.508          50.000  
 16  4  2 12 41 30.3000000  0  2G04G23
  21474916.406   112851446.027      -10244.242          49.000  
  22517378.406   118329622.203        -968.965          50.000  
 16  4  2 12 41 30.4000000  0  2G04G23
  21475111.391   112852470.699      -10249.039          49.000  
  22517396.898   118329719.375        -974.812          50.000  
 16  4  2 12 41 30.5000000  0  2G04G23
  21475306.461   112853495.789      -10253.141          49.000  
  22517415.492   118329817.094        -980.180          50.000  
 16  4  2 12 41 30.6000000  0  2G04G23
  21475501.633   112854521.406      -10258.547          49.000  
  22517434.219   118329915.465        -986.859          50.000  
 16  4  2 12 41 30.7000000  0  2G04G23
  21475696.898   112855547.555      -10263.777          49.000  
  22517453.055   118330014.484        -993.246          50.000  
 16  4  2 12 41 30.8000000  0  2G04G23
  21475892.242   112856574.098      -10267.676          49.000  
  22517472.000   118330114.020        -998.340          50.000  
 16  4  2 12 41 30.9000000  0  2G04G23
  21476087.680   112857601.109      -10272.305          49.000  
  22517491.055   118330214.148       -1004.293          50.000  
 16  4  2 12 41 31.0000000  0  2G04G23
  21476283.227   112858628.711      -10278.332          49.000  
  22517510.242   118330314.988       -1011.520          50.000  
 16  4  2 12 41 31.1000000  0  2G04G23
  21476478.859   112859656.758      -10282.852          49.000  
  22517529.539   118330416.391       -1017.211          50.000  
 16  4  2 12 41 31.2000000  0  2G04G23
  21476674.555   112860685.172      -10286.258          49.000  
  22517548.938   118330518.293       -1021.957          50.000  
 16  4  2 12 41 31.3000000  0  2G04G23
  21476870.367   112861714.152      -10292.008          49.000  
  22517568.461   118330620.871       -1028.820          50.000  
 16  4  2 12 41 31.4000000  0  2G04G23
  21477066.266   112862743.582      -10296.512          49.000  
  22517588.086   118330724.027       -1034.508          50.000  
 16  4  2 12 41 31.5000000  0  2G04G23
  21477262.250   112863773.477      -10301.172          49.000  
  22517607.828   118330827.766       -1040.398          50.000  
 16  4  2 12 41 31.6000000  0  2G04G23
  21477458.320   112864803.844      -10305.770          49.000  
  22517627.688   118330932.109       -1046.324          50.000  
 16  4  2 12 41 31.7000000  0  2G04G23
  21477654.477   112865834.672      -10310.535          49.000  
  22517647.648   118331037.012       -1052.141          50.000  
 16  4  2 12 41 31.8000000  0  2G04G23
  21477850.727   112866865.969      -10315.207          49.000  
  22517667.734   118331142.531       -1058.230          50.000  
 16  4  2 12 41 31.9000000  0  2G04G23
  21478047.078   112867897.789      -10320.504          49.000  
  22517687.930   118331248.688       -1064.633          50.000  
 16  4  2 12 41 32.0000000  0  2G04G23
  21478243.516   112868930.086      -10325.250          49.000  
  22517708.242   118331355.438       -1070.633          50.000  
 16  4  2 12 41 32.1000000  0  2G04G23
  21478440.039   112869962.824      -10329.758          49.000  
  22517728.664   118331462.754       -1076.211          50.000  
 16  4  2 12 41 32.2000000  0  2G04G23
  21478636.672   112870996.121      -10335.086          49.000  
  22517749.227   118331570.762       -1082.902          50.000  
 16  4  2 12 41 32.3000000  0  2G04G23
  21478833.375   112872029.809      -10339.254          49.000  
  22517769.875   118331679.273       -1088.359          50.000  
 16  4  2 12 41 32.4000000  0  2G04G23
  21479030.180   112873064.008      -10344.121          49.000  
  22517790.648   118331788.422       -1094.508          50.000  
 16  4  2 12 41 32.5000000  0  2G04G23
  21479227.070   112874098.648      -10348.551          49.000  
  22517811.523   118331898.125       -1100.008          50.000  
 16  4  2 12 41 32.6000000  0  2G04G23
  21479424.047   112875133.770      -10353.488          49.000  
  22517832.508   118332008.426       -1106.070          50.000  
 16  4  2 12 41 32.7000000  0  2G04G23
  21479621.109   112876169.355      -10358.039          49.000  
  22517853.609   118332119.328       -1111.918          50.000  
 16  4  2 12 41 32.8000000  0  2G04G23
  21479818.266   112877205.410      -10362.789          49.000  
  22517874.820   118332230.820       -1117.836          50.000  
 16  4  2 12 41 32.9000000  0  2G04G23
  21480015.516   112878241.949      -10367.594          49.000  
  22517896.156   118332342.926       -1124.133          50.000  
 16  4  2 12 41 33.0000000  0  2G04G23
  21480212.844   112879278.914      -10371.820          49.000  
  22517917.594   118332455.559       -1129.312          50.000  
 16  4  2 12 41 33.1000000  0  2G04G23
  21480410.266   112880316.387      -10376.820          49.000  
  22517939.148   118332568.840       -1135.664          50.000  
 16  4  2 12 41 33.2000000  0  2G04G23
  21480607.789   112881354.344      -10381.996          49.000  
  22517960.812   118332682.723       -1142.070          50.000  
 16  4  2 12 41 33.3000000  0  2G04G23
  21480805.398   112882392.816      -10387.188          49.000  
  22517982.609   118332797.238       -1148.492          50.000  
 16  4  2 12 41 33.4000000  0  2G04G23
  21481003.109   112883431.785      -10392.031          49.000  
  22518004.516   118332912.375       -1154.410          50.000  
 16  4  2 12 41 33.5000000  0  2G04G23
  21481200.898   112884471.184      -10396.305          49.000  
  22518026.531   118333028.070       -1160.035          50.000  
 16  4  2 12 41 33.6000000  0  2G04G23
  21481398.781   112885511.027      -10400.742          49.000  
  22518048.656   118333144.332       -1165.770          50.000  
 16  4  2 12 41 33.7000000  0  2G04G23
  21481596.742   112886551.312      -10404.895          49.000  
  22518070.891   118333261.145       -1170.863          50.000  
 16  4  2 12 41 33.8000000  0  2G04G23
  21481794.781   112887592.016      -10409.152          49.000  
  22518093.219   118333378.508       -1176.406          50.000  
 16  4  2 12 41 33.9000000  0  2G04G23
  21481992.922   112888633.242      -10414.367          49.000  
  22518115.680   118333496.523       -1183.004          50.000  
 16  4  2 12 41 34.0000000  0  2G04G23
  21482191.141   112889674.902      -10419.004          49.000  
  22518138.242   118333615.082       -1188.691          50.000  
 16  4  2 12 41 34.1000000  0  2G04G23
  21482389.461   112890717.082      -10424.070          49.000  
  22518160.922   118333734.305       -1195.293          50.000  
 16  4  2 12 41 34.2000000  0  2G04G23
  21482587.875   112891759.777      -10429.273          49.000  
  22518183.727   118333854.129       -1201.453          50.000  
 16  4  2 12 41 34.3000000  0  2G04G23
  21482786.383   112892802.914      -10433.625          49.000  
  22518206.648   118333974.551       -1207.203          50.000  
 16  4  2 12 41 34.4000000  0  2G04G23
  21482984.961   112893846.473      -10437.832          49.000  
  22518229.656   118334095.500       -1212.418          50.000  
 16  4  2 12 41 34.5000000  0  2G04G23
  21483183.641   112894890.520      -10442.594          49.000  
  22518252.789   118334217.062       -1218.383          50.000  
 16  4  2 12 41 34.6000000  0  2G04G23
  21483382.391   112895934.977      -10446.852          49.000  
  22518276.031   118334339.172       -1224.086          50.000  
 16  4  2 12 41 34.7000000  0  2G04G23
  21483581.234   112896979.922      -10451.664          49.000  
  22518299.383   118334461.891       -1230.203          50.000  
 16  4  2 12 41 34.8000000  0  2G04G23
  21483780.172   112898025.344      -10456.406          49.000  
  22518322.852   118334585.188       -1236.047          50.000  
 16  4  2 12 41 34.9000000  0  2G04G23
  21483979.203   112899071.234      -10461.234          49.000  
  22518346.422   118334709.082       -1242.059          50.000  
 16  4  2 12 41 35.0000000  0  2G04G23
  21484178.328   112900117.625      -10466.250          49.000  
  22518370.125   118334833.602       -1248.270          50.000  
 16  4  2 12 41 35.1000000  0  2G04G23
  21484377.539   112901164.480      -10470.992          49.000  
  22518393.938   118334958.734       -1254.508          50.000  
 16  4  2 12 41 35.2000000  0  2G04G23
  21484576.844   112902211.848      -10475.938          49.000  
  22518417.867   118335084.477       -1260.586          50.000  
 16  4  2 12 41 35.3000000  0  2G04G23
  21484776.250   112903259.730      -10481.121          49.000  
  22518441.914   118335210.855       -1266.879          50.000  
 16  4  2 12 41 35.4000000  0  2G04G23
  21484975.742   112904308.059      -10485.605          49.000  
  22518466.070   118335337.801       -1272.543          50.000  
 16  4  2 12 41 35.5000000  0  2G04G23
  21485175.312   112905356.820      -10489.887          49.000  
  22518490.336   118335465.324       -1278.320          50.000  
 16  4  2 12 41 35.6000000  0  2G04G23
  21485374.992   112906406.094      -10494.824          49.000  
  22518514.719   118335593.465       -1284.367          50.000  
 16  4  2 12 41 35.7000000  0  2G04G23
  21485574.750   112907455.824      -10499.492          49.000  
  22518539.219   118335722.191       -1290.285          50.000  
 16  4  2 12 41 35.8000000  0  2G04G23
  21485774.594   112908506.039      -10504.539          49.000  
  22518563.828   118335851.523       -1296.543          50.000  
 16  4  2 12 41 35.9000000  0  2G04G23
  21485974.539   112909556.750      -10509.293          49.000  
  22518588.562   118335981.477       -1302.480          50.000  
 16  4  2 12 41 36.0000000  0  2G04G23
  21486174.570   112910607.910      -10513.789          49.000  
  22518613.391   118336111.992       -1308.137          50.000  
 16  4  2 12 41 36.1000000  0  2G04G23
  21486374.680   112911659.520      -10518.520          49.000  
  22518638.336   118336243.102       -1314.312          50.000  
 16  4  2 12 41 36.2000000  0  2G04G23
  21486574.891   112912711.617      -10523.188          49.000  
  22518663.398   118336374.809       -1320.113          50.000  
 16  4  2 12 41 36.3000000  0  2G04G23
  21486775.188   112913764.172      -10527.809          49.000  
  22518688.570   118336507.082       -1325.781          50.000  
 16  4  2 12 41 36.4000000  0  2G04G23
  21486975.570   112914817.188      -10532.395          49.000  
  22518713.859   118336639.969       -1331.902          50.000  
 16  4  2 12 41 36.5000000  0  2G04G23
  21487176.047   112915870.707      -10537.434          49.000  
  22518739.266   118336773.453       -1337.859          50.000  
 16  4  2 12 41 36.6000000  0  2G04G23
  21487376.617   112916924.691      -10542.078          49.000  
  22518764.781   118336907.551       -1343.898          50.000  
 16  4  2 12 41 36.7000000  0  2G04G23
  21487577.273   112917979.156      -10546.855          49.000  
  22518790.414   118337042.250       -1350.082          50.000  
 16  4  2 12 41 36.8000000  0  2G04G23
  21487778.031   112919034.145      -10552.223          49.000  
  22518816.164   118337177.578       -1356.512          50.000  
 16  4  2 12 41 36.9000000  0  2G04G23
  21487978.883   112920089.605      -10557.105          49.000  
  22518842.039   118337313.523       -1362.719          50.000  
 16  4  2 12 41 37.0000000  0  2G04G23
  21488179.820   112921145.527      -10561.418          49.000  
  22518868.016   118337450.035       -1368.137          50.000  
 16  4  2 12 41 37.1000000  0  2G04G23
  21488380.836   112922201.883      -10565.707          49.000  
  22518894.102   118337587.109       -1373.660          50.000  
 16  4  2 12 41 37.2000000  0  2G04G23
  21488581.945   112923258.695      -10570.176          49.000  
  22518920.297   118337724.777       -1379.504          50.000  
 16  4  2 12 41 37.3000000  0  2G04G23
  21488783.148   112924316.055      -10575.848          49.000  
  22518946.617   118337863.098       -1386.426          50.000  
 16  4  2 12 41 37.4000000  0  2G04G23
  21488984.453   112925373.875      -10580.453          49.000  
  22518973.055   118338002.008       -1392.129          50.000  
 16  4  2 12 41 37.5000000  0  2G04G23
  21489185.828   112926432.141      -10584.934          49.000  
  22518999.594   118338141.488       -1397.848          50.000  
 16  4  2 12 41 37.6000000  0  2G04G23
  21489387.305   112927490.906      -10589.887          49.000  
  22519026.258   118338281.605       -1404.270          50.000  
 16  4  2 12 41 37.7000000  0  2G04G23
  21489588.875   112928550.160      -10594.762          49.000  
  22519053.031   118338422.305       -1410.133          50.000  
 16  4  2 12 41 37.8000000  0  2G04G23
  21489790.531   112929609.848      -10599.098          49.000  
  22519079.914   118338563.586       -1415.828          50.000  
 16  4  2 12 41 37.9000000  0  2G04G23
  21489992.273   112930670.035      -10604.129          49.000  
  22519106.922   118338705.484       -1422.117          50.000  
 16  4  2 12 41 38.0000000  0  2G04G23
  21490194.117   112931730.703      -10608.926          49.000  
  22519134.031   118338847.980       -1427.910          50.000  
 16  4  2 12 41 38.1000000  0  2G04G23
  21490396.039   112932791.812      -10613.434          49.000  
  22519161.258   118338991.051       -1433.898          50.000  
 16  4  2 12 41 38.2000000  0  2G04G23
  21490598.070   112933853.465      -10618.727          49.000  
  22519188.609   118339134.777       -1440.336          50.000  
 16  4  2 12 41 38.3000000  0  2G04G23
  21490800.172   112934915.527      -10623.031          49.000  
  22519216.062   118339279.051       -1445.848          50.000  
 16  4  2 12 41 38.4000000  0  2G04G23
  21491002.391   112935978.164      -10628.676          49.000  
  22519243.648   118339424.012       -1452.738          50.000  
 16  4  2 12 41 38.5000000  0  2G04G23
  21491204.680   112937041.195      -10632.480          49.000  
  22519271.336   118339569.508       -1457.859          50.000  
 16  4  2 12 41 38.6000000  0  2G04G23
  21491407.055   112938104.703      -10637.465          49.000  
  22519299.125   118339715.582       -1463.957          50.000  
 16  4  2 12 41 38.7000000  0  2G04G23
  21491609.531   112939168.746      -10642.672          49.000  
  22519327.055   118339862.328       -1470.559          50.000  
 16  4  2 12 41 38.8000000  0  2G04G23
  21491812.102   112940233.234      -10647.199          49.000  
  22519355.086   118340009.641       -1476.262          50.000  
 16  4  2 12 41 38.9000000  0  2G04G23
  21492014.750   112941298.191      -10651.930          49.000  
  22519383.227   118340157.539       -1482.082          50.000  
 16  4  2 12 41 39.0000000  0  2G04G23
  21492217.484   112942363.578      -10656.133          49.000  
  22519411.484   118340306.004       -1487.766          50.000  
 16  4  2 12 41 39.1000000  0  2G04G23
  21492420.320   112943429.457      -10660.898          49.000  
  22519439.852   118340455.078       -1493.695          50.000  
 16  4  2 12 41 39.2000000  0  2G04G23
  21492623.242   112944495.828      -10665.883          49.000  
  22519468.336   118340604.770       -1499.914          50.000  
 16  4  2 12 41 39.3000000  0  2G04G23
  21492826.250   112945562.668      -10670.629          49.000  
  22519496.930   118340755.051       -1505.750          50.000  
 16  4  2 12 41 39.4000000  0  2G04G23
  21493029.352   112946629.945      -10674.930          49.000  
  22519525.633   118340905.895       -1511.402          50.000  
 16  4  2 12 41 39.5000000  0  2G04G23
  21493232.531   112947697.684      -10679.645          49.000  
  22519554.453   118341057.332       -1517.391          50.000  
 16  4  2 12 41 39.6000000  0  2G04G23
  21493435.805   112948765.906      -10684.434          49.000  
  22519583.383   118341209.375       -1523.477          50.000  
 16  4  2 12 41 39.7000000  0  2G04G23
  21493639.180   112949834.633      -10689.535          49.000  
  22519612.438   118341362.043       -1529.855          50.000  
 16  4  2 12 41 39.8000000  0  2G04G23
  21493842.633   112950903.793      -10693.895          49.000  
  22519641.594   118341515.266       -1535.410          50.000  
 16  4  2 12 41 39.9000000  0  2G04G23
  21494046.180   112951973.445      -10698.621          49.000  
  22519670.867   118341669.098       -1541.320          50.000  
 16  4  2 12 41 40.0000000  0  2G04G23
  21494249.828   112953043.602      -10703.855          49.000  
  22519700.266   118341823.570       -1547.762          50.000  
 16  4  2 12 41 40.1000000  0  2G04G23
  21494453.555   112954114.207      -10708.414          49.000  
  22519729.766   118341978.613       -1553.543          50.000  
 16  4  2 12 41 40.2000000  0  2G04G23
  21494657.375   112955185.293      -10713.297          49.000  
  22519759.383   118342134.266       -1559.727          50.000  
 16  4  2 12 41 40.3000000  0  2G04G23
  21494861.281   112956256.820      -10717.301          49.000  
  22519789.109   118342290.477       -1564.891          50.000  
 16  4  2 12 41 40.4000000  0  2G04G23
  21495065.273   112957328.801      -10721.871          49.000  
  22519818.945   118342447.273       -1570.816          50.000  
 16  4  2 12 41 40.5000000  0  2G04G23
  21495269.367   112958401.305      -10727.285          49.000  
  22519848.906   118342604.703       -1577.277          50.000  
 16  4  2 12 41 40.6000000  0  2G04G23
  21495473.547   112959474.289      -10732.316          49.000  
  22519878.984   118342762.758       -1583.785          50.000  
 16  4  2 12 41 40.7000000  0  2G04G23
  21495677.812   112960547.695      -10736.371          49.000  
  22519909.164   118342921.352       -1589.027          50.000  
 16  4  2 12 41 40.8000000  0  2G04G23
  21495882.164   112961621.598      -10741.129          49.000  
  22519939.461   118343080.559       -1595.055          50.000  
 16  4  2 12 41 40.9000000  0  2G04G23
  21496086.609   112962695.949      -10745.715          49.000  
  22519969.867   118343240.340       -1600.754          50.000  
 16  4  2 12 41 41.0000000  0  2G04G23
  21496291.125   112963770.680      -10749.387          49.000  
  22520000.367   118343400.633       -1605.766          50.000  
 16  4  2 12 41 41.1000000  0  2G04G23
  21496495.734   112964845.918      -10754.594          49.000  
  22520030.992   118343561.555       -1612.383          50.000  
 16  4  2 12 41 41.2000000  0  2G04G23
  21496700.453   112965921.691      -10760.117          49.000  
  22520061.742   118343723.133       -1618.906          50.000  
 16  4  2 12 41 41.3000000  0  2G04G23
  21496905.250   112966997.910      -10764.531          49.000  
  22520092.594   118343885.281       -1624.625          50.000  
 16  4  2 12 41 41.4000000  0  2G04G23
  21497110.133   112968074.574      -10768.867          49.000  
  22520123.555   118344048.004       -1630.223          50.000  
 16  4  2 12 41 41.5000000  0  2G04G23
  21497315.117   112969151.777      -10774.301          49.000  
  22520154.648   118344211.387       -1636.945          50.000  
 16  4  2 12 41 41.6000000  0  2G04G23
  21497520.195   112970229.453      -10779.133          49.000  
  22520185.852   118344375.363       -1642.898          50.000  
 16  4  2 12 41 41.7000000  0  2G04G23
  21497725.359   112971307.625      -10783.887          49.000  
  22520217.180   118344539.973       -1649.070          50.000  
 16  4  2 12 41 41.8000000  0  2G04G23
  21497930.617   112972386.250      -10788.457          49.000  
  22520248.609   118344705.156       -1654.852          50.000  
 16  4  2 12 41 41.9000000  0  2G04G23
  21498135.961   112973465.355      -10793.445          49.000  
  22520280.156   118344870.934       -1661.031          50.000  
 16  4  2 12 41 42.0000000  0  2G04G23
  21498341.398   112974544.914      -10797.824          49.000  
  22520311.820   118345037.301       -1666.676          50.000  
 16  4  2 12 41 42.1000000  0  2G04G23
  21498546.914   112975624.910      -10802.160          49.000  
  22520343.586   118345204.223       -1672.258          50.000  
 16  4  2 12 41 42.2000000  0  2G04G23
  21498752.523   112976705.402      -10806.996          49.000  
  22520375.469   118345371.766       -1678.371          50.000  
 16  4  2 12 41 42.3000000  0  2G04G23
  21498958.227   112977786.383      -10812.230          49.000  
  22520407.469   118345539.930       -1684.848          50.000  
 16  4  2 12 41 42.4000000  0  2G04G23
  21499164.016   112978867.828      -10816.836          49.000  
  22520439.578   118345708.672       -1690.574          50.000  
 16  4  2 12 41 42.5000000  0  2G04G23
  21499369.898   112979949.750      -10821.504          49.000  
  22520471.812   118345878.027       -1696.602          50.000  
 16  4  2 12 41 42.6000000  0  2G04G23
  21499575.875   112981032.152      -10826.289          49.000  
  22520504.148   118346047.977       -1702.582          50.000  
 16  4  2 12 41 42.7000000  0  2G04G23
  21499781.930   112982114.996      -10830.656          49.000  
  22520536.602   118346218.508       -1708.246          50.000  
 16  4  2 12 41 42.8000000  0  2G04G23
  21499988.078   112983198.293      -10835.172          49.000  
  22520569.164   118346389.609       -1713.984          50.000  
 16  4  2 12 41 42.9000000  0  2G04G23
  21500194.328   112984282.137      -10840.645          49.000  
  22520601.852   118346561.375       -1720.688          50.000  
 16  4  2 12 41 43.0000000  0  2G04G23
  21500400.656   112985366.402      -10845.000          49.000  
  22520634.641   118346733.703       -1726.379          50.000  
 16  4  2 12 41 43.1000000  0  2G04G23
  21500607.070   112986451.133      -10849.535          49.000  
  22520667.547   118346906.609       -1732.109          50.000  
 16  4  2 12 41 43.2000000  0  2G04G23
  21500813.570   112987536.301      -10853.883          49.000  
  22520700.555   118347080.078       -1737.680          50.000  
 16  4  2 12 41 43.3000000  0  2G04G23
  21501020.172   112988621.977      -10858.934          49.000  
  22520733.688   118347254.184       -1743.938          50.000  
 16  4  2 12 41 43.4000000  0  2G04G23
  21501226.852   112989708.102      -10863.508          49.000  
  22520766.930   118347428.867       -1749.879          50.000  
 16  4  2 12 41 43.5000000  0  2G04G23
  21501433.633   112990794.723      -10868.410          49.000  
  22520800.289   118347604.172       -1756.090          50.000  
 16  4  2 12 41 43.6000000  0  2G04G23
  21501640.500   112991881.828      -10873.445          49.000  
  22520833.758   118347780.078       -1762.277          50.000  
 16  4  2 12 41 43.7000000  0  2G04G23
  21501847.461   112992969.406      -10877.918          49.000  
  22520867.352   118347956.582       -1767.945          50.000  
 16  4  2 12 41 43.8000000  0  2G04G23
  21502054.508   112994057.461      -10882.816          49.000  
  22520901.055   118348133.691       -1774.152          50.000  
 16  4  2 12 41 43.9000000  0  2G04G23
  21502261.648   112995146.008      -10887.805          49.000  
  22520934.875   118348311.418       -1780.438          50.000  
 16  4  2 12 41 44.0000000  0  2G04G23
  21502468.875   112996234.992      -10892.082          49.000  
  22520968.797   118348489.711       -1785.977          50.000  
 16  4  2 12 41 44.1000000  0  2G04G23
  21502676.188   112997324.410      -10896.395          49.000  
  22521002.828   118348668.555       -1791.445          50.000  
 16  4  2 12 41 44.2000000  0  2G04G23
  21502883.586   112998414.324      -10901.277          49.000  
  22521036.984   118348848.035       -1797.781          50.000  
 16  4  2 12 41 44.3000000  0  2G04G23
  21503091.086   112999504.734      -10906.371          49.000  
  22521071.258   118349028.125       -1804.043          50.000  
 16  4  2 12 41 44.4000000  0  2G04G23
  21503298.680   113000595.652      -10911.516          49.000  
  22521105.648   118349208.852       -1810.328          50.000  
 16  4  2 12 41 44.5000000  0  2G04G23
  21503506.359   113001686.984      -10915.727          49.000  
  22521140.141   118349390.113       -1815.809          50.000  
 16  4  2 12 41 44.6000000  0  2G04G23
  21503714.133   113002778.828      -10920.812          49.000  
  22521174.758   118349572.016       -1822.246          50.000  
 16  4  2 12 41 44.7000000  0  2G04G23
  21503921.984   113003871.098      -10924.777          49.000  
  22521209.484   118349754.480       -1827.527          50.000  
 16  4  2 12 41 44.8000000  0  2G04G23
  21504129.914   113004963.801      -10929.270          49.000  
  22521244.305   118349937.480       -1833.215          50.000  
 16  4  2 12 41 44.9000000  0  2G04G23
  21504337.953   113006057.055      -10934.703          49.000  
  22521279.266   118350121.176       -1839.926          50.000  
 16  4  2 12 41 45.0000000  0  2G04G23
  21504546.062   113007150.699      -10938.504          49.000  
  22521314.312   118350305.375       -1844.867          50.000  
 16  4  2 12 41 45.1000000  0  2G04G23
  21504754.281   113008244.867      -10944.039          49.000  
  22521349.492   118350490.227       -1851.766          50.000  
 16  4  2 12 41 45.2000000  0  2G04G23
  21504962.586   113009339.516      -10948.766          49.000  
  22521384.789   118350675.699       -1857.781          50.000  
 16  4  2 12 41 45.3000000  0  2G04G23
  21505170.977   113010434.613      -10953.188          49.000  
  22521420.188   118350861.727       -1863.312          50.000  
 16  4  2 12 41 45.4000000  0  2G04G23
  21505379.445   113011530.141      -10957.387          49.000  
  22521455.695   118351048.316       -1868.789          50.000  
 16  4  2 12 41 45.5000000  0  2G04G23
  21505588.016   113012626.168      -10962.484          49.000  
  22521491.320   118351235.527       -1875.117          50.000  
 16  4  2 12 41 45.6000000  0  2G04G23
  21505796.672   113013722.668      -10967.367          49.000  
  22521527.062   118351423.348       -1881.238          50.000  
 16  4  2 12 41 45.7000000  0  2G04G23
  21506005.438   113014819.711      -10972.902          49.000  
  22521562.930   118351611.828       -1888.051          50.000  
 16  4  2 12 41 45.8000000  0  2G04G23
  21506214.281   113015917.195      -10977.117          49.000  
  22521598.906   118351800.875       -1893.559          50.000  
 16  4  2 12 41 45.9000000  0  2G04G23
  21506423.211   113017015.137      -10981.656          49.000  
  22521634.992   118351990.520       -1899.559          50.000  
 16  4  2 12 41 46.0000000  0  2G04G23
  21506632.242   113018113.578      -10986.617          49.000  
  22521671.195   118352180.777       -1905.586          50.000  
 16  4  2 12 41 46.1000000  0  2G04G23
  21506841.352   113019212.457      -10990.957          49.000  
  22521707.508   118352371.602       -1911.281          50.000  
 16  4  2 12 41 46.2000000  0  2G04G23
  21507050.547   113020311.801      -10995.684          49.000  
  22521743.938   118352563.008       -1917.164          50.000  
 16  4  2 12 41 46.3000000  0  2G04G23
  21507259.844   113021411.637      -11000.590          49.000  
  22521780.477   118352755.043       -1923.418          50.000  
 16  4  2 12 41 46.4000000  0  2G04G23
  21507469.219   113022511.926      -11005.207          49.000  
  22521817.125   118352947.652       -1929.238          50.000  
 16  4  2 12 41 46.5000000  0  2G04G23
  21507678.695   113023612.711      -11010.133          49.000  
  22521853.898   118353140.879       -1935.273          50.000  
 16  4  2 12 41 46.6000000  0  2G04G23
  21507888.250   113024713.949      -11014.816          49.000  
  22521890.781   118353334.699       -1941.430          50.000  
 16  4  2 12 41 46.7000000  0  2G04G23
  21508097.914   113025815.738      -11020.047          49.000  
  22521927.789   118353529.180       -1947.797          50.000  
 16  4  2 12 41 46.8000000  0  2G04G23
  21508307.664   113026917.984      -11024.715          49.000  
  22521964.906   118353724.258       -1953.844          50.000  
 16  4  2 12 41 46.9000000  0  2G04G23
  21508517.492   113028020.660      -11029.043          49.000  
  22522002.133   118353919.879       -1959.297          50.000  
 16  4  2 12 41 47.0000000  0  2G04G23
  21508727.414   113029123.797      -11033.457          49.000  
  22522039.469   118354116.090       -1965.016          50.000  
 16  4  2 12 41 47.1000000  0  2G04G23
  21508937.422   113030227.406      -11038.227          49.000  
  22522076.922   118354312.910       -1971.152          50.000  
 16  4  2 12 41 47.2000000  0  2G04G23
  21509147.523   113031331.445      -11042.410          49.000  
  22522114.484   118354510.277       -1976.543          50.000  
 16  4  2 12 41 47.3000000  0  2G04G23
  21509357.703   113032435.961      -11047.359          49.000  
  22522152.156   118354708.242       -1982.656          50.000  
 16  4  2 12 41 47.4000000  0  2G04G23
  21509567.969   113033540.922      -11051.781          49.000  
  22522189.930   118354906.797       -1988.555          50.000  
 16  4  2 12 41 47.5000000  0  2G04G23
  21509778.328   113034646.367      -11056.746          49.000  
  22522227.828   118355105.941       -1994.547          50.000  
 16  4  2 12 41 47.6000000  0  2G04G23
  21509988.781   113035752.301      -11061.621          49.000  
  22522265.844   118355305.719       -2000.781          50.000  
 16  4  2 12 41 47.7000000  0  2G04G23
  21510199.320   113036858.703      -11066.453          49.000  
  22522303.969   118355506.070       -2006.812          50.000  
 16  4  2 12 41 47.8000000  0  2G04G23
  21510409.953   113037965.582      -11071.230          49.000  
  22522342.219   118355707.047       -2012.992          50.000  
 16  4  2 12 41 47.9000000  0  2G04G23
  21510620.680   113039072.969      -11076.051          49.000  
  22522380.578   118355908.641       -2018.797          50.000  
 16  4  2 12 41 48.0000000  0  2G04G23
  21510831.484   113040180.766      -11080.246          49.000  
  22522419.047   118356110.781       -2024.488          50.000  
 16  4  2 12 41 48.1000000  0  2G04G23
  21511042.383   113041289.023      -11084.867          49.000  
  22522457.625   118356313.512       -2030.379          50.000  
 16  4  2 12 41 48.2000000  0  2G04G23
  21511253.375   113042397.777      -11089.777          49.000  
  22522496.320   118356516.855       -2036.539          50.000  
 16  4  2 12 41 48.3000000  0  2G04G23
  21511464.461   113043507.039      -11095.008          49.000  
  22522535.133   118356720.828       -2042.953          50.000  
 16  4  2 12 41 48.4000000  0  2G04G23
  21511675.633   113044616.789      -11099.727          49.000  
  22522574.070   118356925.418       -2049.000          50.000  
 16  4  2 12 41 48.5000000  0  2G04G23
  21511886.914   113045727.078      -11105.109          49.000  
  22522613.133   118357130.695       -2055.785          50.000  
 16  4  2 12 41 48.6000000  0  2G04G23
  21512098.273   113046837.750      -11109.031          49.000  
  22522652.289   118357336.457       -2060.832          50.000  
 16  4  2 12 41 48.7000000  0  2G04G23
  21512309.711   113047948.855      -11113.043          49.000  
  22522691.555   118357542.781       -2066.035          50.000  
 16  4  2 12 41 48.8000000  0  2G04G23
  21512521.242   113049060.465      -11118.230          49.000  
  22522730.938   118357749.754       -2072.578          50.000  
 16  4  2 12 41 48.9000000  0  2G04G23
  21512732.852   113050172.500      -11122.570          49.000  
  22522770.430   118357957.266       -2078.234          50.000  
 16  4  2 12 41 49.0000000  0  2G04G23
  21512944.562   113051285.043      -11127.684          49.000  
  22522810.031   118358165.414       -2084.516          50.000  
 16  4  2 12 41 49.1000000  0  2G04G23
  21513156.352   113052398.004      -11132.000          49.000  
  22522849.750   118358374.098       -2089.895          50.000  
 16  4  2 12 41 49.2000000  0  2G04G23
  21513368.234   113053511.441      -11136.766          49.000  
  22522889.578   118358583.398       -2096.148          50.000  
 16  4  2 12 41 49.3000000  0  2G04G23
  21513580.211   113054625.398      -11141.691          49.000  
  22522929.523   118358793.340       -2102.426          50.000  
 16  4  2 12 41 49.4000000  0  2G04G23
  21513792.258   113055739.770      -11146.004          49.000  
  22522969.578   118359003.824       -2107.941          50.000  
 16  4  2 12 41 49.5000000  0  2G04G23
  21514004.414   113056854.660      -11151.133          49.000  
  22523009.758   118359214.957       -2114.391          50.000  
 16  4  2 12 41 49.6000000  0  2G04G23
  21514216.664   113057970.023      -11155.891          49.000  
  22523050.039   118359426.680       -2120.309          50.000  
 16  4  2 12 41 49.7000000  0  2G04G23
  21514428.992   113059085.812      -11160.156          49.000  
  22523090.438   118359638.961       -2125.969          50.000  
 16  4  2 12 41 49.8000000  0  2G04G23
  21514641.422   113060202.129      -11165.383          49.000  
  22523130.961   118359851.902       -2132.465          50.000  
 16  4  2 12 41 49.9000000  0  2G04G23
  21514853.922   113061318.840      -11169.418          49.000  
  22523171.578   118360065.348       -2137.535          50.000  
 16  4  2 12 41 50.0000000  0  2G04G23
  21515066.523   113062436.051      -11174.340          49.000  
  22523212.312   118360279.434       -2143.840          50.000  
 16  4  2 12 41 50.1000000  0  2G04G23
  21515279.211   113063553.750      -11179.133          49.000  
  22523253.172   118360494.133       -2149.922          50.000  
 16  4  2 12 41 50.2000000  0  2G04G23
  21515491.977   113064671.844      -11183.094          49.000  
  22523294.133   118360709.359       -2155.293          50.000  
 16  4  2 12 41 50.3000000  0  2G04G23
  21515704.844   113065790.465      -11188.352          49.000  
  22523335.211   118360925.230       -2161.645          50.000  
 16  4  2 12 41 50.4000000  0  2G04G23
  21515917.797   113066909.547      -11193.148          49.000  
  22523376.406   118361141.695       -2167.754          50.000  
 16  4  2 12 41 50.5000000  0  2G04G23
  21516130.844   113068029.129      -11198.164          49.000  
  22523417.711   118361358.773       -2173.891          50.000  
 16  4  2 12 41 50.6000000  0  2G04G23
  21516343.984   113069149.176      -11202.652          49.000  
  22523459.133   118361576.461       -2179.801          50.000  
 16  4  2 12 41 50.7000000  0  2G04G23
  21516557.203   113070269.656      -11207.148          49.000  
  22523500.664   118361794.703       -2185.582          50.000  
 16  4  2 12 41 50.8000000  0  2G04G23
  21516770.516   113071390.605      -11211.703          49.000  
  22523542.312   118362013.547       -2191.438          50.000  
 16  4  2 12 41 50.9000000  0  2G04G23
  21516983.922   113072512.062      -11216.898          49.000  
  22523584.070   118362233.004       -2197.730          50.000  
 16  4  2 12 41 51.0000000  0  2G04G23
  21517197.414   113073633.969      -11221.316          49.000  
  22523625.945   118362453.059       -2203.477          50.000  
 16  4  2 12 41 51.1000000  0  2G04G23
  21517410.977   113074756.270      -11225.344          49.000  
  22523667.922   118362673.629       -2208.812          50.000  
 16  4  2 12 41 51.2000000  0  2G04G23
  21517624.641   113075879.066      -11230.215          49.000  
  22523710.008   118362894.832       -2215.102          50.000  
 16  4  2 12 41 51.3000000  0  2G04G23
  21517838.398   113077002.363      -11235.156          49.000  
  22523752.219   118363116.633       -2221.004          50.000  
 16  4  2 12 41 51.4000000  0  2G04G23
  21518052.242   113078126.113      -11239.785          49.000  
  22523794.547   118363339.055       -2227.227          50.000  
 16  4  2 12 41 51.5000000  0  2G04G23
  21518266.164   113079250.301      -11244.039          49.000  
  22523836.977   118363562.008       -2232.430          50.000  
 16  4  2 12 41 51.6000000  0  2G04G23
  21518480.180   113080374.957      -11248.922          49.000  
  22523879.516   118363785.566       -2238.652          50.000  
 16  4  2 12 41 51.7000000  0  2G04G23
  21518694.305   113081500.164      -11254.422          49.000  
  22523922.188   118364009.816       -2245.449          50.000  
 16  4  2 12 41 51.8000000  0  2G04G23
  21518908.500   113082625.793      -11258.539          49.000  
  22523964.961   118364234.609       -2250.949          50.000  
 16  4  2 12 41 51.9000000  0  2G04G23
  21519122.789   113083751.875      -11263.191          49.000  
  22524007.844   118364459.969       -2256.789          50.000  
 16  4  2 12 41 52.0000000  0  2G04G23
  21519337.172   113084878.461      -11267.992          49.000  
  22524050.852   118364685.992       -2263.172          50.000  
 16  4  2 12 41 52.1000000  0  2G04G23
  21519551.648   113086005.512      -11272.688          49.000  
  22524093.961   118364912.539       -2268.598          50.000  
 16  4  2 12 41 52.2000000  0  2G04G23
  21519766.195   113087132.988      -11276.965          49.000  
  22524137.195   118365139.738       -2274.816          50.000  
 16  4  2 12 41 52.3000000  0  2G04G23
  21519980.836   113088260.957      -11281.828          49.000  
  22524180.531   118365367.469       -2280.211          50.000  
 16  4  2 12 41 52.4000000  0  2G04G23
  21520195.578   113089389.410      -11286.809          49.000  
  22524223.992   118365595.855       -2286.902          50.000  
 16  4  2 12 41 52.5000000  0  2G04G23
  21520410.398   113090518.324      -11291.398          49.000  
  22524267.562   118365824.820       -2292.570          50.000  
 16  4  2 12 41 52.6000000  0  2G04G23
  21520625.305   113091647.660      -11295.668          49.000  
  22524311.242   118366054.352       -2298.336          50.000  
 16  4  2 12 41 52.7000000  0  2G04G23
  21520840.312   113092777.516      -11300.793          49.000  
  22524355.039   118366284.500       -2304.574          50.000  
 16  4  2 12 41 52.8000000  0  2G04G23
  21521055.406   113093907.859      -11305.707          49.000  
  22524398.961   118366515.281       -2310.977          50.000  
 16  4  2 12 41 52.9000000  0  2G04G23
  21521270.594   113095038.684      -11310.520          49.000  
  22524442.992   118366746.668       -2316.820          50.000  
 16  4  2 12 41 53.0000000  0  2G04G23
  21521485.867   113096169.930      -11314.781          49.000  
  22524487.133   118366978.613       -2322.508          50.000  
 16  4  2 12 41 53.1000000  0  2G04G23
  21521701.227   113097301.664      -11319.480          49.000  
  22524531.383   118367211.156       -2328.414          50.000  
 16  4  2 12 41 53.2000000  0  2G04G23
  21521916.688   113098433.883      -11324.371          49.000  
  22524575.750   118367444.324       -2334.703          50.000  
 16  4  2 12 41 53.3000000  0  2G04G23
  21522132.227   113099566.555      -11328.988          49.000  
  22524620.234   118367678.062       -2340.500          50.000  
 16  4  2 12 41 53.4000000  0  2G04G23
  21522347.852   113100699.691      -11333.629          49.000  
  22524664.828   118367912.414       -2346.469          50.000  
 16  4  2 12 41 53.5000000  0  2G04G23
  21522563.570   113101833.289      -11338.105          49.000  
  22524709.531   118368147.340       -2352.121          50.000  
 16  4  2 12 41 53.6000000  0  2G04G23
  21522779.375   113102967.359      -11342.957          49.000  
  22524754.359   118368382.867       -2358.414          50.000  
 16  4  2 12 41 53.7000000  0  2G04G23
  21522995.281   113104101.938      -11347.996          49.000  
  22524799.297   118368619.023       -2364.551          50.000  
 16  4  2 12 41 53.8000000  0  2G04G23
  21523211.266   113105236.941      -11352.172          49.000  
  22524844.336   118368855.738       -2369.969          50.000  
 16  4  2 12 41 53.9000000  0  2G04G23
  21523427.336   113106372.398      -11356.781          49.000  
  22524889.492   118369093.043       -2375.934          50.000  
 16  4  2 12 41 54.0000000  0  2G04G23
  21523643.492   113107508.309      -11361.340          49.000  
  22524934.766   118369330.914       -2381.707          50.000  
 16  4  2 12 41 54.1000000  0  2G04G23
  21523859.734   113108644.680      -11365.996          49.000  
  22524980.141   118369569.391       -2387.809          50.000  
 16  4  2 12 41 54.2000000  0  2G04G23
  21524076.070   113109781.535      -11370.699          49.000  
  22525025.633   118369808.469       -2393.812          50.000  
 16  4  2 12 41 54.3000000  0  2G04G23
  21524292.484   113110918.797      -11374.848          49.000  
  22525071.234   118370048.074       -2399.074          50.000  
 16  4  2 12 41 54.4000000  0  2G04G23
  21524508.992   113112056.555      -11379.676          49.000  
  22525116.945   118370288.320       -2405.398          50.000  
 16  4  2 12 41 54.5000000  0  2G04G23
  21524725.586   113113194.746      -11384.230          49.000  
  22525162.766   118370529.117       -2411.066          50.000  
 16  4  2 12 41 54.6000000  0  2G04G23
  21524942.273   113114333.461      -11389.598          49.000  
  22525208.719   118370770.566       -2417.699          50.000  
 16  4  2 12 41 54.7000000  0  2G04G23
  21525159.047   113115472.629      -11393.945          49.000  
  22525254.773   118371012.602       -2423.383          50.000  
 16  4  2 12 41 54.8000000  0  2G04G23
  21525375.906   113116612.250      -11398.527          49.000  
  22525300.938   118371255.215       -2429.129          50.000  
 16  4  2 12 41 54.9000000  0  2G04G23
  21525592.859   113117752.359      -11403.227          49.000  
  22525347.227   118371498.441       -2435.211          50.000  
 16  4  2 12 41 55.0000000  0  2G04G23
  21525809.906   113118892.934      -11408.117          49.000  
  22525393.625   118371742.277       -2441.551          50.000  
 16  4  2 12 41 55.1000000  0  2G04G23
  21526027.039   113120033.961      -11412.508          49.000  
  22525440.133   118371986.664       -2446.953          50.000  
 16  4  2 12 41 55.2000000  0  2G04G23
  21526244.258   113121175.461      -11417.262          49.000  
  22525486.758   118372231.668       -2452.953          50.000  
 16  4  2 12 41 55.3000000  0  2G04G23
  21526461.578   113122317.457      -11422.309          49.000  
  22525533.500   118372477.305       -2459.609          50.000  
 16  4  2 12 41 55.4000000  0  2G04G23
  21526678.969   113123459.875      -11426.449          49.000  
  22525580.352   118372723.484       -2464.875          50.000  
 16  4  2 12 41 55.5000000  0  2G04G23
  21526896.445   113124602.723      -11430.633          49.000  
  22525627.297   118372970.211       -2470.188          50.000  
 16  4  2 12 41 55.6000000  0  2G04G23
  21527114.008   113125746.008      -11435.117          49.000  
  22525674.359   118373217.523       -2476.129          50.000  
 16  4  2 12 41 55.7000000  0  2G04G23
  21527331.672   113126889.820      -11440.414          49.000  
  22525721.539   118373465.477       -2482.578          50.000  
 16  4  2 12 41 55.8000000  0  2G04G23
  21527549.430   113128034.145      -11445.742          49.000  
  22525768.852   118373714.086       -2489.414          50.000  
 16  4  2 12 41 55.9000000  0  2G04G23
  21527767.281   113129178.953      -11450.121          49.000  
  22525816.273   118373963.301       -2495.129          50.000  
 16  4  2 12 41 56.0000000  0  2G04G23
  21527985.211   113130324.184      -11454.648          49.000  
  22525863.805   118374213.070       -2501.055          50.000  
 16  4  2 12 41 56.1000000  0  2G04G23
  21528203.250   113131469.988      -11460.254          49.000  
  22525911.469   118374463.520       -2507.590          50.000  
 16  4  2 12 41 56.2000000  0  2G04G23
  21528421.359   113132616.156      -11463.887          49.000  
  22525959.219   118374714.473       -2512.477          50.000  
 16  4  2 12 41 56.3000000  0  2G04G23
  21528639.555   113133762.793      -11468.602          49.000  
  22526007.086   118374966.035       -2518.777          50.000  
 16  4  2 12 41 56.4000000  0  2G04G23
  21528857.859   113134909.973      -11473.879          49.000  
  22526055.078   118375218.250       -2525.137          50.000  
 16  4  2 12 41 56.5000000  0  2G04G23
  21529076.242   113136057.570      -11478.359          49.000  
  22526103.180   118375471.016       -2530.859          50.000  
 16  4  2 12 41 56.6000000  0  2G04G23
  21529294.703   113137205.594      -11482.398          49.000  
  22526151.391   118375724.359       -2536.344          50.000  
 16  4  2 12 41 56.7000000  0  2G04G23
  21529513.250   113138354.070      -11486.902          49.000  
  22526199.703   118375978.258       -2541.980          50.000  
 16  4  2 12 41 56.8000000  0  2G04G23
  21529731.898   113139503.055      -11492.047          49.000  
  22526248.148   118376232.797       -2548.391          50.000  
 16  4  2 12 41 56.9000000  0  2G04G23
  21529950.625   113140652.492      -11496.621          49.000  
  22526296.695   118376487.930       -2554.383          50.000  
 16  4  2 12 41 57.0000000  0  2G04G23
  21530169.453   113141802.438      -11501.887          49.000  
  22526345.367   118376743.688       -2560.902          50.000  
 16  4  2 12 41 57.1000000  0  2G04G23
  21530388.375   113142952.859      -11506.438          49.000  
  22526394.148   118377000.062       -2566.871          50.000  
 16  4  2 12 41 57.2000000  0  2G04G23
  21530607.383   113144103.738      -11510.941          49.000  
  22526443.047   118377257.012       -2572.453          50.000  
 16  4  2 12 41 57.3000000  0  2G04G23
  21530826.477   113145255.082      -11515.648          49.000  
  22526492.055   118377514.559       -2578.465          50.000  
 16  4  2 12 41 57.4000000  0  2G04G23
  21531045.664   113146406.930      -11520.617          49.000  
  22526541.188   118377772.734       -2584.766          50.000  
 16  4  2 12 41 57.5000000  0  2G04G23
  21531264.930   113147559.203      -11524.941          49.000  
  22526590.422   118378031.465       -2590.379          50.000  
 16  4  2 12 41 57.6000000  0  2G04G23
  21531484.289   113148711.945      -11529.590          49.000  
  22526639.773   118378290.797       -2596.340          50.000  
 16  4  2 12 41 57.7000000  0  2G04G23
  21531703.734   113149865.164      -11534.273          49.000  
  22526689.234   118378550.730       -2602.098          50.000  
 16  4  2 12 41 57.8000000  0  2G04G23
  21531923.266   113151018.762      -11538.293          49.000  
  22526738.805   118378811.184       -2607.656          50.000  
 16  4  2 12 41 57.9000000  0  2G04G23
  21532142.883   113152172.879      -11543.410          49.000  
  22526788.484   118379072.270       -2613.941          50.000  
 16  4  2 12 41 58.0000000  0  2G04G23
  21532362.594   113153327.508      -11548.406          49.000  
  22526838.289   118379334.004       -2620.211          50.000  
 16  4  2 12 41 58.1000000  0  2G04G23
  21532582.383   113154482.504      -11552.168          49.000  
  22526888.195   118379596.234       -2625.293          50.000  
 16  4  2 12 41 58.2000000  0  2G04G23
  21532802.258   113155637.941      -11556.477          49.000  
  22526938.203   118379859.031       -2630.918          50.000  
 16  4  2 12 41 58.3000000  0  2G04G23
  21533022.227   113156793.859      -11561.234          49.000  
  22526988.328   118380122.445       -2637.023          50.000  
 16  4  2 12 41 58.4000000  0  2G04G23
  21533242.281   113157950.285      -11566.488          49.000  
  22527038.570   118380386.488       -2643.457          50.000  
 16  4  2 12 41 58.5000000  0  2G04G23
  21533462.430   113159107.148      -11570.957          49.000  
  22527088.930   118380651.105       -2649.371          50.000  
 16  4  2 12 41 58.6000000  0  2G04G23
  21533682.664   113160264.492      -11575.699          49.000  
  22527139.398   118380916.328       -2655.375          50.000  
 16  4  2 12 41 58.7000000  0  2G04G23
  21533902.984   113161422.285      -11580.125          49.000  
  22527189.977   118381182.121       -2660.863          50.000  
 16  4  2 12 41 58.8000000  0  2G04G23
  21534123.383   113162580.516      -11584.488          49.000  
  22527240.664   118381448.496       -2666.832          50.000  
 16  4  2 12 41 58.9000000  0  2G04G23
  21534343.875   113163739.227      -11589.234          49.000  
  22527291.469   118381715.473       -2672.773          50.000  
 16  4  2 12 41 59.0000000  0  2G04G23
  21534564.469   113164898.434      -11594.289          49.000  
  22527342.391   118381983.070       -2679.031          50.000  
 16  4  2 12 41 59.1000000  0  2G04G23
  21534785.141   113166058.062      -11598.605          49.000  
  22527393.422   118382251.230       -2684.656          50.000  
 16  4  2 12 41 59.2000000  0  2G04G23
  21535005.898   113167218.188      -11603.340          49.000  
  22527444.562   118382520.004       -2690.754          50.000  
 16  4  2 12 41 59.3000000  0  2G04G23
  21535226.742   113168378.723      -11607.406          49.000  
  22527495.812   118382789.324       -2696.148          50.000  
 16  4  2 12 41 59.4000000  0  2G04G23
  21535447.688   113169539.773      -11612.750          49.000  
  22527547.188   118383059.281       -2702.637          50.000  
 16  4  2 12 41 59.5000000  0  2G04G23
  21535668.711   113170701.273      -11617.148          49.000  
  22527598.672   118383329.832       -2708.512          50.000  
 16  4  2 12 41 59.6000000  0  2G04G23
  21535889.820   113171863.234      -11621.871          49.000  
  22527650.266   118383600.953       -2714.363          50.000  
 16  4  2 12 41 59.7000000  0  2G04G23
  21536111.016   113173025.625      -11626.281          49.000  
  22527701.961   118383872.641       -2719.992          50.000  
 16  4  2 12 41 59.8000000  0  2G04G23
  21536332.305   113174188.477      -11630.594          49.000  
  22527753.781   118384144.926       -2725.707          50.000  
 16  4  2 12 41 59.9000000  0  2G04G23
  21536553.680   113175351.828      -11635.699          49.000  
  22527805.711   118384417.848       -2732.250          50.000  
 16  4  2 12 42  0.0000000  0  2G04G23
  21536775.148   113176515.668      -11640.520          49.000  
  22527857.766   118384691.359       -2738.164          50.000  
 16  4  2 12 42  0.1000000  0  2G04G23
  21536996.711   113177679.980      -11645.418          49.000  
  22527909.930   118384965.496       -2744.594          50.000  
 16  4  2 12 42  0.2000000  0  2G04G23
  21537218.367   113178844.801      -11650.492          49.000  
  22527962.219   118385240.258       -2750.820          50.000  
 16  4  2 12 42  0.3000000  0  2G04G23
  21537440.109   113180010.070      -11654.977          49.000  
  22528014.617   118385515.609       -2756.609          50.000  
 16  4  2 12 42  0.4000000  0  2G04G23
  21537661.945   113181175.777      -11659.410          49.000  
  22528067.117   118385791.520       -2762.328          50.000  
 16  4  2 12 42  0.5000000  0  2G04G23
  21537883.859   113182341.949      -11663.891          49.000  
  22528119.734   118386068.023       -2768.070          50.000  
 16  4  2 12 42  0.6000000  0  2G04G23
  21538105.867   113183508.598      -11668.641          49.000  
  22528172.469   118386345.125       -2773.855          50.000  
 16  4  2 12 42  0.7000000  0  2G04G23
  21538327.945   113184675.645      -11672.605          49.000  
  22528225.305   118386622.773       -2779.320          50.000  
 16  4  2 12 42  0.8000000  0  2G04G23
  21538550.117   113185843.141      -11677.117          49.000  
  22528278.242   118386900.996       -2785.234          50.000  
 16  4  2 12 42  0.9000000  0  2G04G23
  21538772.383   113187011.180      -11682.645          49.000  
  22528331.312   118387179.887       -2791.977          50.000  
 16  4  2 12 42  1.0000000  0  2G04G23
  21538994.742   113188179.656      -11687.008          49.000  
  22528384.492   118387459.352       -2797.695          50.000  
 16  4  2 12 42  1.1000000  0  2G04G23
  21539217.188   113189348.625      -11691.902          49.000  
  22528437.789   118387739.430       -2803.762          50.000  
 16  4  2 12 42  1.2000000  0  2G04G23
  21539439.719   113190518.023      -11696.230          49.000  
  22528491.195   118388020.062       -2809.348          50.000  
 16  4  2 12 42  1.3000000  0  2G04G23
  21539662.328   113191687.848      -11700.418          49.000  
  22528544.703   118388301.270       -2815.074          50.000  
 16  4  2 12 42  1.4000000  0  2G04G23
  21539885.031   113192858.176      -11705.316          49.000  
  22528598.336   118388583.094       -2821.086          50.000  
 16  4  2 12 42  1.5000000  0  2G04G23
  21540107.820   113194028.941      -11709.801          49.000  
  22528652.078   118388865.492       -2827.004          50.000  
 16  4  2 12 42  1.6000000  0  2G04G23
  21540330.703   113195200.223      -11715.078          49.000  
  22528705.938   118389148.531       -2833.469          50.000  
 16  4  2 12 42  1.7000000  0  2G04G23
  21540553.680   113196371.957      -11719.719          49.000  
  22528759.906   118389432.156       -2839.379          50.000  
 16  4  2 12 42  1.8000000  0  2G04G23
  21540776.734   113197544.137      -11723.973          49.000  
  22528813.992   118389716.355       -2844.949          50.000  
 16  4  2 12 42  1.9000000  0  2G04G23
  21540999.883   113198716.781      -11728.594          49.000  
  22528868.188   118390001.156       -2850.918          50.000  
 16  4  2 12 42  2.0000000  0  2G04G23
  21541223.125   113199889.922      -11733.719          49.000  
  22528922.500   118390286.574       -2857.270          50.000  
 16  4  2 12 42  2.1000000  0  2G04G23
  21541446.445   113201063.469      -11737.629          49.000  
  22528976.922   118390572.535       -2862.512          50.000  
 16  4  2 12 42  2.2000000  0  2G04G23
  21541669.852   113202237.477      -11742.098          49.000  
  22529031.445   118390859.078       -2868.246          50.000  
 16  4  2 12 42  2.3000000  0  2G04G23
  21541893.328   113203411.883      -11746.305          49.000  
  22529086.078   118391146.160       -2873.797          50.000  
 16  4  2 12 50 36.8000000  0  1G29
  22308181.523   117230284.156       -3028.012          50.000  
 16  4  2 12 50 36.9000000  0  2G09G29
  23610899.719   124076114.910       -4486.746          50.000  
  22308239.180   117230587.148       -3031.469          50.000  
 16  4  2 12 50 37.0000000  0  2G09G29
  23610985.148   124076563.836       -4492.266          50.000  
  22308296.891   117230890.469       -3035.109          50.000  
 16  4  2 12 50 37.1000000  0  2G09G29
  23611070.680   124077013.320       -4497.672          50.000  
  22308354.688   117231194.156       -3038.668          50.000  
 16  4  2 12 50 37.2000000  0  2G09G29
  23611156.320   124077463.367       -4503.395          50.000  
  22308412.539   117231498.227       -3042.453          50.000  
 16  4  2 12 50 37.3000000  0  2G09G29
  23611242.086   124077914.008       -4509.434          50.000  
  22308470.477   117231802.707       -3046.719          50.000  
 16  4  2 12 50 37.4000000  0  2G09G29
  23611327.938   124078365.172       -4514.762          50.000  
  22308528.484   117232107.527       -3050.227          50.000  
 16  4  2 12 50 37.5000000  0  2G09G29
  23611413.906   124078816.859       -4519.984          50.000  
  22308586.555   117232412.684       -3053.500          50.000  
 16  4  2 12 50 37.6000000  0  2G09G29
  23611499.969   124079269.148       -4526.070          50.000  
  22308644.711   117232718.270       -3057.793          50.000  
 16  4  2 12 50 37.7000000  0  2G09G29
  23611586.164   124079722.023       -4531.836          50.000  
  22308702.938   117233024.250       -3061.762          50.000  
 16  4  2 12 50 37.8000000  0  2G09G29
  23611672.453   124080175.512       -4538.172          50.000  
  22308761.234   117233330.648       -3066.121          50.000  
 16  4  2 12 50 37.9000000  0  2G09G29
  23611758.836   124080629.500       -4542.707          50.000  
  22308819.609   117233637.375       -3068.902          50.000  
 16  4  2 12 50 38.0000000  0  2G09G29
  23611845.328   124081084.012       -4548.273          50.000  
  22308878.039   117233944.445       -3072.508          50.000  
 16  4  2 12 50 38.1000000  0  2G09G29
  23611931.930   124081539.148       -4554.297          50.000  
  22308936.555   117234251.957       -3076.824          50.000  
 16  4  2 12 50 38.2000000  0  2G09G29
  23612018.648   124081994.832       -4560.133          50.000  
  22308995.141   117234559.836       -3080.867          50.000  
 16  4  2 12 50 38.3000000  0  2G09G29
  23612105.477   124082451.078       -4565.438          50.000  
  22309053.797   117234868.066       -3084.293          50.000  
 16  4  2 12 50 38.4000000  0  2G09G29
  23612192.406   124082907.887       -4571.266          50.000  
  22309112.531   117235176.703       -3088.301          50.000  
 16  4  2 12 50 38.5000000  0  2G09G29
  23612279.438   124083365.266       -4576.816          50.000  
  22309171.328   117235485.711       -3091.895          50.000  
 16  4  2 12 50 38.6000000  0  2G09G29
  23612366.586   124083823.211       -4582.715          50.000  
  22309230.219   117235795.121       -3096.164          50.000  
 16  4  2 12 50 38.7000000  0  2G09G29
  23612453.859   124084281.746       -4588.445          50.000  
  22309289.164   117236104.918       -3099.871          50.000  
 16  4  2 12 50 38.8000000  0  2G09G29
  23612541.219   124084740.812       -4593.758          50.000  
  22309348.203   117236415.074       -3103.484          50.000  
 16  4  2 12 50 38.9000000  0  2G09G29
  23612628.680   124085200.441       -4599.695          50.000  
  22309407.297   117236725.609       -3107.531          50.000  
 16  4  2 12 50 39.0000000  0  2G09G29
  23612716.258   124085660.691       -4605.473          50.000  
  22309466.469   117237036.578       -3111.523          50.000  
 16  4  2 12 50 39.1000000  0  2G09G29
  23612803.922   124086121.430       -4610.430          50.000  
  22309525.703   117237347.840       -3114.602          50.000  
 16  4  2 12 50 39.2000000  0  2G09G29
  23612891.703   124086582.742       -4616.125          50.000  
  22309585.008   117237659.516       -3118.590          50.000  
 16  4  2 12 50 39.3000000  0  2G09G29
  23612979.602   124087044.594       -4621.688          50.000  
  22309644.383   117237971.527       -3122.031          50.000  
 16  4  2 12 50 39.4000000  0  2G09G29
  23613067.602   124087507.062       -4627.805          50.000  
  22309703.844   117238283.977       -3126.477          50.000  
 16  4  2 12 50 39.5000000  0  2G09G29
  23613155.711   124087970.039       -4632.867          50.000  
  22309763.359   117238596.766       -3129.820          50.000  
 16  4  2 12 50 39.6000000  0  2G09G29
  23613243.922   124088433.617       -4638.793          50.000  
  22309822.953   117238909.957       -3133.738          50.000  
 16  4  2 12 50 39.7000000  0  2G09G29
  23613332.242   124088897.715       -4644.035          50.000  
  22309882.617   117239223.488       -3137.168          50.000  
 16  4  2 12 50 39.8000000  0  2G09G29
  23613420.664   124089362.387       -4649.660          50.000  
  22309942.367   117239537.410       -3140.934          50.000  
 16  4  2 12 50 39.9000000  0  2G09G29
  23613509.180   124089827.578       -4654.688          50.000  
  22310002.172   117239851.680       -3144.324          50.000  
 16  4  2 12 50 40.0000000  0  2G09G29
  23613597.805   124090293.328       -4660.602          50.000  
  22310062.047   117240166.301       -3148.258          50.000  
 16  4  2 12 50 40.1000000  0  2G09G29
  23613686.523   124090759.609       -4665.762          50.000  
  22310121.992   117240481.285       -3151.645          50.000  
 16  4  2 12 50 40.2000000  0  2G09G29
  23613775.367   124091226.484       -4671.879          50.000  
  22310182.008   117240796.676       -3155.836          50.000  
 16  4  2 12 50 40.3000000  0  2G09G29
  23613864.320   124091693.996       -4678.391          50.000  
  22310242.109   117241112.523       -3160.582          50.000  
 16  4  2 12 50 40.4000000  0  2G09G29
  23613953.391   124092162.035       -4683.699          50.000  
  22310302.289   117241428.711       -3163.949          50.000  
 16  4  2 12 50 40.5000000  0  2G09G29
  23614042.555   124092630.625       -4688.770          50.000  
  22310362.523   117241745.262       -3167.219          50.000  
 16  4  2 12 50 40.6000000  0  2G09G29
  23614131.828   124093099.777       -4694.672          50.000  
  22310422.836   117242062.203       -3171.324          50.000  
 16  4  2 12 50 40.7000000  0  2G09G29
  23614221.211   124093569.543       -4700.730          50.000  
  22310483.227   117242379.574       -3175.648          50.000  
 16  4  2 12 50 40.8000000  0  2G09G29
  23614310.711   124094039.848       -4706.016          50.000  
  22310543.695   117242697.297       -3179.176          50.000  
 16  4  2 12 50 40.9000000  0  2G09G29
  23614400.320   124094510.738       -4712.000          50.000  
  22310604.234   117243015.414       -3183.117          50.000  
 16  4  2 12 50 41.0000000  0  2G09G29
  23614490.031   124094982.156       -4717.113          50.000  
  22310664.828   117243333.883       -3186.473          50.000  
 16  4  2 12 50 41.1000000  0  2G09G29
  23614579.812   124095454.055       -4721.992          50.000  
  22310725.484   117243652.648       -3189.473          50.000  
 16  4  2 12 50 41.2000000  0  2G09G29
  23614669.727   124095926.562       -4728.141          50.000  
  22310786.211   117243971.840       -3193.801          50.000  
 16  4  2 12 50 41.3000000  0  2G09G29
  23614759.750   124096399.641       -4733.680          50.000  
  22310847.031   117244291.418       -3197.535          50.000  
 16  4  2 12 50 41.4000000  0  2G09G29
  23614849.867   124096873.234       -4739.102          50.000  
  22310907.898   117244611.332       -3201.168          50.000  
 16  4  2 12 50 41.5000000  0  2G09G29
  23614940.117   124097347.461       -4745.469          50.000  
  22310968.859   117244931.688       -3205.570          50.000  
 16  4  2 12 50 41.6000000  0  2G09G29
  23615030.461   124097822.227       -4750.789          50.000  
  22311029.891   117245252.410       -3209.121          50.000  
 16  4  2 12 50 41.7000000  0  2G09G29
  23615120.906   124098297.551       -4756.105          50.000  
  22311090.992   117245573.492       -3212.590          50.000  
 16  4  2 12 50 41.8000000  0  2G09G29
  23615211.469   124098773.430       -4762.055          50.000  
  22311152.156   117245894.957       -3216.684          50.000  
 16  4  2 12 50 41.9000000  0  2G09G29
  23615302.117   124099249.875       -4767.504          50.000  
  22311213.398   117246216.809       -3220.328          50.000  
 16  4  2 12 50 42.0000000  0  2G09G29
  23615392.898   124099726.926       -4773.492          50.000  
  22311274.742   117246539.066       -3224.383          50.000  
 16  4  2 12 50 42.1000000  0  2G09G29
  23615483.789   124100204.492       -4778.809          50.000  
  22311336.133   117246861.676       -3228.027          50.000  
 16  4  2 12 50 42.2000000  0  2G09G29
  23615574.789   124100682.703       -4785.250          50.000  
  22311397.602   117247184.734       -3232.652          50.000  
 16  4  2 12 50 42.3000000  0  2G09G29
  23615665.883   124101161.398       -4789.984          50.000  
  22311459.141   117247508.098       -3235.441          50.000  
 16  4  2 12 50 42.4000000  0  2G09G29
  23615757.094   124101640.719       -4796.395          50.000  
  22311520.758   117247831.906       -3240.102          50.000  
 16  4  2 12 50 42.5000000  0  2G09G29
  23615848.414   124102120.582       -4801.848          50.000  
  22311582.438   117248156.074       -3243.648          50.000  
 16  4  2 12 50 42.6000000  0  2G09G29
  23615939.836   124102601.012       -4807.301          50.000  
  22311644.195   117248480.617       -3247.344          50.000  
 16  4  2 12 50 42.7000000  0  2G09G29
  23616031.367   124103081.992       -4812.996          50.000  
  22311706.023   117248805.531       -3251.020          50.000  
 16  4  2 12 50 42.8000000  0  2G09G29
  23616123.008   124103563.562       -4818.633          50.000  
  22311767.922   117249130.855       -3255.129          50.000  
 16  4  2 12 50 42.9000000  0  2G09G29
  23616214.750   124104045.645       -4823.762          50.000  
  22311829.891   117249456.500       -3258.254          50.000  
 16  4  2 12 50 43.0000000  0  2G09G29
  23616306.586   124104528.250       -4829.164          50.000  
  22311891.914   117249782.488       -3261.785          50.000  
 16  4  2 12 50 43.1000000  0  2G09G29
  23616398.539   124105011.410       -4834.512          50.000  
  22311954.023   117250108.852       -3265.395          50.000  
 16  4  2 12 50 43.2000000  0  2G09G29
  23616490.586   124105495.102       -4839.996          50.000  
  22312016.203   117250435.570       -3269.043          50.000  
 16  4  2 12 50 43.3000000  0  2G09G29
  23616582.750   124105979.410       -4846.266          50.000  
  22312078.461   117250762.715       -3273.469          50.000  
 16  4  2 12 50 43.4000000  0  2G09G29
  23616675.023   124106464.336       -4852.289          50.000  
  22312140.805   117251090.293       -3277.727          50.000  
 16  4  2 12 50 43.5000000  0  2G09G29
  23616767.391   124106949.703       -4856.828          50.000  
  22312203.188   117251418.133       -3280.371          50.000  
 16  4  2 12 50 43.6000000  0  2G09G29
  23616859.867   124107435.648       -4862.508          50.000  
  22312265.648   117251746.363       -3284.098          50.000  
 16  4  2 12 50 43.7000000  0  2G09G29
  23616952.453   124107922.199       -4868.520          50.000  
  22312328.188   117252075.016       -3288.371          50.000  
 16  4  2 12 50 43.8000000  0  2G09G29
  23617045.148   124108409.305       -4874.219          50.000  
  22312390.805   117252404.047       -3292.383          50.000  
 16  4  2 12 50 43.9000000  0  2G09G29
  23617137.945   124108896.910       -4878.859          50.000  
  22312453.477   117252733.383       -3295.051          50.000  
 16  4  2 12 50 44.0000000  0  2G09G29
  23617230.836   124109385.094       -4884.809          50.000  
  22312516.219   117253063.121       -3299.262          50.000  
 16  4  2 12 50 44.1000000  0  2G09G29
  23617323.852   124109873.859       -4890.789          50.000  
  22312579.047   117253393.262       -3303.355          50.000  
 16  4  2 12 50 44.2000000  0  2G09G29
  23617416.969   124110363.199       -4896.543          50.000  
  22312641.945   117253723.785       -3307.227          50.000  
 16  4  2 12 50 44.3000000  0  2G09G29
  23617510.172   124110853.027       -4901.273          50.000  
  22312704.906   117254054.617       -3310.145          50.000  
 16  4  2 12 50 44.4000000  0  2G09G29
  23617603.484   124111343.391       -4906.387          50.000  
  22312767.930   117254385.805       -3313.480          50.000  
 16  4  2 12 50 44.5000000  0  2G09G29
  23617696.906   124111834.289       -4912.055          50.000  
  22312831.016   117254717.352       -3317.387          50.000  
 16  4  2 12 50 44.6000000  0  2G09G29
  23617790.438   124112325.797       -4917.680          50.000  
  22312894.188   117255049.309       -3321.117          50.000  
 16  4  2 12 50 44.7000000  0  2G09G29
  23617884.070   124112817.840       -4923.844          50.000  
  22312957.430   117255381.625       -3325.297          50.000  
 16  4  2 12 50 44.8000000  0  2G09G29
  23617977.820   124113310.484       -4929.488          50.000  
  22313020.742   117255714.363       -3329.258          50.000  
 16  4  2 12 50 44.9000000  0  2G09G29
  23618071.680   124113803.703       -4935.477          50.000  
  22313084.133   117256047.484       -3333.434          50.000  
 16  4  2 12 50 45.0000000  0  2G09G29
  23618165.633   124114297.457       -4940.527          50.000  
  22313147.602   117256380.977       -3336.723          50.000  
 16  4  2 12 50 45.1000000  0  2G09G29
  23618259.688   124114791.746       -4945.871          50.000  
  22313211.125   117256714.797       -3339.980          50.000  
 16  4  2 12 50 45.2000000  0  2G09G29
  23618353.867   124115286.660       -4952.254          50.000  
  22313274.742   117257049.070       -3344.625          50.000  
 16  4  2 12 50 45.3000000  0  2G09G29
  23618448.164   124115782.082       -4957.387          50.000  
  22313338.414   117257383.672       -3347.973          50.000  
 16  4  2 12 50 45.4000000  0  2G09G29
  23618542.547   124116278.070       -4962.762          50.000  
  22313402.148   117257718.652       -3351.559          50.000  
 16  4  2 12 50 45.5000000  0  2G09G29
  23618637.016   124116774.566       -4967.848          50.000  
  22313465.961   117258053.957       -3354.793          50.000  
 16  4  2 12 50 45.6000000  0  2G09G29
  23618731.609   124117271.660       -4973.914          50.000  
  22313529.836   117258389.680       -3359.078          50.000  
 16  4  2 12 50 45.7000000  0  2G09G29
  23618826.328   124117769.336       -4979.859          50.000  
  22313593.797   117258725.809       -3363.234          50.000  
 16  4  2 12 50 45.8000000  0  2G09G29
  23618921.141   124118267.570       -4985.422          50.000  
  22313657.828   117259062.293       -3366.820          50.000  
 16  4  2 12 50 45.9000000  0  2G09G29
  23619016.062   124118766.375       -4991.301          50.000  
  22313721.930   117259399.180       -3370.953          50.000  
 16  4  2 12 50 46.0000000  0  2G09G29
  23619111.070   124119265.676       -4996.062          50.000  
  22313786.109   117259736.371       -3373.848          50.000  
 16  4  2 12 50 46.1000000  0  2G09G29
  23619206.195   124119765.570       -5001.996          50.000  
  22313850.352   117260073.992       -3378.086          50.000  
 16  4  2 12 50 46.2000000  0  2G09G29
  23619301.438   124120266.066       -5008.043          50.000  
  22313914.688   117260412.012       -3382.082          50.000  
 16  4  2 12 50 46.3000000  0  2G09G29
  23619396.781   124120767.078       -5013.020          50.000  
  22313979.078   117260750.367       -3385.320          50.000  
 16  4  2 12 50 46.4000000  0  2G09G29
  23619492.219   124121268.637       -5018.504          50.000  
  22314043.539   117261089.090       -3389.027          50.000  
 16  4  2 12 50 46.5000000  0  2G09G29
  23619587.766   124121770.789       -5024.613          50.000  
  22314108.078   117261428.234       -3393.328          50.000  
 16  4  2 12 50 46.6000000  0  2G09G29
  23619683.438   124122273.551       -5030.824          50.000  
  22314172.688   117261767.793       -3397.715          50.000  
 16  4  2 12 50 46.7000000  0  2G09G29
  23619779.219   124122776.875       -5036.348          50.000  
  22314237.375   117262107.730       -3401.465          50.000  
 16  4  2 12 50 46.8000000  0  2G09G29
  23619875.102   124123280.711       -5041.434          50.000  
  22314302.117   117262448.004       -3404.746          50.000  
 16  4  2 12 50 46.9000000  0  2G09G29
  23619971.078   124123785.094       -5046.727          50.000  
  22314366.938   117262788.637       -3408.168          50.000  
 16  4  2 12 50 47.0000000  0  2G09G29
  23620067.156   124124290.000       -5051.965          50.000  
  22314431.828   117263129.609       -3411.598          50.000  
 16  4  2 12 50 47.1000000  0  2G09G29
  23620163.344   124124795.477       -5057.910          50.000  
  22314496.781   117263470.965       -3415.422          50.000  
 16  4  2 12 50 47.2000000  0  2G09G29
  23620259.633   124125301.496       -5063.117          50.000  
  22314561.812   117263812.695       -3419.062          50.000  
 16  4  2 12 50 47.3000000  0  2G09G29
  23620356.047   124125808.113       -5069.098          50.000  
  22314626.922   117264154.820       -3423.121          50.000  
 16  4  2 12 50 47.4000000  0  2G09G29
  23620452.547   124126315.219       -5074.227          50.000  
  22314692.086   117264497.273       -3426.402          50.000  
 16  4  2 12 50 47.5000000  0  2G09G29
  23620549.156   124126822.906       -5079.953          50.000  
  22314757.328   117264840.121       -3430.379          50.000  
 16  4  2 12 50 47.6000000  0  2G09G29
  23620645.867   124127331.164       -5085.562          50.000  
  22314822.641   117265183.348       -3434.129          50.000  
 16  4  2 12 50 47.7000000  0  2G09G29
  23620742.703   124127839.988       -5091.410          50.000  
  22314888.031   117265526.953       -3438.070          50.000  
 16  4  2 12 50 47.8000000  0  2G09G29
  23620839.633   124128349.348       -5096.605          50.000  
  22314953.484   117265870.922       -3441.504          50.000  
 16  4  2 12 50 47.9000000  0  2G09G29
  23620936.664   124128859.301       -5102.629          50.000  
  22315019.016   117266215.297       -3445.664          50.000  
 16  4  2 12 50 48.0000000  0  2G09G29
  23621033.812   124129369.801       -5107.992          50.000  
  22315084.625   117266560.047       -3449.348          50.000  
 16  4  2 12 50 48.1000000  0  2G09G29
  23621131.055   124129880.816       -5113.234          50.000  
  22315150.289   117266905.125       -3452.723          50.000  
 16  4  2 12 50 48.2000000  0  2G09G29
  23621228.414   124130392.430       -5118.992          50.000  
  22315216.031   117267250.609       -3456.641          50.000  
 16  4  2 12 50 48.3000000  0  2G09G29
  23621325.859   124130904.562       -5124.348          50.000  
  22315281.836   117267596.434       -3460.168          50.000  
 16  4  2 12 50 48.4000000  0  2G09G29
  23621423.430   124131417.270       -5130.199          50.000  
  22315347.719   117267942.648       -3464.090          50.000  
 16  4  2 12 50 48.5000000  0  2G09G29
  23621521.102   124131930.543       -5135.828          50.000  
  22315413.672   117268289.250       -3467.879          50.000  
 16  4  2 12 50 48.6000000  0  2G09G29
  23621618.875   124132444.359       -5141.348          50.000  
  22315479.695   117268636.223       -3471.641          50.000  
 16  4  2 12 50 48.7000000  0  2G09G29
  23621716.758   124132958.734       -5146.691          50.000  
  22315545.789   117268983.555       -3475.191          50.000  
 16  4  2 12 50 48.8000000  0  2G09G29
  23621814.742   124133473.641       -5151.832          50.000  
  22315611.961   117269331.242       -3478.562          50.000  
 16  4  2 12 50 48.9000000  0  2G09G29
  23621912.836   124133989.109       -5157.922          50.000  
  22315678.195   117269679.309       -3482.645          50.000  
 16  4  2 12 50 49.0000000  0  2G09G29
  23622011.039   124134505.164       -5163.453          50.000  
  22315744.508   117270027.785       -3486.598          50.000  
 16  4  2 12 50 49.1000000  0  2G09G29
  23622109.352   124135021.762       -5169.121          50.000  
  22315810.891   117270376.613       -3490.289          50.000  
 16  4  2 12 50 49.2000000  0  2G09G29
  23622207.750   124135538.859       -5173.875          50.000  
  22315877.336   117270725.758       -3493.156          50.000  
 16  4  2 12 50 49.3000000  0  2G09G29
  23622306.266   124136056.508       -5179.434          50.000  
  22315943.844   117271075.273       -3496.914          50.000  
 16  4  2 12 50 49.4000000  0  2G09G29
  23622404.891   124136574.773       -5185.582          50.000  
  22316010.438   117271425.223       -3501.242          50.000  
 16  4  2 12 50 49.5000000  0  2G09G29
  23622503.609   124137093.547       -5191.000          50.000  
  22316077.094   117271775.512       -3504.875          50.000  
 16  4  2 12 50 49.6000000  0  2G09G29
  23622602.453   124137612.953       -5197.039          50.000  
  22316143.836   117272126.234       -3509.043          50.000  
 16  4  2 12 50 49.7000000  0  2G09G29
  23622701.383   124138132.828       -5201.793          50.000  
  22316210.633   117272477.250       -3512.047          50.000  
 16  4  2 12 50 49.8000000  0  2G09G29
  23622800.430   124138653.336       -5208.223          50.000  
  22316277.508   117272828.711       -3516.570          50.000  
 16  4  2 12 50 49.9000000  0  2G09G29
  23622899.586   124139174.367       -5213.266          50.000  
  22316344.453   117273180.520       -3519.875          50.000  
 16  4  2 12 50 50.0000000  0  2G09G29
  23622998.844   124139695.973       -5219.137          50.000  
  22316411.461   117273532.723       -3524.039          50.000  
 16  4  2 12 50 50.1000000  0  2G09G29
  23623098.188   124140218.090       -5224.273          50.000  
  22316478.547   117273885.238       -3527.102          50.000  
 16  4  2 12 50 50.2000000  0  2G09G29
  23623197.656   124140740.793       -5230.234          50.000  
  22316545.695   117274238.168       -3531.250          50.000  
 16  4  2 12 50 50.3000000  0  2G09G29
  23623297.227   124141264.031       -5235.176          50.000  
  22316612.930   117274591.461       -3534.613          50.000  
 16  4  2 12 50 50.4000000  0  2G09G29
  23623396.898   124141787.797       -5240.668          50.000  
  22316680.219   117274945.086       -3538.141          50.000  
 16  4  2 12 50 50.5000000  0  2G09G29
  23623496.672   124142312.145       -5246.434          50.000  
  22316747.586   117275299.102       -3541.980          50.000  
 16  4  2 12 50 50.6000000  0  2G09G29
  23623596.539   124142836.938       -5250.887          50.000  
  22316815.008   117275653.406       -3544.801          50.000  
 16  4  2 12 50 50.7000000  0  2G09G29
  23623696.531   124143362.367       -5257.176          50.000  
  22316882.516   117276008.141       -3549.117          50.000  
 16  4  2 12 50 50.8000000  0  2G09G29
  23623796.625   124143888.387       -5263.258          50.000  
  22316950.102   117276363.301       -3553.543          50.000  
 16  4  2 12 50 50.9000000  0  2G09G29
  23623896.844   124144415.027       -5269.727          50.000  
  22317017.766   117276718.875       -3557.930          50.000  
 16  4  2 12 50 51.0000000  0  2G09G29
  23623997.148   124144942.133       -5274.176          50.000  
  22317085.477   117277074.762       -3560.797          50.000  
 16  4  2 12 50 51.1000000  0  2G09G29
  23624097.555   124145469.766       -5279.203          50.000  
  22317153.266   117277430.977       -3563.906          50.000  
 16  4  2 12 50 51.2000000  0  2G09G29
  23624198.078   124145998.020       -5285.586          50.000  
  22317221.133   117277787.637       -3568.371          50.000  
 16  4  2 12 50 51.3000000  0  2G09G29
  23624298.711   124146526.820       -5291.160          50.000  
  22317289.070   117278144.652       -3572.133          50.000  
 16  4  2 12 50 51.4000000  0  2G09G29
  23624399.445   124147056.188       -5296.852          50.000  
  22317357.086   117278502.066       -3576.102          50.000  
 16  4  2 12 50 51.5000000  0  2G09G29
  23624500.281   124147586.113       -5302.445          50.000  
  22317425.172   117278859.844       -3579.793          50.000  
 16  4  2 12 50 51.6000000  0  2G09G29
  23624601.242   124148116.637       -5308.207          50.000  
  22317493.328   117279218.043       -3583.809          50.000  
 16  4  2 12 50 51.7000000  0  2G09G29
  23624702.281   124148647.641       -5313.203          50.000  
  22317561.555   117279576.543       -3587.027          50.000  
 16  4  2 12 50 51.8000000  0  2G09G29
  23624803.438   124149179.227       -5318.645          50.000  
  22317629.844   117279935.426       -3590.602          50.000  
 16  4  2 12 50 51.9000000  0  2G09G29
  23624904.703   124149711.352       -5324.281          50.000  
  22317698.203   117280294.684       -3594.406          50.000  
 16  4  2 12 50 52.0000000  0  2G09G29
  23625006.070   124150244.031       -5329.953          50.000  
  22317766.648   117280654.305       -3598.234          50.000  
 16  4  2 12 50 52.1000000  0  2G09G29
  23625107.547   124150777.258       -5335.434          50.000  
  22317835.148   117281014.305       -3601.855          50.000  
 16  4  2 12 50 52.2000000  0  2G09G29
  23625209.117   124151311.016       -5340.383          50.000  
  22317903.727   117281374.645       -3605.098          50.000  
 16  4  2 12 50 52.3000000  0  2G09G29
  23625310.805   124151845.367       -5346.598          50.000  
  22317972.375   117281735.391       -3609.434          50.000  
 16  4  2 12 50 52.4000000  0  2G09G29
  23625412.602   124152380.312       -5352.809          50.000  
  22318041.094   117282096.559       -3613.828          50.000  
 16  4  2 12 50 52.5000000  0  2G09G29
  23625514.516   124152915.852       -5358.410          50.000  
  22318109.898   117282458.121       -3617.551          50.000  
 16  4  2 12 50 52.6000000  0  2G09G29
  23625616.516   124153451.871       -5363.324          50.000  
  22318178.766   117282819.996       -3620.641          50.000  
 16  4  2 12 50 52.7000000  0  2G09G29
  23625718.625   124153988.453       -5368.953          50.000  
  22318247.703   117283182.246       -3624.395          50.000  
 16  4  2 12 50 52.8000000  0  2G09G29
  23625820.859   124154525.691       -5375.309          50.000  
  22318316.734   117283544.980       -3629.098          50.000  
 16  4  2 12 50 52.9000000  0  2G09G29
  23625923.180   124155063.355       -5379.512          50.000  
  22318385.805   117283907.941       -3631.438          50.000  
 16  4  2 12 50 53.0000000  0  2G09G29
  23626025.594   124155601.555       -5384.895          50.000  
  22318454.938   117284271.270       -3634.973          50.000  
 16  4  2 12 50 53.1000000  0  2G09G29
  23626128.125   124156140.355       -5391.277          50.000  
  22318524.156   117284635.008       -3639.402          50.000  
 16  4  2 12 50 53.2000000  0  2G09G29
  23626230.766   124156679.766       -5396.977          50.000  
  22318593.461   117284999.180       -3643.465          50.000  
 16  4  2 12 50 53.3000000  0  2G09G29
  23626333.500   124157219.590       -5401.336          50.000  
  22318662.805   117285363.594       -3646.059          50.000  
 16  4  2 12 50 53.4000000  0  2G09G29
  23626436.336   124157760.016       -5407.008          50.000  
  22318732.234   117285728.410       -3649.863          50.000  
 16  4  2 12 50 53.5000000  0  2G09G29
  23626539.281   124158300.996       -5412.773          50.000  
  22318801.727   117286093.605       -3653.840          50.000  
 16  4  2 12 50 53.6000000  0  2G09G29
  23626642.328   124158842.512       -5418.234          50.000  
  22318871.297   117286459.148       -3657.328          50.000  
 16  4  2 12 50 53.7000000  0  2G09G29
  23626745.500   124159384.617       -5424.121          50.000  
  22318940.938   117286825.113       -3661.578          50.000  
 16  4  2 12 50 53.8000000  0  2G09G29
  23626848.766   124159927.289       -5429.848          50.000  
  22319010.641   117287191.445       -3665.340          50.000  
 16  4  2 12 50 53.9000000  0  2G09G29
  23626952.141   124160470.477       -5434.832          50.000  
  22319080.414   117287558.121       -3668.570          50.000  
 16  4  2 12 50 54.0000000  0  2G09G29
  23627055.602   124161014.180       -5439.984          50.000  
  22319150.258   117287925.125       -3671.848          50.000  
 16  4  2 12 50 54.1000000  0  2G09G29
  23627159.188   124161558.500       -5446.121          50.000  
  22319220.180   117288292.562       -3676.105          50.000  
 16  4  2 12 50 54.2000000  0  2G09G29
  23627262.867   124162103.352       -5451.746          50.000  
  22319290.172   117288660.355       -3680.031          50.000  
 16  4  2 12 50 54.3000000  0  2G09G29
  23627366.641   124162648.711       -5456.648          50.000  
  22319360.219   117289028.480       -3683.141          50.000  
 16  4  2 12 50 54.4000000  0  2G09G29
  23627470.539   124163194.695       -5462.938          50.000  
  22319430.352   117289397.027       -3687.414          50.000  
 16  4  2 12 50 54.5000000  0  2G09G29
  23627574.547   124163741.203       -5468.289          50.000  
  22319500.555   117289765.934       -3691.023          50.000  
 16  4  2 12 50 54.6000000  0  2G09G29
  23627678.641   124164288.238       -5473.336          50.000  
  22319570.836   117290135.188       -3694.336          50.000  
 16  4  2 12 50 54.7000000  0  2G09G29
  23627782.859   124164835.895       -5479.609          50.000  
  22319641.180   117290504.871       -3698.707          50.000  
 16  4  2 12 50 54.8000000  0  2G09G29
  23627887.172   124165384.070       -5484.746          50.000  
  22319711.594   117290874.895       -3702.117          50.000  
 16  4  2 12 50 54.9000000  0  2G09G29
  23627991.586   124165932.766       -5489.895          50.000  
  22319782.070   117291245.258       -3705.477          50.000  
 16  4  2 12 50 55.0000000  0  2G09G29
  23628096.109   124166482.004       -5495.348          50.000  
  22319852.617   117291615.977       -3709.094          50.000  
 16  4  2 12 50 55.1000000  0  2G09G29
  23628200.734   124167031.793       -5500.938          50.000  
  22319923.234   117291987.070       -3712.832          50.000  
 16  4  2 12 50 55.2000000  0  2G09G29
  23628305.461   124167582.164       -5506.746          50.000  
  22319993.930   117292358.566       -3716.859          50.000  
 16  4  2 12 50 55.3000000  0  2G09G29
  23628410.305   124168133.117       -5512.668          50.000  
  22320064.695   117292730.449       -3720.855          50.000  
 16  4  2 12 50 55.4000000  0  2G09G29
  23628515.242   124168684.562       -5517.637          50.000  
  22320135.531   117293102.664       -3724.094          50.000  
 16  4  2 12 50 55.5000000  0  2G09G29
  23628620.289   124169236.605       -5523.383          50.000  
  22320206.438   117293475.273       -3727.926          50.000  
 16  4  2 12 50 55.6000000  0  2G09G29
  23628725.445   124169789.180       -5528.660          50.000  
  22320277.406   117293848.242       -3731.457          50.000  
 16  4  2 12 50 55.7000000  0  2G09G29
  23628830.703   124170342.293       -5534.238          50.000  
  22320348.453   117294221.570       -3735.172          50.000  
 16  4  2 12 50 55.8000000  0  2G09G29
  23628936.070   124170895.980       -5539.918          50.000  
  22320419.562   117294595.289       -3739.066          50.000  
 16  4  2 12 50 55.9000000  0  3G09G25G29
  23629041.539   124171450.242       -5545.668          50.000  
  25158161.867   132207032.680        9277.852          49.000  
  22320490.750   117294969.398       -3742.961          50.000  
 16  4  2 12 50 56.0000000  0  3G09G25G29
  23629147.125   124172005.078       -5551.352          50.000  
  25157985.336   132206105.004        9275.809          49.000  
  22320562.016   117295343.895       -3746.789          50.000  
 16  4  2 12 50 56.1000000  0  3G09G25G29
  23629252.797   124172560.391       -5556.148          50.000  
  25157808.836   132205177.418        9274.875          49.000  
  22320633.336   117295718.703       -3749.918          50.000  
 16  4  2 12 50 56.2000000  0  3G09G25G29
  23629358.586   124173116.305       -5562.012          50.000  
  25157632.367   132204250.066        9272.805          49.000  
  22320704.742   117296093.918       -3753.965          50.000  
 16  4  2 12 50 56.3000000  0  3G09G25G29
  23629464.469   124173672.719       -5567.188          50.000  
  25157455.898   132203322.859        9271.180          49.000  
  22320776.203   117296469.461       -3757.281          50.000  
 16  4  2 12 50 56.4000000  0  3G09G25G29
  23629570.461   124174229.715       -5573.051          50.000  
  25157279.492   132202395.824        9269.348          49.000  
  22320847.742   117296845.379       -3761.133          50.000  
 16  4  2 12 50 56.5000000  0  3G09G25G29
  23629676.562   124174787.301       -5578.730          50.000  
  25157103.117   132201469.027        9267.215          49.000  
  22320919.359   117297221.734       -3765.258          50.000  
 16  4  2 12 50 56.6000000  0  3G09G25G29
  23629782.773   124175345.426       -5584.512          50.000  
  25156926.781   132200542.383        9265.344          49.000  
  22320991.031   117297598.426       -3769.023          50.000  
 16  4  2 12 50 56.7000000  0  3G09G25G29
  23629889.086   124175904.082       -5589.613          50.000  
  25156750.461   132199615.910        9263.945          49.000  
  22321062.781   117297975.488       -3772.434          50.000  
 16  4  2 12 50 56.8000000  0  3G09G25G29
  23629995.500   124176463.285       -5595.008          50.000  
  25156574.195   132198689.613        9262.223          49.000  
  22321134.602   117298352.902       -3775.973          50.000  
 16  4  2 12 50 56.9000000  0  3G09G25G29
  23630102.023   124177023.062       -5600.648          50.000  
  25156397.930   132197763.492        9260.465          49.000  
  22321206.500   117298730.707       -3779.777          50.000  
 16  4  2 12 50 57.0000000  0  3G09G25G29
  23630208.641   124177583.367       -5606.125          50.000  
  25156221.727   132196837.543        9258.629          49.000  
  22321278.445   117299108.859       -3783.445          50.000  
 16  4  2 12 50 57.1000000  0  3G09G25G29
  23630315.359   124178144.184       -5611.195          50.000  
  25156045.555   132195911.738        9257.238          49.000  
  22321350.469   117299487.352       -3786.738          50.000  
 16  4  2 12 50 57.2000000  0  3G09G25G29
  23630422.195   124178705.613       -5617.457          50.000  
  25155869.430   132194986.156        9254.766          49.000  
  22321422.578   117299866.270       -3791.176          50.000  
 16  4  2 12 50 57.3000000  0  3G09G25G29
  23630529.133   124179267.547       -5622.266          50.000  
  25155693.312   132194060.707        9253.645          49.000  
  22321494.742   117300245.496       -3794.145          50.000  
 16  4  2 12 50 57.4000000  0  3G09G25G29
  23630636.172   124179830.062       -5628.391          50.000  
  25155517.242   132193135.477        9251.172          49.000  
  22321566.992   117300625.148       -3798.508          50.000  
 16  4  2 12 50 57.5000000  0  3G09G25G29
  23630743.320   124180393.164       -5633.863          50.000  
  25155341.203   132192210.449        9249.484          49.000  
  22321639.312   117301005.184       -3802.121          50.000  
 16  4  2 12 50 57.6000000  0  3G09G25G29
  23630850.562   124180956.707       -5638.516          50.000  
  25155165.188   132191285.477        9248.906          49.000  
  22321711.680   117301385.496       -3804.949          50.000  
 16  4  2 12 50 57.7000000  0  3G09G25G29
  23630957.922   124181520.859       -5644.316          50.000  
  25154989.227   132190360.758        9246.621          49.000  
  22321784.133   117301766.219       -3809.012          50.000  
 16  4  2 12 50 57.8000000  0  3G09G25G29
  23631065.391   124182085.594       -5650.574          50.000  
  25154813.305   132189436.254        9244.047          49.000  
  22321856.664   117302147.352       -3813.273          50.000  
 16  4  2 12 50 57.9000000  0  3G09G25G29
  23631172.961   124182650.848       -5655.527          50.000  
  25154637.375   132188511.867        9242.891          49.000  
  22321929.250   117302528.820       -3816.570          50.000  
 16  4  2 12 50 58.0000000  0  3G09G25G29
  23631280.625   124183216.656       -5661.016          50.000  
  25154461.508   132187587.688        9241.043          49.000  
  22322001.906   117302910.664       -3820.262          50.000  
 16  4  2 12 50 58.1000000  0  3G09G25G29
  23631388.406   124183783.023       -5666.730          50.000  
  25154285.672   132186663.684        9239.117          49.000  
  22322074.641   117303292.875       -3823.965          50.000  
 16  4  2 12 50 58.2000000  0  3G09G25G29
  23631496.289   124184349.941       -5672.082          50.000  
  25154109.875   132185739.855        9237.512          49.000  
  22322147.445   117303675.473       -3827.680          50.000  
 16  4  2 12 50 58.3000000  0  3G09G25G29
  23631604.281   124184917.402       -5677.637          50.000  
  25153934.117   132184816.191        9235.816          49.000  
  22322220.320   117304058.426       -3831.434          50.000  
 16  4  2 12 50 58.4000000  0  3G09G25G29
  23631712.367   124185485.398       -5682.977          50.000  
  25153758.383   132183892.707        9234.188          49.000  
  22322293.266   117304441.730       -3834.852          50.000  
 16  4  2 12 50 58.5000000  0  3G09G25G29
  23631820.562   124186053.973       -5688.727          50.000  
  25153582.672   132182969.410        9232.125          49.000  
  22322366.281   117304825.430       -3838.824          50.000  
 16  4  2 12 50 58.6000000  0  3G09G25G29
  23631928.867   124186623.102       -5694.387          50.000  
  25153407.008   132182046.301        9230.168          49.000  
  22322439.359   117305209.500       -3842.613          50.000  
 16  4  2 12 50 58.7000000  0  3G09G25G29
  23632037.281   124187192.812       -5700.180          50.000  
  25153231.414   132181123.395        9228.133          49.000  
  22322512.531   117305593.980       -3846.680          50.000  
 16  4  2 12 50 58.8000000  0  3G09G25G29
  23632145.789   124187763.059       -5705.414          50.000  
  25153055.828   132180200.656        9226.551          49.000  
  22322585.758   117305978.805       -3850.094          50.000  
 16  4  2 12 50 58.9000000  0  3G09G25G29
  23632254.414   124188333.883       -5711.289          50.000  
  25152880.266   132179278.129        9224.332          49.000  
  22322659.062   117306364.031       -3854.133          50.000  
 16  4  2 12 50 59.0000000  0  3G09G25G29
  23632363.141   124188905.230       -5716.438          50.000  
  25152704.742   132178355.730        9223.027          49.000  
  22322732.430   117306749.594       -3857.449          50.000  
 16  4  2 12 50 59.1000000  0  3G09G25G29
  23632471.961   124189477.105       -5721.707          50.000  
  25152529.219   132177433.500        9221.402          49.000  
  22322805.867   117307135.504       -3860.914          50.000  
 16  4  2 12 50 59.2000000  0  3G09G25G29
  23632580.883   124190049.500       -5726.930          50.000  
  25152353.758   132176511.422        9219.953          49.000  
  22322879.375   117307521.766       -3864.402          50.000  
 16  4  2 12 50 59.3000000  0  3G09G25G29
  23632689.914   124190622.473       -5732.605          50.000  
  25152178.344   132175589.531        9218.074          49.000  
  22322952.945   117307908.410       -3868.293          50.000  
 16  4  2 12 50 59.4000000  0  3G09G25G29
  23632799.055   124191195.980       -5738.391          50.000  
  25152002.953   132174667.816        9216.148          49.000  
  22323026.586   117308295.414       -3872.039          50.000  
 16  4  2 12 50 59.5000000  0  3G09G25G29
  23632908.312   124191770.109       -5744.219          50.000  
  25151827.602   132173746.344        9213.855          49.000  
  22323100.312   117308682.855       -3876.215          50.000  
 16  4  2 12 50 59.6000000  0  3G09G25G29
  23633017.664   124192344.766       -5749.574          50.000  
  25151652.281   132172825.016        9212.336          49.000  
  22323174.117   117309070.641       -3879.750          50.000  
 16  4  2 12 50 59.7000000  0  3G09G25G29
  23633127.125   124192919.977       -5755.180          50.000  
  25151477.000   132171903.879        9210.430          49.000  
  22323247.977   117309458.797       -3883.438          50.000  
 16  4  2 12 50 59.8000000  0  3G09G25G29
  23633236.688   124193495.742       -5760.566          50.000  
  25151301.750   132170982.930        9208.699          49.000  
  22323321.922   117309847.340       -3887.309          50.000  
 16  4  2 12 50 59.9000000  0  3G09G25G29
  23633346.344   124194072.004       -5765.434          50.000  
  25151126.531   132170062.098        9207.566          49.000  
  22323395.914   117310236.195       -3890.340          50.000  
 16  4  2 12 51  0.0000000  0  3G09G25G29
  23633456.109   124194648.828       -5771.375          50.000  
  25150951.336   132169141.445        9205.551          49.000  
  22323469.984   117310625.406       -3894.035          50.000  
 16  4  2 12 51  0.1000000  0  3G09G25G29
  23633565.984   124195226.215       -5776.707          50.000  
  25150776.172   132168220.992        9203.844          49.000  
  22323544.125   117311015.027       -3897.848          50.000  
 16  4  2 12 51  0.2000000  0  3G09G25G29
  23633675.961   124195804.129       -5782.098          50.000  
  25150601.047   132167300.688        9202.293          49.000  
  22323618.328   117311404.988       -3901.410          49.000  
 16  4  2 12 51  0.3000000  0  3G09G25G29
  23633786.039   124196382.594       -5787.812          50.000  
  25150425.961   132166380.562        9200.340          49.000  
  22323692.602   117311795.309       -3905.289          50.000  
 16  4  2 12 51  0.4000000  0  3G09G25G29
  23633896.234   124196961.684       -5793.883          50.000  
  25150250.914   132165460.684        9197.922          49.000  
  22323766.961   117312186.066       -3909.352          50.000  
 16  4  2 12 51  0.5000000  0  3G09G25G29
  23634006.531   124197541.281       -5799.270          50.000  
  25150075.906   132164540.945        9196.352          49.000  
  22323841.391   117312577.168       -3912.949          50.000  
 16  4  2 12 51  0.6000000  0  3G09G25G29
  23634116.930   124198121.422       -5804.438          50.000  
  25149900.922   132163621.383        9194.812          49.000  
  22323915.883   117312968.633       -3916.410          50.000  
 16  4  2 12 51  0.7000000  0  3G09G25G29
  23634227.422   124198702.121       -5809.961          50.000  
  25149725.961   132162701.996        9193.004          49.000  
  22323990.445   117313360.461       -3920.160          50.000  
 16  4  2 12 51  0.8000000  0  3G09G25G29
  23634338.031   124199283.363       -5815.352          50.000  
  25149551.039   132161782.785        9191.219          49.000  
  22324065.086   117313752.664       -3923.738          50.000  
 16  4  2 12 51  0.9000000  0  3G09G25G29
  23634448.742   124199865.137       -5820.875          50.000  
  25149376.156   132160863.738        9189.441          49.000  
  22324139.789   117314145.215       -3927.527          50.000  
 16  4  2 12 51  1.0000000  0  3G09G25G29
  23634559.562   124200447.500       -5826.293          50.000  
  25149201.305   132159944.895        9187.801          49.000  
  22324214.562   117314538.176       -3931.227          50.000  
 16  4  2 12 51  1.1000000  0  3G09G25G29
  23634670.469   124201030.336       -5831.734          50.000  
  25149026.461   132159026.164        9186.203          49.000  
  22324289.398   117314931.426       -3934.641          50.000  
 16  4  2 12 51  1.2000000  0  3G09G25G29
  23634781.492   124201613.793       -5837.477          50.000  
  25148851.672   132158107.656        9184.172          49.000  
  22324364.312   117315325.102       -3938.496          50.000  
 16  4  2 12 51  1.3000000  0  3G09G25G29
  23634892.625   124202197.785       -5842.770          50.000  
  25148676.906   132157189.340        9182.473          49.000  
  22324439.297   117315719.156       -3942.199          50.000  
 16  4  2 12 51  1.4000000  0  3G09G25G29
  23635003.859   124202782.320       -5848.609          50.000  
  25148502.180   132156271.180        9180.449          49.000  
  22324514.344   117316113.559       -3946.176          50.000  
 16  4  2 12 51  1.5000000  0  3G09G25G29
  23635115.195   124203367.422       -5854.000          50.000  
  25148327.516   132155353.219        9178.746          49.000  
  22324589.469   117316508.355       -3949.828          50.000  
 16  4  2 12 51  1.6000000  0  3G09G25G29
  23635226.633   124203953.031       -5859.094          50.000  
  25148152.852   132154435.383        9177.430          49.000  
  22324664.648   117316903.457       -3952.980          50.000  
 16  4  2 12 51  1.7000000  0  3G09G25G29
  23635338.180   124204539.195       -5864.664          50.000  
  25147978.242   132153517.738        9175.559          49.000  
  22324739.914   117317298.957       -3956.840          50.000  
 16  4  2 12 51  1.8000000  0  3G09G25G29
  23635449.828   124205125.910       -5870.184          50.000  
  25147803.648   132152600.266        9173.793          49.000  
  22324815.234   117317694.816       -3960.434          50.000  
 16  4  2 12 51  1.9000000  0  3G09G25G29
  23635561.578   124205713.199       -5875.738          50.000  
  25147629.086   132151682.992        9172.012          49.000  
  22324890.641   117318091.066       -3964.301          50.000  
 16  4  2 12 51  2.0000000  0  3G09G25G29
  23635673.438   124206301.000       -5880.938          50.000  
  25147454.562   132150765.867        9170.406          49.000  
  22324966.109   117318487.652       -3967.641          50.000  
 16  4  2 12 51  2.1000000  0  3G09G25G29
  23635785.383   124206889.363       -5886.641          50.000  
  25147280.086   132149848.934        9168.578          49.000  
  22325041.648   117318884.621       -3971.535          50.000  
 16  4  2 12 51  2.2000000  0  3G09G25G29
  23635897.461   124207478.312       -5892.426          50.000  
  25147105.633   132148932.188        9166.500          49.000  
  22325117.258   117319281.977       -3975.379          50.000  
 16  4  2 12 51  2.3000000  0  3G09G25G29
  23636009.641   124208067.770       -5897.621          50.000  
  25146931.203   132148015.605        9164.969          49.000  
  22325192.945   117319679.688       -3978.996          50.000  
 16  4  2 12 51  2.4000000  0  3G09G25G29
  23636121.922   124208657.820       -5903.578          50.000  
  25146756.820   132147099.230        9162.848          49.000  
  22325268.703   117320077.781       -3982.836          50.000  
 16  4  2 12 51  2.5000000  0  3G09G25G29
  23636234.297   124209248.363       -5908.164          50.000  
  25146582.461   132146182.988        9161.672          49.000  
  22325344.523   117320476.215       -3986.004          50.000  
 16  4  2 12 51  2.6000000  0  3G09G25G29
  23636346.781   124209839.445       -5913.938          50.000  
  25146408.133   132145266.891        9159.945          49.000  
  22325420.398   117320874.984       -3989.617          50.000  
 16  4  2 12 51  2.7000000  0  3G09G25G29
  23636459.375   124210431.105       -5919.547          50.000  
  25146233.836   132144351.012        9157.969          49.000  
  22325496.367   117321274.168       -3993.582          50.000  
 16  4  2 12 51  2.8000000  0  3G09G25G29
  23636572.070   124211023.320       -5925.391          50.000  
  25146059.586   132143435.309        9155.973          49.000  
  22325572.398   117321673.719       -3997.652          50.000  
 16  4  2 12 51  2.9000000  0  3G09G25G29
  23636684.883   124211616.156       -5931.367          50.000  
  25145885.391   132142519.859        9153.637          49.000  
  22325648.516   117322073.707       -4001.855          50.000  
 16  4  2 12 51  3.0000000  0  3G09G25G29
  23636797.789   124212209.469       -5936.020          50.000  
  25145711.203   132141604.508        9152.656          49.000  
  22325724.688   117322473.984       -4004.609          50.000  
 16  4  2 12 51  3.1000000  0  3G09G25G29
  23636910.789   124212803.285       -5941.258          50.000  
  25145537.047   132140689.293        9151.242          49.000  
  22325800.922   117322874.594       -4008.031          50.000  
 16  4  2 12 51  3.2000000  0  3G09G25G29
  23637023.891   124213397.660       -5946.641          50.000  
  25145362.930   132139774.281        9149.543          49.000  
  22325877.219   117323275.586       -4011.656          50.000  
 16  4  2 12 51  3.3000000  0  3G09G25G29
  23637137.109   124213992.590       -5952.270          50.000  
  25145188.836   132138859.422        9147.641          49.000  
  22325953.594   117323676.934       -4015.383          50.000  
 16  4  2 12 51  3.4000000  0  3G09G25G29
  23637250.438   124214588.125       -5958.648          50.000  
  25145014.797   132137944.816        9144.977          49.000  
  22326030.055   117324078.738       -4020.094          50.000  
 16  4  2 12 51  3.5000000  0  3G09G25G29
  23637363.867   124215184.168       -5963.156          50.000  
  25144840.781   132137030.324        9144.156          49.000  
  22326106.570   117324480.828       -4022.582          50.000  
