     2.10           OBSERVATION DATA    G (GPS)             RINEX VERSION / TYPE
Convert v1.8.0                          07-Jun-2016 18:54   PGM / RUN BY / DATE 
Signal Strength values S1,S2 are in dBHz                    COMMENT             
                                                            MARKER NAME         
                                                            MARKER NUMBER       
                                                            OBSERVER / AGENCY   
                    NovAtel GPSCard                         REC # / TYPE / VERS 
                                                            ANT # / TYPE        
0.0000        0.0000        0.0000                          APPROX POSITION XYZ 
        0.0000        0.0000        0.0000                  ANTENNA: DELTA H/E/N
     1     1                                                WAVELENGTH FACT L1/2
     1     1     6   G01   G08   G10   G11   G18   G21      WAVELENGTH FACT L1/2
                                                            COMMENT             
                                                            COMMENT             
                                                            COMMENT             
                                                            COMMENT             
                                                            COMMENT             
                                                            COMMENT             
     8    C1    L1    D1    S1    P2    L2    D2    S2      # / TYPES OF OBSERV 
     0.100                                                  INTERVAL            
  2016    04    02    12    06     6.9000000    GPS         TIME OF FIRST OBS   
  2016    04    02    12    10    27.5000000    GPS         TIME OF LAST OBS    
Leap Seconds Unknown                                        COMMENT             
                                                            END OF HEADER       
 16 04 02 12 06  6.9000000  0  2G01G18                                          
  24139898.62549 126856022.70349     -2175.05149        49.000  

  22462322.74249 118040302.17249     -6044.05949        50.000  

 16 04 02 12 06  7.0000000  0  2G01G18                                          
  24139940.03949 126856240.35549     -2177.34049        49.000  

  22462437.80549 118040906.82849     -6048.95749        50.000  

 16 04 02 12 06  7.1000000  0  3G01G18G11                                       
  24139981.49249 126856458.22349     -2179.70349        49.000  

  22462552.96949 118041512.00049     -6054.16449        50.000  

  22528014.89149 118385516.50059     -5716.59049        50.000  

 16 04 02 12 06  7.2000000  0  3G01G18G11                                       
  24140022.99249 126856676.27349     -2181.41049        49.000  

  22462668.21949 118042117.62949     -6058.67649        50.000  

  22528123.68849 118386088.25449     -5718.93449        50.000  

 16 04 02 12 06  7.3000000  0  3G01G18G11                                       
  24140064.50849 126856894.48449     -2182.94149        49.000  

  22462783.54749 118042723.68049     -6062.85549        50.000  

  22528232.53149 118386660.25849     -5721.35249        50.000  

 16 04 02 12 06  7.4000000  0  3G01G18G11                                       
  24140106.07849 126857112.94149     -2185.48449        49.000  

  22462898.97749 118043330.27749     -6068.41849        50.000  

  22528341.43849 118387232.59449     -5724.87149        50.000  

 16 04 02 12 06  7.5000000  0  3G01G18G11                                       
  24140147.70349 126857331.62149     -2187.71149        49.000  

  22463014.50049 118043937.36749     -6073.40649        50.000  

  22528450.41449 118387805.22749     -5727.82849        50.000  

 16 04 02 12 06  7.6000000  0  3G01G18G11                                       
  24140189.34449 126857550.44149     -2189.09049        49.000  

  22463130.10949 118044544.86349     -6077.52349        50.000  

  22528559.43049 118388378.08249     -5729.93449        50.000  

 16 04 02 12 06  7.7000000  0  3G01G18G11                                       
  24140231.01649 126857769.48049     -2191.22749        49.000  

  22463245.79749 118045152.86749     -6082.28549        50.000  

  22528668.48449 118388951.24249     -5732.92249        50.000  

 16 04 02 12 06  7.8000000  0  3G01G18G11                                       
  24140272.73449 126857988.69949     -2192.96149        49.000  

  22463361.57849 118045761.32449     -6086.85949        50.000  

  22528777.60249 118389524.66049     -5735.49249        50.000  

 16 04 02 12 06  7.9000000  0  3G01G18G11                                       
  24140314.47749 126858208.10949     -2194.92249        49.000  

  22463477.45349 118046370.25049     -6091.61749        50.000  

  22528886.77349 118390098.35249     -5738.27349        50.000  

 16 04 02 12 06  8.0000000  0  3G01G18G11                                       
  24140356.26649 126858427.71949     -2197.06649        49.000  

  22463593.41449 118046979.64149     -6096.38349        50.000  

  22528995.99249 118390672.30549     -5741.01249        50.000  

 16 04 02 12 06  8.1000000  0  3G01G18G11                                       
  24140398.09449 126858647.47749     -2198.52349        49.000  

  22463709.46949 118047589.48049     -6100.86749        50.000  

  22529105.26649 118391246.52049     -5743.58649        50.000  

 16 04 02 12 06  8.2000000  0  3G01G18G11                                       
  24140439.96949 126858867.51649     -2201.37949        49.000  

  22463825.61749 118048199.85549     -6106.24649        50.000  

  22529214.60249 118391821.07449     -5747.11349        50.000  

 16 04 02 12 06  8.3000000  0  3G01G18G11                                       
  24140481.88349 126859087.75049     -2203.35549        49.000  

  22463941.85949 118048810.71149     -6111.05549        50.000  

  22529324.00049 118392395.90649     -5749.80549        50.000  

 16 04 02 12 06  8.4000000  0  3G01G18G11                                       
  24140523.81249 126859308.11349     -2204.60249        49.000  

  22464058.18049 118049421.97749     -6115.05149        50.000  

  22529433.43049 118392970.94949     -5751.90249        50.000  

 16 04 02 12 06  8.5000000  0  3G01G18G11                                       
  24140565.77349 126859528.69949     -2206.64549        49.000  

  22464174.60249 118050033.73849     -6119.83249        50.000  

  22529542.92249 118393546.30549     -5754.79349        50.000  

 16 04 02 12 06  8.6000000  0  3G01G18G11                                       
  24140607.78149 126859749.46149     -2208.53149        49.000  

  22464291.10249 118050645.94549     -6124.50449        50.000  

  22529652.45349 118394121.90249     -5757.38749        50.000  

 16 04 02 12 06  8.7000000  0  3G01G18G11                                       
  24140649.83649 126859970.45749     -2210.89849        49.000  

  22464407.70349 118051258.68849     -6129.77049        50.000  

  22529762.05549 118394697.84449     -5760.78949        50.000  

 16 04 02 12 06  8.8000000  0  3G01G18G11                                       
  24140691.93849 126860191.66849     -2212.95749        49.000  

  22464524.39149 118051871.89149     -6134.41049        50.000  

  22529871.70349 118395274.05149     -5763.43449        50.000  

 16 04 02 12 06  8.9000000  0  3G01G18G11                                       
  24140734.06249 126860413.01649     -2214.43449        49.000  

  22464641.15649 118052485.53149     -6138.85949        50.000  

  22529981.40649 118395850.48449     -5765.77749        50.000  

 16 04 02 12 06  9.0000000  0  3G01G18G11                                       
  24140776.22749 126860634.62149     -2217.05549        49.000  

  22464758.02349 118053099.69149     -6144.21149        50.000  

  22530091.16449 118396427.26249     -5769.41049        50.000  

 16 04 02 12 06  9.1000000  0  3G01G18G11                                       
  24140818.44549 126860856.42649     -2218.91449        49.000  

  22464874.97749 118053714.33649     -6148.68449        50.000  

  22530200.96149 118397004.31649     -5771.89849        50.000  

 16 04 02 12 06  9.2000000  0  3G01G18G11                                       
  24140860.68049 126861078.34449     -2219.94149        49.000  

  22464992.01649 118054329.37149     -6152.64549        50.000  

  22530310.81249 118397581.57049     -5773.91849        50.000  

 16 04 02 12 06  9.3000000  0  3G01G18G11                                       
  24140902.95349 126861300.50049     -2222.33249        49.000  

  22465109.15649 118054944.91849     -6157.84849        50.000  

  22530420.71949 118398159.12549     -5776.82449        50.000  

 16 04 02 12 06  9.4000000  0  3G01G18G11                                       
  24140945.25849 126861522.82849     -2224.19549        49.000  

  22465226.37549 118055560.90649     -6162.41849        50.000  

  22530530.68049 118398736.95749     -5779.74249        50.000  

 16 04 02 12 06  9.5000000  0  3G01G18G11                                       
  24140987.60949 126861745.39549     -2226.58249        49.000  

  22465343.69549 118056177.42249     -6167.62549        50.000  

  22530640.69549 118399315.09049     -5782.82449        50.000  

 16 04 02 12 06  9.6000000  0  3G01G18G11                                       
  24141030.00049 126861968.16449     -2228.75449        49.000  

  22465461.10249 118056794.40249     -6172.39849        50.000  

  22530750.76649 118399893.51649     -5785.90649        50.000  

 16 04 02 12 06  9.7000000  0  3G01G18G11                                       
  24141072.43849 126862191.14549     -2230.74249        49.000  

  22465578.61749 118057411.89549     -6177.32849        50.000  

  22530860.89849 118400472.23849     -5788.58649        50.000  

 16 04 02 12 06  9.8000000  0  3G01G18G11                                       
  24141114.90649 126862414.32849     -2232.66849        49.000  

  22465696.20349 118058029.84049     -6181.69549        50.000  

  22530971.07849 118401051.23049     -5791.19149        50.000  

 16 04 02 12 06  9.9000000  0  3G01G18G11                                       
  24141157.40649 126862637.73449     -2235.00849        49.000  

  22465813.89849 118058648.29349     -6187.07849        50.000  

  22531081.32049 118401630.52749     -5794.43049        50.000  

 16 04 02 12 06 10.0000000  0  3G01G18G11                                       
  24141199.96149 126862861.34849     -2237.00049        49.000  

  22465931.68049 118059267.23049     -6191.78949        50.000  

  22531191.60949 118402210.11349     -5797.27749        50.000  

 16 04 02 12 06 10.1000000  0  3G01G18G11                                       
  24141242.55549 126863085.14849     -2238.92249        49.000  

  22466049.55549 118059886.62949     -6196.29349        50.000  

  22531301.95349 118402789.98049     -5799.95749        50.000  

 16 04 02 12 06 10.2000000  0  3G01G18G11                                       
  24141285.17249 126863309.10549     -2240.58249        49.000  

  22466167.50849 118060506.46549     -6200.84449        50.000  

  22531412.34449 118403370.07449     -5802.50449        50.000  

 16 04 02 12 06 10.3000000  0  3G01G18G11                                       
  24141327.82049 126863533.28549     -2242.68449        49.000  

  22466285.54749 118061126.80549     -6205.71549        50.000  

  22531522.78149 118403950.46949     -5805.32049        50.000  

 16 04 02 12 06 10.4000000  0  3G01G18G11                                       
  24141370.51649 126863757.65249     -2244.56649        49.000  

  22466403.68049 118061747.60549     -6210.58649        50.000  

  22531633.28149 118404531.14549     -5808.23449        50.000  

 16 04 02 12 06 10.5000000  0  3G01G18G11                                       
  24141413.26649 126863982.26649     -2247.09049        49.000  

  22466521.91449 118062368.91849     -6215.61349        50.000  

  22531743.85249 118405112.12949     -5811.41849        50.000  

 16 04 02 12 06 10.6000000  0  3G01G18G11                                       
  24141456.05549 126864207.10949     -2249.36749        49.000  

  22466640.24249 118062990.74249     -6220.63749        50.000  

  22531854.46949 118405693.44549     -5814.46949        50.000  

 16 04 02 12 06 10.7000000  0  3G01G18G11                                       
  24141498.86749 126864432.07049     -2250.64849        49.000  

  22466758.64849 118063612.96549     -6224.70749        50.000  

  22531965.12549 118406274.94149     -5816.55949        50.000  

 16 04 02 12 06 10.8000000  0  3G01G18G11                                       
  24141541.71949 126864657.28949     -2252.91849        49.000  

  22466877.15649 118064235.71949     -6229.80149        50.000  

  22532075.85249 118406856.78549     -5819.73849        50.000  

 16 04 02 12 06 10.9000000  0  3G01G18G11                                       
  24141584.60949 126864882.67249     -2254.68049        49.000  

  22466995.74249 118064858.91849     -6234.25849        50.000  

  22532186.60249 118407438.86749     -5822.12149        50.000  

 16 04 02 12 06 11.0000000  0  3G01G18G11                                       
  24141627.53149 126865108.23849     -2256.49649        49.000  

  22467114.41449 118065482.56249     -6238.96149        50.000  

  22532297.41449 118408021.21149     -5824.91849        50.000  

 16 04 02 12 06 11.1000000  0  3G01G18G11                                       
  24141670.48449 126865334.04749     -2258.86749        49.000  

  22467233.18849 118066106.73849     -6244.03549        50.000  

  22532408.29749 118408603.88749     -5828.06249        50.000  

 16 04 02 12 06 11.2000000  0  3G01G18G11                                       
  24141713.48449 126865560.02049     -2260.62549        49.000  

  22467352.04749 118066731.35249     -6248.66849        50.000  

  22532519.21949 118409186.80549     -5830.74649        50.000  

 16 04 02 12 06 11.3000000  0  3G01G18G11                                       
  24141756.52349 126865786.21549     -2262.84449        49.000  

  22467471.00049 118067356.44549     -6253.34449        50.000  

  22532630.20349 118409770.02049     -5833.50049        50.000  

 16 04 02 12 06 11.4000000  0  3G01G18G11                                       
  24141799.60249 126866012.59049     -2264.93849        49.000  

  22467590.04749 118067982.03949     -6258.67649        50.000  

  22532741.23449 118410353.51249     -5836.71149        50.000  

 16 04 02 12 06 11.5000000  0  3G01G18G11                                       
  24141842.73449 126866239.25449     -2267.45749        49.000  

  22467709.19549 118068608.16449     -6263.69149        50.000  

  22532852.33649 118410937.35949     -5839.81249        50.000  

 16 04 02 12 06 11.6000000  0  3G01G18G11                                       
  24141885.89149 126866466.05949     -2269.02049        49.000  

  22467828.42249 118069234.69549     -6267.75449        50.000  

  22532963.48449 118411521.43049     -5842.10949        50.000  

 16 04 02 12 06 11.7000000  0  3G01G18G11                                       
  24141929.08649 126866693.03149     -2270.72349        49.000  

  22467947.73449 118069861.68849     -6272.46549        50.000  

  22533074.68049 118412105.73849     -5844.59849        50.000  

 16 04 02 12 06 11.8000000  0  3G01G18G11                                       
  24141972.32049 126866920.21549     -2272.71949        49.000  

  22468067.14149 118070489.17649     -6277.29749        50.000  

  22533185.93049 118412690.35949     -5847.50049        50.000  

 16 04 02 12 06 11.9000000  0  3G01G18G11                                       
  24142015.57849 126867147.59849     -2274.84849        49.000  

  22468186.63349 118071117.12149     -6281.85249        50.000  

  22533297.22749 118413275.24249     -5850.27349        50.000  

 16 04 02 12 06 12.0000000  0  3G01G18G11                                       
  24142058.89149 126867375.19549     -2276.93049        49.000  

  22468306.22749 118071745.57049     -6286.91049        50.000  

  22533408.58649 118413860.44549     -5853.34849        50.000  

 16 04 02 12 06 12.1000000  0  3G01G18G11                                       
  24142102.24249 126867602.95349     -2278.57449        49.000  

  22468425.89849 118072374.44149     -6291.26649        50.000  

  22533519.98449 118414445.86349     -5855.75049        50.000  

 16 04 02 12 06 12.2000000  0  3G01G18G11                                       
  24142145.63349 126867830.97349     -2281.09849        49.000  

  22468545.67249 118073003.87149     -6296.76249        50.000  

  22533631.46149 118415031.65649     -5859.37949        50.000  

 16 04 02 12 06 12.3000000  0  3G01G18G11                                       
  24142189.05549 126868059.17249     -2282.85249        49.000  

  22468665.53949 118073633.73049     -6300.94149        50.000  

  22533742.97749 118415617.66849     -5861.62549        50.000  

 16 04 02 12 06 12.4000000  0  3G01G18G11                                       
  24142232.52349 126868287.60249     -2285.36749        49.000  

  22468785.49249 118074264.10949     -6306.47749        50.000  

  22533854.55549 118416204.00849     -5865.04749        50.000  

 16 04 02 12 06 12.5000000  0  3G01G18G11                                       
  24142276.03949 126868516.27049     -2287.78549        49.000  

  22468905.53949 118074895.00449     -6311.51649        50.000  

  22533966.19549 118416790.67249     -5868.28549        50.000  

 16 04 02 12 06 12.6000000  0  3G01G18G11                                       
  24142319.60249 126868745.17249     -2290.03549        49.000  

  22469025.68849 118075526.40649     -6316.57849        50.000  

  22534077.89149 118417377.64549     -5871.40249        50.000  

 16 04 02 12 06 12.7000000  0  3G01G18G11                                       
  24142363.18849 126868974.20749     -2291.31249        49.000  

  22469145.91449 118076158.21149     -6320.54349        50.000  

  22534189.63349 118417964.83249     -5873.31249        50.000  

 16 04 02 12 06 12.8000000  0  3G01G18G11                                       
  24142406.81249 126869203.46549     -2293.50449        49.000  

  22469266.23449 118076790.51249     -6325.39549        50.000  

  22534301.43049 118418552.32049     -5876.34449        50.000  

 16 04 02 12 06 12.9000000  0  3G01G18G11                                       
  24142450.49249 126869432.93449     -2295.56649        49.000  

  22469386.65649 118077423.30549     -6330.17249        50.000  

  22534413.28149 118419140.10249     -5879.12949        50.000  

 16 04 02 12 06 13.0000000  0  3G01G18G11                                       
  24142494.18049 126869662.52749     -2296.75449        49.000  

  22469507.14849 118078056.50849     -6334.36749        50.000  

  22534525.17249 118419728.09449     -5881.28549        50.000  

 16 04 02 12 06 13.1000000  0  3G01G18G11                                       
  24142537.89849 126869892.30949     -2298.64549        48.000  

  22469627.72749 118078690.16049     -6338.75449        50.000  

  22534637.11749 118420316.34449     -5883.77049        50.000  

 16 04 02 12 06 13.2000000  0  3G01G18G11                                       
  24142581.65649 126870122.25049     -2300.24649        48.000  

  22469748.39149 118079324.25449     -6343.21949        50.000  

  22534749.10249 118420904.84049     -5886.19949        50.000  

 16 04 02 12 06 13.3000000  0  3G01G18G11                                       
  24142625.45349 126870352.39149     -2302.30949        49.000  

  22469869.13349 118079958.82449     -6348.03549        50.000  

  22534861.14849 118421493.62549     -5889.18449        50.000  

 16 04 02 12 06 13.4000000  0  3G01G18G11                                       
  24142669.28949 126870582.73849     -2304.39849        49.000  

  22469989.97749 118080593.87149     -6352.91049        50.000  

  22534973.24249 118422082.68849     -5892.17249        50.000  

 16 04 02 12 06 13.5000000  0  4G01G18G08G11                                    
  24142713.16449 126870813.36349     -2307.34849        49.000  

  22470110.93849 118081229.48049     -6358.74249        50.000  

  20813239.19549 109374309.60259      8706.02749        50.000  

  22535085.41449 118422672.10549     -5895.78949        50.000  

 16 04 02 12 06 13.6000000  0  4G01G18G08G11                                    
  24142757.07849 126871044.16049     -2309.00849        49.000  

  22470231.96949 118081865.52749     -6363.00449        50.000  

  20813073.54749 109373439.13749      8702.33249        50.000  

  22535197.62549 118423261.78949     -5898.38349        50.000  

 16 04 02 12 06 13.7000000  0  4G01G18G08G11                                    
  24142801.03949 126871275.16049     -2310.85549        49.000  

  22470353.09449 118082502.05149     -6367.61349        50.000  

  20812907.94549 109372569.05149      8698.72749        49.000  

  22535309.89849 118423851.73849     -5900.89549        50.000  

 16 04 02 12 06 13.8000000  0  4G01G18G08G11                                    
  24142845.03949 126871506.35249     -2312.79749        49.000  

  22470474.30549 118083139.03949     -6372.12949        50.000  

  20812742.44549 109371699.34449      8695.09049        49.000  

  22535422.21149 118424441.96549     -5903.62949        50.000  

 16 04 02 12 06 13.9000000  0  5G01G18G08G10G11                                 
  24142889.06249 126871737.74249     -2314.97749        49.000  

  22470595.60949 118083776.51249     -6377.30549        50.000  

  20812577.00849 109370830.03549      8690.82049        49.000  

  20630964.93049 108416452.08259     10050.52749        49.000  

  22535534.58649 118425032.46949     -5906.58649        50.000  

 16 04 02 12 06 14.0000000  0  5G01G18G08G10G11                                 
  24142933.13349 126871969.34449     -2317.01649        49.000  

  22470717.00849 118084414.46549     -6382.07849        50.000  

  20812411.65649 109369961.10549      8686.96549        50.000  

  20630773.72749 108415447.30549     10044.30149        49.000  

  22535647.00849 118425623.27349     -5909.59849        50.000  

 16 04 02 12 06 14.1000000  0  5G01G18G08G10G11                                 
  24142977.24249 126872201.08649     -2318.23849        49.000  

  22470838.49249 118085052.83249     -6385.97749        50.000  

  20812246.38349 109369092.52049      8683.84049        49.000  

  20630582.62549 108414443.09049     10038.89549        49.000  

  22535759.47749 118426214.29349     -5911.58649        50.000  

 16 04 02 12 06 14.2000000  0  5G01G18G08G10G11                                 
  24143021.38349 126872433.04349     -2320.42249        48.000  

  22470960.06249 118085691.69949     -6390.95749        50.000  

  20812081.17249 109368224.33649      8679.85949        49.000  

  20630391.65649 108413439.52349     10032.34849        49.000  

  22535872.00049 118426805.60949     -5914.48049        50.000  

 16 04 02 12 06 14.3000000  0  5G01G18G08G10G11                                 
  24143065.56249 126872665.20749     -2322.49249        49.000  

  22471081.72749 118086331.04349     -6395.85549        50.000  

  20811916.02349 109367356.53549      8675.78949        49.000  

  20630200.78949 108412436.55949     10026.33249        49.000  

  22535984.58649 118427397.21549     -5917.43049        50.000  

 16 04 02 12 06 14.4000000  0  5G01G18G08G10G11                                 
  24143109.78149 126872897.54749     -2324.34449        49.000  

  22471203.47749 118086970.83649     -6400.42649        50.000  

  20811750.96149 109366489.10249      8672.19549        49.000  

  20630010.04749 108411434.21549     10020.05149        49.000  

  22536097.21149 118427989.07049     -5919.94949        50.000  

 16 04 02 12 06 14.5000000  0  5G01G18G08G10G11                                 
  24143154.03949 126873130.10249     -2326.56249        49.000  

  22471325.31249 118087611.10549     -6405.19549        50.000  

  20811585.95349 109365622.05949      8668.33249        49.000  

  20629819.39849 108410432.48449     10013.85549        49.000  

  22536209.90649 118428581.21949     -5922.96549        50.000  

 16 04 02 12 06 14.6000000  0  5G01G18G08G10G11                                 
  24143198.32849 126873362.85949     -2328.61349        48.000  

  22471447.24249 118088251.87549     -6410.20749        50.000  

  20811421.03949 109364755.43449      8664.06249        49.000  

  20629628.90649 108409431.41449     10007.25049        49.000  

  22536322.64849 118429173.67249     -5926.09049        50.000  

 16 04 02 12 06 14.7000000  0  5G01G18G08G10G11                                 
  24143242.66449 126873595.85249     -2331.01249        49.000  

  22471569.27349 118088893.13749     -6415.35249        50.000  

  20811256.16449 109363889.19949      8659.74649        49.000  

  20629438.50049 108408430.97749     10000.66449        49.000  

  22536435.44549 118429766.41049     -5929.13349        50.000  

 16 04 02 12 06 14.8000000  0  5G01G18G08G10G11                                 
  24143287.03949 126873829.05949     -2333.02049        49.000  

  22471691.39849 118089534.90649     -6420.01249        50.000  

  20811091.40649 109363023.38749      8656.04349        49.000  

  20629248.24249 108407431.18449      9994.53149        49.000  

  22536548.29749 118430359.46549     -5932.00849        50.000  

 16 04 02 12 06 14.9000000  0  5G01G18G08G10G11                                 
  24143331.43849 126874062.44149     -2334.80549        49.000  

  22471813.60949 118090177.10549     -6424.50049        50.000  

  20810926.73449 109362157.92649      8652.44949        49.000  

  20629058.07849 108406431.98849      9988.50049        49.000  

  22536661.20349 118430952.77049     -5934.52749        50.000  

 16 04 02 12 06 15.0000000  0  5G01G18G08G10G11                                 
  24143375.88349 126874295.99249     -2336.37949        49.000  

  22471935.90649 118090819.77049     -6429.05949        50.000  

  20810762.10949 109361292.82449      8648.83249        49.000  

  20628868.05549 108405433.38349      9982.56249        49.000  

  22536774.14849 118431546.32449     -5936.94949        50.000  

 16 04 02 12 06 15.1000000  0  5G01G18G08G10G11                                 
  24143420.36749 126874529.77749     -2338.59849        49.000  

  22472058.28949 118091462.92649     -6433.83249        50.000  

  20810597.57049 109360428.13749      8644.89149        49.000  

  20628678.16449 108404435.42649      9976.34049        49.000  

  22536887.16449 118432140.18849     -5939.91049        50.000  

 16 04 02 12 06 15.2000000  0  5G01G18G08G10G11                                 
  24143464.87549 126874763.68849     -2339.90649        48.000  

  22472180.75849 118092106.48849     -6437.90649        50.000  

  20810433.08649 109359563.77049      8641.69949        49.000  

  20628488.36749 108403438.02349      9970.81249        49.000  

  22537000.21949 118432734.26649     -5942.12549        50.000  

 16 04 02 12 06 15.3000000  0  5G01G18G08G10G11                                 
  24143509.43849 126874997.82849     -2342.30949        48.000  

  22472303.31249 118092750.54349     -6443.03949        50.000  

  20810268.68049 109358699.80149      8637.50049        49.000  

  20628298.71149 108402441.27049      9964.05549        49.000  

  22537113.32049 118433328.63749     -5945.23849        50.000  

 16 04 02 12 06 15.4000000  0  5G01G18G08G10G11                                 
  24143554.03149 126875232.19149     -2344.56249        48.000  

  22472425.96949 118093395.11749     -6448.15249        50.000  

  20810104.35249 109357836.27049      8633.24249        49.000  

  20628109.15649 108401445.16849      9957.70349        49.000  

  22537226.48449 118433923.32849     -5948.28149        50.000  

 16 04 02 12 06 15.5000000  0  5G01G18G08G10G11                                 
  24143598.66449 126875466.75849     -2346.66849        48.000  

  22472548.72749 118094040.15249     -6452.98849        50.000  

  20809940.12549 109356973.10949      8629.30549        49.000  

  20627919.78949 108400449.68449      9951.30149        49.000  

  22537339.70349 118434518.29349     -5951.21549        50.000  

 16 04 02 12 06 15.6000000  0  5G01G18G08G10G11                                 
  24143643.32849 126875701.47349     -2347.98849        48.000  

  22472671.55549 118094685.61349     -6456.93449        50.000  

  20809775.93849 109356110.28949      8626.23449        49.000  

  20627730.46149 108399454.77049      9945.84049        49.000  

  22537452.96149 118435113.48849     -5953.35549        50.000  

 16 04 02 12 06 15.7000000  0  5G01G18G08G10G11                                 
  24143688.03949 126875936.37149     -2350.00049        48.000  

  22472794.46949 118095331.53949     -6461.63349        50.000  

  20809611.85249 109355247.83649      8622.28549        49.000  

  20627541.28149 108398460.46949      9939.54349        49.000  

  22537566.28949 118435708.95349     -5956.12149        50.000  

 16 04 02 12 06 15.8000000  0  5G01G18G08G10G11                                 
  24143732.79749 126876171.55149     -2352.61749        48.000  

  22472917.49249 118095978.01649     -6467.08249        50.000  

  20809447.82049 109354385.85549      8617.82849        49.000  

  20627352.21149 108397466.86749      9932.80149        49.000  

  22537679.67249 118436304.76649     -5959.43849        50.000  

 16 04 02 12 06 15.9000000  0  5G01G18G08G10G11                                 
  24143777.57049 126876406.84049     -2353.92249        49.000  

  22473040.59449 118096624.87949     -6471.15649        50.000  

  20809283.84449 109353524.17249      8614.53549        49.000  

  20627163.20349 108396473.80149      9927.14149        49.000  

  22537793.09449 118436900.78949     -5961.66449        50.000  

 16 04 02 12 06 16.0000000  0  5G01G18G08G10G11                                 
  24143822.39849 126876642.41049     -2356.60249        48.000  

  22473163.78949 118097272.29349     -6476.55549        50.000  

  20809119.95349 109352662.94149      8610.16449        49.000  

  20626974.35949 108395481.43049      9920.32049        49.000  

  22537906.57849 118437497.15249     -5965.05949        50.000  

 16 04 02 12 06 16.1000000  0  5G01G18G08G10G11                                 
  24143867.26649 126876878.15649     -2358.49249        48.000  

  22473287.08649 118097920.16849     -6481.33249        50.000  

  20808956.14849 109351802.11349      8605.97349        49.000  

  20626785.71949 108394489.68049      9913.87949        49.000  

  22538020.10949 118438093.79749     -5968.09449        50.000  

 16 04 02 12 06 16.2000000  0  5G01G18G08G10G11                                 
  24143912.17249 126877114.13749     -2360.65649        48.000  

  22473410.46949 118098568.54349     -6486.08649        50.000  

  20808792.41449 109350941.66849      8602.34449        49.000  

  20626597.11749 108393498.57049      9907.78149        49.000  

  22538133.70349 118438690.73449     -5970.79349        50.000  

 16 04 02 12 06 16.3000000  0  5G01G18G08G10G11                                 
  24143957.12549 126877350.33249     -2362.87949        48.000  

  22473533.93049 118099217.40649     -6491.06249        50.000  

  20808628.76649 109350081.63349      8598.23449        49.000  

  20626408.64149 108392508.08249      9901.38349        49.000  

  22538247.35949 118439287.97349     -5973.81249        50.000  

 16 04 02 12 06 16.4000000  0  5G01G18G08G10G11                                 
  24144002.10949 126877586.71549     -2364.87549        48.000  

  22473657.49249 118099866.73049     -6495.80949        50.000  

  20808465.18049 109349221.97749      8594.28149        49.000  

  20626220.27349 108391518.21949      9895.08249        49.000  

  22538361.05549 118439885.47749     -5976.66049        50.000  

 16 04 02 12 06 16.5000000  0  5G01G18G08G10G11                                 
  24144047.11749 126877823.25449     -2366.10249        48.000  

  22473781.14149 118100516.49249     -6499.83649        50.000  

  20808301.64849 109348362.66049      8591.29749        49.000  

  20626032.02349 108390528.94549      9889.67649        49.000  

  22538474.79749 118440483.22349     -5978.67249        50.000  

 16 04 02 12 06 16.6000000  0  5G01G18G08G10G11                                 
  24144092.15649 126878059.96149     -2367.91049        48.000  

  22473904.86749 118101166.68449     -6504.28549        50.000  

  20808138.18849 109347503.69149      8587.40249        49.000  

  20625843.88349 108389540.24249      9883.53549        49.000  

  22538588.58649 118441081.21149     -5981.37149        50.000  

 16 04 02 12 06 16.7000000  0  5G01G18G08G10G11                                 
  24144137.25849 126878296.93049     -2370.53149        49.000  

  22474028.70349 118101817.43049     -6509.81249        50.000  

  20807974.82049 109346645.19549      8582.98049        49.000  

  20625655.91449 108388552.23849      9876.75849        49.000  

  22538702.45349 118441679.54749     -5984.66849        50.000  

 16 04 02 12 06 16.8000000  0  5G01G18G08G10G11                                 
  24144182.38349 126878534.07849     -2372.37949        48.000  

  22474152.61749 118102468.61349     -6514.23449        50.000  

  20807811.51649 109345787.03549      8579.34849        49.000  

  20625468.01649 108387564.83249      9870.69949        49.000  

  22538816.36749 118442278.13749     -5987.35249        50.000  

 16 04 02 12 06 16.9000000  0  5G01G18G08G10G11                                 
  24144227.54749 126878771.43849     -2374.51249        48.000  

  22474276.63349 118103120.28949     -6519.23849        50.000  

  20807648.28149 109344929.28949      8575.39849        49.000  

  20625280.24249 108386578.05549      9864.32849        49.000  

  22538930.33649 118442877.01649     -5990.24649        50.000  

 16 04 02 12 06 17.0000000  0  5G01G18G08G10G11                                 
  24144272.75049 126879008.96949     -2376.30149        48.000  

  22474400.73449 118103772.41049     -6523.75849        50.000  

  20807485.12549 109344071.90249      8571.64849        49.000  

  20625092.57849 108385591.87549      9858.27349        49.000  

  22539044.35249 118443476.15649     -5992.90249        50.000  

 16 04 02 12 06 17.1000000  0  5G01G18G08G10G11                                 
  24144317.98449 126879246.71949     -2378.43449        48.000  

  22474524.92249 118104425.02049     -6528.60249        50.000  

  20807322.07049 109343214.92249      8567.58649        49.000  

  20624905.04749 108384606.34849      9851.77749        49.000  

  22539158.41449 118444075.58649     -5995.82449        50.000  

 16 04 02 12 06 17.2000000  0  5G01G18G08G10G11                                 
  24144363.28149 126879484.75049     -2381.30549        48.000  

  22474649.21949 118105078.18049     -6534.04749        50.000  

  20807159.07849 109342358.39849      8562.93449        49.000  

  20624717.64149 108383621.49649      9844.90249        49.000  

  22539272.55549 118444675.37949     -5999.43049        50.000  

 16 04 02 12 06 17.3000000  0  5G01G18G08G10G11                                 
  24144408.61749 126879722.95749     -2383.12549        48.000  

  22474773.60249 118105731.80549     -6538.75049        50.000  

  20806996.14149 109341502.25049      8559.16449        49.000  

  20624530.40649 108382637.27349      9838.72349        49.000  

  22539386.73449 118445275.43449     -6002.09049        50.000  

 16 04 02 12 06 17.4000000  0  5G01G18G08G10G11                                 
  24144453.98449 126879961.37149     -2384.93049        48.000  

  22474898.07049 118106385.90249     -6543.19149        50.000  

  20806833.29749 109340646.49249      8555.61749        49.000  

  20624343.23449 108381653.66849      9832.86749        49.000  

  22539500.97749 118445875.77349     -6004.63349        50.000  

 16 04 02 12 06 17.5000000  0  5G01G18G08G10G11                                 
  24144499.38349 126880199.92649     -2386.39849        48.000  

  22475022.62549 118107040.41849     -6547.51649        50.000  

  20806670.51649 109339791.06249      8552.13349        49.000  

  20624156.18849 108380670.62949      9827.00049        49.000  

  22539615.25049 118446476.33649     -6007.03949        50.000  

 16 04 02 12 06 17.6000000  0  5G01G18G08G10G11                                 
  24144544.81249 126880438.65249     -2388.01649        48.000  

  22475147.25849 118107695.37949     -6551.92249        50.000  

  20806507.80549 109338935.98849      8548.69949        49.000  

  20623969.22749 108379688.17249      9821.25049        49.000  

  22539729.57849 118447077.13749     -6009.32449        50.000  

 16 04 02 12 06 17.7000000  0  5G01G18G08G10G11                                 
  24144590.29749 126880677.68849     -2391.39149        48.000  

  22475272.00849 118108350.91849     -6558.02049        50.000  

  20806345.18849 109338081.40249      8543.43049        49.000  

  20623782.42249 108378706.45349      9813.59849        49.000  

  22539843.98449 118447678.33649     -6013.60949        50.000  

 16 04 02 12 06 17.8000000  0  5G01G18G08G10G11                                 
  24144635.82049 126880916.90649     -2393.27749        48.000  

  22475396.83649 118109006.91449     -6562.53949        50.000  

  20806182.63349 109337227.19549      8539.96149        49.000  

  20623595.71949 108377725.34849      9807.53949        49.000  

  22539958.43849 118448279.80149     -6016.19549        50.000  

 16 04 02 12 06 17.9000000  0  5G01G18G08G10G11                                 
  24144681.36749 126881156.28549     -2394.74649        48.000  

  22475521.75049 118109663.34449     -6566.76249        50.000  

  20806020.14149 109336373.33649      8536.35549        49.000  

  20623409.09449 108376744.82049      9801.82449        49.000  

  22540072.94549 118448881.50049     -6018.43449        50.000  

 16 04 02 12 06 18.0000000  0  5G01G18G08G10G11                                 
  24144726.96949 126881395.89149     -2396.80549        48.000  

  22475646.75849 118110320.27349     -6571.47749        50.000  

  20805857.73449 109335519.89849      8532.58249        49.000  

  20623222.62549 108375764.94549      9795.60549        49.000  

  22540187.50049 118449483.51249     -6021.25049        50.000  

 16 04 02 12 06 18.1000000  0  5G01G18G08G10G11                                 
  24144772.60249 126881635.66849     -2398.71949        49.000  

  22475771.85949 118110977.66049     -6576.24249        50.000  

  20805695.39149 109334666.80149      8528.72749        49.000  

  20623036.27349 108374785.65249      9789.51649        49.000  

  22540302.10249 118450085.77349     -6024.11749        50.000  

 16 04 02 12 06 18.2000000  0  5G01G18G08G10G11                                 
  24144818.26649 126881875.64849     -2400.63349        48.000  

  22475897.04749 118111635.52049     -6580.83649        50.000  

  20805533.13349 109333814.11349      8525.04749        49.000  

  20622850.03949 108373807.00449      9783.27349        49.000  

  22540416.76649 118450688.31249     -6026.64149        50.000  

 16 04 02 12 06 18.3000000  0  5G01G18G08G10G11                                 
  24144863.97749 126882115.82049     -2402.76649        48.000  

  22476022.32049 118112293.82849     -6585.65649        50.000  

  20805370.93049 109332961.78149      8520.89149        49.000  

  20622663.95349 108372828.95349      9776.94149        49.000  

  22540531.47749 118451291.13349     -6029.70349        50.000  

 16 04 02 12 06 18.4000000  0  5G01G18G08G10G11                                 
  24144909.71949 126882356.17249     -2404.36749        48.000  

  22476147.68049 118112952.61349     -6590.08249        50.000  

  20805208.80549 109332109.83649      8517.47749        49.000  

  20622477.95349 108371851.52049      9771.07849        49.000  

  22540646.24249 118451894.21149     -6032.08649        50.000  

 16 04 02 12 06 18.5000000  0  5G01G18G08G10G11                                 
  24144955.48449 126882596.72349     -2406.27349        48.000  

  22476273.13349 118113611.85249     -6594.78149        50.000  

  20805046.75049 109331258.27049      8513.66049        49.000  

  20622292.06249 108370874.69549      9764.88749        49.000  

  22540761.05549 118452497.55149     -6034.69949        50.000  

 16 04 02 12 06 18.6000000  0  5G01G18G08G10G11                                 
  24145001.31249 126882837.55149     -2409.35949        48.000  

  22476398.68849 118114271.65649     -6600.73049        50.000  

  20804884.78949 109330407.17249      8508.56249        49.000  

  20622106.31249 108369898.58249      9757.40649        49.000  

  22540875.94549 118453101.27749     -6038.87949        50.000  

 16 04 02 12 06 18.7000000  0  5G01G18G08G10G11                                 
  24145047.18049 126883078.59449     -2411.35949        48.000  

  22476524.34449 118114931.94149     -6605.26649        50.000  

  20804722.90649 109329556.46949      8504.94149        49.000  

  20621920.68849 108368923.10249      9751.55549        49.000  

  22540990.89149 118453705.28149     -6041.46549        50.000  

 16 04 02 12 06 18.8000000  0  5G01G18G08G10G11                                 
  24145093.08649 126883319.81249     -2413.25849        48.000  

  22476650.07049 118115592.67649     -6609.88349        50.000  

  20804561.09449 109328706.12549      8501.18849        49.000  

  20621735.17249 108367948.21949      9745.29749        49.000  

  22541105.87549 118454309.53549     -6044.15649        50.000  

 16 04 02 12 06 18.9000000  0  5G01G18G08G10G11                                 
  24145139.03949 126883561.26649     -2415.51249        48.000  

  22476775.90649 118116253.90649     -6614.69549        50.000  

  20804399.34449 109327856.21949      8496.96549        49.000  

  20621549.74249 108366973.99249      9738.88749        49.000  

  22541220.91449 118454914.11349     -6047.22749        50.000  

 16 04 02 12 06 19.0000000  0  5G01G18G08G10G11                                 
  24145185.02349 126883802.91849     -2417.52749        49.000  

  22476901.82849 118116915.63749     -6619.72349        50.000  

  20804237.68849 109327006.69149      8493.06249        49.000  

  20621364.47749 108366000.39149      9732.54349        49.000  

  22541336.01649 118455518.96949     -6050.11349        50.000  

 16 04 02 12 06 19.1000000  0  5G01G18G08G10G11                                 
  24145231.03949 126884044.71549     -2418.78549        48.000  

  22477027.83649 118117577.75849     -6623.55149        50.000  

  20804076.10949 109326157.48449      8490.03149        49.000  

  20621179.29749 108365027.35949      9727.03949        49.000  

  22541451.16449 118456124.04349     -6051.98849        50.000  

 16 04 02 12 06 19.2000000  0  5G01G18G08G10G11                                 
  24145277.09449 126884286.74249     -2421.16049        49.000  

  22477153.93049 118118240.40649     -6628.81249        50.000  

  20803914.59449 109325308.71149      8485.59049        49.000  

  20620994.25849 108364054.98049      9720.38749        49.000  

  22541566.36749 118456729.44149     -6055.32849        50.000  

 16 04 02 12 06 19.3000000  0  5G01G18G08G10G11                                 
  24145323.19549 126884528.95349     -2422.87949        48.000  

  22477280.10949 118118903.50049     -6633.19149        50.000  

  20803753.14849 109324460.30549      8482.10549        49.000  

  20620809.35949 108363083.21949      9714.46149        49.000  

  22541681.60949 118457335.09849     -6057.77349        50.000  

 16 04 02 12 06 19.4000000  0  5G01G18G08G10G11                                 
  24145369.32049 126884771.34449     -2424.81649        48.000  

  22477406.37549 118119567.03949     -6637.84449        50.000  

  20803591.77349 109323612.25449      8478.35249        49.000  

  20620624.54749 108362112.02749      9708.37149        49.000  

  22541796.90649 118457941.00449     -6060.51649        50.000  

 16 04 02 12 06 19.5000000  0  5G01G18G08G10G11                                 
  24145415.48449 126885013.97749     -2427.25449        48.000  

  22477532.75049 118120231.10249     -6643.03549        50.000  

  20803430.46949 109322764.64549      8474.00849        49.000  

  20620439.87549 108361141.52749      9701.69149        49.000    20620443.47741
  84437267.99651      7559.76241        22.000  
  22541912.28149 118458547.24249     -6063.80149        50.000  

 16 04 02 12 06 19.6000000  0  5G01G18G08G10G11                                 
  24145461.70349 126885256.82849     -2429.59049        49.000  

  22477659.21149 118120895.65649     -6647.96949        50.000  

  20803269.25049 109321917.43849      8469.84049        49.000  

  20620255.32049 108360171.66049      9695.10249        49.000    20620260.31241
  84436512.25841      7554.62541        21.000  
  22542027.69549 118459153.77049     -6066.85249        50.000  

 16 04 02 12 06 19.7000000  0  5G01G18G08G10G11                                 
  24145507.94549 126885499.87549     -2431.54749        48.000  

  22477785.75849 118121560.68049     -6652.80549        50.000  

  20803108.10949 109321070.61349      8465.87149        49.000  

  20620070.87549 108359202.41449      9688.87149        49.000    20620075.87541
  84435757.00441      7549.77041        20.000  
  22542143.16449 118459760.57849     -6069.70749        50.000  

 16 04 02 12 06 19.8000000  0  5G01G18G08G10G11                                 
  24145554.24249 126885743.14549     -2433.52749        48.000  

  22477912.40649 118122226.20349     -6657.53949        50.000  

  20802947.03949 109320224.19949      8462.11749        49.000  

  20619886.55549 108358233.82049      9682.61349        49.000    20619891.16441
  84435002.25441      7544.89541        20.000  
  22542258.69549 118460367.69149     -6072.47749        50.000  

 16 04 02 12 06 19.9000000  0  5G01G18G08G10G11                                 
  24145600.54749 126885986.55149     -2434.91049        49.000  

  22478039.13349 118122892.12949     -6661.60549        50.000  

  20802786.04749 109319378.10549      8458.81649        49.000  

  20619702.32849 108357265.77749      9676.97749        49.000  

  22542374.26649 118460975.02049     -6074.68049        50.000  

 16 04 02 12 06 20.0000000  0  5G01G18G08G10G11                                 
  24145646.91449 126886230.21149     -2437.36349        49.000  

  22478165.95349 118123558.58649     -6666.77349        50.000  

  20802625.12549 109318532.45749      8454.46549        49.000  

  20619518.24249 108356298.41449      9670.41049        49.000  

  22542489.90649 118461582.68449     -6077.92649        50.000  

 16 04 02 12 06 20.1000000  0  5G01G18G08G10G11                                 
  24145693.29749 126886473.99649     -2438.74649        49.000  

  22478292.84449 118124225.42649     -6670.70749        50.000  

  20802464.25849 109317687.11349      8451.35949        49.000  

  20619334.28149 108355331.59449      9664.75049        49.000  

  22542605.57049 118462190.53149     -6079.87949        50.000  

 16 04 02 12 06 20.2000000  0  5G01G18G08G10G11                                 
  24145739.73449 126886718.00849     -2440.96149        49.000  

  22478419.84449 118124892.78549     -6675.92249        50.000  

  20802303.47749 109316842.18849      8447.21549        49.000  

  20619150.43049 108354365.43049      9658.29749        49.000  

  22542721.30549 118462798.71149     -6083.10549        50.000  

 16 04 02 12 06 20.3000000  0  5G01G18G08G10G11                                 
  24145786.21149 126886962.23849     -2443.29749        49.000  

  22478546.93049 118125560.61749     -6680.66449        50.000  

  20802142.75849 109315997.66849      8443.11749        49.000  

  20618966.68049 108353399.89849      9651.98049        49.000  

  22542837.09449 118463407.17649     -6086.09849        50.000  

 16 04 02 12 06 20.4000000  0  5G01G18G08G10G11                                 
  24145832.71949 126887206.60949     -2444.81649        49.000  

  22478674.09449 118126228.89549     -6685.23449        50.000  

  20801982.11749 109315153.48849      8439.51649        49.000  

  20618783.06249 108352434.95349      9645.99249        49.000  

  22542952.92249 118464015.87949     -6088.55549        50.000  

 16 04 02 12 06 20.5000000  0  5G01G18G08G10G11                                 
  24145879.26649 126887451.21149     -2446.94549        49.000  

  22478801.35249 118126897.65649     -6690.06649        50.000  

  20801821.54749 109314309.71949      8435.55149        49.000  

  20618599.56249 108351470.64849      9639.68849        49.000  

  22543068.81249 118464624.87949     -6091.42649        50.000  

 16 04 02 12 06 20.6000000  0  5G01G18G08G10G11                                 
  24145925.84449 126887696.00849     -2448.95349        49.000  

  22478928.70349 118127566.88749     -6694.79349        50.000  

  20801661.05549 109313466.32449      8431.76649        49.000  

  20618416.18049 108350506.96149      9633.34849        49.000  

  22543184.75849 118465234.15249     -6094.25449        50.000  

 16 04 02 12 06 20.7000000  0  5G01G18G08G10G11                                 
  24145972.46949 126887941.03549     -2451.21149        49.000  

  22479056.14849 118128236.61349     -6699.75849        50.000  

  20801500.62549 109312623.34849      8427.54749        50.000  

  20618232.90649 108349543.91849      9626.97349        49.000  

  22543300.75049 118465843.73449     -6097.28549        50.000  

 16 04 02 12 06 20.8000000  0  5G01G18G08G10G11                                 
  24146019.12549 126888186.23449     -2452.94549        49.000  

  22479183.67249 118128906.78949     -6704.19549        50.000  

  20801340.28149 109311780.73449      8423.98849        49.000  

  20618049.75849 108348581.48449      9621.02749        49.000  

  22543416.79749 118466453.57049     -6099.83649        50.000  

 16 04 02 12 06 20.9000000  0  5G01G18G08G10G11                                 
  24146065.82849 126888431.62949     -2454.85949        49.000  

  22479311.29749 118129577.43849     -6708.82049        50.000  

  20801180.04749 109310938.50849      8420.20749        49.000  

  20617866.74249 108347619.67249      9614.82049        49.000  

  22543532.89849 118467063.68449     -6102.50049        50.000  

 16 04 02 12 06 21.0000000  0  5G01G18G08G10G11                                 
  24146112.56249 126888677.20749     -2456.59049        49.000  

  22479439.00049 118130248.53949     -6713.22749        50.000  

  20801019.84449 109310096.65649      8416.54349        49.000  

  20617683.82849 108346658.45749      9608.89549        49.000    20617677.73441
  84425942.82851      7487.45341        20.000  
  22543649.05549 118467674.06249     -6105.11749        50.000  

 16 04 02 12 06 21.1000000  0  5G01G18G08G10G11                                 
  24146159.33649 126888923.02349     -2459.14149        49.000  

  22479566.80549 118130920.15249     -6718.49649        50.000  

  20800859.72749 109309255.21149      8412.34049        49.000  

  20617501.04749 108345697.90649      9602.14149        49.000    20617494.95341
  84425194.34841      7482.18841        20.000  
  22543765.25849 118468284.75449     -6108.28949        50.000  

 16 04 02 12 06 21.2000000  0  5G01G18G08G10G11                                 
  24146206.14149 126889169.01649     -2460.94149        49.000  

  22479694.69549 118131592.20749     -6723.17649        50.000  

  20800699.68049 109308414.14849      8408.35549        49.000  

  20617318.37549 108344737.95749      9595.91449        49.000    20617308.37541
  84424446.33641      7477.33641        20.000  
  22543881.52349 118468895.70349     -6111.05549        50.000  

 16 04 02 12 06 21.3000000  0  5G01G18G08G10G11                                 
  24146253.00049 126889415.25449     -2463.13749        49.000  

  22479822.68049 118132264.79749     -6728.09849        50.000  

  20800539.73449 109307573.50849      8404.43449        50.000  

  20617135.85249 108343778.67649      9589.66049        49.000    20617125.82841
  84423698.84041      7472.46541        20.000  
  22543997.84449 118469506.97349     -6113.98049        50.000  

 16 04 02 12 06 21.4000000  0  5G01G18G08G10G11                                 
  24146299.89149 126889661.65249     -2465.02749        49.000  

  22479950.75049 118132937.81249     -6732.78549        50.000  

  20800379.82849 109306733.22749      8400.53949        49.000  

  20616953.41449 108342819.98449      9583.25849        49.000  

  22544114.21149 118470118.50049     -6116.88749        50.000  

 16 04 02 12 06 21.5000000  0  5G01G18G08G10G11                                 
  24146346.82849 126889908.30149     -2467.24249        49.000  

  22480078.91449 118133611.34449     -6737.59049        50.000  

  20800220.01649 109305893.36749      8396.53949        49.000  

  20616771.12549 108341861.95349      9577.13349        49.000  

  22544230.64149 118470730.34049     -6119.72349        50.000  

 16 04 02 12 06 21.6000000  0  5G01G18G08G10G11                                 
  24146393.79749 126890155.12549     -2469.21949        49.000  

  22480207.16449 118134285.32049     -6742.20749        50.000  

  20800060.26649 109305053.87949      8392.73449        49.000  

  20616588.93049 108340904.52349      9570.86749        49.000  

  22544347.11749 118471342.43049     -6122.35249        50.000  

 16 04 02 12 06 21.7000000  0  5G01G18G08G10G11                                 
  24146440.78949 126890402.09849     -2470.57849        49.000  

  22480335.50049 118134959.73049     -6746.43449        50.000  

  20799900.58649 109304214.71949      8389.44949        49.000  

  20616406.83649 108339947.67249      9565.17249        49.000  

  22544463.63349 118471954.75849     -6124.63749        50.000  

 16 04 02 12 06 21.8000000  0  5G01G18G08G10G11                                 
  24146487.83649 126890649.30949     -2472.94149        48.000  

  22480463.93049 118135634.63749     -6751.34849        50.000  

  20799740.98449 109303375.98849      8385.24649        49.000  

  20616224.87549 108338991.48049      9558.56649        49.000  

  22544580.21949 118472567.40249     -6127.73049        50.000  

 16 04 02 12 06 21.9000000  0  5G01G18G08G10G11                                 
  24146534.92249 126890896.75849     -2475.46949        49.000  

  22480592.46949 118136310.07449     -6756.68849        50.000  

  20799581.44549 109302537.69549      8380.87549        49.000  

  20616043.04749 108338035.95349      9551.96949        49.000  

  22544696.85949 118473180.36749     -6131.00449        50.000  

 16 04 02 12 06 22.0000000  0  5G01G18G08G10G11                                 
  24146582.04749 126891144.39849     -2477.55949        49.000  

  22480721.08649 118136985.94549     -6761.32049        50.000  

  20799421.99249 109301699.76649      8376.99249        49.000  

  20615861.33649 108337081.03149      9545.59849        49.000  

  22544813.55549 118473793.59449     -6133.91449        50.000  

 16 04 02 12 06 22.1000000  0  5G01G18G08G10G11                                 
  24146629.21149 126891392.20349     -2479.00449        49.000  

  22480849.78949 118137662.29749     -6765.85549        50.000  

  20799262.61749 109300862.20349      8373.39149        49.000  

  20615679.71949 108336126.71949      9539.73449        49.000  

  22544930.28949 118474407.08249     -6136.32849        50.000  

 16 04 02 12 06 22.2000000  0  5G01G18G08G10G11                                 
  24146676.40649 126891640.21149     -2480.85549        49.000  

  22480978.57849 118138339.08249     -6770.12949        50.000  

  20799103.30549 109300025.02349      8369.93449        49.000  

  20615498.23449 108335173.00449      9534.03549        49.000  

  22545047.07849 118475020.83649     -6138.75449        50.000  

 16 04 02 12 06 22.3000000  0  5G01G18G08G10G11                                 
  24146723.63349 126891888.42649     -2483.17649        49.000  

  22481107.45349 118139016.36349     -6775.25849        50.000  

  20798944.07049 109299188.22749      8365.56249        49.000  

  20615316.88349 108334219.93849      9527.14149        49.000  

  22545163.93849 118475634.87949     -6141.97749        50.000  

 16 04 02 12 06 22.4000000  0  5G01G18G08G10G11                                 
  24146770.92249 126892136.91049     -2485.94549        48.000  

  22481236.44549 118139694.19549     -6780.81649        50.000  

  20798784.92249 109298351.89849      8361.07449        49.000  

  20615135.65649 108333267.56649      9520.30149        49.000  

  22545280.85949 118476249.28149     -6145.49249        50.000  

 16 04 02 12 06 22.5000000  0  5G01G18G08G10G11                                 
  24146818.23449 126892385.53549     -2487.17649        48.000  

  22481365.50849 118140372.43049     -6784.70349        50.000  

  20798625.84449 109297515.90249      8357.98449        49.000  

  20614954.52349 108332315.74649      9514.86349        49.000  

  22545397.81249 118476863.89149     -6147.45749        50.000  

 16 04 02 12 06 22.6000000  0  5G01G18G08G10G11                                 
  24146865.58649 126892634.37949     -2489.48049        48.000  

  22481494.66449 118141051.14849     -6789.64849        50.000  

  20798466.82849 109296680.30549      8353.75449        49.000  

  20614773.52349 108331364.57849      9508.27049        49.000  

  22545514.82849 118477478.80149     -6150.56649        50.000  

 16 04 02 12 06 22.7000000  0  5G01G18G08G10G11                                 
  24146912.98449 126892883.41849     -2491.39149        49.000  

  22481623.91449 118141730.34849     -6794.40249        50.000  

  20798307.88349 109295845.09049      8349.82849        49.000  

  20614592.64149 108330414.03949      9501.97349        49.000  

  22545631.89849 118478094.00049     -6153.43049        50.000  

 16 04 02 12 06 22.8000000  0  5G01G18G08G10G11                                 
  24146960.41449 126893132.66049     -2493.33649        48.000  

  22481753.24249 118142410.01249     -6798.99649        50.000  

  20798149.01649 109295010.27049      8346.17249        49.000  

  20614411.87549 108329464.10249      9495.93849        49.000  

  22545749.02349 118478709.46549     -6156.09049        50.000  

 16 04 02 12 06 22.9000000  0  5G01G18G08G10G11                                 
  24147007.86749 126893382.03149     -2494.60249        49.000  

  22481882.65649 118143090.09049     -6803.12549        50.000  

  20797990.23449 109294175.76649      8342.86349        49.000  

  20614231.21149 108328514.74649      9490.16049        49.000  

  22545866.18849 118479325.15649     -6158.31649        50.000  

 16 04 02 12 06 23.0000000  0  5G01G18G08G10G11                                 
  24147055.35949 126893631.60949     -2496.47349        48.000  

  22482012.15649 118143770.64149     -6807.59449        50.000  

  20797831.50849 109293341.66049      8339.19149        49.000  

  20614050.67249 108327566.00449      9484.34849        49.000    20614039.18041
  84411044.40651      7390.40241        20.000  
  22545983.39849 118479941.12149     -6160.88749        50.000  

 16 04 02 12 06 23.1000000  0  5G01G18G08G10G11                                 
  24147102.89849 126893881.36749     -2498.41449        48.000  

  22482141.75049 118144451.64549     -6812.46549        50.000  

  20797672.85949 109292507.91449      8335.21949        49.000  

  20613870.24249 108326617.86749      9477.89549        49.000    20613858.75841
  84410305.59041      7385.37141        20.000  
  22546100.67249 118480557.34449     -6163.69549        50.000  

 16 04 02 12 06 23.2000000  0  5G01G18G08G10G11                                 
  24147150.47749 126894131.39149     -2501.21549        49.000  

  22482271.43849 118145133.16449     -6817.60549        50.000  

  20797514.28949 109291674.60949      8330.87549        49.000  

  20613689.93849 108325670.39549      9471.32049        49.000    20613676.01641
  84409567.29741      7380.25041        20.000  
  22546217.99249 118481173.89149     -6166.92649        50.000  

 16 04 02 12 06 23.3000000  0  5G01G18G08G10G11                                 
  24147198.09449 126894381.59449     -2503.27049        49.000  

  22482401.21949 118145815.16449     -6822.57049        50.000  

  20797355.78949 109290841.70349      8326.66849        49.000  

  20613509.75049 108324723.57449      9464.67249        49.000    20613495.83641
  84408829.50841      7375.06641        20.000  
  22546335.37549 118481790.74249     -6170.07849        50.000  

 16 04 02 12 06 23.4000000  0  5G01G18G08G10G11                                 
  24147245.75849 126894632.07449     -2505.75849        49.000  

  22482531.10249 118146497.70349     -6827.73849        50.000  

  20797197.37549 109290009.23849      8322.56649        50.000  

  20613329.70349 108323777.42649      9458.09849        49.000  

  22546452.82049 118482407.92249     -6173.15649        50.000  

 16 04 02 12 06 23.5000000  0  5G01G18G08G10G11                                 
  24147293.43849 126894882.62949     -2506.62149        49.000  

  22482661.05549 118147180.59449     -6831.52049        50.000  

  20797039.01649 109289177.05149      8319.52349        50.000  

  20613149.75849 108322831.78949      9452.74649        49.000  

  22546570.29749 118483025.27049     -6175.13349        50.000  

 16 04 02 12 06 23.6000000  0  5G01G18G08G10G11                                 
  24147341.17249 126895133.46949     -2509.11349        49.000  

  22482791.10949 118147864.03949     -6836.75049        50.000  

  20796880.74249 109288345.32849      8315.23049        50.000  

  20612969.93849 108321886.85249      9446.08249        49.000  

  22546687.83649 118483642.96949     -6178.28949        50.000  

 16 04 02 12 06 23.7000000  0  5G01G18G08G10G11                                 
  24147388.93049 126895384.47749     -2510.93449        49.000  

  22482921.25049 118148547.92249     -6841.17649        50.000  

  20796722.54749 109287513.96149      8311.69149        50.000  

  20612790.24249 108320942.51649      9440.13749        49.000  

  22546805.44549 118484260.92649     -6180.86349        50.000  

 16 04 02 12 06 23.8000000  0  5G01G18G08G10G11                                 
  24147436.72749 126895635.66049     -2512.81249        49.000  

  22483051.47749 118149232.24649     -6845.71149        50.000  

  20796564.40649 109286682.94949      8307.85249        50.000  

  20612610.64849 108319998.76649      9433.93049        49.000  

  22546923.08649 118484879.12549     -6183.52049        50.000  

 16 04 02 12 06 23.9000000  0  5G01G18G08G10G11                                 
  24147484.56249 126895887.08649     -2515.28149        49.000  

  22483181.79749 118149917.08249     -6850.87149        50.000  

  20796406.35249 109285852.36749      8303.57849        50.000  

  20612431.18049 108319055.68049      9427.28949        49.000  

  22547040.78949 118485497.65249     -6186.76649        50.000  

 16 04 02 12 06 24.0000000  0  5G01G18G08G10G11                                 
  24147532.44549 126896138.70749     -2517.23449        49.000  

  22483312.21149 118150602.39849     -6855.59449        50.000  

  20796248.36749 109285022.18849      8299.65249        50.000  

  20612251.83649 108318113.23049      9421.08249        49.000  

  22547158.54749 118486116.46149     -6189.55949        50.000  

 16 04 02 12 06 24.1000000  0  5G01G18G08G10G11                                 
  24147580.36749 126896390.52349     -2519.19949        49.000  

  22483442.71949 118151288.18049     -6860.28549        50.000  

  20796090.44549 109284192.37149      8295.82849        50.000  

  20612072.60949 108317171.39149      9414.87949        49.000  

  22547276.35249 118486735.53549     -6192.36749        50.000  

 16 04 02 12 06 24.2000000  0  5G01G18G08G10G11                                 
  24147628.32049 126896642.52749     -2521.00049        49.000  

  22483573.30549 118151974.41449     -6864.71949        50.000  

  20795932.61749 109283362.94949      8292.10249        50.000  

  20611893.50049 108316230.17249      9408.83249        49.000  

  22547394.21149 118487354.88749     -6194.93449        50.000  

 16 04 02 12 06 24.3000000  0  5G01G18G08G10G11                                 
  24147676.32849 126896894.78949     -2523.49249        49.000  

  22483703.99249 118152661.18449     -6870.01649        50.000  

  20795774.86749 109282533.95749      8287.89149        49.000  

  20611714.51649 108315289.61349      9402.32449        49.000  

  22547512.13349 118487974.55549     -6198.06649        50.000  

 16 04 02 12 06 24.4000000  0  5G01G18G08G10G11                                 
  24147724.34449 126897147.11749     -2524.26249        49.000  

  22483834.74249 118153348.28549     -6873.45349        50.000  

  20795617.16449 109281705.22349      8285.12549        49.000  

  20611535.63349 108314349.56249      9397.05149        49.000  

  22547630.08649 118488594.38349     -6199.73449        50.000  

 16 04 02 12 06 24.5000000  0  5G01G18G08G10G11                                 
  24147772.41449 126897399.71549     -2526.82849        49.000  

  22483965.59449 118154035.93449     -6878.77749        50.000  

  20795459.55549 109280876.94149      8280.76649        49.000  

  20611356.88349 108313410.20749      9390.20749        49.000  

  22547748.10249 118489214.56249     -6203.11749        50.000  

 16 04 02 12 06 24.6000000  0  5G01G18G08G10G11                                 
  24147820.52349 126897652.53949     -2529.26249        49.000  

  22484096.53949 118154724.07449     -6883.87549        50.000  

  20795302.01649 109280049.09049      8276.30549        49.000  

  20611178.25049 108312471.49649      9383.51249        49.000  

  22547866.17249 118489835.03949     -6206.31249        50.000  

 16 04 02 12 06 24.7000000  0  5G01G18G08G10G11                                 
  24147868.67249 126897905.59449     -2531.53149        49.000  

  22484227.57849 118155412.71949     -6888.82049        50.000  

  20795144.57049 109279221.64149      8272.28149        49.000  

  20610999.75849 108311533.43449      9377.15249        49.000  

  22547984.31249 118490455.83249     -6209.34049        50.000  

 16 04 02 12 06 24.8000000  0  5G01G18G08G10G11                                 
  24147916.85949 126898158.80949     -2533.28149        49.000  

  22484358.71149 118156101.79749     -6893.39149        50.000  

  20794987.18049 109278394.54749      8268.46149        49.000  

  20610821.35949 108310595.95349      9371.12549        49.000  

  22548102.48449 118491076.85549     -6211.76649        50.000  

 16 04 02 12 06 24.9000000  0  5G01G18G08G10G11                                 
  24147965.09449 126898412.26249     -2535.48049        49.000  

  22484489.93849 118156791.38749     -6898.35249        50.000  

  20794829.86749 109277567.87149      8264.59049        49.000  

  20610643.10949 108309659.14849      9364.74649        49.000  

  22548220.73449 118491698.21549     -6214.92249        50.000  

 16 04 02 12 06 25.0000000  0  5G01G18G08G10G11                                 
  24148013.36749 126898665.95749     -2538.05149        49.000  

  22484621.26649 118157481.48849     -6903.56649        50.000  

  20794672.64149 109276741.63749      8259.98049        50.000  

  20610464.96949 108308723.01649      9357.69549        49.000  

  22548339.03149 118492319.87949     -6218.22349        50.000  

 16 04 02 12 06 25.1000000  0  5G01G18G08G10G11                                 
  24148061.68049 126898919.83249     -2539.72749        49.000  

  22484752.66449 118158172.04349     -6907.98849        50.000  

  20794515.46149 109275915.77049      8256.45349        49.000  

  20610286.94549 108307787.47349      9352.02049        49.000  

  22548457.38349 118492941.81249     -6220.75849        50.000  

 16 04 02 12 06 25.2000000  0  5G01G18G08G10G11                                 
  24148110.03149 126899173.89549     -2541.56249        49.000  

  22484884.16449 118158863.05149     -6912.57449        50.000  

  20794358.37549 109275090.26649      8252.93049        49.000  

  20610109.03949 108306852.54349      9345.79749        49.000  

  22548575.78949 118493564.00849     -6223.44149        50.000  

 16 04 02 12 06 25.3000000  0  5G01G18G08G10G11                                 
  24148158.40649 126899428.11749     -2543.05149        49.000  

  22485015.74249 118159554.49649     -6916.73049        50.000  

  20794201.36749 109274265.12549      8249.45349        50.000  

  20609931.23449 108305918.20349      9340.16049        49.000  

  22548694.22749 118494186.44149     -6225.67249        50.000  

 16 04 02 12 06 25.4000000  0  6G01G18G08G10G11G21                              
  24148206.82849 126899682.57849     -2545.48849        49.000  

  22485147.41449 118160246.43449     -6921.70749        50.000  

  20794044.42249 109273440.39849      8245.12949        50.000  

  20609753.56249 108304984.52049      9333.57449        49.000  

  22548812.72749 118494809.19149     -6228.81649        50.000  

  25325352.50849 133085624.91859     10933.80949        48.000  

 16 04 02 12 06 25.5000000  0  6G01G18G08G10G11G21                              
  24148255.28149 126899937.18849     -2547.12549        49.000  

  22485279.16449 118160938.81649     -6926.26649        50.000  

  20793887.54749 109272616.00049      8241.68849        50.000  

  20609576.02349 108304051.41049      9327.62149        49.000  

  22548931.28149 118495432.17249     -6231.32049        50.000  

  25325144.46149 133084531.60549     10932.25849        48.000  

 16 04 02 12 06 25.6000000  0  6G01G18G08G10G11G21                              
  24148303.77349 126900192.03949     -2549.53149        49.000  

  22485411.01649 118161631.69949     -6931.33249        50.000  

  20793730.75849 109271792.06249      8237.12549        50.000  

  20609398.58649 108303118.97749      9320.70749        49.000  

  22549049.89149 118496055.48049     -6234.62949        50.000  

  25324936.46949 133083438.50849     10929.95749        48.000  

 16 04 02 12 06 25.7000000  0  6G01G18G08G10G11G21                              
  24148352.31249 126900447.10249     -2551.48449        48.000  

  22485542.96149 118162325.05949     -6935.91449        50.000  

  20793574.03149 109270968.50049      8233.66849        50.000  

  20609221.23449 108302187.16449      9314.82849        49.000  

  22549168.55549 118496679.05549     -6237.13349        50.000  

  25324728.48449 133082345.57449     10928.52749        48.000  

 16 04 02 12 06 25.8000000  0  6G01G18G08G10G11G21                              
  24148400.88349 126900702.33649     -2553.45749        49.000  

  22485674.98449 118163018.87149     -6940.71549        50.000  

  20793417.38349 109270145.29749      8229.60549        49.000  

  20609044.03149 108301255.95349      9308.50849        49.000  

  22549287.26649 118497302.90249     -6240.00449        50.000  

  25324520.57049 133081252.79749     10926.79349        48.000  

 16 04 02 12 06 25.9000000  0  6G01G18G08G10G11G21                              
  24148449.50049 126900957.84849     -2556.07049        49.000  

  22485807.11749 118163713.23449     -6946.11749        50.000  

  20793260.84449 109269322.57849      8224.98049        49.000  

  20608866.98449 108300325.44949      9301.49249        49.000  

  22549406.06249 118497927.10949     -6243.48849        50.000  

  25324312.67249 133080160.27349     10924.30549        48.000  

 16 04 02 12 06 26.0000000  0  6G01G18G08G10G11G21                              
  24148498.16449 126901213.56249     -2558.21149        49.000  

  22485939.33649 118164408.05949     -6950.79349        50.000  

  20793104.35249 109268500.21949      8221.34049        49.000  

  20608690.03149 108299395.55949      9295.41849        49.000  

  22549524.89149 118498551.57849     -6246.26649        50.000  

  25324104.71149 133079067.92249     10922.52349        48.000  

 16 04 02 12 06 26.1000000  0  6G01G18G08G10G11G21                              
  24148546.85949 126901469.44149     -2559.85549        48.000  

  22486071.64849 118165103.32849     -6955.18049        50.000  

  20792947.93849 109267678.24249      8217.61749        49.000  

  20608513.19549 108298466.27749      9289.33249        49.000  

  22549643.76649 118499176.31249     -6248.81649        50.000  

  25323896.87549 133077975.71949     10921.03949        48.000  

 16 04 02 12 06 26.2000000  0  6G01G18G08G10G11G21                              
  24148595.59449 126901725.52049     -2561.65649        48.000  

  22486204.03949 118165799.05149     -6959.50849        50.000  

  20792791.58649 109266856.62949      8214.04349        49.000  

  20608336.47749 108297537.59849      9283.52749        49.000  

  22549762.69549 118499801.30149     -6251.23449        50.000  

  25323689.07049 133076883.66449     10919.75049        48.000  

 16 04 02 12 06 26.3000000  0  6G01G18G08G10G11G21                              
  24148644.35249 126901981.73849     -2563.07449        49.000  

  22486336.51649 118166495.21949     -6963.93049        50.000  

  20792635.29749 109266035.37149      8210.46149        49.000  

  20608159.86749 108296609.51249      9277.43849        49.000    20608154.88341
  84386948.82851      7229.17241        20.000  
  22549881.68049 118500426.53949     -6253.70349        50.000  

  25323481.28949 133075791.76249     10918.28949        48.000  

 16 04 02 12 06 26.4000000  0  6G01G18G08G10G11G21                              
  24148693.15649 126902238.18049     -2565.15249        49.000  

  22486469.07849 118167191.85549     -6968.66449        50.000  

  20792479.08649 109265214.49649      8206.60949        49.000  

  20607983.37549 108295682.04749      9271.30149        49.000    20607978.39141
  84386226.13341      7224.39141        21.000  
  22550000.71149 118501052.05949     -6256.52749        50.000  

  25323273.55549 133074700.02749     10916.64149        48.000  

 16 04 02 12 06 26.5000000  0  6G01G18G08G10G11G21                              
  24148741.98449 126902494.78149     -2566.83649        49.000  

  22486601.73449 118167888.93449     -6973.04349        50.000  

  20792322.95349 109264393.98449      8203.08249        49.000  

  20607807.00849 108294755.17649      9265.42249        49.000    20607805.64841
  84385503.90241      7219.80941        20.000  
  22550119.79749 118501677.82049     -6258.93849        50.000  

  25323065.83649 133073608.43849     10915.23849        48.000  

 16 04 02 12 06 26.6000000  0  6G01G18G08G10G11G21                              
  24148790.85249 126902751.55949     -2568.61349        49.000  

  22486734.46149 118168586.44949     -6977.42249        50.000  

  20792166.88349 109263573.83649      8199.57049        49.000  

  20607630.74249 108293828.89849      9259.54349        49.000    20607629.39141
  84384782.13341      7215.22741        20.000  
  22550238.92249 118502303.83649     -6261.35949        50.000  

  25322858.17249 133072517.00449     10913.65649        48.000  

 16 04 02 12 06 26.7000000  0  6G01G18G08G10G11G21                              
  24148839.73449 126903008.45349     -2569.78149        49.000  

  22486867.27349 118169284.35949     -6981.34449        50.000  

  20792010.87549 109262753.98049      8196.56649        49.000  

  20607454.56249 108292903.17649      9254.03149        49.000    20607456.18041
  84384060.79741      7210.93441        21.000  
  22550358.08649 118502930.05549     -6263.46149        50.000  

  25322650.49249 133071425.65249     10912.66449        48.000  

 16 04 02 12 06 26.8000000  0  6G01G18G08G10G11G21                              
  24148888.64849 126903265.49649     -2571.11749        49.000  

  22487000.15649 118169982.69149     -6985.41849        50.000  

  20791854.93049 109261934.49249      8193.12549        49.000  

  20607278.51649 108291978.02049      9248.45749        49.000    20607280.13341
  84383339.91441      7206.59041        20.000  
  22550477.29749 118503556.50449     -6265.60249        50.000  

  25322442.83649 133070334.43449     10911.60549        48.000  

 16 04 02 12 06 26.9000000  0  6G01G18G08G10G11G21                              
  24148937.57849 126903522.69549     -2572.72349        49.000  

  22487133.12549 118170681.44149     -6989.68849        50.000  

  20791699.03149 109261115.30949      8189.79349        49.000  

  20607102.56249 108291053.43449      9242.66449        49.000    20607100.91441
  84382619.47741      7202.07441        20.000  
  22550596.55549 118504183.17249     -6267.93449        50.000  

  25322235.20349 133069243.32449     10910.43849        48.000  

 16 04 02 12 06 27.0000000  0  6G01G18G08G10G11G21                              
  24148986.54749 126903780.01649     -2573.84849        49.000  

  22487266.17249 118171380.58649     -6993.57049        50.000  

  20791543.21149 109260296.46149      8186.72349        49.000  

  20606926.72749 108290129.41449      9237.19549        49.000    20606925.08641
  84381899.48041      7197.81241        20.000  
  22550715.84449 118504810.04749     -6269.85549        50.000  

  25322027.58649 133068152.32449     10909.45749        48.000  

 16 04 02 12 06 27.1000000  0  6G01G18G08G10G11G21                              
  24149035.53949 126904037.44149     -2574.82849        49.000  

  22487399.28149 118172080.11749     -6997.29749        50.000  

  20791387.42249 109259477.89849      8183.87549        49.000  

  20606750.97749 108289205.91049      9232.00849        49.000    20606747.25041
  84381179.88741      7193.77341        20.000  
  22550835.18049 118505437.11749     -6271.64549        50.000  

  25321819.99249 133067061.41449     10908.60949        48.000  

 16 04 02 12 06 27.2000000  0  6G01G18G08G10G11G21                              
  24149084.56249 126904295.07049     -2576.96149        49.000  

  22487532.48449 118172780.09849     -7002.04749        50.000  

  20791231.72749 109258659.73049      8179.78149        49.000  

  20606575.35949 108288283.03549      9225.57049        49.000  

  22550954.55549 118506064.45749     -6274.67249        50.000  

  25321612.44549 133065970.65649     10906.88349        48.000  

 16 04 02 12 06 27.3000000  0  6G01G18G08G10G11G21                              
  24149133.60949 126904552.81249     -2578.07049        49.000  

  22487665.77349 118173480.48449     -7005.96949        50.000  

  20791076.11749 109257841.85249      8176.87549        49.000  

  20606399.85949 108287360.70349      9220.21149        49.000  

  22551073.97749 118506691.99249     -6276.51249        50.000  

  25321404.90649 133064880.00049     10905.95349        48.000  

 16 04 02 12 06 27.4000000  0  6G01G18G08G10G11G21                              
  24149182.68049 126904810.66449     -2578.99249        49.000  

  22487799.11749 118174181.24249     -7009.46149        50.000  

  20790920.53949 109257024.28149      8174.11749        50.000  

  20606224.44549 108286438.90249      9215.12949        49.000  

  22551193.42249 118507319.71549     -6278.14149        50.000  

  25321197.39149 133063789.43449     10905.27349        48.000  

 16 04 02 12 06 27.5000000  0  6G01G18G08G10G11G21                              
  24149231.75849 126905068.61749     -2580.14149        49.000  

  22487932.53949 118174882.37549     -7013.46549        50.000  

  20790765.01649 109256206.99649      8170.87549        50.000  

  20606049.11749 108285517.62949      9209.56649        49.000  

  22551312.90649 118507947.62149     -6280.28549        50.000  

  25320989.86749 133062698.92249     10904.35549        48.000  

 16 04 02 12 06 27.6000000  0  6G01G18G08G10G11G21                              
  24149280.88349 126905326.79749     -2582.29349        49.000  

  22488066.05549 118175584.00049     -7018.18049        50.000  

  20790609.57049 109255390.12949      8167.20349        49.000  

  20605873.93049 108284597.00849      9203.29749        49.000  

  22551432.45349 118508575.82849     -6282.97749        50.000  

  25320782.37549 133061608.62949     10902.48849        48.000  

 16 04 02 12 06 27.7000000  0  6G01G18G08G10G11G21                              
  24149330.03149 126905585.00449     -2582.76649        49.000  

  22488199.62549 118176285.93449     -7021.41849        50.000  

  20790454.16449 109254573.47749      8164.69149        50.000  

  20605698.82849 108283676.82449      9198.69949        49.000  

  22551552.02349 118509204.14549     -6284.32849        50.000  

  25320574.89849 133060518.33649     10902.34049        48.000  

 16 04 02 12 06 27.8000000  0  6G01G18G08G10G11G21                              
  24149379.18049 126905843.30149     -2583.37949        49.000  

  22488333.26649 118176988.21549     -7024.64549        50.000  

  20790298.81249 109253757.10249      8162.34449        50.000  

  20605523.82049 108282757.17249      9193.80949        49.000  

  22551671.61749 118509832.63749     -6285.78149        50.000  

  25320367.41449 133059428.10249     10902.04749        48.000  

 16 04 02 12 06 27.9000000  0  6G01G18G08G10G11G21                              
  24149428.34449 126906101.63349     -2583.58249        49.000  

  22488466.96949 118177690.81249     -7027.53149        50.000  

  20790143.53149 109252940.96149      8160.11749        50.000  

  20605348.91449 108281837.98049      9189.27749        49.000  

  22551791.23449 118510461.23849     -6286.71149        50.000  

  25320159.95349 133058337.87549     10902.18849        48.000  

 16 04 02 12 06 28.0000000  0  6G01G18G08G10G11G21                              
  24149477.50849 126906360.00849     -2583.80149        49.000  

  22488600.72749 118178393.71149     -7030.42249        50.000  

  20789988.25849 109252125.02749      8158.12549        50.000  

  20605174.08649 108280919.24249      9184.99649        49.000  

  22551910.87549 118511089.95349     -6287.72349        50.000  

  25319952.50049 133057247.66849     10902.14849        48.000  

 16 04 02 12 06 28.1000000  0  6G01G18G08G10G11G21                              
  24149526.69549 126906618.39549     -2584.13349        49.000  

  22488734.53149 118179096.91049     -7033.66049        50.000  

  20789833.03949 109251309.31249      8155.75049        49.000  

  20604999.32849 108280000.96549      9180.09449        49.000  

  22552030.53949 118511718.76249     -6288.79749        50.000  

  25319745.03949 133056157.45349     10902.03149        48.000  

 16 04 02 12 06 28.2000000  0  6G01G18G08G10G11G21                              
  24149575.88349 126906876.88349     -2585.07849        49.000  

  22488868.41449 118179800.45349     -7037.07849        50.000  

  20789677.86749 109250493.87949      8152.98849        49.000  

  20604824.68049 108279083.18449      9175.10549        49.000  

  22552150.22749 118512347.75449     -6290.55949        50.000  

  25319537.55549 133055067.30149     10901.34049        48.000  

 16 04 02 12 06 28.3000000  0  6G01G18G08G10G11G21                              
  24149625.08649 126907135.47349     -2586.15649        49.000  

  22489002.36749 118180504.39549     -7040.99649        50.000  

  20789522.73449 109249678.73849      8150.16449        49.000  

  20604650.14149 108278165.94949      9169.70349        49.000  

  22552269.95349 118512976.93049     -6292.37149        50.000  

  25319330.11749 133053977.23449     10900.48849        48.000  

 16 04 02 12 06 28.4000000  0  6G01G18G08G10G11G21                              
  24149674.30549 126907394.11749     -2586.88749        49.000  

  22489136.38349 118181208.64849     -7044.32449        50.000  

  20789367.66449 109248863.84849      8147.41449        49.000  

  20604475.68849 108277249.18449      9164.82449        49.000  

  22552389.70349 118513606.23049     -6293.80549        50.000  

  25319122.71949 133052887.19149     10900.16449        48.000  

 16 04 02 12 06 28.5000000  0  6G01G18G08G10G11G21                              
  24149723.52349 126907652.78549     -2586.93049        49.000  

  22489270.45349 118181913.19949     -7047.09449        50.000  

  20789212.63349 109248049.15249      8145.59449        49.000  

  20604301.31249 108276332.87149      9160.68849        49.000  

  22552509.48449 118514235.64549     -6294.70349        50.000  

  25318915.29749 133051797.15249     10900.33649        48.000  

 16 04 02 12 06 28.6000000  0  6G01G18G08G10G11G21                              
  24149772.75049 126907911.46549     -2587.01649        49.000  

  22489404.57849 118182618.03149     -7050.03549        50.000  

  20789057.64149 109247234.67249      8143.48449        50.000  

  20604127.02349 108275417.00049      9156.00849        49.000  

  22552629.27349 118514865.14849     -6295.75849        50.000  

  25318707.88349 133050707.09449     10900.43449        48.000  

 16 04 02 12 06 28.7000000  0  6G01G18G08G10G11G21                              
  24149821.99249 126908170.25049     -2588.03949        49.000  

  22489538.77349 118183323.23049     -7053.52049        50.000  

  20788902.70349 109246420.47349      8140.77749        50.000  

  20603952.85249 108274501.64849      9150.94549        49.000  

  22552749.10249 118515494.82849     -6297.42249        50.000  

  25318500.46949 133049617.12149     10899.52349        48.000  

 16 04 02 12 06 28.8000000  0  6G01G18G08G10G11G21                              
  24149871.25049 126908429.07849     -2588.65649        49.000  

  22489673.03149 118184028.76649     -7057.12949        50.000  

  20788747.81249 109245606.51249      8138.15249        50.000  

  20603778.75849 108273586.79349      9145.77049        49.000  

  22552868.94549 118516124.64149     -6299.01649        50.000  

  25318293.04749 133048527.15649     10899.39849        48.000  

 16 04 02 12 06 28.9000000  0  6G01G18G08G10G11G21                              
  24149920.53149 126908688.09849     -2590.54349        49.000  

  22489807.37549 118184734.73849     -7061.57449        50.000  

  20788592.98449 109244792.94549      8134.21149        49.000  

  20603604.78949 108272672.51249      9139.93449        49.000  

  22552988.85249 118516754.70749     -6301.52749        50.000  

  25318085.67249 133047437.36349     10897.67249        48.000  

 16 04 02 12 06 29.0000000  0  6G01G18G08G10G11G21                              
  24149969.85249 126908947.25049     -2592.28549        49.000  

  22489941.79749 118185441.12549     -7066.09049        50.000  

  20788438.21949 109243979.66049      8130.75449        49.000  

  20603430.91449 108271758.82049      9133.71149        49.000  

  22553108.78949 118517385.00449     -6304.20349        50.000  

  25317878.30549 133046347.66449     10896.18449        48.000  

 16 04 02 12 06 29.1000000  0  6G01G18G08G10G11G21                              
  24150019.18049 126909206.51649     -2593.25849        49.000  

  22490076.28949 118186147.89149     -7069.64149        50.000  

  20788283.51649 109243166.72349      8127.78549        49.000  

  20603257.14149 108270845.64549      9128.75049        49.000  

  22553228.77349 118518015.47349     -6305.80949        50.000  

  25317670.95349 133045258.06249     10895.46949        48.000  

 16 04 02 12 06 29.2000000  0  6G01G18G08G10G11G21                              
  24150068.53149 126909465.84049     -2593.65249        49.000  

  22490210.84449 118186854.99249     -7072.83249        50.000  

  20788128.85949 109242354.00449      8125.62149        49.000  

  20603083.46949 108269932.96549      9124.03949        49.000  

  22553348.77349 118518646.09449     -6306.99249        50.000  

  25317463.64149 133044168.50049     10895.32049        48.000  

 16 04 02 12 06 29.3000000  0  6G01G18G08G10G11G21                              
  24150117.91449 126909725.32849     -2595.30149        49.000  

  22490345.48449 118187562.52049     -7077.20349        50.000  

  20787974.28949 109241541.64149      8122.09049        49.000  

  20602909.87549 108269020.87949      9118.01649        49.000  

  22553468.82049 118519276.95349     -6309.44549        50.000  

  25317256.32049 133043079.06249     10893.93849        48.000  

 16 04 02 12 06 29.4000000  0  6G01G18G08G10G11G21                              
  24150167.31249 126909984.94949     -2596.95749        49.000  

  22490480.20349 118188270.45749     -7081.53549        50.000  

  20787819.76649 109240729.60949      8118.35249        49.000  

  20602736.41449 108268109.33249      9112.33249        49.000  

  22553588.90649 118519908.02749     -6311.94549        50.000  

  25317049.06249 133041989.73449     10892.60249        48.000  

 16 04 02 12 06 29.5000000  0  6G01G18G08G10G11G21                              
  24150216.74249 126910244.68849     -2597.91049        49.000  

  22490614.98449 118188978.77349     -7085.16449        50.000  

  20787665.29749 109239917.86749      8115.76649        49.000  

  20602563.07049 108267198.35949      9106.81649        49.000  

  22553709.03949 118520539.29749     -6313.71949        50.000  

  25316841.78949 133040900.51649     10891.68849        48.000  

 16 04 02 12 06 29.6000000  0  6G01G18G08G10G11G21                              
  24150266.18849 126910504.49249     -2598.54349        49.000  

  22490749.83649 118189687.42249     -7088.43049        50.000  

  20787510.87549 109239106.38349      8113.32849        49.000  

  20602389.80549 108266287.84849      9102.03149        49.000  

  22553829.18849 118521170.70349     -6315.00849        50.000  

  25316634.53949 133039811.31249     10891.57849        48.000  

 16 04 02 12 06 29.7000000  0  6G01G18G08G10G11G21                              
  24150315.65649 126910764.44549     -2600.01249        49.000  

  22490884.76649 118190396.51649     -7092.89149        50.000  

  20787356.52349 109238295.25449      8109.63749        49.000  

  20602216.64149 108265377.92649      9096.19949        49.000  

  22553949.38349 118521802.35249     -6317.45749        50.000  

  25316427.28949 133038722.24649     10890.26249        48.000  

 16 04 02 12 06 29.8000000  0  6G01G18G08G10G11G21                              
  24150365.14849 126911024.51649     -2601.19949        49.000  

  22491019.77349 118191105.96149     -7096.46949        50.000  

  20787202.22749 109237484.41049      8106.82849        50.000  

  20602043.58649 108264468.52049      9091.08249        49.000  

  22554069.60949 118522434.16849     -6319.20349        50.000  

  25316220.05549 133037633.25449     10889.49649        48.000  

 16 04 02 12 06 29.9000000  0  6G01G18G08G10G11G21                              
  24150414.66449 126911284.70749     -2602.55949        49.000  

  22491154.85249 118191815.82049     -7100.58649        50.000  

  20787047.99249 109236673.88749      8103.31649        50.000  

  20601870.64849 108263559.69149      9085.26649        49.000  

  22554189.88349 118523066.21149     -6321.49649        50.000  

  25316012.85249 133036544.37949     10888.24249        48.000  

 16 04 02 12 06 30.0000000  0  6G01G18G08G10G11G21                              
  24150464.20349 126911545.05149     -2604.04749        49.000  

  22491290.01649 118192526.09049     -7104.80549        50.000  

  20786893.81249 109235863.69949      8100.09449        50.000  

  20601697.81249 108262651.43049      9079.59849        49.000  

  22554310.19549 118523698.47749     -6323.70749        50.000  

  25315805.67249 133035455.62149     10887.00049        48.000  

 16 04 02 12 06 30.1000000  0  6G01G18G08G10G11G21                              
  24150513.77349 126911805.48049     -2604.81249        49.000  

  22491425.24249 118193236.71949     -7108.25449        50.000  

  20786739.70349 109235053.78549      8097.43849        50.000  

  20601525.07049 108261743.68049      9074.59849        49.000  

  22554430.54749 118524330.91049     -6325.26249        50.000  

  25315598.50849 133034366.93049     10886.56649        48.000  

 16 04 02 12 06 30.2000000  0  6G01G18G08G10G11G21                              
  24150563.35949 126912066.07049     -2606.48049        49.000  

  22491560.55549 118193947.77749     -7112.61349        50.000  

  20786585.65649 109234244.23449      8093.87149        50.000  

  20601352.43849 108260836.51249      9068.63749        49.000  

  22554550.93849 118524963.58649     -6327.84849        50.000  

  25315391.35949 133033278.37149     10885.04349        48.000  

 16 04 02 12 06 30.3000000  0  6G01G18G08G10G11G21                              
  24150612.96949 126912326.75849     -2607.52749        49.000  

  22491695.93849 118194659.21149     -7116.37549        50.000  

  20786431.64849 109233434.95349      8090.93049        50.000  

  20601179.91449 108259929.87149      9063.28549        49.000  

  22554671.36749 118525596.43049     -6329.59449        50.000  

  25315184.21949 133032189.86749     10884.42249        48.000  

 16 04 02 12 06 30.4000000  0  6G01G18G08G10G11G21                              
  24150662.59449 126912587.56649     -2608.56649        49.000  

  22491831.38349 118195371.02049     -7119.96549        50.000  

  20786277.71149 109232625.98449      8088.04749        50.000  

  20601007.49249 108259023.77349      9058.05549        49.000  

  22554791.82849 118526229.47349     -6331.41449        50.000  

  25314977.09449 133031101.47749     10883.57049        48.000  

 16 04 02 12 06 30.5000000  0  6G01G18G08G10G11G21                              
  24150712.25849 126912848.52349     -2610.25449        49.000  

  22491966.92249 118196083.25849     -7124.49249        50.000  

  20786123.85949 109231817.35249      8084.38349        50.000  

  20600835.18849 108258118.24649      9052.12549        49.000  

  22554912.34449 118526862.74649     -6333.89549        50.000  

  25314770.00049 133030013.19949     10882.09849        48.000  

 16 04 02 12 06 30.6000000  0  6G01G18G08G10G11G21                              
  24150761.93849 126913109.59449     -2611.22349        49.000  

  22492102.53149 118196795.87949     -7128.23849        50.000  

  20785970.03949 109231009.02349      8081.60249        50.000  

  20600662.97749 108257213.26649      9046.92249        49.000  

  22555032.89149 118527496.21549     -6335.62549        50.000  

  25314562.93849 133028925.01649     10881.36749        48.000  

 16 04 02 12 06 30.7000000  0  6G01G18G08G10G11G21                              
  24150811.64149 126913370.81249     -2612.89149        49.000  

  22492238.21149 118197508.91049     -7132.45749        50.000  

  20785816.28949 109230201.03549      8077.94949        49.000  

  20600490.87549 108256308.85249      9040.93449        49.000  

  22555153.47749 118528129.90649     -6338.13349        50.000  

  25314355.88349 133027836.94149     10880.05149        48.000  

 16 04 02 12 06 30.8000000  0  6G01G18G08G10G11G21                              
  24150861.37549 126913632.16849     -2614.29749        49.000  

  22492373.97749 118198222.35549     -7136.60549        50.000  

  20785662.59449 109229393.36349      8074.75049        50.000  

  20600318.88349 108255405.00849      9035.32849        49.000    20600315.40641
  84354847.74651      7040.51641        20.000  
  22555274.10949 118528763.81249     -6340.32049        50.000  

  25314148.85249 133026748.99649     10878.85949        48.000  

 16 04 02 12 06 30.9000000  0  6G01G18G08G10G11G21                              
  24150911.14149 126913893.69149     -2615.80549        49.000  

  22492509.82049 118198936.23049     -7140.75049        50.000  

  20785508.97749 109228586.05549      8071.43449        49.000  

  20600146.99249 108254501.75049      9029.60249        49.000    20600143.50041
  84354143.91841      7036.05141        20.000  
  22555394.78949 118529397.95749     -6342.43049        50.000  

  25313941.84449 133025661.17249     10877.79749        48.000  

 16 04 02 12 06 31.0000000  0  6G01G18G08G10G11G21                              
  24150960.92249 126914155.32449     -2617.03149        49.000  

  22492645.74249 118199650.48449     -7144.61749        50.000  

  20785355.40649 109227779.04749      8068.28949        49.000  

  20599975.21149 108253599.03149      9024.14549        49.000    20599971.71941
  84353440.50841      7031.80141        20.000  
  22555515.50049 118530032.30949     -6344.53149        50.000  

  25313734.85949 133024573.45749     10876.66449        48.000  

 16 04 02 12 06 31.1000000  0  6G01G18G08G10G11G21                              
  24151010.73449 126914417.07449     -2618.34449        49.000  

  22492781.72749 118200365.13749     -7148.79349        50.000  

  20785201.89849 109226972.34849      8064.85949        49.000  

  20599803.54749 108252696.85549      9018.33649        49.000    20599800.96941
  84352737.52341      7027.27341        20.000  
  22555636.25049 118530666.85249     -6346.82849        50.000  

  25313527.89149 133023485.82049     10875.49649        48.000  

 16 04 02 12 06 31.2000000  0  6G01G18G08G10G11G21                              
  24151060.57849 126914679.01649     -2619.91849        49.000  

  22492917.81249 118201080.24649     -7153.04749        50.000  

  20785048.45349 109226166.01649      8061.66849        49.000  

  20599631.98449 108251795.29349      9012.72349        49.000    20599629.40641
  84352035.02041      7022.90241        20.000  
  22555757.04749 118531301.65249     -6348.98449        50.000  

  25313320.96149 133022398.35249     10874.25849        48.000  

 16 04 02 12 06 31.3000000  0  6G01G18G08G10G11G21                              
  24151110.45349 126914941.08649     -2621.42249        49.000  

  22493053.96149 118201795.74649     -7157.23049        50.000  

  20784895.06249 109225360.00849      8058.31249        49.000  

  20599460.52349 108250894.28149      9007.10249        49.000    20599458.51641
  84351332.94541      7018.52041        20.000  
  22555877.88349 118531936.66849     -6351.24249        50.000  

  25313114.03949 133021310.96549     10873.24649        48.000  

 16 04 02 12 06 31.4000000  0  6G01G18G08G10G11G21                              
  24151160.33649 126915203.25049     -2622.43849        49.000  

  22493190.18849 118202511.61749     -7160.90249        50.000  

  20784741.74249 109224554.28949      8055.17249        49.000  

  20599289.16449 108249993.79749      9001.59849        49.000    20599287.16441
  84350631.28141      7014.23041        20.000  
  22555998.75849 118532571.86349     -6353.32449        50.000  

  25312907.12549 133020223.67249     10872.27749        48.000  

 16 04 02 12 06 31.5000000  0  6G01G18G08G10G11G21                              
  24151210.28149 126915465.68849     -2625.17649        49.000  

  22493326.51649 118203228.02049     -7166.26249        50.000  

  20784588.50849 109223749.01249      8050.73049        49.000  

  20599117.93849 108249094.00849      8994.65649        49.000    20599115.46141
  84349930.16041      7008.82041        20.000  
  22556119.69549 118533207.39149     -6356.55549        50.000  

  25312700.26649 133019136.62549     10869.75449        48.000  

 16 04 02 12 06 31.6000000  0  6G01G18G08G10G11G21                              
  24151260.24249 126915728.21549     -2625.96549        49.000  

  22493462.91449 118203944.78949     -7169.76649        50.000  

  20784435.32049 109222944.02749      8048.12549        49.000  

  20598946.81249 108248194.73849      8989.69949        49.000    20598944.34441
  84349229.44941      7004.96141        20.000  
  22556240.66449 118533843.10949     -6358.22749        50.000  

  25312493.43849 133018049.62949     10869.36749        48.000  

 16 04 02 12 06 31.7000000  0  6G01G18G08G10G11G21                              
  24151310.21149 126915990.86349     -2627.24649        49.000  

  22493599.37549 118204661.94149     -7173.82049        50.000  

  20784282.19549 109222139.35549      8044.70349        49.000  

  20598775.78949 108247296.00049      8984.02049        49.000  

  22556361.67249 118534479.00849     -6360.25449        50.000  

  25312286.60949 133016962.73449     10868.12549        48.000  

 16 04 02 12 06 31.8000000  0  6G01G18G08G10G11G21                              
  24151360.23449 126916253.71949     -2629.21549        48.000  

  22493735.93849 118205379.58249     -7178.41849        50.000  

  20784129.14149 109221335.06649      8041.00849        49.000  

  20598604.89149 108246397.90649      8977.81649        49.000  

  22556482.73449 118535115.19949     -6362.98849        50.000  

  25312079.81249 133015876.02749     10866.49249        48.000  

 16 04 02 12 06 31.9000000  0  6G01G18G08G10G11G21                              
  24151410.28149 126916516.70749     -2630.65649        48.000  

  22493872.57849 118206097.62149     -7182.62549        50.000  

  20783976.14849 109220531.11749      8037.53549        49.000  

  20598434.10249 108245500.36749      8972.18049        49.000  

  22556603.83649 118535751.60949     -6365.28549        50.000  

  25311873.03949 133014789.41849     10865.40649        48.000  

 16 04 02 12 06 32.0000000  0  6G01G18G08G10G11G21                              
  24151460.36749 126916779.89549     -2632.53149        48.000  

  22494009.30549 118206816.12149     -7187.22349        50.000  

  20783823.23449 109219727.54349      8033.82049        49.000  

  20598263.43049 108244603.46949      8965.88349        49.000  

  22556725.00049 118536388.30149     -6368.12149        50.000  

  25311666.28949 133013702.98449     10863.64849        48.000  

 16 04 02 12 06 32.1000000  0  6G01G18G08G10G11G21                              
  24151510.47749 126917043.21549     -2633.91049        48.000  

  22494146.10249 118207535.02349     -7191.21549        50.000  

  20783670.39149 109218924.28949      8030.60549        49.000  

  20598092.85249 108243707.10949      8960.44149        49.000  

  22556846.19549 118537025.18449     -6370.05949        50.000  

  25311459.56249 133012616.66049     10862.64849        48.000  

 16 04 02 12 06 32.2000000  0  6G01G18G08G10G11G21                              
  24151560.63349 126917306.76249     -2636.30549        48.000  

  22494283.00049 118208254.42649     -7196.26649        50.000  

  20783517.61749 109218121.45349      8026.22749        49.000  

  20597922.40649 108242811.39849      8953.71949        49.000  

  22556967.45349 118537662.37949     -6373.35949        50.000  

  25311252.87549 133011530.52349     10860.48049        48.000  

 16 04 02 12 06 32.3000000  0  6G01G18G08G10G11G21                              
  24151610.79749 126917570.41449     -2637.25449        49.000  

  22494419.96949 118208974.21149     -7200.09449        50.000  

  20783364.90649 109217318.92249      8023.50449        49.000  

  20597752.05549 108241916.24249      8948.38349        49.000  

  22557088.75049 118538299.77049     -6375.04749        50.000  

  25311046.20349 133010444.47349     10859.95349        48.000  

 16 04 02 12 06 32.4000000  0  6G01G18G08G10G11G21                              
  24151660.99249 126917834.19549     -2638.40249        48.000  

  22494557.01649 118209694.37549     -7203.78549        50.000  

  20783212.24249 109216516.69149      8020.44549        49.000  

  20597581.81249 108241021.61349      8943.25849        49.000  

  22557210.07049 118538937.35249     -6376.87949        50.000  

  25310839.55549 133009358.53549     10858.96149        48.000  

 16 04 02 12 06 32.5000000  0  6G01G18G08G10G11G21                              
  24151711.22749 126918098.16049     -2640.39149        48.000  

  22494694.14149 118210415.00049     -7208.44549        50.000  

  20783059.66449 109215714.83249      8016.57049        49.000  

  20597411.68849 108240127.60549      8936.85549        49.000  

  22557331.45349 118539575.20749     -6379.75049        50.000  

  25310632.93049 133008272.74249     10857.27349        48.000  

 16 04 02 12 06 32.6000000  0  6G01G18G08G10G11G21                              
  24151761.50049 126918362.32049     -2642.33649        48.000  

  22494831.35949 118211136.09049     -7213.01249        50.000  

  20782907.14849 109214913.37149      8012.89849        49.000  

  20597241.68049 108239234.21949      8930.74249        49.000  

  22557452.88349 118540213.33649     -6382.42249        50.000  

  25310426.32049 133007187.12549     10855.57849        48.000  

 16 04 02 12 06 32.7000000  0  6G01G18G08G10G11G21                              
  24151811.78149 126918626.55149     -2643.17249        49.000  

  22494968.64849 118211857.53149     -7216.77749        50.000  

  20782754.68049 109214112.17249      8009.93849        49.000  

  20597071.75849 108238341.33649      8925.43849        49.000  

  22557574.35249 118540851.61749     -6384.19549        50.000  

  25310219.75049 133006101.56249     10854.73849        48.000  

 16 04 02 12 06 32.8000000  0  6G01G18G08G10G11G21                              
  24151862.10949 126918891.03549     -2645.49649        49.000  

  22495106.02349 118212579.46949     -7221.48049        50.000  

  20782602.29749 109213311.40249      8005.78549        49.000  

  20596901.96949 108237449.12149      8919.07049        49.000  

  22557695.87549 118541490.21949     -6387.21149        50.000  

  25310013.19549 133005016.21549     10852.78549        48.000  

 16 04 02 12 06 32.9000000  0  6G01G18G08G10G11G21                              
  24151912.46949 126919155.67649     -2647.20749        48.000  

  22495243.48449 118213301.85549     -7226.08649        50.000  

  20782449.98449 109212510.98449      8002.27349        49.000  

  20596732.31249 108236557.50049      8913.00449        49.000  

  22557817.43849 118542129.06649     -6389.76649        50.000  

  25309806.68849 133003931.00849     10851.32449        48.000  

 16 04 02 12 06 33.0000000  0  6G01G18G08G10G11G21                              
  24151962.85249 126919420.46549     -2648.73849        48.000  

  22495381.03149 118214024.63349     -7230.17649        50.000  

  20782297.72749 109211710.89549      7998.84049        49.000  

  20596562.75049 108235666.43449      8907.21549        49.000  

  22557939.04749 118542768.12149     -6391.96949        50.000  

  25309600.17249 133002845.90249     10850.17649        48.000  

 16 04 02 12 06 33.1000000  0  6G01G18G08G10G11G21                              
  24152013.27349 126919685.42249     -2650.34449        48.000  

  22495518.65649 118214747.87149     -7234.58249        50.000  

  20782145.55549 109210911.17249      7995.25049        49.000  

  20596393.27349 108234775.97749      8901.36349        49.000  

  22558060.70349 118543407.43849     -6394.37949        50.000  

  25309393.71149 133001760.94149     10848.89849        48.000  

 16 04 02 12 06 33.2000000  0  6G01G18G08G10G11G21                              
  24152063.74249 126919950.64549     -2653.16449        49.000  

  22495656.38349 118215471.63349     -7239.88749        50.000  

  20781993.46149 109210111.90249      7990.58249        49.000  

  20596223.96149 108233886.20349      8894.39149        49.000  

  22558182.43049 118544047.09849     -6397.88749        50.000  

  25309187.29749 133000676.23849     10846.28949        48.000  

 16 04 02 12 06 33.3000000  0  6G01G18G08G10G11G21                              
  24152114.24249 126920215.98449     -2654.39849        48.000  

  22495794.18849 118216195.79349     -7244.00449        50.000  

  20781841.42249 109209312.94149      7987.39149        49.000  

  20596054.75049 108232996.98449      8888.82049        49.000  

  22558304.19549 118544686.95749     -6400.10949        50.000  

  25308980.89849 132999591.62149     10845.29749        48.000  

 16 04 02 12 06 33.4000000  0  6G01G18G08G10G11G21                              
  24152164.78149 126920481.56249     -2656.59449        48.000  

  22495932.08649 118216920.44949     -7248.93049        50.000  

  20781689.46149 109208514.39849      7983.34049        50.000  

  20595885.66449 108232108.41449      8882.30949        49.000  

  22558426.01649 118545327.12549     -6403.10549        50.000  

  25308774.53149 132998507.21149     10843.14149        48.000  

 16 04 02 12 06 33.5000000  0  6G01G18G08G10G11G21                              
  24152215.35249 126920747.30149     -2658.19949        49.000  

  22496070.06249 118217645.52749     -7253.13349        50.000  

  20781537.56249 109207716.20349      7979.78549        50.000  

  20595716.70349 108231220.44149      8876.28549        49.000  

  22558547.87549 118545967.52749     -6405.37949        50.000  

  25308568.19549 132997422.93449     10841.87149        48.000  

 16 04 02 12 06 33.6000000  0  6G01G18G08G10G11G21                              
  24152265.95349 126921013.21949     -2659.85949        49.000  

  22496208.12549 118218371.06249     -7257.37549        50.000  

  20781385.75049 109206918.39549      7976.39149        49.000  

  20595547.83649 108230333.07449      8870.57849        49.000  

  22558669.78949 118546608.20349     -6407.82049        50.000  

  25308361.89149 132996338.82449     10840.60249        48.000  

 16 04 02 12 06 33.7000000  0  6G01G18G08G10G11G21                              
  24152316.58649 126921279.27049     -2661.30949        48.000  

  22496346.26649 118219097.00049     -7261.61749        50.000  

  20781233.98449 109206120.88349      7972.93449        49.000  

  20595379.09449 108229446.25449      8864.91849        49.000  

  22558791.74249 118547249.07449     -6410.03549        50.000  

  25308155.60949 132995254.80549     10839.34849        48.000  

 16 04 02 12 06 33.8000000  0  6G01G18G08G10G11G21                              
  24152367.25049 126921545.54349     -2663.50849        48.000  

  22496484.50049 118219823.42649     -7266.49649        50.000  

  20781082.30549 109205323.79349      7968.98849        49.000  

  20595210.46149 108228560.08649      8858.45749        49.000  

  22558913.75049 118547890.25849     -6413.06249        50.000  

  25307949.34449 132994170.97749     10837.59449        48.000  

 16 04 02 12 06 33.9000000  0  6G01G18G08G10G11G21                              
  24152417.96149 126921812.02749     -2665.65249        48.000  

  22496622.82849 118220550.32049     -7271.19149        50.000  

  20780930.70349 109204527.10949      7965.01249        50.000  

  20595041.95349 108227674.55549      8852.14849        49.000  

  22559035.81249 118548531.71949     -6415.82849        50.000  

  25307743.13349 132993087.35249     10835.61349        48.000  

 16 04 02 12 06 34.0000000  0  6G01G18G08G10G11G21                              
  24152468.70349 126922078.64849     -2667.18449        49.000  

  22496761.23449 118221277.64549     -7275.63349        50.000  

  20780779.16449 109203730.75449      7961.41049        50.000  

  20594873.55549 108226789.60249      8846.08649        49.000  

  22559157.92249 118549173.41449     -6418.27349        50.000  

  25307536.97749 132992003.84449     10834.10949        48.000  

 16 04 02 12 06 34.1000000  0  6G01G18G08G10G11G21                              
  24152519.47749 126922345.44949     -2668.68449        49.000  

  22496899.71949 118222005.39549     -7279.73849        50.000  

  20780627.68849 109202934.75849      7958.09849        49.000  

  20594705.25849 108225905.23849      8840.50049        49.000  

  22559280.08649 118549815.35949     -6420.58649        50.000  

  25307330.82049 132990920.46149     10833.10249        48.000  

 16 04 02 12 06 34.2000000  0  6G01G18G08G10G11G21                              
  24152570.27349 126922612.38749     -2670.28949        48.000  

  22497038.28149 118222733.55549     -7284.06249        50.000  

  20780476.27349 109202139.07849      7954.61749        49.000  

  20594537.07849 108225021.43449      8834.50849        49.000  

  22559402.28149 118550457.51649     -6423.02049        50.000  

  25307124.68049 132989837.20749     10831.62549        48.000  

 16 04 02 12 06 34.3000000  0  6G01G18G08G10G11G21                              
  24152621.11749 126922879.52049     -2672.03149        48.000  

  22497176.94549 118223462.18849     -7288.39149        50.000  

  20780324.93049 109201343.80949      7950.83649        50.000  

  20594369.01649 108224138.26249      8828.56249        49.000    20594363.43041
  84330474.87951      6879.39841        20.000  
  22559524.53149 118551099.94149     -6425.43449        50.000  

  25306918.57849 132988754.12149     10830.23449        48.000  

 16 04 02 12 06 34.4000000  0  6G01G18G08G10G11G21                              
  24152671.98449 126923146.82849     -2673.95349        48.000  

  22497315.68049 118224191.26249     -7293.10249        50.000  

  20780173.66449 109200548.88749      7946.94149        49.000  

  20594201.07049 108223255.69549      8822.25849        49.000    20594195.47741
  84329787.14141      6874.48441        20.000  
  22559646.82849 118551742.63349     -6428.35249        50.000  

  25306712.51649 132987671.18449     10828.44949        48.000  

 16 04 02 12 06 34.5000000  0  6G01G18G08G10G11G21                              
  24152722.89849 126923414.41049     -2676.71149        48.000  

  22497454.51649 118224920.86749     -7298.47749        50.000  

  20780022.48449 109199754.41849      7942.52049        49.000  

  20594033.25049 108222373.80549      8815.57449        49.000    20594031.55541
  84329099.92641      6869.28141        20.000  
  22559769.19549 118552385.66449     -6431.72749        50.000  

  25306506.48449 132986588.48449     10826.17649        48.000  

 16 04 02 12 06 34.9000000  0  6G01G18G08G10G11G21                              
  23784152.82849 124986565.63349     -2684.27749        48.000  

  22129237.72749 116289928.59049     -7316.53149        50.000  

  20410641.88349 107258646.33249      7927.44149        49.000  

  20224586.36749 106280917.35249      8790.97349        49.000    20224580.31241
  82816276.72341      6850.10941        20.000  
  22191485.93849 116617044.10949     -6442.25049        50.000  

  24936905.38349 131044321.75049     10819.64149        48.000  

 16 04 02 12 06 35.0000000  0  6G01G18G08G10G11G21                              
  23784203.92249 124986834.13349     -2686.19549        49.000  

  22129377.00049 116290660.47349     -7321.28149        50.000  

  20410491.06249 107257853.75049      7923.52049        49.000  

  20224419.14149 106280038.53949      8784.65649        49.000    20224413.08641
  82815591.94941      6845.18841        20.000  
  22191608.55549 116617688.46549     -6445.03149        50.000  

  24936699.50849 131043239.84849     10818.00049        48.000  

 16 04 02 12 06 35.1000000  0  6G01G18G08G10G11G21                              
  23784255.04749 124987102.82449     -2687.98449        49.000  

  22129516.35949 116291392.78949     -7325.57849        50.000  

  20410340.30549 107257061.51649      7920.17249        49.000  

  20224252.02349 106279160.32449      8778.76649        49.000    20224245.10941
  82814907.64541      6840.59441        20.000  
  22191731.22749 116618333.06649     -6447.43849        50.000  

  24936493.65649 131042158.09449     10816.74649        48.000  

 16 04 02 12 06 35.2000000  0  6G01G18G08G10G11G21                              
  23784306.21949 124987371.71949     -2689.87149        48.000  

  22129655.80549 116292125.59449     -7330.22349        50.000  

  20410189.62549 107256269.69949      7916.40649        50.000  

  20224085.02349 106278282.73849      8772.69549        49.000  

  22191853.94549 116618977.96149     -6450.15249        50.000  

  24936287.84449 131041076.53149     10815.00049        48.000  

 16 04 02 12 06 35.3000000  0  6G01G18G08G10G11G21                              
  23784357.41449 124987640.75849     -2691.57049        49.000  

  22129795.32049 116292858.80549     -7334.41049        50.000  

  20410039.00849 107255478.21549      7912.76249        50.000  

  20223918.13349 106277405.74649      8766.60949        49.000  

  22191976.70349 116619623.08649     -6452.62549        50.000  

  24936082.05549 131039995.09449     10813.62949        48.000  

 16 04 02 12 06 35.4000000  0  6G01G18G08G10G11G21                              
  23784408.64149 124987909.96949     -2692.97349        48.000  

  22129934.93849 116293592.46949     -7338.76249        50.000  

  20409888.46149 107254687.09849      7909.27049        50.000  

  20223751.35949 106276529.34449      8760.82049        49.000  

  22192099.51649 116620268.45349     -6454.87549        50.000  

  24935876.28149 131038913.80549     10812.21549        48.000  

 16 04 02 12 06 35.5000000  0  6G01G18G08G10G11G21                              
  23784459.90649 124988179.34049     -2694.57849        48.000  

  22130074.62549 116294326.55149     -7342.89849        50.000  

  20409737.97749 107253896.32049      7905.89549        49.000  

  20223584.68849 106275653.51649      8755.15649        49.000  

  22192222.37549 116620914.06649     -6457.30549        50.000  

  24935670.54749 131037832.64149     10810.99649        48.000  

 16 04 02 12 06 35.6000000  0  6G01G18G08G10G11G21                              
  23784511.18849 124988448.83249     -2695.77749        49.000  

  22130214.39149 116295061.01649     -7346.70349        50.000  

  20409587.55549 107253105.85249      7902.85249        49.000  

  20223418.12549 106274778.24249      8749.57049        49.000  

  22192345.26649 116621559.87149     -6459.24249        50.000  

  24935464.82849 131036751.57049     10810.05949        48.000  

 16 04 02 12 06 35.7000000  0  6G01G18G08G10G11G21                              
  23784562.50849 124988718.51249     -2697.75849        49.000  

  22130354.25049 116295795.95349     -7351.53149        50.000  

  20409437.21949 107252315.76249      7898.92249        49.000  

  20223251.68849 106273903.58249      8743.49649        49.000  

  22192468.21149 116622205.94549     -6461.98049        50.000  

  24935259.13349 131035670.66449     10808.33249        48.000  

 16 04 02 12 06 35.8000000  0  6G01G18G08G10G11G21                              
  23784613.85249 124988988.34449     -2699.35249        49.000  

  22130494.18049 116296531.30149     -7355.66049        50.000  

  20409286.93849 107251526.02049      7895.44949        49.000  

  20223085.35249 106273029.50449      8737.59449        49.000  

  22192591.19549 116622852.25449     -6464.30549        50.000  

  24935053.46949 131034589.88349     10807.12149        48.000  

 16 04 02 12 06 35.9000000  0  6G01G18G08G10G11G21                              
  23784665.25049 124989258.43449     -2701.98049        48.000  

  22130634.21149 116297267.17249     -7361.06649        50.000  

  20409136.72749 107250736.70749      7890.91049        49.000  

  20222919.14149 106272156.10249      8730.74249        49.000  

  22192714.25049 116623498.88349     -6467.65249        50.000  

  24934847.85249 131033509.34049     10804.58249        48.000  

 16 04 02 12 06 36.0000000  0  6G01G18G08G10G11G21                              
  23784716.68849 124989528.73449     -2704.08249        49.000  

  22130774.33649 116298003.53149     -7365.91449        50.000  

  20408986.60249 107249947.81649      7886.88749        49.000  

  20222753.06249 106271283.35249      8724.19149        49.000  

  22192837.35249 116624145.81649     -6470.66449        50.000  

  24934642.27349 131032428.97749     10802.78549        48.000  

 16 04 02 12 06 36.1000000  0  6G01G18G08G10G11G21                              
  23784768.14849 124989799.17249     -2705.43849        49.000  

  22130914.53149 116298740.27749     -7369.78949        50.000  

  20408836.55549 107249159.24249      7883.63349        50.000  

  20222587.10249 106270411.15249      8718.64149        49.000  

  22192960.50849 116624792.96149     -6472.84849        50.000  

  24934436.70349 131031348.72349     10801.60549        48.000  

 16 04 02 12 06 36.2000000  0  6G01G18G08G10G11G21                              
  23784819.64849 124990069.78549     -2706.92649        49.000  

  22131054.81249 116299477.47749     -7374.09449        50.000  

  20408686.55549 107248371.02049      7880.40649        49.000  

  20222421.24249 106269539.54749      8712.93449        49.000  

  22193083.70349 116625440.35249     -6475.07849        50.000  

  24934231.13349 131030268.60949     10800.34849        48.000  

 16 04 02 12 06 36.3000000  0  6G01G18G08G10G11G21                              
  23784871.18049 124990340.57049     -2708.93849        49.000  

  22131195.18849 116300215.11349     -7378.68849        50.000  

  20408536.64149 107247583.18049      7876.46549        49.000  

  20222255.50049 106268668.55149      8706.59449        49.000  

  22193206.95349 116626088.00849     -6477.86349        50.000  

  24934025.62549 131029188.64849     10798.78149        48.000  

 16 04 02 12 06 36.4000000  0  6G01G18G08G10G11G21                              
  23784922.75049 124990611.59449     -2711.44149        48.000  

  22131335.64849 116300953.25449     -7383.73449        50.000  

  20408386.79749 107246795.75449      7872.09449        49.000  

  20222089.88349 106267798.21949      8699.98049        49.000  

  22193330.25849 116626735.96149     -6480.94149        50.000  

  24933820.13349 131028108.90249     10796.55549        48.000  

 16 04 02 12 06 36.5000000  0  6G01G18G08G10G11G21                              
  23784974.35949 124990882.81249     -2713.31649        48.000  

  22131476.21149 116301691.87149     -7388.47749        50.000  

  20408237.03949 107246008.72749      7868.18449        49.000  

  20221924.39149 106266928.51249      8693.60249        49.000  

  22193453.61749 116627384.21149     -6483.83249        50.000  

  24933614.69549 131027029.32849     10794.93849        48.000  

 16 04 02 12 06 36.6000000  0  6G01G18G08G10G11G21                              
  23785026.01649 124991154.26249     -2715.74649        48.000  

  22131616.85249 116302430.97349     -7393.48449        50.000  

  20408087.35249 107245222.10549      7863.94549        49.000  

  20221759.00849 106266059.44949      8687.14149        49.000  

  22193577.03149 116628032.75049     -6486.98849        50.000  

  24933409.33649 131025949.96149     10792.63749        48.000  

 16 04 02 12 06 36.7000000  0  6G01G18G08G10G11G21                              
  23785077.71149 124991425.91049     -2717.54349        48.000  

  22131757.58649 116303170.53949     -7397.94149        50.000  

  20407937.74249 107244435.87549      7860.26249        49.000  

  20221593.75849 106265191.02749      8680.99249        49.000  

  22193700.50049 116628681.56649     -6489.53149        50.000  

  24933203.96949 131024870.75049     10791.25449        48.000  

 16 04 02 12 06 36.8000000  0  6G01G18G08G10G11G21                              
  23785129.43849 124991697.74249     -2719.59049        48.000  

  22131898.41449 116303910.56249     -7402.73849        50.000  

  20407788.19549 107243650.01249      7856.35249        49.000  

  20221428.60949 106264323.20349      8674.72349        49.000  

  22193824.01649 116629330.66049     -6492.50849        50.000  

  24932998.60249 131023791.71149     10789.38749        48.000  

 16 04 02 12 06 36.9000000  0  6G01G18G08G10G11G21                              
  23785181.20349 124991969.75849     -2721.42249        48.000  

  22132039.32049 116304651.03949     -7407.26649        50.000  

  20407638.72749 107242864.53949      7852.53949        49.000  

  20221263.57849 106263456.00449      8668.58649        49.000  

  22193947.58649 116629980.00449     -6495.00849        50.000  

  24932793.29749 131022712.83249     10787.88749        48.000  

 16 04 02 12 06 37.0000000  0  6G01G18G08G10G11G21                              
  23785233.00849 124992242.02049     -2723.64849        48.000  

  22132180.32849 116305392.03149     -7412.22349        50.000  

  20407489.33649 107242079.48449      7848.55949        49.000  

  20221098.68049 106262589.45749      8662.14149        49.000  

  22194071.21149 116630629.67249     -6497.94949        50.000  

  24932588.02349 131021634.16849     10785.87549        48.000  

 16 04 02 12 06 37.1000000  0  6G01G18G08G10G11G21                              
  23785284.85949 124992514.47349     -2725.59049        48.000  

  22132321.41449 116306133.46949     -7416.67649        50.000  

  20407340.00849 107241294.82449      7844.52749        49.000  

  20220933.91449 106261723.53949      8655.85949        49.000  

  22194194.89149 116631279.60949     -6500.68449        50.000  

  24932382.78949 131020555.66849     10784.14549        48.000  

 16 04 02 12 06 37.2000000  0  6G01G18G08G10G11G21                              
  23785336.74249 124992787.13749     -2727.90249        48.000  

  22132462.59449 116306875.38749     -7421.58249        50.000  

  20407190.76649 107240510.54749      7840.64149        49.000  

  20220769.25849 106260858.25849      8649.44149        49.000  

  22194318.62549 116631929.83249     -6503.62549        50.000  

  24932177.59449 131019477.35249     10782.27049        48.000  

 16 04 02 12 06 37.3000000  0  6G01G18G08G10G11G21                              
  23785388.66449 124993060.02749     -2730.27349        49.000  

  22132603.87549 116307617.81249     -7426.74249        50.000  

  20407041.60249 107239726.70349      7836.12949        49.000  

  20220604.72749 106259993.63749      8642.60249        49.000  

  22194442.42249 116632580.37149     -6506.98449        50.000  

  24931972.43849 131018399.24249     10779.97749        48.000  

 16 04 02 12 06 37.4000000  0  6G01G18G08G10G11G21                              
  23785440.62549 124993333.07449     -2731.32449        49.000  

  22132745.22749 116308360.64549     -7430.47749        50.000  

  20406892.50049 107238943.18449      7833.21149        49.000  

  20220440.30549 106259129.58249      8637.37149        49.000  

  22194566.25849 116633231.13349     -6508.85949        50.000  

  24931767.32849 131017321.24649     10779.29349        48.000  

 16 04 02 12 06 37.5000000  0  6G01G18G08G10G11G21                              
  23785492.61749 124993606.28549     -2733.28549        48.000  

  22132886.66449 116309103.91849     -7435.03549        50.000  

  20406743.46949 107238160.04749      7829.29349        49.000  

  20220275.99249 106258266.13349      8631.19149        49.000  

  22194690.14849 116633882.14549     -6511.50049        50.000  

  24931562.21949 131016243.40649     10777.64149        48.000  

 16 04 02 12 06 37.6000000  0  6G01G18G08G10G11G21                              
  23785544.66449 124993879.77349     -2735.91449        48.000  

  22133028.21149 116309847.73449     -7440.50049        50.000  

  20406594.52349 107237377.35549      7824.78549        49.000  

  20220111.81249 106257403.37949      8624.16849        49.000  

  22194814.09449 116634533.50849     -6515.03949        50.000  

  24931357.14849 131015165.81249     10775.11749        48.000  

 16 04 02 12 06 37.7000000  0  6G01G18G08G10G11G21                              
  23785596.72749 124994153.41449     -2737.66049        48.000  

  22133169.82849 116310591.96549     -7444.65649        50.000  

  20406445.65649 107236595.01649      7821.20749        49.000  

  20219947.74249 106256541.19949      8618.40249        49.000  

  22194938.09449 116635185.09849     -6517.41449        50.000  

  24931152.10949 131014088.34449     10773.70349        48.000  

 16 04 02 12 06 37.8000000  0  6G01G18G08G10G11G21                              
  23785648.84449 124994427.28549     -2739.85949        48.000  

  22133311.54749 116311336.71149     -7449.81249        50.000  

  20406296.85949 107235813.09049      7817.05549        49.000  

  20219783.80549 106255679.69949      8611.66049        49.000  

  22195062.14849 116635837.02049     -6520.62549        50.000  

  24930947.10249 131013011.08649     10771.73049        48.000  

 16 04 02 12 06 37.9000000  0  6G01G18G08G10G11G21                              
  23785701.00049 124994701.37949     -2742.07049        49.000  

  22133453.35949 116312081.91849     -7454.46549        50.000  

  20406148.14849 107235031.57049      7813.06249        49.000  

  20219619.98449 106254818.81649      8605.42249        49.000  

  22195186.25849 116636489.20749     -6523.40249        50.000  

  24930742.14149 131011934.00849     10769.90249        48.000  

 16 04 02 12 06 38.0000000  0  6G01G18G08G10G11G21                              
  23785753.19549 124994975.64849     -2743.76649        49.000  

  22133595.25849 116312827.59849     -7459.12949        50.000  

  20405999.50049 107234250.43049      7809.38749        49.000  

  20219456.28949 106253958.56649      8599.14149        49.000  

  22195310.41449 116637141.67649     -6526.05549        50.000  

  24930537.23449 131010857.10549     10768.21549        48.000  

 16 04 02 12 06 38.1000000  0  6G01G18G08G10G11G21                              
  23785805.41449 124995250.07849     -2745.29749        49.000  

  22133737.23449 116313573.68449     -7463.17649        50.000  

  20405850.92249 107233469.62549      7806.06649        49.000  

  20219292.70349 106253098.87549      8593.58649        49.000  

  22195434.61749 116637794.35949     -6528.23049        50.000  

  24930332.32849 131009780.30949     10767.13349        48.000  

 16 04 02 12 06 38.2000000  0  6G01G18G08G10G11G21                              
  23785857.68049 124995524.72349     -2747.52349        48.000  

  22133879.29749 116314320.25049     -7468.01649        50.000  

  20405702.41449 107232689.23849      7801.81249        49.000  

  20219129.23449 106252239.84449      8587.01649        49.000  

  22195558.87549 116638447.35249     -6531.29349        50.000  

  24930127.45349 131008703.71549     10765.14549        48.000  

 16 04 02 12 06 38.3000000  0  6G01G18G08G10G11G21                              
  23785909.98449 124995799.55149     -2749.53949        48.000  

  22134021.45349 116315067.27349     -7472.61349        50.000  

  20405553.98449 107231909.21149      7797.99249        49.000  

  20218965.88349 106251381.41849      8580.89849        49.000  

  22195683.19549 116639100.59849     -6533.93049        50.000  

  24929922.61749 131007627.28549     10763.44149        48.000  

 16 04 02 12 06 38.4000000  0  6G01G18G08G10G11G21                              
  23785962.32049 124996074.59049     -2751.35549        48.000  

  22134163.69549 116315814.78149     -7477.29349        50.000  

  20405405.62549 107231129.59849      7794.23849        49.000  

  20218802.65649 106250523.63749      8574.72349        49.000  

  22195807.55549 116639754.13749     -6536.69949        50.000  

  24929717.81249 131006551.01649     10761.82849        48.000  

 16 04 02 12 06 38.5000000  0  6G01G18G08G10G11G21                              
  23786014.70349 124996349.83249     -2753.78549        48.000  

  22134306.03149 116316562.74249     -7482.12549        50.000  

  20405257.34449 107230350.35549      7790.07049        49.000  

  20218639.53149 106249666.46149      8568.22349        49.000  

  22195931.96949 116640407.94549     -6539.68449        50.000  

  24929513.04749 131005474.95749     10759.60949        48.000  

 16 04 02 12 06 38.6000000  0  6G01G18G08G10G11G21                              
  23786067.11749 124996625.25449     -2755.43049        48.000  

  22134448.45349 116317311.17649     -7486.60249        50.000  

  20405109.13349 107229571.51249      7786.38349        49.000  

  20218476.53149 106248809.91849      8562.03149        49.000  

  22196056.43849 116641062.03949     -6542.31649        50.000  

  24929308.29749 131004399.02349     10758.41049        48.000  

 16 04 02 12 06 38.7000000  0  6G01G18G08G10G11G21                              
  23786119.57849 124996900.93049     -2757.88749        48.000  

  22134590.96949 116318060.10549     -7491.63749        50.000  

  20404961.00049 107228793.09449      7781.98849        49.000  

  20218313.67249 106247954.04349      8555.47749        49.000  

  22196180.96949 116641716.44149     -6545.46549        50.000  

  24929103.59449 131003323.32449     10756.18849        48.000  

 16 04 02 12 06 38.8000000  0  6G01G18G08G10G11G21                              
  23786172.07049 124997176.78149     -2759.75849        48.000  

  22134733.57049 116318809.47749     -7496.12549        50.000  

  20404812.94549 107228015.03949      7778.37549        49.000  

  20218150.91449 106247098.78149      8549.11749        49.000  

  22196305.54749 116642371.10249     -6548.17249        50.000  

  24928898.92249 131002247.79749     10754.30549        48.000  

 16 04 02 12 06 38.9000000  0  6G01G18G08G10G11G21                              
  23786224.61749 124997452.88349     -2762.36749        48.000  

  22134876.27349 116319559.39149     -7501.51649        50.000  

  20404664.97749 107227237.44149      7773.82449        49.000  

  20217988.29749 106246244.18849      8542.47749        49.000  

  22196430.19549 116643026.09849     -6551.44949        50.000  

  24928694.29749 131001172.46549     10752.30549        48.000  

 16 04 02 12 06 39.0000000  0  6G01G18G08G10G11G21                              
  23786277.19549 124997729.18849     -2764.18449        49.000  

  22135019.06249 116320309.75049     -7506.08249        50.000  

  20404517.07849 107226460.21149      7770.11349        49.000  

  20217825.78949 106245390.21949      8536.22749        49.000  

  22196554.88349 116643681.35949     -6554.09849        50.000  

  24928489.70349 131000097.32049     10750.44949        48.000  

 16 04 02 12 06 39.1000000  0  6G01G18G08G10G11G21                              
  23786329.82049 124998005.75049     -2766.72749        49.000  

  22135161.94549 116321060.64549     -7511.27349        50.000  

  20404369.25849 107225683.44149      7765.56249        49.000  

  20217663.41449 106244536.94149      8529.34049        49.000  

  22196679.64149 116644336.96549     -6557.46549        50.000  

  24928285.14849 130999022.40649     10748.28949        48.000  

 16 04 02 12 06 39.2000000  0  6G01G18G08G10G11G21                              
  23786382.47749 124998282.46949     -2768.47749        48.000  

  22135304.92249 116321811.95349     -7515.60549        50.000  

  20404221.50849 107224907.02049      7761.99249        49.000  

  20217501.14849 106243684.24649      8523.48449        49.000  

  22196804.44549 116644992.80549     -6559.91049        50.000  

  24928080.62549 130997947.62949     10746.84049        48.000  

 16 04 02 12 06 39.3000000  0  6G01G18G08G10G11G21                              
  23786435.17249 124998559.37949     -2770.24649        48.000  

  22135447.97749 116322563.71949     -7520.05949        50.000  

  20404073.82849 107224130.96949      7758.24249        49.000  

  20217338.99249 106242832.16449      8517.53949        49.000  

  22196929.29749 116645648.91049     -6562.48849        50.000  

  24927876.13349 130996872.99649     10745.38349        48.000  

 16 04 02 12 06 39.4000000  0  6G01G18G08G10G11G21                              
  23786487.91449 124998836.53149     -2772.60549        48.000  

  22135591.13349 116323316.00849     -7525.07449        50.000  

  20403926.23449 107223355.36349      7754.06649        49.000  

  20217176.97749 106241980.76249      8510.72749        49.000  

  22197054.21949 116646305.34849     -6565.69149        50.000  

  24927671.69549 130995798.60949     10743.14149        48.000  

 16 04 02 12 06 39.5000000  0  6G01G18G08G10G11G21                              
  23786540.69549 124999113.87549     -2774.53949        48.000  

  22135734.37549 116324068.74249     -7529.67249        50.000  

  20403778.69549 107222580.12549      7750.22749        50.000  

  20217015.08649 106241129.96949      8504.52349        49.000  

  22197179.18049 116646962.04349     -6568.42249        50.000  

  24927467.27349 130994724.36349     10741.55149        48.000  

 16 04 02 12 06 39.6000000  0  6G01G18G08G10G11G21                              
  23786593.51649 124999391.44149     -2776.80149        48.000  

  22135877.71149 116324821.97749     -7534.72349        50.000  

  20403631.25849 107221805.32049      7745.94149        49.000  

  20216853.31249 106240279.84449      8497.89549        49.000  

  22197304.20349 116647619.04749     -6571.43449        50.000  

  24927262.89149 130993650.33249     10739.47349        48.000  

 16 04 02 12 06 39.7000000  0  6G01G18G08G10G11G21                              
  23786646.35249 124999669.12549     -2778.04349        48.000  

  22136021.10949 116325575.57049     -7538.39149        50.000  

  20403483.88349 107221030.78949      7743.04749        49.000  

  20216691.63349 106239430.22749      8492.65649        49.000  

  22197429.26649 116648276.23449     -6573.31249        50.000  

  24927058.52349 130992576.38349     10738.58649        48.000  

 16 04 02 12 06 39.8000000  0  6G01G18G08G10G11G21                              
  23786699.24249 124999947.05949     -2780.42649        49.000  

  22136164.61749 116326329.70749     -7543.58649        50.000  

  20403336.57849 107220256.72349      7738.70349        50.000  

  20216530.09449 106238581.32049      8485.77749        49.000  

  22197554.38349 116648933.75849     -6576.62949        50.000  

  24926854.17249 130991502.66049     10736.36349        48.000  

 16 04 02 12 06 39.9000000  0  6G01G18G08G10G11G21                              
  23786752.17249 125000225.19549     -2782.56249        49.000  

  22136308.21149 116327084.30149     -7548.26249        50.000  

  20403189.35949 107219483.04349      7734.62949        50.000  

  20216368.67249 106237733.02349      8479.45349        49.000  

  22197679.55549 116649591.55149     -6579.36749        50.000  

  24926649.88349 130990429.10949     10734.49249        48.000  

 16 04 02 12 06 40.0000000  0  6G01G18G08G10G11G21                              
  23786805.13349 125000503.54349     -2784.58249        49.000  

  22136451.89849 116327839.37549     -7553.08249        50.000  

  20403042.21149 107218709.76249      7730.59049        49.000  

  20216207.36749 106236885.36749      8473.19949        49.000  

  22197804.78949 116650249.64849     -6582.35249        50.000  

  24926445.64149 130989355.73849     10732.88749        48.000  

 16 04 02 12 06 40.1000000  0  6G01G18G08G10G11G21                              
  23786858.13349 125000782.04749     -2786.18449        48.000  

  22136595.67249 116328594.87549     -7557.34049        50.000  

  20402895.11749 107217936.83249      7727.11349        49.000  

  20216046.18049 106236038.30149      8467.14149        49.000  

  22197930.07049 116650907.97349     -6584.80949        50.000  

  24926241.41449 130988282.52349     10731.14849        48.000  

 16 04 02 12 06 40.2000000  0  6G01G18G08G10G11G21                              
  23786911.17249 125001060.77349     -2788.29349        48.000  

  22136739.52349 116329350.85549     -7562.11349        50.000  

  20402748.10949 107217164.30549      7723.19549        49.000  

  20215885.10949 106235191.88349      8460.84849        49.000  

  22198055.39849 116651566.59849     -6587.61349        50.000  

  24926037.21949 130987209.47749     10729.54749        48.000  

 16 04 02 12 06 40.3000000  0  6G01G18G08G10G11G21                              
  23786964.25049 125001339.70349     -2790.55549        48.000  

  22136883.47749 116330107.31249     -7566.90249        50.000  

  20402601.17249 107216392.18049      7719.09849        49.000  

  20215724.14849 106234346.09049      8454.44549        49.000  

  22198180.78149 116652225.50049     -6590.49249        50.000  

  24925833.06249 130986136.60949     10727.77749        48.000  

 16 04 02 12 06 40.4000000  0  6G01G18G08G10G11G21                              
  23787017.36749 125001618.83649     -2792.37949        48.000  

  22137027.51649 116330864.23449     -7571.50449        50.000  

  20402454.32049 107215620.43849      7715.29349        49.000  

  20215563.32049 106233500.93049      8448.32449        49.000  

  22198306.22749 116652884.69149     -6593.30149        50.000  

  24925628.92249 130985063.93049     10725.96949        48.000  

 16 04 02 12 06 40.5000000  0  6G01G18G08G10G11G21                              
  23787070.51649 125001898.16849     -2794.40649        48.000  

  22137171.64149 116331621.61749     -7576.05549        50.000  

  20402307.53149 107214849.09449      7711.36749        49.000  

  20215402.60249 106232656.38749      8442.07849        49.000  

  22198431.72749 116653544.15249     -6596.00849        50.000  

  24925424.82849 130983991.41449     10724.32849        48.000  

 16 04 02 12 06 40.6000000  0  6G01G18G08G10G11G21                              
  23787123.71149 125002177.68049     -2796.09049        48.000  

  22137315.85249 116332379.44949     -7580.62949        50.000  

  20402160.82049 107214078.10949      7707.79749        49.000  

  20215242.01649 106231812.47749      8435.88349        49.000  

  22198557.26649 116654203.87549     -6598.50449        50.000  

  24925220.75849 130982919.06649     10722.75049        48.000  

 16 04 02 12 06 40.7000000  0  6G01G18G08G10G11G21                              
  23787176.94549 125002457.41849     -2798.59049        48.000  

  22137460.15649 116333137.78549     -7585.81249        50.000  

  20402014.18049 107213307.55149      7703.31649        49.000  

  20215081.54749 106230969.20349      8429.17649        49.000  

  22198682.86749 116654863.90249     -6601.85249        50.000  

  24925016.73449 130981846.92649     10720.32049        48.000  

 16 04 02 12 06 40.8000000  0  6G01G18G08G10G11G21                              
  23787230.21149 125002737.36749     -2800.71949        48.000  

  22137604.54749 116333896.57449     -7590.28549        50.000  

  20401867.61749 107212537.39149      7699.35949        49.000  

  20214921.19549 106230126.56649      8422.82449        49.000  

  22198808.51649 116655524.20749     -6604.56249        50.000  

  24924812.74249 130980774.93049     10718.99649        48.000  

 16 04 02 12 06 40.9000000  0  6G01G18G08G10G11G21                              
  23787283.53149 125003017.51249     -2802.37149        48.000  

  22137749.03149 116334655.85249     -7595.03949        50.000  

  20401721.14149 107211767.61349      7695.73049        49.000  

  20214760.96149 106229284.54749      8417.10249        49.000  

  22198934.22749 116656184.79349     -6607.09449        50.000  

  24924608.78949 130979703.14149     10717.13749        48.000  

 16 04 02 12 06 41.0000000  0  6G01G18G08G10G11G21                              
  23787336.87549 125003297.83649     -2804.06649        48.000  

  22137893.60249 116335415.55949     -7599.29349        50.000  

  20401574.72749 107210998.20349      7692.18849        49.000  

  20214600.84449 106228443.13749      8410.99249        49.000  

  22199059.97749 116656845.63349     -6609.60249        50.000  

  24924404.83649 130978631.47749     10715.85549        48.000  

 16 04 02 12 06 41.1000000  0  6G01G18G08G10G11G21                              
  23787390.25049 125003578.30949     -2806.08249        48.000  

  22138038.24249 116336175.68049     -7603.77749        50.000  

  20401428.37549 107210229.13349      7688.43849        49.000  

  20214440.84449 106227602.32049      8404.63349        49.000  

  22199185.78149 116657506.70749     -6612.30149        50.000  

  24924200.93849 130977559.96149     10714.21149        48.000  

 16 04 02 12 06 41.2000000  0  6G01G18G08G10G11G21                              
  23787443.68049 125003859.10549     -2809.24249        48.000  

  22138183.00849 116336936.39849     -7609.57049        50.000  

  20401282.12549 107209460.57849      7683.36749        49.000  

  20214280.97749 106226762.22749      8397.48049        49.000  

  22199311.65649 116658168.17249     -6616.08649        50.000  

  24923997.09449 130976488.72749     10711.40649        48.000  

 16 04 02 12 06 41.3000000  0  6G01G18G08G10G11G21                              
  23787497.15649 125004140.09449     -2811.14549        48.000  

  22138327.84449 116337697.56649     -7614.16849        50.000  

  20401135.94549 107208692.41449      7679.39149        49.000  

  20214121.22749 106225922.77749      8390.99249        49.000  

  22199437.57849 116658829.92249     -6619.05149        50.000  

  24923793.28149 130975417.67249     10709.56649        48.000  

 16 04 02 12 06 41.4000000  0  6G01G18G08G10G11G21                              
  23787550.66449 125004421.29349     -2813.28549        48.000  

  22138472.78149 116338459.20749     -7618.91049        50.000  

  20400989.84449 107207924.63349      7675.47349        49.000  

  20213961.60249 106225083.94949      8384.69949        49.000  

  22199563.56249 116659491.94949     -6621.91049        50.000  

  24923589.50849 130974346.79749     10707.62949        48.000  

 16 04 02 12 06 41.5000000  0  6G01G18G08G10G11G21                              
  23787604.21149 125004702.68049     -2814.94149        48.000  

  22138617.80549 116339221.31249     -7623.30549        50.000  

  20400843.80549 107207157.24249      7671.90649        49.000  

  20213802.09449 106224245.75449      8378.72349        49.000  

  22199689.58649 116660154.25849     -6624.44549        50.000  

  24923385.75849 130973276.07849     10706.28949        48.000  

 16 04 02 12 06 41.6000000  0  6G01G18G08G10G11G21                              
  23787657.80549 125004984.28949     -2817.33249        48.000  

  22138762.92249 116339983.89849     -7628.25449        50.000  

  20400697.85249 107206390.25849      7667.67249        49.000  

  20213642.71149 106223408.18849      8372.14549        49.000  

  22199815.66449 116660816.83649     -6627.34049        50.000  

  24923182.02349 130972205.55149     10704.29749        48.000  

 16 04 02 12 06 41.7000000  0  6G01G18G08G10G11G21                              
  23787711.43849 125005266.12949     -2819.44549        48.000  

  22138908.12549 116340746.98049     -7633.12949        50.000  

  20400551.97749 107205623.68849      7663.59449        49.000  

  20213483.45349 106222571.27349      8365.74249        49.000  

  22199941.81249 116661479.73849     -6630.34849        50.000  

  24922978.35249 130971135.23849     10702.27749        48.000  

 16 04 02 12 06 41.8000000  0  6G01G18G08G10G11G21                              
  23787765.10249 125005548.14849     -2821.42249        48.000  

  22139053.42249 116341510.52049     -7637.90649        50.000  

  20400406.17249 107204857.48449      7659.75049        49.000  

  20213324.31249 106221734.98849      8359.50849        49.000  

  22200068.00849 116662142.89149     -6632.94549        50.000  

  24922774.70349 130970065.07049     10700.71149        48.000  

 16 04 02 12 06 41.9000000  0  6G01G18G08G10G11G21                              
  23787818.82049 125005830.39849     -2823.73449        48.000  

  22139198.81249 116342274.55149     -7642.61749        50.000  

  20400260.45349 107204091.73049      7655.36349        49.000  

  20213165.28949 106220899.35249      8352.80549        49.000  

  22200194.26649 116662806.37149     -6636.32049        50.000  

  24922571.10249 130968995.12149     10698.58249        48.000  

 16 04 02 12 06 42.0000000  0  6G01G18G08G10G11G21                              
  23787872.57849 125006112.91049     -2826.20749        48.000  

  22139344.29749 116343039.09849     -7647.86749        50.000  

  20400114.81249 107203326.40249      7651.12149        49.000  

  20213006.39849 106220064.39849      8346.13749        49.000  

  22200320.57849 116663470.16449     -6639.37549        50.000  

  24922367.55549 130967925.38749     10696.46149        48.000  

 16 04 02 12 06 42.1000000  0  6G01G18G08G10G11G21                              
  23787926.36749 125006395.59449     -2828.15249        48.000  

  22139489.87549 116343804.08249     -7652.41049        50.000  

  20399969.24249 107202561.43849      7647.33649        49.000  

  20212847.62549 106219230.05149      8339.96549        49.000  

  22200446.94549 116664134.22749     -6642.27749        50.000  

  24922164.02349 130966855.81249     10694.67649        48.000  

 16 04 02 12 06 42.2000000  0  6G01G18G08G10G11G21                              
  23787980.19549 125006678.46149     -2829.88349        48.000  

  22139635.53949 116344569.52349     -7656.62149        50.000  

  20399823.75049 107201796.85549      7643.69949        49.000  

  20212688.96949 106218396.31649      8333.93449        49.000  

  22200573.35949 116664798.55149     -6644.80149        50.000  

  24921960.52349 130965786.39149     10693.30549        48.000  

 16 04 02 12 06 42.3000000  0  6G01G18G08G10G11G21                              
  23788034.05549 125006961.56249     -2832.12549        48.000  

  22139781.28949 116345335.46149     -7661.62149        50.000  

  20399678.32849 107201032.68049      7639.68049        49.000  

  20212530.43049 106217563.24249      8327.42649        49.000  

  22200699.83649 116665463.16849     -6647.60249        50.000  

  24921757.06249 130964717.18449     10691.21549        48.000  

 16 04 02 12 06 42.4000000  0  6G01G18G08G10G11G21                              
  23788087.96949 125007244.85549     -2834.19949        48.000  

  22139927.13349 116346101.86349     -7666.44149        50.000  

  20399532.99249 107200268.90649      7635.41849        49.000  

  20212372.01649 106216730.77749      8321.07049        49.000  

  22200826.36749 116666128.06649     -6650.54749        50.000  

  24921553.61749 130963648.13349     10689.58249        48.000  

 16 04 02 12 06 42.5000000  0  6G01G18G08G10G11G21                              
  23788141.90649 125007528.34449     -2835.95349        48.000  

  22140073.05549 116346868.72349     -7670.87949        50.000  

  20399387.71949 107199505.50849      7631.96549        49.000  

  20212213.72749 106215898.94549      8315.10249        49.000  

  22200952.95349 116666793.23049     -6652.92649        50.000  

  24921350.21149 130962579.25849     10687.98449        48.000  

 16 04 02 12 06 42.6000000  0  6G01G18G08G10G11G21                              
  23788195.89149 125007812.03149     -2837.94549        48.000  

  22140219.07049 116347636.03549     -7675.37949        50.000  

  20399242.52349 107198742.50049      7628.01249        49.000  

  20212055.54749 106215067.73449      8308.81649        49.000  

  22201079.57849 116667458.68049     -6655.73849        50.000  

  24921146.82849 130961510.54349     10686.32049        48.000  

 16 04 02 12 06 42.7000000  0  6G01G18G08G10G11G21                              
  23788249.92249 125008095.94149     -2840.40649        48.000  

  22140365.18049 116348403.84849     -7680.51649        50.000  

  20399097.40649 107197979.89849      7623.87949        49.000  

  20211897.49249 106214237.18049      8302.08249        49.000  

  22201206.26649 116668124.42649     -6658.96149        50.000  

  24920943.50049 130960442.03949     10684.19949        48.000  

 16 04 02 12 06 42.8000000  0  6G01G18G08G10G11G21                              
  23788303.99249 125008380.06649     -2842.31249        48.000  

  22140511.38349 116349172.14149     -7685.21949        50.000  

  20398952.36749 107197217.71549      7619.82049        49.000  

  20211739.56249 106213407.26249      8295.89149        49.000  

  22201333.00849 116668790.46149     -6661.73049        50.000  

  24920740.19549 130959373.71949     10682.32849        48.000  

 16 04 02 12 06 42.9000000  0  6G01G18G08G10G11G21                              
  23788358.08649 125008664.33649     -2843.87549        48.000  

  22140657.66449 116349940.84049     -7689.31649        50.000  

  20398807.40649 107196455.86349      7616.42649        49.000  

  20211581.75049 106212577.91849      8290.07849        49.000  

  22201459.78949 116669456.72749     -6663.98849        50.000  

  24920536.92249 130958305.52349     10681.08649        48.000  

 16 04 02 12 06 43.0000000  0  6G01G18G08G10G11G21                              
  23788412.21949 125008948.83249     -2845.97749        48.000  

  22140804.03149 116350710.03549     -7694.14849        50.000  

  20398662.50849 107195694.42249      7612.39849        49.000  

  20211424.06249 106211749.23849      8283.53549        49.000  

  22201586.63349 116670123.29349     -6666.88749        50.000  

  24920333.70349 130957237.52349     10679.18049        48.000  

 16 04 02 12 06 43.1000000  0  6G01G18G08G10G11G21                              
  23788466.40649 125009233.52349     -2847.97349        48.000  

  22140950.49249 116351479.67649     -7698.70749        50.000  

  20398517.68049 107194933.35949      7608.48449        49.000  

  20211266.46949 106210921.14849      8277.40649        49.000  

  22201713.53149 116670790.12149     -6669.68049        50.000  

  24920130.50049 130956169.68049     10677.65249        48.000  

 16 04 02 12 06 43.2000000  0  6G01G18G08G10G11G21                              
  23788520.62549 125009518.45349     -2850.60249        48.000  

  22141097.05549 116352249.84449     -7704.16449        50.000  

  20398372.94549 107194172.74649      7603.89549        49.000  

  20211109.02349 106210093.76249      8270.41449        49.000  

  22201840.48449 116671457.28549     -6673.15249        50.000  

  24919927.32849 130955102.07449     10675.09849        48.000  

 16 04 02 12 06 43.3000000  0  6G01G18G08G10G11G21                              
  23788574.88349 125009803.56249     -2852.20749        48.000  

  22141243.68849 116353020.43449     -7708.21149        50.000  

  20398228.27349 107193412.48849      7600.48449        49.000  

  20210951.70349 106209266.96549      8264.66849        49.000  

  22201967.49249 116672124.69949     -6675.50849        50.000  

  24919724.19549 130954034.60249     10673.93849        48.000  

 16 04 02 12 06 43.4000000  0  6G01G18G08G10G11G21                              
  23788629.17249 125010088.87549     -2854.31649        48.000  

  22141390.42249 116353791.50849     -7713.14149        50.000  

  20398083.68049 107192652.62149      7596.47749        49.000  

  20210794.49249 106208440.80149      8258.13749        49.000  

  22202094.54749 116672792.37949     -6678.32049        50.000  

  24919521.10949 130952967.30949     10672.07449        48.000  

 16 04 02 12 06 43.5000000  0  6G01G18G08G10G11G21                              
  23788683.50049 125010374.38749     -2856.15249        48.000  

  22141537.23449 116354563.02349     -7717.42649        49.000  

  20397939.14849 107191893.14549      7592.80549        49.000  

  20210637.39149 106207615.25449      8252.27349        49.000  

  22202221.65649 116673460.34049     -6680.84449        50.000  

  24919318.04749 130951900.19149     10670.41049        48.000  

 16 04 02 12 06 43.6000000  0  6G01G18G08G10G11G21                              
  23788737.87549 125010660.11749     -2858.41049        48.000  

  22141684.14849 116355335.03949     -7722.41049        49.000  

  20397794.70349 107191134.07849      7588.53949        49.000  

  20210480.42249 106206790.35949      8245.52049        49.000  

  22202348.82049 116674128.60549     -6684.03549        50.000  

  24919115.01649 130950833.26249     10668.45749        48.000  

 16 04 02 12 06 43.7000000  0  6G01G18G08G10G11G21                              
  23788792.27349 125010945.99249     -2859.93849        48.000  

  22141831.13349 116356107.46949     -7726.65249        49.000  

  20397650.31249 107190375.34849      7585.00849        49.000  

  20210323.55549 106205966.04749      8239.68449        49.000  

  22202476.02349 116674797.09449     -6686.33249        50.000  

  24918912.01649 130949766.46549     10667.04749        48.000  

 16 04 02 12 06 43.8000000  0  6G01G18G08G10G11G21                              
  23788846.71949 125011232.12549     -2862.54349        48.000  

  22141978.22749 116356880.42649     -7731.98449        49.000  

  20397506.01649 107189617.07049      7580.69149        49.000  

  20210166.82049 106205142.41449      8233.01649        49.000  

  22202603.29749 116675465.91049     -6689.55549        50.000  

  24918709.03149 130948699.89849     10664.63749        48.000  

 16 04 02 12 06 43.9000000  0  6G01G18G08G10G11G21                              
  23788901.21149 125011518.45349     -2864.60249        48.000  

  22142125.39849 116357653.82449     -7736.59049        50.000  

  20397361.78949 107188859.17249      7576.71149        49.000  

  20210010.19549 106204319.40649      8226.62149        49.000  

  22202730.62549 116676135.00849     -6692.51249        50.000  

  24918506.10249 130947633.48449     10663.02749        48.000  

 16 04 02 12 06 44.0000000  0  6G01G18G08G10G11G21                              
  23788955.74249 125011805.03549     -2867.07049        48.000  

  22142272.67249 116358427.74249     -7741.59849        50.000  

  20397217.64849 107188101.71149      7572.35549        49.000  

  20209853.71149 106203497.07049      8219.87149        49.000  

  22202858.00849 116676804.42649     -6695.68049        50.000  

  24918303.21149 130946567.30549     10660.78549        48.000  

 16 04 02 12 06 44.1000000  0  6G01G18G08G10G11G21                              
  23789010.32049 125012091.83249     -2869.09049        48.000  

  22142420.03949 116359202.15649     -7746.51249        50.000  

  20397073.58649 107187344.66849      7568.29749        49.000  

  20209697.35249 106202675.38749      8213.37149        49.000  

  22202985.45349 116677474.14549     -6698.70349        50.000  

  24918100.35949 130945501.31249     10658.90649        48.000  

 16 04 02 12 06 44.2000000  0  6G01G18G08G10G11G21                              
  23789064.92249 125012378.78149     -2870.67649        48.000  

  22142567.48449 116359976.98049     -7750.59449        49.000  

  20396929.59449 107186587.96149      7564.89549        49.000  

  20209541.10249 106201854.27049      8207.69149        49.000  

  22203112.93849 116678144.09449     -6700.94549        50.000  

  24917897.53149 130944435.44949     10657.80949        48.000  

 16 04 02 12 06 44.3000000  0  6G01G18G08G10G11G21                              
  23789119.56249 125012665.94149     -2872.62149        48.000  

  22142715.02349 116360752.27349     -7755.16849        49.000  

  20396785.66449 107185831.66049      7560.85549        49.000  

  20209384.96949 106201033.80549      8201.34449        49.000  

  22203240.48449 116678814.32049     -6703.62949        50.000  

  24917694.74249 130943369.77349     10656.03549        48.000  

 16 04 02 12 06 44.4000000  0  6G01G18G08G10G11G21                              
  23789174.25849 125012953.33249     -2875.00049        48.000  

  22142862.64849 116361528.06249     -7760.20749        49.000  

  20396641.82849 107185075.76649      7556.72349        49.000  

  20209228.96149 106200213.98849      8194.74249        49.000  

  22203368.08649 116679484.85949     -6706.78949        50.000  

  24917491.98449 130942304.28949     10653.94949        48.000  

 16 04 02 12 06 44.5000000  0  6G01G18G08G10G11G21                              
  23789228.96949 125013240.89849     -2876.85549        48.000  

  22143010.35949 116362304.31249     -7764.86349        49.000  

  20396498.06249 107184320.25849      7552.85549        49.000  

  20209073.07049 106199394.78549      8188.59049        49.000  

  22203495.73449 116680155.66049     -6709.52049        50.000  

  24917289.26649 130941238.98049     10652.17649        48.000  

 16 04 02 12 06 44.6000000  0  6G01G18G08G10G11G21                              
  23789283.73449 125013528.69149     -2878.98049        48.000  

  22143158.16449 116363081.03549     -7769.55949        49.000  

  20396354.37549 107183565.15649      7548.98049        49.000  

  20208917.30549 106198576.23449      8182.24249        49.000  

  22203623.43849 116680826.76249     -6712.40249        50.000  

  24917086.56249 130940173.85249     10650.42249        48.000  

 16 04 02 12 06 44.7000000  0  6G01G18G08G10G11G21                              
  23789338.53949 125013816.69549     -2881.19149        48.000  

  22143306.07049 116363858.22749     -7774.41049        50.000  

  20396210.76649 107182810.44949      7544.78949        49.000  

  20208761.64849 106197758.31249      8175.71149        49.000  

  22203751.19549 116681498.14149     -6715.30149        50.000  

  24916883.90649 130939108.90249     10648.58649        48.000  

 16 04 02 12 06 44.8000000  0  6G01G18G08G10G11G21                              
  23789393.38349 125014104.90249     -2883.36349        48.000  

  22143454.05549 116364635.89549     -7779.11749        49.000  

  20396067.22749 107182056.14549      7540.72749        49.000  

  20208606.12549 106196941.03149      8169.35549        49.000  

  22203879.00849 116682169.80549     -6718.14849        50.000  

  24916681.26649 130938044.14549     10646.64549        48.000  

 16 04 02 12 06 44.9000000  0  6G01G18G08G10G11G21                              
  23789448.26649 125014393.32849     -2885.45349        48.000  

  22143602.13349 116365414.04749     -7783.78149        49.000  

  20395923.75849 107181302.23849      7536.88749        49.000  

  20208450.72749 106196124.39149      8163.08249        49.000  

  22204006.88349 116682841.77049     -6721.02749        50.000  

  24916478.68849 130936979.57849     10644.78549        48.000  

 16 04 02 12 06 45.0000000  0  6G01G18G08G10G11G21                              
  23789503.19549 125014681.98449     -2887.76649        48.000  

  22143750.30549 116366192.69549     -7788.82849        49.000  

  20395780.37549 107180548.75849      7532.62149        49.000  

  20208295.45349 106195308.41049      8156.35549        49.000  

  22204134.81249 116683514.03549     -6724.14149        50.000  

  24916276.14149 130935915.20749     10642.82449        48.000  

 16 04 02 12 06 45.1000000  0  6G01G18G08G10G11G21                              
  23789558.16449 125014970.80549     -2889.27749        48.000  

  22143898.54749 116366971.75849     -7792.83249        50.000  

  20395637.07049 107179795.63349      7529.32449        49.000  

  20208140.29749 106194493.01649      8150.69549        49.000  

  22204262.78949 116684186.54349     -6726.34049        50.000  

  24916073.61749 130934850.97349     10641.59449        48.000  

 16 04 02 12 06 45.2000000  0  6G01G18G08G10G11G21                              
  23789613.14849 125015259.78149     -2890.75849        48.000  

  22144046.88349 116367751.27349     -7797.31249        49.000  

  20395493.82849 107179042.86349      7525.71549        49.000  

  20207985.24249 106193678.23049      8144.65249        49.000  

  22204390.80549 116684859.30149     -6728.83249        50.000  

  24915871.11749 130933786.88749     10640.07449        48.000  

 16 04 02 12 06 45.3000000  0  6G01G18G08G10G11G21                              
  23789668.18849 125015549.00849     -2893.40649        48.000  

  22144195.31249 116368531.27349     -7802.44549        49.000  

  20395350.65649 107178290.51649      7521.23449        49.000  

  20207830.32049 106192864.08649      8137.98849        49.000  

  22204518.88349 116685532.35949     -6732.07449        50.000  

  24915668.66449 130932723.00849     10637.85549        48.000  

 16 04 02 12 06 45.4000000  0  6G01G18G08G10G11G21                              
  23789723.27349 125015838.47749     -2895.98449        48.000  

  22144343.84449 116369311.79349     -7807.68049        49.000  

  20395207.57049 107177538.61749      7516.73449        49.000  

  20207675.52349 106192050.63349      8131.05149        49.000  

  22204647.03149 116686205.75449     -6735.49649        50.000  

  24915466.23449 130931659.35549     10635.53949        48.000  

 16 04 02 12 06 45.5000000  0  6G01G18G08G10G11G21                              
  23789778.39149 125016128.10949     -2897.62549        48.000  

  22144492.44549 116370092.73049     -7811.89149        49.000  

  20395064.55549 107176787.05549      7513.29349        49.000  

  20207520.84449 106191237.77049      8125.05149        49.000  

  22204775.21949 116686879.38349     -6737.77749        50.000  

  24915263.85249 130930595.82049     10634.37149        48.000  

 16 04 02 12 06 45.6000000  0  6G01G18G08G10G11G21                              
  23789833.55549 125016418.00049     -2899.85949        48.000  

  22144641.14849 116370874.19549     -7816.87149        50.000  

  20394921.62549 107176035.96149      7508.98449        49.000  

  20207366.28949 106190425.59449      8118.51249        49.000  

  22204903.46949 116687553.35249     -6740.96549        50.000  

  24915061.52349 130929532.54349     10632.01249        48.000  

 16 04 02 12 06 45.7000000  0  6G01G18G08G10G11G21                              
  23789888.75849 125016708.07849     -2901.83649        48.000  

  22144789.94549 116371656.10949     -7821.46149        49.000  

  20394778.75849 107175285.23449      7505.19549        49.000  

  20207211.83649 106189614.01249      8112.39849        49.000  

  22205031.77349 116688227.57849     -6743.66849        50.000  

  24914859.21149 130928469.40249     10630.48049        48.000  

 16 04 02 12 06 45.8000000  0  6G01G18G08G10G11G21                              
  23789943.99249 125016998.35949     -2904.16449        48.000  

  22144938.82849 116372438.49649     -7826.28149        50.000  

  20394635.97749 107174534.89849      7501.01649        49.000  

  20207057.52349 106188803.09449      8105.85249        49.000  

  22205160.12549 116688902.09449     -6746.59449        50.000  

  24914656.96949 130927406.46149     10628.50449        48.000  

 16 04 02 12 06 45.9000000  0  6G01G18G08G10G11G21                              
  23789999.27349 125017288.87149     -2906.22749        48.000  

  22145087.81249 116373221.37549     -7831.05949        49.000  

  20394493.27349 107173784.99249      7496.98849        49.000  

  20206903.33649 106187992.81249      8099.39149        49.000  

  22205288.54749 116689576.91449     -6749.62949        50.000  

  24914454.73449 130926343.70749     10626.60549        48.000  

 16 04 02 12 06 46.0000000  0  6G01G18G08G10G11G21                              
  23790054.60249 125017579.60249     -2908.56249        48.000  

  22145236.88349 116374004.73449     -7836.06649        49.000  

  20394350.64849 107173035.48449      7492.81249        49.000  

  20206749.27349 106187183.19149      8092.68049        49.000  

  22205417.01649 116690252.02749     -6752.74649        50.000  

  24914252.53149 130925281.14849     10624.52049        48.000  

 16 04 02 12 06 46.1000000  0  6G01G18G08G10G11G21                              
  23790109.96149 125017870.51649     -2910.14149        48.000  

  22145386.03149 116374788.54349     -7840.26649        49.000  

  20394208.09449 107172286.35249      7489.41849        49.000  

  20206595.31249 106186374.16449      8086.92649        49.000  

  22205545.53949 116690927.39849     -6755.00049        50.000  

  24914050.36749 130924218.75449     10623.15249        48.000  

 16 04 02 12 06 46.2000000  0  6G01G18G08G10G11G21                              
  23790165.35949 125018161.62549     -2912.40249        48.000  

  22145535.27349 116375572.82049     -7845.24249        49.000  

  20394065.60949 107171537.61749      7485.10249        49.000  

  20206441.48449 106185565.77749      8080.42249        49.000  

  22205674.10949 116691603.05549     -6758.13349        50.000  

  24913848.22749 130923156.52349     10621.29349        48.000  

 16 04 02 12 06 46.3000000  0  6G01G18G08G10G11G21                              
  23790220.78949 125018452.91449     -2914.07049        48.000  

  22145684.60249 116376357.53149     -7849.51249        49.000  

  20393923.20349 107170789.25049      7481.45349        49.000  

  20206287.77349 106184757.99649      8074.34449        49.000  

  22205802.72749 116692278.94949     -6760.39849        50.000  

  24913646.12549 130922094.45349     10619.70749        48.000  

 16 04 02 12 06 46.4000000  0  6G01G18G08G10G11G21                              
  23790276.26649 125018744.44149     -2916.24249        48.000  

  22145834.02349 116377142.74249     -7854.32849        49.000  

  20393780.87549 107170041.30149      7477.54749        49.000  

  20206134.18049 106183950.87149      8067.95349        49.000  

  22205931.40649 116692955.17649     -6763.53549        50.000  

  24913444.04749 130921032.59449     10617.85249        48.000  

 16 04 02 12 06 46.5000000  0  6G01G18G08G10G11G21                              
  23790331.78949 125019036.18849     -2918.63349        48.000  

  22145983.53949 116377928.44549     -7859.36749        49.000  

  20393638.62549 107169293.76649      7473.10249        49.000  

  20205980.71949 106183144.39549      8061.30949        49.000  

  22206060.14849 116693631.68849     -6766.58249        50.000  

  24913242.01649 130919970.91449     10615.86349        48.000  

 16 04 02 12 06 46.6000000  0  6G01G18G08G10G11G21                              
  23790387.35249 125019328.18049     -2921.24249        48.000  

  22146133.14849 116378714.64849     -7864.55149        49.000  

  20393496.45349 107168546.66049      7468.66049        49.000  

  20205827.37549 106182338.59449      8054.47349        49.000  

  22206188.94549 116694308.52049     -6769.88749        50.000  

  24913040.01649 130918909.45349     10613.60949        48.000  

 16 04 02 12 06 46.7000000  0  6G01G18G08G10G11G21                              
  23790442.95349 125019620.36349     -2923.10949        48.000  

  22146282.84449 116379501.31649     -7869.06249        49.000  

  20393354.35949 107167799.94949      7464.85549        49.000  

  20205674.15649 106181533.43049      8048.15649        49.000  

  22206317.79749 116694985.63749     -6772.59849        50.000  

  24912838.06249 130917848.18049     10611.85549        48.000  

 16 04 02 12 06 46.8000000  0  6G01G18G08G10G11G21                              
  23790498.59449 125019912.78549     -2925.39549        48.000  

  22146432.63349 116380288.48449     -7874.09049        49.000  

  20393212.34449 107167053.66449      7460.65249        49.000  

  20205521.06249 106180728.90649      8041.74249        49.000  

  22206446.70349 116695663.06249     -6775.72349        50.000  

  24912636.14849 130916787.10949     10609.74649        48.000  

 16 04 02 12 06 46.9000000  0  6G01G18G08G10G11G21                              
  23790554.28149 125020205.36349     -2926.94149        48.000  

  22146582.51649 116381076.06649     -7878.23049        49.000  

  20393070.39149 107166307.71149      7457.32049        49.000  

  20205368.07849 106179924.97349      8035.93049        49.000  

  22206575.65649 116696340.71549     -6777.99649        50.000  

  24912434.25849 130915726.16049     10608.52349        48.000  

 16 04 02 12 06 47.0000000  0  6G01G18G08G10G11G21                              
  23790610.00049 125020498.18449     -2929.18849        48.000  

  22146732.48449 116381864.15649     -7883.18449        49.000  

  20392928.52349 107165562.21149      7452.99649        49.000  

  20205215.22749 106179121.72349      8029.21949        49.000  

  22206704.67249 116697018.69149     -6781.06649        50.000  

  24912232.42249 130914665.43849     10606.47749        48.000  

 16 04 02 12 06 47.1000000  0  6G01G18G08G10G11G21                              
  23790665.76649 125020791.22749     -2931.78149        48.000  

  22146882.53949 116382652.71549     -7888.07849        49.000  

  20392786.72749 107164817.09849      7448.74249        49.000  

  20205062.48449 106178319.09449      8022.60949        49.000  

  22206833.74249 116697696.95349     -6784.20349        50.000  

  24912030.60949 130913604.88749     10604.45349        48.000  

 16 04 02 12 06 47.2000000  0  6G01G18G08G10G11G21                              
  23790721.57049 125021084.46949     -2933.55949        48.000  

  22147032.68849 116383441.77749     -7892.93049        49.000  

  20392645.01649 107164072.39849      7444.91449        49.000  

  20204909.87549 106177517.12549      8016.34449        49.000  

  22206962.86749 116698375.51649     -6787.03549        50.000  

  24911828.82849 130912544.54349     10602.61349        48.000  

 16 04 02 12 06 47.3000000  0  6G01G18G08G10G11G21                              
  23790777.40649 125021377.91049     -2935.65249        48.000  

  22147182.93049 116384231.27749     -7897.38349        49.000  

  20392503.37549 107163328.08249      7441.07049        49.000  

  20204757.38349 106176715.76649      8010.10249        49.000  

  22207092.03949 116699054.34049     -6789.78949        50.000  

  24911627.07849 130911484.35949     10600.83249        48.000  

 16 04 02 12 06 47.4000000  0  6G01G18G08G10G11G21                              
  23790833.28149 125021671.53949     -2937.29749        48.000  

  22147333.25049 116385021.21949     -7901.69149        49.000  

  20392361.80549 107162584.13749      7437.41049        49.000  

  20204605.00849 106175915.03149      8004.11749        49.000  

  22207221.26649 116699733.42249     -6792.20349        50.000  

  24911425.35949 130910424.32049     10599.62149        48.000  

 16 04 02 12 06 47.5000000  0  6G01G18G08G10G11G21                              
  23790889.20349 125021965.41049     -2940.10249        48.000  

  22147483.67249 116385811.69149     -7907.10549        49.000  

  20392220.32049 107161840.64149      7432.76249        49.000  

  20204452.76649 106175114.96949      7997.10949        49.000  

  22207350.56249 116700412.84449     -6795.77049        50.000  

  24911223.68849 130909364.53149     10596.99649        48.000  

 16 04 02 12 06 47.6000000  0  6G01G18G08G10G11G21                              
  23790945.16449 125022259.48849     -2941.84449        48.000  

  22147634.18049 116386602.62149     -7911.55949        49.000  

  20392078.91449 107161097.53149      7429.12949        49.000  

  20204300.64149 106174315.52749      7991.09849        49.000  

  22207479.89849 116701092.53549     -6798.28149        50.000  

  24911022.03949 130908304.89149     10595.52749        48.000  

 16 04 02 12 06 47.7000000  0  6G01G18G08G10G11G21                              
  23791001.15649 125022553.73449     -2943.73049        48.000  

  22147784.76649 116387393.97749     -7916.04349        49.000  

  20391937.57049 107160354.78149      7425.26649        49.000  

  20204148.62549 106173516.69149      7984.86349        49.000  

  22207609.28949 116701772.46949     -6800.84049        50.000  

  24910820.42249 130907245.40249     10593.96549        48.000  

 16 04 02 12 06 47.8000000  0  6G01G18G08G10G11G21                              
  23791057.20349 125022848.25049     -2946.39149        48.000  

  22147935.46149 116388185.88349     -7921.47349        49.000  

  20391796.32049 107159612.48449      7420.73849        49.000  

  20203996.74249 106172718.55549      7977.86749        49.000  

  22207738.74249 116702452.75849     -6804.33249        50.000  

  24910618.83649 130906186.16449     10591.39549        48.000  

 16 04 02 12 06 47.9000000  0  6G01G18G08G10G11G21                              
  23791113.28149 125023142.94949     -2947.95749        48.000  

  22148086.23449 116388978.20349     -7925.61749        49.000  

  20391655.13349 107158870.55549      7417.16049        49.000  

  20203844.98449 106171921.01649      7972.06249        49.000  

  22207868.25049 116703133.29349     -6806.72749        50.000  

  24910417.30549 130905127.07849     10590.03549        48.000  

 16 04 02 12 06 48.0000000  0  6G01G18G08G10G11G21                              
  23791169.39849 125023437.84049     -2950.27749        48.000  

  22148237.09449 116389771.00449     -7930.55549        49.000  

  20391514.03149 107158129.02749      7412.97349        49.000  

  20203693.33649 106171124.10949      7965.54749        49.000  

  22207997.80549 116703814.10549     -6809.68049        50.000  

  24910215.78949 130904068.14849     10588.28549        48.000  

 16 04 02 12 06 48.1000000  0  6G01G18G08G10G11G21                              
  23791225.56249 125023732.99649     -2952.73049        48.000  

  22148388.06249 116390564.33249     -7935.54749        49.000  

  20391373.00049 107157387.95749      7408.68049        49.000  

  20203541.82049 106170327.90249      7958.71149        49.000  

  22208127.42249 116704495.27349     -6813.03949        50.000  

  24910014.33649 130903009.47749     10585.79749        48.000  

 16 04 02 12 06 48.2000000  0  6G01G18G08G10G11G21                              
  23791281.75849 125024028.30949     -2954.28549        48.000  

  22148539.10949 116391358.08249     -7939.86749        49.000  

  20391232.04749 107156647.22749      7405.26249        49.000  

  20203390.41449 106169532.27349      7952.93449        49.000  

  22208257.08649 116705176.66449     -6815.32049        50.000  

  24909812.89849 130901950.93049     10584.54349        48.000  

 16 04 02 12 06 48.3000000  0  6G01G18G08G10G11G21                              
  23791338.00849 125024323.85549     -2956.64549        48.000  

  22148690.25049 116392152.32049     -7944.79749        49.000  

  20391091.17249 107155906.91049      7400.94549        49.000  

  20203239.13349 106168737.30549      7946.23449        49.000  

  22208386.81249 116705858.35949     -6818.39549        50.000  

  24909611.50049 130900892.57449     10582.55549        48.000  

 16 04 02 12 06 48.4000000  0  6G01G18G08G10G11G21                              
  23791394.28949 125024619.63349     -2958.88349        48.000  

  22148841.48449 116392947.04349     -7949.64849        49.000  

  20390950.37549 107155167.02049      7396.81649        49.000  

  20203087.98449 106167942.98849      7939.66049        49.000  

  22208516.59449 116706540.36749     -6821.56249        50.000  

  24909410.15649 130899834.44149     10580.37949        48.000  

 16 04 02 12 06 48.5000000  0  6G01G18G08G10G11G21                              
  23791450.60249 125024915.53549     -2960.27349        48.000  

  22148992.78949 116393742.17249     -7953.63749        49.000  

  20390809.64149 107154427.45349      7393.48049        49.000  

  20202936.92249 106167149.22749      7934.12549        49.000  

  22208646.42249 116707222.57049     -6823.57049        50.000  

  24909208.81249 130898776.38749     10579.51649        48.000  

 16 04 02 12 06 48.6000000  0  6G01G18G08G10G11G21                              
  23791506.96949 125025211.73049     -2963.16049        48.000  

  22149144.20349 116394537.86349     -7959.29349        49.000  

  20390669.00049 107153688.37549      7388.54349        49.000  

  20202786.01649 106166356.20349      7926.77349        49.000  

  22208776.31249 116707905.16049     -6827.34849        50.000  

  24909007.53149 130897718.62549     10576.67249        48.000  

 16 04 02 12 06 48.7000000  0  6G01G18G08G10G11G21                              
  23791563.35949 125025508.09849     -2965.02349        48.000  

  22149295.70349 116395333.97349     -7963.62149        49.000  

  20390528.41449 107152949.64549      7384.93849        49.000  

  20202635.21949 106165563.76649      7920.80949        49.000  

  22208906.25049 116708587.98449     -6829.78549        50.000  

  24908806.26649 130896660.99649     10575.20749        48.000  

 16 04 02 12 06 48.8000000  0  6G01G18G08G10G11G21                              
  23791619.80549 125025804.70349     -2967.13749        48.000  

  22149447.29749 116396130.59449     -7968.45349        49.000  

  20390387.92249 107152211.34849      7380.97349        49.000  

  20202484.55549 106164772.00049      7914.44949        49.000  

  22209036.25049 116709271.12949     -6832.72349        50.000  

  24908605.03949 130895603.57449     10573.44149        48.000  

 16 04 02 12 06 48.9000000  0  6G01G18G08G10G11G21                              
  23791676.28149 125026101.49649     -2969.05149        48.000  

  22149598.96949 116396927.65249     -7972.98849        49.000  

  20390247.49249 107151473.42249      7377.08649        49.000  

  20202334.00049 106163980.84049      7908.17249        49.000  

  22209166.29749 116709954.52349     -6835.35249        50.000  

  24908403.85249 130894546.30949     10571.82849        48.000  

 16 04 02 12 06 49.0000000  0  6G01G18G08G10G11G21                              
  23791732.80549 125026398.51249     -2971.27049        48.000  

  22149750.74249 116397725.21149     -7977.96149        49.000  

  20390107.15649 107150735.93049      7372.74649        49.000  

  20202183.57849 106163190.34849      7901.57049        49.000  

  22209296.40649 116710638.23849     -6838.53549        50.000  

  24908202.70349 130893489.25849     10569.66449        48.000  

 16 04 02 12 06 49.1000000  0  6G01G18G08G10G11G21                              
  23791789.35249 125026695.68849     -2972.81249        48.000  

  22149902.58649 116398523.18049     -7982.02349        49.000  

  20389966.87549 107149998.77349      7369.41849        49.000  

  20202033.26649 106162400.43449      7895.76249        49.000  

  22209426.55549 116711322.18449     -6840.90649        50.000  

  24908001.57049 130892432.32849     10568.43449        48.000  

 16 04 02 12 06 49.2000000  0  6G01G18G08G10G11G21                              
  23791845.95349 125026993.12949     -2975.40649        48.000  

  22150054.53149 116399321.68849     -7987.26249        49.000  

  20389826.68849 107149262.07049      7365.01249        49.000  

  20201883.08649 106161611.21149      7889.06249        49.000  

  22209556.76649 116712006.46549     -6844.18449        50.000  

  24907800.50049 130891375.64149     10566.18449        48.000  

 16 04 02 12 06 49.3000000  0  6G01G18G08G10G11G21                              
  23791902.58649 125027290.72749     -2977.33249        48.000  

  22150206.57049 116400120.61749     -7991.84849        49.000  

  20389686.57049 107148525.72749      7361.15249        49.000  

  20201733.00849 106160822.58249      7882.66849        49.000  

  22209687.02349 116712690.99249     -6846.80949        50.000  

  24907599.45349 130890319.10249     10564.36349        48.000  

 16 04 02 12 06 49.4000000  0  6G01G18G08G10G11G21                              
  23791959.28949 125027588.68449     -2980.65249        48.000  

  22150358.71149 116400920.14549     -7997.61749        49.000  

  20389546.55549 107147789.91849      7355.93849        49.000  

  20201583.08649 106160034.72749      7875.14149        49.000  

  22209817.36749 116713375.93849     -6850.86749        50.000  

  24907398.44549 130889262.86349     10561.38749        48.000  

 16 04 02 12 06 49.5000000  0  6G01G18G08G10G11G21                              
  23792016.00849 125027886.76649     -2982.15649        48.000  

  22150510.93849 116401720.08649     -8001.87949        49.000  

  20389406.59449 107147054.43049      7352.47349        49.000  

  20201433.26649 106159247.43449      7869.27749        49.000  

  22209947.74249 116714061.09449     -6853.19949        50.000  

  24907197.46949 130888206.73849     10560.15249        48.000  

 16 04 02 12 06 49.6000000  0  6G01G18G08G10G11G21                              
  23792072.75849 125028185.01649     -2983.63749        48.000  

  22150663.24249 116402520.44949     -8005.82049        49.000  

  20389266.71149 107146319.30549      7349.24249        49.000  

  20201283.56249 106158460.73049      7863.75849        49.000  

  22210078.17249 116714746.49249     -6855.22749        50.000  

  24906996.52349 130887150.75049     10559.08649        48.000  

 16 04 02 12 06 49.7000000  0  6G01G18G08G10G11G21                              
  23792129.57049 125028483.57449     -2986.69549        48.000  

  22150815.65649 116403321.39149     -8011.77049        49.000  

  20389126.90649 107145584.69149      7343.98849        49.000  

  20201134.00049 106157674.78149      7856.23049        49.000  

  22210208.67249 116715432.28549     -6859.39849        50.000  

  24906795.62549 130886095.05949     10556.08649        48.000  

 16 04 02 12 06 49.8000000  0  6G01G18G08G10G11G21                              
  23792186.41449 125028782.29749     -2988.56649        48.000  

  22150968.14849 116404122.74249     -8016.09049        49.000  

  20388987.18049 107144850.40249      7340.49249        49.000  

  20200984.54749 106156889.40649      7850.11749        49.000  

  22210339.21949 116716118.30549     -6861.80149        50.000  

  24906594.75849 130885039.48449     10554.70749        48.000  

 16 04 02 12 06 49.9000000  0  6G01G18G08G10G11G21                              
  23792243.29749 125029081.21149     -2990.21149        48.000  

  22151120.74249 116404924.56649     -8020.49649        49.000  

  20388847.52349 107144116.51649      7336.89149        49.000  

  20200835.22749 106156104.66449      7844.08649        49.000  

  22210469.82049 116716804.60549     -6864.32449        50.000  

  24906393.92249 130883984.09849     10553.02749        48.000  

 16 04 02 12 06 50.0000000  0  6G01G18G08G10G11G21                              
  23792300.21949 125029380.33649     -2992.44949        48.000  

  22151273.40649 116405726.85249     -8025.24249        49.000  

  20388707.94549 107143383.02749      7332.63349        49.000  

  20200686.01649 106155320.55949      7837.62549        49.000  

  22210600.46949 116717491.19149     -6867.30149        50.000  

  24906193.12549 130882928.88349     10551.17649        48.000  

 16 04 02 12 06 50.1000000  0  6G01G18G08G10G11G21                              
  23792357.18849 125029679.69149     -2994.76649        48.000  

  22151426.17249 116406529.64149     -8030.25849        49.000  

  20388568.44549 107142649.96549      7328.55949        49.000  

  20200536.93049 106154537.10549      7831.09049        49.000  

  22210731.18049 116718178.08249     -6870.35549        50.000  

  24905992.35949 130881873.87149     10549.21549        48.000  

 16 04 02 12 06 50.2000000  0  6G01G18G08G10G11G21                              
  23792414.18849 125029979.23849     -2996.71949        48.000  

  22151579.02349 116407332.85949     -8034.61749        49.000  

  20388429.01649 107141917.25849      7324.82449        49.000  

  20200387.96149 106153754.26249      7825.00449        49.000  

  22210861.94549 116718865.22349     -6872.91849        50.000  

  24905791.62549 130880819.01649     10547.66449        48.000  

 16 04 02 12 06 50.3000000  0  6G01G18G08G10G11G21                              
  23792471.22749 125030279.01649     -2998.99649        48.000  

  22151731.96949 116408136.59449     -8039.64549        49.000  

  20388289.68049 107141185.01249      7320.30549        49.000  

  20200239.12549 106152972.10249      7818.20349        49.000  

  22210992.77349 116719552.69549     -6876.18049        50.000  

  24905590.93849 130879764.38349     10545.45349        48.000  

 16 04 02 12 06 50.4000000  0  6G01G18G08G10G11G21                              
  23792528.30549 125030578.95749     -3000.59049        48.000  

  22151884.99249 116408940.75049     -8043.89149        49.000  

  20388150.39849 107140453.09449      7316.95749        49.000  

  20200090.39149 106152190.51649      7812.40649        49.000  

  22211123.63349 116720240.39849     -6878.49649        50.000  

  24905390.26649 130878709.87549     10544.16849        48.000  

 16 04 02 12 06 50.5000000  0  6G01G18G08G10G11G21                              
  23792585.43049 125030879.13749     -3002.84049        48.000  

  22152038.11749 116409745.41449     -8048.79349        49.000  

  20388011.20349 107139721.62549      7312.72749        49.000  

  20199941.78949 106151409.61749      7805.78149        49.000  

  22211254.56249 116720928.42649     -6881.57449        50.000  

  24905189.64149 130877655.59049     10542.09049        48.000  

 16 04 02 12 06 50.6000000  0  6G01G18G08G10G11G21                              
  23792642.59449 125031179.53149     -3005.16049        48.000  

  22152191.32849 116410550.55549     -8053.81649        49.000  

  20387872.08649 107138990.54349      7308.53949        49.000  

  20199793.31249 106150629.34449      7799.25849        49.000  

  22211385.54749 116721616.73449     -6884.56649        50.000  

  24904989.05549 130876601.48449     10540.12549        48.000  

 16 04 02 12 06 50.7000000  0  6G01G18G08G10G11G21                              
  23792699.81249 125031480.23449     -3008.35249        48.000  

  22152344.65649 116411356.25449     -8059.47749        49.000  

  20387733.06249 107138259.96949      7303.46149        49.000  

  20199644.96949 106149849.81649      7791.78149        49.000  

  22211516.60249 116722305.43449     -6888.50449        50.000  

  24904788.51649 130875547.66849     10537.18849        48.000  

 16 04 02 12 06 50.8000000  0  6G01G18G08G10G11G21                              
  23792757.07049 125031781.09849     -3009.84849        48.000  

  22152498.05549 116412162.37549     -8063.61749        49.000  

  20387594.10249 107137529.74249      7299.98449        49.000  

  20199496.74249 106149070.86349      7785.96949        49.000  

  22211647.70349 116722994.36349     -6890.84849        49.000  

  24904588.00849 130874493.97349     10536.00449        48.000  

 16 04 02 12 06 50.9000000  0  6G01G18G08G10G11G21                              
  23792814.36749 125032082.19949     -3012.32449        48.000  

  22152651.55549 116412969.00449     -8068.77349        49.000  

  20387455.22749 107136799.94949      7295.65649        49.000  

  20199348.64849 106148292.59849      7779.19549        49.000  

  22211778.86749 116723683.61349     -6894.03549        50.000  

  24904387.53949 130873440.50049     10533.79349        48.000  

 16 04 02 12 06 51.0000000  0  6G01G18G08G10G11G21                              
  23792871.71149 125032383.55149     -3014.78949        48.000  

  22152805.14149 116413776.13349     -8073.70349        49.000  

  20387316.43049 107136070.57849      7291.41449        49.000  

  20199200.67249 106147514.99249      7772.50449        49.000  

  22211910.08649 116724373.18049     -6897.19949        49.000  

  24904187.10249 130872387.24649     10531.55549        48.000  

 16 04 02 12 06 51.1000000  0  6G01G18G08G10G11G21                              
  23792929.07049 125032685.02349     -3015.99249        48.000  

  22152958.81249 116414583.66449     -8077.64849        49.000  

  20387177.69549 107135341.54349      7288.21149        49.000  

  20199052.80549 106146737.95349      7767.00049        49.000  

  22212041.34449 116725062.95749     -6899.26249        50.000  

  24903986.68849 130871334.08649     10530.69149        48.000  

 16 04 02 12 06 51.2000000  0  6G01G18G08G10G11G21                              
  23792986.48449 125032986.71949     -3018.04349        48.000  

  22153112.57049 116415391.67649     -8082.30949        49.000  

  20387039.04749 107134612.91449      7284.21549        49.000  

  20198905.06249 106145961.55949      7760.65249        49.000  

  22212172.66449 116725753.02749     -6902.05549        50.000  

  24903786.30549 130870281.12549     10528.81249        48.000  

 16 04 02 12 06 51.3000000  0  6G01G18G08G10G11G21                              
  23793043.93849 125033288.66049     -3020.58249        48.000  

  22153266.43049 116416200.20349     -8087.57049        49.000  

  20386900.47749 107133884.73049      7279.74649        49.000  

  20198757.44549 106145185.84449      7753.80149        49.000  

  22212304.03949 116726443.43049     -6905.42249        49.000  

  24903585.98449 130869228.39549     10526.53549        48.000  

 16 04 02 12 06 51.4000000  0  6G01G18G08G10G11G21                              
  23793101.43849 125033590.81249     -3022.71149        48.000  

  22153420.36749 116417009.17649     -8092.23049        49.000  

  20386761.98449 107133156.93049      7275.82449        49.000  

  20198609.95349 106144410.74649      7747.44949        49.000  

  22212435.46949 116727134.10249     -6908.15649        49.000  

  24903385.69549 130868175.83249     10524.69549        48.000  

 16 04 02 12 06 51.5000000  0  6G01G18G08G10G11G21                              
  23793158.97749 125033893.17249     -3024.81249        48.000  

  22153574.39849 116417818.64149     -8097.00049        49.000  

  20386623.55549 107132429.53149      7271.73849        49.000  

  20198462.57049 106143636.30549      7741.07849        49.000  

  22212566.96149 116727825.06649     -6911.10249        50.000  

  24903185.43849 130867123.45749     10522.82849        48.000  

 16 04 02 12 06 51.6000000  0  6G01G18G08G10G11G21                              
  23793216.54749 125034195.72349     -3026.50449        48.000  

  22153728.52349 116418628.55149     -8101.33249        49.000  

  20386485.21149 107131702.53149      7268.07049        49.000  

  20198315.32049 106142862.48449      7735.01649        49.000  

  22212698.50049 116728516.30549     -6913.73849        50.000  

  24902985.19549 130866071.24249     10521.33249        48.000  

 16 04 02 12 06 51.7000000  0  6G01G18G08G10G11G21                              
  23793274.15649 125034498.41849     -3028.30549        48.000  

  22153882.71949 116419438.87149     -8105.64549        49.000  

  20386346.93849 107130975.85249      7264.43849        49.000  

  20198168.18049 106142089.23449      7728.85249        49.000  

  22212830.07049 116729207.75449     -6916.02749        50.000  

  24902784.99249 130865019.16049     10519.90649        48.000  

 16 04 02 12 06 51.8000000  0  6G01G18G08G10G11G21                              
  23793331.82849 125034801.47749     -3031.55149        48.000  

  22154037.03949 116420249.82049     -8111.70749        49.000  

  20386208.75849 107130249.73849      7259.05549        49.000  

  20198021.18849 106141316.77349      7721.29749        49.000  

  22212961.73449 116729899.65249     -6920.28549        50.000  

  24902584.84449 130863967.39849     10516.82849        48.000  

 16 04 02 12 06 51.9000000  0  6G01G18G08G10G11G21                              
  23793389.52349 125035104.67649     -3033.37149        48.000  

  22154191.43849 116421061.15649     -8115.96949        49.000  

  20386070.64849 107129523.94149      7255.54349        49.000  

  20197874.29749 106140544.88349      7715.24249        49.000  

  22213093.43849 116730591.75449     -6922.66849        50.000  

  24902384.71949 130862915.75849     10515.25449        48.000  

 16 04 02 12 06 52.0000000  0  6G01G18G08G10G11G21                              
  23793447.25849 125035408.07049     -3035.23449        48.000  

  22154345.91449 116421872.97349     -8120.52349        49.000  

  20385932.60949 107128798.54749      7251.80949        49.000  

  20197727.53149 106139773.61749      7709.17649        49.000  

  22213225.19549 116731284.14549     -6925.36349        50.000  

  24902184.61749 130861864.28549     10513.78949        48.000  

 16 04 02 12 06 52.1000000  0  6G01G18G08G10G11G21                              
  23793505.04749 125035711.75049     -3038.00449        48.000  

  22154500.50049 116422685.30949     -8125.87549        49.000  

  20385794.65649 107128073.60549      7247.03949        49.000  

  20197580.88349 106139003.04749      7702.16049        49.000  

  22213357.02349 116731976.88349     -6928.95349        50.000  

  24901984.57849 130860813.07849     10511.03149        48.000  

 16 04 02 12 06 52.2000000  0  6G01G18G08G10G11G21                              
  23793562.85949 125036015.59049     -3039.72349        48.000  

  22154655.16449 116423498.09049     -8130.23049        49.000  

  20385656.77349 107127349.03549      7243.40649        49.000  

  20197434.36749 106138233.09849      7696.04349        49.000  

  22213488.89149 116732669.86749     -6931.38349        50.000  

  24901784.57049 130859761.98449     10509.90649        48.000  

 16 04 02 12 06 52.3000000  0  6G01G18G08G10G11G21                              
  23793620.71949 125036319.61749     -3041.52049        48.000  

  22154809.91449 116424311.30549     -8134.45349        49.000  

  20385518.96149 107126624.83649      7239.84849        49.000  

  20197287.96149 106137463.73849      7690.16449        49.000  

  22213620.82049 116733363.10949     -6933.82049        50.000  

  24901584.59449 130858711.08249     10508.31249        48.000  

 16 04 02 12 06 52.4000000  0  6G01G18G08G10G11G21                              
  23793678.61749 125036623.89849     -3043.76649        48.000  

  22154964.76649 116425125.05149     -8139.59049        49.000  

  20385381.23449 107125901.08249      7235.49649        49.000  

  20197141.68849 106136695.08249      7683.41849        49.000  

  22213752.80549 116734056.68849     -6937.04749        50.000  

  24901384.64149 130857660.39149     10506.12549        48.000  

 16 04 02 12 06 52.5000000  0  6G01G18G08G10G11G21                              
  23793736.54749 125036928.34449     -3045.75049        48.000  

  22155119.69549 116425939.20349     -8144.04349        49.000  

  20385243.57849 107125177.68049      7231.71549        49.000  

  20196995.52349 106135926.99649      7677.28549        49.000  

  22213884.82049 116734750.48849     -6939.58249        50.000  

  24901184.72749 130856609.82049     10504.81249        48.000  

 16 04 02 12 06 52.6000000  0  6G01G18G08G10G11G21                              
  23793794.53149 125037233.05149     -3048.19949        48.000  

  22155274.72749 116426753.90649     -8149.33249        49.000  

  20385106.00849 107124454.74649      7227.23049        49.000  

  20196849.50049 106135159.63349      7670.32049        49.000  

  22214016.91449 116735444.66049     -6943.10249        50.000  

  24900984.85949 130855559.52349     10502.06249        48.000  

 16 04 02 12 06 52.7000000  0  6G01G18G08G10G11G21                              
  23793852.54749 125037537.93449     -3050.01649        48.000  

  22155429.84449 116427569.02049     -8153.54749        49.000  

  20384968.50049 107123732.16049      7223.57449        49.000  

  20196703.58649 106134392.84849      7664.34849        49.000  

  22214149.05549 116736139.05949     -6945.53149        50.000  

  24900785.01649 130854509.35949     10500.53549        48.000  

 16 04 02 12 06 52.8000000  0  6G01G18G08G10G11G21                              
  23793910.60249 125037843.02749     -3052.00849        48.000  

  22155585.04749 116428384.62149     -8158.33249        49.000  

  20384831.07849 107123009.99249      7219.62549        49.000  

  20196557.79749 106133626.70749      7658.03149        49.000  

  22214281.25049 116736833.75449     -6948.36749        50.000  

  24900585.21949 130853459.35549     10499.17649        48.000  

 16 04 02 12 06 52.9000000  0  6G01G18G08G10G11G21                              
  23793968.71149 125038148.37149     -3054.59849        48.000  

  22155740.35249 116429200.72749     -8163.33249        49.000  

  20384693.72749 107122288.24649      7215.38749        49.000  

  20196412.14149 106132861.25049      7651.30949        49.000  

  22214413.50849 116737528.77049     -6951.53549        50.000  

  24900385.45349 130852409.60249     10496.76249        48.000  

 16 04 02 12 06 53.0000000  0  6G01G18G08G10G11G21                              
  23794026.85249 125038453.90649     -3056.51249        48.000  

  22155895.73449 116430017.29349     -8167.98849        49.000  

  20384556.46149 107121566.90249      7211.26249        49.000  

  20196266.60249 106132096.42649      7644.82849        49.000  

  22214545.82049 116738224.05949     -6954.35249        50.000  

  24900185.72749 130851360.00449     10495.05549        48.000  

 16 04 02 12 06 53.1000000  0  6G01G18G08G10G11G21                              
  23794085.03149 125038759.64849     -3058.62949        48.000  

  22156051.21149 116430834.31249     -8172.63349        49.000  

  20384419.27349 107120845.94549      7207.28949        49.000  

  20196121.17249 106131332.20349      7638.63749        49.000  

  22214678.18049 116738919.62149     -6957.21549        50.000  

  24899986.03149 130850310.59449     10493.09849        48.000  

 16 04 02 12 06 53.2000000  0  6G01G18G08G10G11G21                              
  23794143.25049 125039065.57449     -3060.34049        48.000  

  22156206.77349 116431651.78949     -8177.10949        49.000  

  20384282.14849 107120125.35249      7203.82449        49.000  

  20195975.86749 106130568.61349      7632.50449        49.000  

  22214810.59449 116739615.44949     -6959.71149        50.000  

  24899786.35949 130849261.32849     10491.71949        48.000  

 16 04 02 12 06 53.3000000  0  6G01G18G08G10G11G21                              
  23794201.51649 125039371.78149     -3063.33249        48.000  

  22156362.43849 116432469.80549     -8182.66849        49.000  

  20384145.11749 107119405.24649      7198.75849        49.000  

  20195830.68849 106129805.74249      7625.21949        49.000  

  22214943.07849 116740311.63749     -6963.34049        50.000  

  24899586.73449 130848212.32449     10489.03549        48.000  

 16 04 02 12 06 53.4000000  0  6G01G18G08G10G11G21                              
  23794259.82049 125039678.17249     -3065.18849        48.000  

  22156518.18849 116433288.27049     -8187.13349        49.000  

  20384008.15649 107118685.52049      7194.98849        49.000  

  20195685.63349 106129043.47349      7619.14849        49.000  

  22215075.60949 116741008.09049     -6966.08249        50.000  

  24899387.14849 130847163.48049     10487.30549        48.000  

 16 04 02 12 06 53.5000000  0  6G01G18G08G10G11G21                              
  23794318.15649 125039984.75449     -3067.16849        48.000  

  22156674.01649 116434107.18449     -8191.61749        49.000  

  20383871.27349 107117966.16849      7191.31649        49.000  

  20195540.70349 106128281.82849      7612.88349        49.000  

  22215208.18849 116741704.80149     -6968.65649        50.000  

  24899187.58649 130846114.80549     10485.73449        48.000  

 16 04 02 12 06 53.6000000  0  6G01G18G08G10G11G21                              
  23794376.54749 125040291.60949     -3069.59449        48.000  

  22156829.95349 116434926.64149     -8196.82849        49.000  

  20383734.46949 107117247.28149      7186.77349        49.000  

  20195395.89849 106127520.87949      7606.17649        49.000  

  22215340.83649 116742401.86349     -6971.95749        50.000  

  24898988.05549 130845066.37149     10483.44949        48.000  

 16 04 02 12 06 53.7000000  0  6G01G18G08G10G11G21                              
  23794434.97749 125040598.65649     -3071.76649        48.000  

  22156985.97749 116435746.53949     -8201.52049        49.000  

  20383597.74249 107116528.77749      7182.77349        49.000  

  20195251.21149 106126760.55549      7599.81649        49.000  

  22215473.53949 116743099.19949     -6974.86349        50.000  

  24898788.57849 130844018.09849     10481.68849        48.000  

 16 04 02 12 06 53.8000000  0  6G01G18G08G10G11G21                              
  23794493.44549 125040905.88749     -3073.50049        48.000  

  22157142.07849 116436566.87949     -8205.75449        49.000  

  20383461.08649 107115810.64549      7179.14149        49.000  

  20195106.64149 106126000.83649      7593.77049        49.000  

  22215606.28149 116743796.78149     -6977.25849        50.000  

  24898589.13349 130842969.98449     10480.17649        48.000  

 16 04 02 12 06 53.9000000  0  6G01G18G08G10G11G21                              
  23794551.94549 125041213.34449     -3075.74649        48.000  

  22157298.28149 116437387.72349     -8210.72349        49.000  

  20383324.50849 107115092.93449      7175.03149        49.000  

  20194962.20349 106125241.78949      7587.13349        49.000  

  22215739.09449 116744494.68049     -6980.36749        50.000  

  24898389.71949 130841922.07049     10478.26249        48.000  

 16 04 02 12 06 54.0000000  0  6G01G18G08G10G11G21                              
  23794610.50049 125041521.02049     -3077.98049        48.000  

  22157454.57849 116438209.03949     -8215.51249        49.000  

  20383188.01649 107114375.63349      7170.88749        49.000  

  20194817.88349 106124483.38349      7580.67249        49.000  

  22215871.95349 116745192.87549     -6983.44549        50.000  

  24898190.35249 130840874.35549     10476.16449        48.000  

 16 04 02 12 06 54.1000000  0  6G01G18G08G10G11G21                              
  23794669.08649 125041828.91049     -3080.21549        48.000  

  22157610.95349 116439030.82849     -8220.45749        49.000  

  20383051.59449 107113658.73849      7166.64149        49.000  

  20194673.68849 106123725.61349      7574.05949        49.000  

  22216004.86749 116745891.35249     -6986.41049        50.000  

  24897991.00849 130839826.81649     10474.27749        48.000  

 16 04 02 12 06 54.2000000  0  6G01G18G08G10G11G21                              
  23794727.71149 125042136.98049     -3081.61349        48.000  

  22157767.41449 116439853.05149     -8224.36349        49.000  

  20382915.24249 107112942.21149      7163.32049        49.000  

  20194529.60949 106122968.46549      7568.39549        49.000  

  22216137.82849 116746590.09049     -6988.61349        50.000  

  24897791.70349 130838779.44949     10472.95749        48.000  

 16 04 02 12 06 54.3000000  0  6G01G18G08G10G11G21                              
  23794786.37549 125042445.25449     -3083.87549        48.000  

  22157923.96949 116440675.75049     -8229.25049        49.000  

  20382778.96949 107112226.07449      7159.22349        49.000  

  20194385.64149 106122211.93449      7561.83249        49.000  

  22216270.85249 116747289.09849     -6991.51649        50.000  

  24897592.42249 130837732.23849     10471.16849        48.000  

 16 04 02 12 06 54.4000000  0  6G01G18G08G10G11G21                              
  23794845.08649 125042753.79349     -3086.54749        48.000  

  22158080.62549 116441498.97749     -8234.59049        49.000  

  20382642.78149 107111510.41049      7154.50049        49.000  

  20194241.80549 106121456.10549      7554.89149        49.000  

  22216403.93049 116747988.46549     -6995.06649        50.000  

  24897393.19549 130836685.28149     10468.76249        48.000  

 16 04 02 12 06 54.5000000  0  6G01G18G08G10G11G21                              
  23794903.84449 125043062.53949     -3088.57049        48.000  

  22158237.36749 116442322.66849     -8239.26249        49.000  

  20382506.66449 107110795.12949      7150.63749        49.000  

  20194098.10249 106120700.91449      7548.55949        49.000  

  22216537.07049 116748688.10249     -6997.84049        50.000  

  24897194.00049 130835638.50449     10466.83649        48.000  

 16 04 02 12 06 54.6000000  0  6G01G18G08G10G11G21                              
  23794962.63349 125043371.47749     -3090.46949        48.000  

  22158394.19549 116443146.80549     -8243.65249        49.000  

  20382370.62549 107110080.23449      7146.92249        49.000  

  20193954.51649 106119946.34049      7542.41849        49.000  

  22216670.25849 116749388.00849     -7000.43849        50.000  

  24896994.82849 130834591.88349     10465.28949        48.000  

 16 04 02 12 06 54.7000000  0  6G01G18G08G10G11G21                              
  23795021.45349 125043680.61749     -3092.67249        48.000  

  22158551.11749 116443971.41849     -8248.52349        49.000  

  20382234.65649 107109365.73849      7142.77749        49.000  

  20193811.04749 106119192.41049      7535.80949        49.000  

  22216803.50049 116750088.20349     -7003.42249        50.000  

  24896795.70349 130833545.45349     10463.22749        48.000  

 16 04 02 12 06 54.8000000  0  6G01G18G08G10G11G21                              
  23795080.33649 125043990.05149     -3095.40249        48.000  

  22158708.13349 116444796.57049     -8253.77749        49.000  

  20382098.78949 107108651.72749      7138.07449        49.000  

  20193667.71149 106118439.18049      7528.97749        49.000  

  22216936.81249 116750788.75449     -7006.91849        50.000  

  24896596.60949 130832499.26249     10461.08649        48.000  

 16 04 02 12 06 54.9000000  0  6G01G18G08G10G11G21                              
  23795139.24249 125044299.60249     -3096.85549        48.000  

  22158865.23449 116445622.12149     -8257.94949        49.000  

  20381962.97749 107107938.01649      7134.69149        49.000  

  20193524.47749 106117686.52049      7523.04749        49.000  

  22217070.15649 116751489.50849     -7009.05549        50.000  

  24896397.55549 130831453.19149     10459.63349        48.000  

 16 04 02 12 06 55.0000000  0  6G01G18G08G10G11G21                              
  23795198.20349 125044609.43449     -3099.60549        48.000  

  22159022.43049 116446448.19549     -8263.17249        49.000  

  20381827.25849 107107224.78149      7130.06249        49.000  

  20193381.38349 106116934.54749      7516.17249        49.000  

  22217203.57849 116752190.60549     -7012.51249        50.000  

  24896198.54749 130830407.35549     10457.37949        48.000  

 16 04 02 12 06 55.1000000  0  6G01G18G08G10G11G21                              
  23795257.20349 125044919.46949     -3101.29349        48.000  

  22159179.71949 116447274.73849     -8267.65649        49.000  

  20381691.60949 107106511.94149      7126.37949        49.000  

  20193238.40649 106116183.22349      7510.02349        49.000  

  22217337.03949 116752891.98849     -7015.08649        50.000  

  24895999.56249 130829361.70349     10455.70349        48.000  

 16 04 02 12 06 55.2000000  0  6G01G18G08G10G11G21                              
  23795316.22749 125045229.65249     -3102.83649        48.000  

  22159337.08649 116448101.70349     -8271.75449        49.000  

  20381556.02349 107105799.44549      7123.05549        49.000  

  20193095.54749 106115432.48449      7504.16449        49.000  

  22217470.55549 116753593.60949     -7017.36349        50.000  

  24895800.60949 130828316.18449     10454.46949        48.000  

 16 04 02 12 06 55.3000000  0  6G01G18G08G10G11G21                              
  23795375.29749 125045540.06649     -3105.37549        48.000  

  22159494.53949 116448929.13749     -8276.73449        49.000  

  20381420.50849 107105087.36749      7118.56249        49.000  

  20192952.79749 106114682.38349      7497.46149        49.000  

  22217604.13349 116754295.52349     -7020.61749        50.000  

  24895601.68849 130827270.85249     10452.34449        48.000  

 16 04 02 12 06 55.4000000  0  6G01G18G08G10G11G21                              
  23795434.41449 125045850.74249     -3107.96549        48.000  

  22159652.09449 116449757.10549     -8282.10249        49.000  

  20381285.09449 107104375.74649      7114.05549        49.000  

  20192810.19549 106113932.97749      7490.59449        49.000  

  22217737.76649 116754997.78149     -7024.03949        50.000  

  24895402.82049 130826225.75849     10450.02349        48.000  

 16 04 02 12 06 55.5000000  0  6G01G18G08G10G11G21                              
  23795493.57849 125046161.64849     -3110.30149        48.000  

  22159809.75049 116450585.56649     -8287.04349        49.000  

  20381149.75849 107103664.53949      7109.84849        49.000  

  20192667.71149 106113184.23849      7483.89849        49.000  

  22217871.46149 116755700.34449     -7027.13349        50.000  

  24895203.98449 130825180.87149     10447.93849        48.000  

 16 04 02 12 06 55.6000000  0  6G01G18G08G10G11G21                              
  23795552.78149 125046472.74649     -3112.05149        48.000  

  22159967.48449 116451414.47749     -8291.42249        49.000  

  20381014.49249 107102953.71949      7106.17649        49.000  

  20192525.35249 106112436.12549      7477.75849        49.000  

  22218005.20349 116756403.17249     -7029.64849        50.000  

  24895005.17249 130824136.16449     10446.19149        48.000  

 16 04 02 12 06 55.7000000  0  6G01G18G08G10G11G21                              
  23795612.03149 125046784.12149     -3115.18049        48.000  

  22160125.32049 116452243.91849     -8297.05949        49.000  

  20380879.32049 107102243.36349      7101.15649        49.000  

  20192383.12549 106111688.69149      7470.55549        49.000  

  22218139.00849 116757106.34449     -7033.40649        50.000  

  24894806.41449 130823091.67249     10443.78549        48.000  

 16 04 02 12 06 55.8000000  0  6G01G18G08G10G11G21                              
  23795671.29749 125047095.59449     -3116.08649        48.000  

  22160283.22749 116453073.73049     -8300.50449        49.000  

  20380744.19549 107101533.30549      7098.22349        49.000  

  20192241.00049 106110941.82049      7465.23849        49.000  

  22218272.85949 116757809.71149     -7035.17649        50.000  

  24894607.68049 130822047.29749     10442.77749        48.000  

 16 04 02 12 06 55.9000000  0  6G01G18G08G10G11G21                              
  23795730.63349 125047407.37149     -3118.87949        48.000  

  22160441.24249 116453904.09849     -8305.91049        49.000  

  20380609.17249 107100823.74249      7093.43049        49.000  

  20192099.01649 106110195.66449      7458.11349        49.000  

  22218406.77349 116758513.44549     -7038.80149        50.000  

  24894408.98449 130821003.15649     10440.47349        48.000  

 16 04 02 12 06 56.0000000  0  6G01G18G08G10G11G21                              
  23795790.00849 125047719.37949     -3121.24249        48.000  

  22160599.35249 116454734.96549     -8311.10549        49.000  

  20380474.22749 107100114.58249      7089.35249        49.000  

  20191957.14849 106109450.16849      7451.57849        49.000  

  22218540.75049 116759217.48449     -7041.94149        50.000  

  24894210.33649 130819959.25049     10438.12549        48.000  

 16 04 02 12 06 56.1000000  0  6G01G18G08G10G11G21                              
  23795849.42249 125048031.59449     -3123.50049        48.000  

  22160757.54749 116455566.28549     -8315.61749        49.000  

  20380339.35249 107099405.84449      7085.18849        49.000  

  20191815.40649 106108705.31249      7444.97349        49.000  

  22218674.77349 116759921.80549     -7044.73849        50.000  

  24894011.71949 130818915.50449     10436.45749        48.000  

 16 04 02 12 06 56.2000000  0  6G01G18G08G10G11G21                              
  23795908.87549 125048344.03149     -3125.62949        48.000  

  22160915.83649 116456398.10249     -8320.45349        49.000  

  20380204.56249 107098697.51649      7081.17649        49.000  

  20191673.78949 106107961.10549      7438.62549        49.000  

  22218808.85949 116760626.43849     -7047.77049        50.000  

  24893813.13349 130817871.97749     10434.32449        48.000  

 16 04 02 12 06 56.3000000  0  6G01G18G08G10G11G21                              
  23795968.37549 125048656.66449     -3127.50849        48.000  

  22161074.21149 116457230.37549     -8325.10549        49.000  

  20380069.83649 107097989.56249      7077.25849        49.000  

  20191532.29749 106107217.52749      7432.42649        49.000  

  22218943.00049 116761331.32849     -7050.35549        50.000  

  24893614.58649 130816828.60549     10432.70749        48.000  

 16 04 02 12 06 56.4000000  0  6G01G18G08G10G11G21                              
  23796027.90649 125048969.50449     -3129.54749        48.000  

  22161232.68049 116458063.11349     -8329.73049        50.000  

  20379935.19549 107097282.02049      7073.28549        49.000  

  20191390.92249 106106474.58249      7426.12549        49.000  

  22219077.19549 116762036.51249     -7053.27049        50.000  

  24893416.06249 130815785.40649     10430.98449        48.000  

 16 04 02 12 06 56.5000000  0  6G01G18G08G10G11G21                              
  23796087.47749 125049282.52349     -3131.71149        48.000  

  22161391.22749 116458896.29349     -8334.36349        50.000  

  20379800.62549 107096574.84449      7069.33249        49.000  

  20191249.66449 106105732.25449      7419.64549        49.000  

  22219211.43049 116762741.94549     -7055.95349        50.000  

  24893217.57849 130814742.36349     10429.38749        48.000  

 16 04 02 12 06 56.6000000  0  6G01G18G08G10G11G21                              
  23796147.10249 125049595.86749     -3134.52749        48.000  

  22161549.89149 116459730.05149     -8339.86749        49.000  

  20379666.14849 107095868.18449      7064.43049        49.000  

  20191108.54749 106104990.68049      7412.30949        49.000  

  22219345.75049 116763447.78149     -7059.71549        50.000  

  24893019.14849 130813699.63749     10426.48449        48.000  

 16 04 02 12 06 56.7000000  0  6G01G18G08G10G11G21                              
  23796206.76649 125049909.37949     -3136.46149        48.000  

  22161708.63349 116460564.24249     -8344.43449        49.000  

  20379531.75049 107095161.88749      7060.65249        49.000  

  20190967.53949 106104249.69549      7406.16849        49.000  

  22219480.11749 116764153.86349     -7062.38349        50.000  

  24892820.75049 130812657.02749     10425.03149        48.000  

 16 04 02 12 06 56.8000000  0  6G01G18G08G10G11G21                              
  23796266.47749 125050223.16049     -3138.99249        48.000  

  22161867.46949 116461398.94549     -8349.34449        49.000  

  20379397.43849 107094456.03549      7056.26649        49.000  

  20190826.66449 106103509.39849      7399.56249        49.000  

  22219614.53949 116764860.27749     -7065.59849        50.000  

  24892622.39149 130811614.67649     10422.58249        48.000  

 16 04 02 12 06 56.9000000  0  6G01G18G08G10G11G21                              
  23796326.21949 125050537.12149     -3140.77749        48.000  

  22162026.39149 116462234.11749     -8354.06249        49.000  

  20379263.18849 107093750.57849      7052.41849        49.000  

  20190685.91449 106102769.73849      7393.22349        49.000  

  22219749.02349 116765566.96549     -7068.28149        50.000  

  24892424.07049 130810572.48049     10421.08649        48.000  

 16 04 02 12 06 57.0000000  0  6G01G18G08G10G11G21                              
  23796385.99249 125050851.24249     -3142.02049        48.000  

  22162185.39849 116463069.69949     -8357.91449        49.000  

  20379129.00849 107093045.45749      7049.38349        49.000  

  20190545.27349 106102030.64849      7387.82849        49.000  

  22219883.53949 116766273.88349     -7070.34049        50.000  

  24892225.75849 130809530.41049     10420.02749        48.000  

 16 04 02 12 06 57.1000000  0  6G01G18G08G10G11G21                              
  23796445.81249 125051165.57849     -3144.52749        48.000  

  22162344.49249 116463905.74649     -8362.88349        49.000  

  20378994.89849 107092340.73849      7045.04349        49.000  

  20190404.74249 106101292.20349      7381.01649        49.000  

  22220018.11749 116766981.08249     -7073.37949        50.000  

  24892027.49249 130808488.52049     10418.02749        48.000  

 16 04 02 12 06 57.2000000  0  6G01G18G08G10G11G21                              
  23796505.67249 125051480.14849     -3146.92649        48.000  

  22162503.68049 116464742.28549     -8367.68049        49.000  

  20378860.88349 107091636.44949      7040.75849        49.000  

  20190264.34449 106100554.41049      7374.62149        49.000  

  22220152.75049 116767688.59449     -7076.51249        50.000  

  24891829.27349 130807446.84449     10415.94549        48.000  

 16 04 02 12 06 57.3000000  0  6G01G18G08G10G11G21                              
  23796565.56249 125051794.87549     -3148.51249        48.000  

  22162662.95349 116465579.26249     -8372.20749        49.000  

  20378726.93849 107090932.52349      7036.99649        49.000  

  20190124.06249 106099817.22749      7368.50049        49.000  

  22220287.43049 116768396.35249     -7079.03949        50.000  

  24891631.07849 130806405.31649     10414.23849        48.000  

 16 04 02 12 06 57.4000000  0  6G01G18G08G10G11G21                              
  23796625.50849 125052109.86749     -3151.03549        48.000  

  22162822.32049 116466416.74649     -8377.13349        49.000  

  20378593.07049 107090229.03949      7032.69949        49.000  

  20189983.91449 106099080.73049      7361.66049        49.000  

  22220422.18049 116769104.44149     -7082.21549        50.000  

  24891432.92249 130805364.00849     10412.32449        48.000  

 16 04 02 12 06 57.5000000  0  6G01G18G08G10G11G21                              
  23796685.48449 125052425.07849     -3153.34849        48.000  

  22162981.78949 116467254.71549     -8382.11349        49.000  

  20378459.28149 107089525.96549      7028.55549        49.000  

  20189843.89149 106098344.88749      7355.00849        49.000  

  22220556.97749 116769812.82849     -7085.39149        50.000  

  24891234.80549 130804322.89849     10410.02749        48.000  

 16 04 02 12 06 57.6000000  0  6G01G18G08G10G11G21                              
  23796745.50849 125052740.48849     -3155.24649        48.000  

  22163141.32849 116468093.13749     -8386.71149        49.000  

  20378325.56249 107088823.29349      7024.57849        49.000  

  20189703.98449 106097609.67249      7348.73449        49.000  

  22220691.82849 116770521.48449     -7088.10949        50.000  

  24891036.71949 130803281.95749     10408.48049        48.000  

 16 04 02 12 06 57.7000000  0  6G01G18G08G10G11G21                              
  23796805.56249 125053056.08649     -3157.32849        48.000  

  22163300.96149 116468932.02349     -8391.28549        49.000  

  20378191.92249 107088120.99649      7020.59049        49.000  

  20189564.18849 106096875.07049      7342.43449        49.000  

  22220826.73449 116771230.41449     -7090.79349        50.000  

  24890838.66449 130802241.19149     10406.72749        48.000  

 16 04 02 12 06 57.8000000  0  6G01G18G08G10G11G21                              
  23796865.67249 125053371.97749     -3160.14149        48.000  

  22163460.70349 116469771.44149     -8396.66849        49.000  

  20378058.37549 107087419.16849      7016.04749        49.000  

  20189424.53149 106096141.19149      7335.31649        49.000  

  22220961.70349 116771939.69549     -7094.26649        50.000  

  24890640.64849 130801200.66849     10404.18849        48.000  

 16 04 02 12 06 57.9000000  0  6G01G18G08G10G11G21                              
  23796925.83649 125053688.12549     -3162.83649        48.000  

  22163620.53149 116470611.38349     -8401.90249        49.000  

  20377924.91449 107086717.80549      7011.32449        49.000  

  20189285.00849 106095407.98449      7328.35949        49.000  

  22221096.75049 116772649.32849     -7097.90249        50.000  

  24890442.69549 130800160.39149     10401.62949        48.000  

 16 04 02 12 06 58.0000000  0  6G01G18G08G10G11G21                              
  23796986.02349 125054004.43449     -3164.44949        48.000  

  22163780.44549 116471451.75049     -8406.23849        49.000  

  20377791.50849 107086016.78549      7007.76649        49.000  

  20189145.60249 106094675.36749      7322.53549        49.000  

  22221231.82849 116773359.18049     -7100.23049        50.000  

  24890244.75849 130799120.23849     10400.37149        48.000  

 16 04 02 12 06 58.1000000  0  6G01G18G08G10G11G21                              
  23797046.25849 125054320.97349     -3166.51249        48.000  

  22163940.45349 116472292.60249     -8410.97349        49.000  

  20377658.18849 107085316.19549      7003.69949        49.000  

  20189006.32049 106093943.44949      7315.93049        49.000  

  22221366.96949 116774069.35549     -7103.23849        50.000  

  24890046.86749 130798080.30149     10398.46549        48.000  

 16 04 02 12 06 58.2000000  0  6G01G18G08G10G11G21                              
  23797106.53949 125054637.72749     -3168.74249        48.000  

  22164100.55549 116473133.92649     -8415.60249        49.000  

  20377524.95349 107084616.01649      6999.63349        49.000  

  20188867.15649 106093212.13749      7309.73449        49.000  

  22221502.16449 116774779.80549     -7105.95349        50.000  

  24889848.99249 130797040.54749     10396.66449        48.000  

 16 04 02 12 06 58.3000000  0  6G01G18G08G10G11G21                              
  23797166.84449 125054954.65649     -3170.47349        48.000  

  22164260.74249 116473975.69149     -8420.02349        49.000  

  20377391.77349 107083916.18849      6996.05949        49.000  

  20188728.10949 106092481.44549      7303.52349        49.000  

  22221637.40649 116775490.52349     -7108.62949        50.000  

  24889651.15649 130796000.93849     10395.20749        48.000  

 16 04 02 12 06 58.4000000  0  6G01G18G08G10G11G21                              
  23797227.18849 125055271.77349     -3172.27349        48.000  

  22164421.00849 116474817.90249     -8424.44549        49.000  

  20377258.68049 107083216.74649      6992.19149        49.000  

  20188589.18049 106091751.36349      7297.40249        49.000  

  22221772.70349 116776201.48449     -7111.02049        50.000  

  24889453.35949 130794961.49249     10393.68849        48.000  

 16 04 02 12 06 58.5000000  0  6G01G18G08G10G11G21                              
  23797287.58649 125055589.14549     -3174.66849        48.000  

  22164581.37549 116475660.62949     -8429.51249        49.000  

  20377125.66449 107082517.75049      6988.00449        49.000  

  20188450.38349 106091021.97749      7290.68449        49.000  

  22221908.06249 116776912.78949     -7114.28949        50.000  

  24889255.60949 130793922.28149     10391.34849        48.000  

 16 04 02 12 06 58.6000000  0  6G01G18G08G10G11G21                              
  23797348.00849 125055906.66049     -3176.50849        48.000  

  22164741.81249 116476503.75049     -8433.66849        49.000  

  20376992.71149 107081819.08649      6984.36749        49.000  

  20188311.69549 106090293.15249      7284.68049        49.000  

  22222043.46149 116777624.31649     -7116.82849        50.000  

  24889057.86749 130792883.18049     10389.89849        48.000  

 16 04 02 12 06 58.7000000  0  6G01G18G08G10G11G21                              
  23797408.47749 125056224.43049     -3178.66849        48.000  

  22164902.35949 116477347.39549     -8438.61349        49.000  

  20376859.84449 107081120.88349      6980.10249        49.000  

  20188173.13349 106089565.02349      7278.09449        49.000  

  22222178.92249 116778336.17249     -7119.88749        50.000  

  24888860.18049 130791844.30949     10387.95349        48.000  

 16 04 02 12 06 58.8000000  0  6G01G18G08G10G11G21                              
  23797468.97749 125056542.38749     -3181.10949        48.000  

  22165062.98449 116478191.50049     -8443.59449        49.000  

  20376727.05549 107080423.05149      6975.77049        49.000  

  20188034.69549 106088837.50849      7271.46149        49.000  

  22222314.43049 116779048.28149     -7122.82049        50.000  

  24888662.51649 130790805.60549     10385.92649        48.000  

 16 04 02 12 06 58.9000000  0  6G01G18G08G10G11G21                              
  23797529.53949 125056860.64149     -3183.59049        48.000  

  22165223.71149 116479036.14149     -8448.82449        49.000  

  20376594.35249 107079725.70749      6971.35949        49.000  

  20187896.39849 106088110.71149      7264.62149        49.000  

  22222450.01649 116779760.78149     -7126.38349        50.000  

  24888464.90649 130789767.17249     10383.48449        48.000  

 16 04 02 12 06 59.0000000  0  6G01G18G08G10G11G21                              
  23797590.14149 125057179.07849     -3185.60549        48.000  

  22165384.53149 116479881.22349     -8453.41449        49.000  

  20376461.72749 107079028.73449      6967.37549        49.000  

  20187758.21149 106087384.53149      7258.27049        49.000  

  22222585.64849 116780473.52049     -7129.05549        50.000  

  24888267.32049 130788728.87549     10381.75449        48.000  

 16 04 02 12 06 59.1000000  0  6G01G18G08G10G11G21                              
  23797650.78149 125057497.73449     -3188.01649        48.000  

  22165545.43049 116480726.78549     -8458.15649        49.000  

  20376329.17249 107078332.17249      6963.25049        49.000  

  20187620.14149 106086659.00449      7251.66849        49.000  

  22222721.33649 116781186.55949     -7132.02349        50.000  

  24888069.78149 130787690.79349     10379.78149        48.000  

 16 04 02 12 06 59.2000000  0  6G01G18G08G10G11G21                              
  23797711.45349 125057816.56249     -3189.19949        48.000  

  22165706.42249 116481572.79349     -8462.24249        49.000  

  20376196.69549 107077635.98449      6959.95749        49.000  

  20187482.19549 106085934.09049      7245.88749        49.000  

  22222857.07049 116781899.85949     -7134.27349        50.000  

  24887872.26649 130786652.85249     10378.62949        48.000  

 16 04 02 12 06 59.3000000  0  6G01G18G08G10G11G21                              
  23797772.17249 125058135.64549     -3192.33249        48.000  

  22165867.50849 116482419.29749     -8467.65649        49.000  

  20376064.28949 107076940.22749      6955.10949        49.000  

  20187344.37549 106085209.83649      7238.89849        49.000  

  22222992.86749 116782613.46149     -7137.68849        50.000  

  24887674.79749 130785615.13749     10375.98849        48.000  

 16 04 02 12 06 59.4000000  0  6G01G18G08G10G11G21                              
  23797832.94549 125058455.01249     -3194.85549        48.000  

  22166028.69549 116483266.35249     -8472.93849        49.000  

  20375931.98449 107076244.94949      6950.55949        49.000  

  20187206.68849 106084486.30949      7231.83649        49.000  

  22223128.73449 116783327.44949     -7141.30549        50.000  

  24887477.37549 130784577.68049     10373.51649        48.000  

 16 04 02 12 06 59.5000000  0  6G01G18G08G10G11G21                              
  23797893.75049 125058774.51649     -3196.41449        48.000  

  22166189.96149 116484113.80149     -8476.97749        49.000  

  20375799.73449 107075550.00849      6947.14849        49.000  

  20187069.11749 106083763.34049      7226.15649        49.000  

  22223264.64149 116784041.64149     -7143.49649        50.000  

  24887279.96949 130783540.32049     10372.52349        48.000  

 16 04 02 12 06 59.6000000  0  6G01G18G08G10G11G21                              
  23797954.59449 125059094.26649     -3198.86749        48.000  

  22166351.32049 116484961.76249     -8482.03149        50.000  

  20375667.57849 107074855.50049      6942.80549        49.000  

  20186931.67249 106083041.05949      7219.29749        49.000  

  22223400.60949 116784756.15249     -7146.61349        50.000  

  24887082.60249 130782503.19149     10370.32849        48.000  

 16 04 02 12 06 59.7000000  0  6G01G18G08G10G11G21                              
  23798015.49249 125059414.25849     -3201.03549        48.000  

  22166512.77349 116485810.20749     -8486.82449        50.000  

  20375535.49249 107074161.41849      6938.71949        49.000  

  20186794.35249 106082319.43849      7212.86349        49.000  

  22223536.63349 116785470.97749     -7149.62549        50.000  

  24886885.28949 130781466.27349     10368.30549        48.000  

 16 04 02 12 06 59.8000000  0  6G01G18G08G10G11G21                              
  23798076.43049 125059734.46549     -3203.30149        48.000  

  22166674.32049 116486659.14149     -8491.69949        50.000  

  20375403.50049 107073467.76249      6934.38749        49.000  

  20186657.15649 106081598.47349      7206.22349        49.000  

  22223672.71949 116786186.10949     -7152.76249        50.000  

  24886688.00849 130780429.55149     10366.25049        48.000  

 16 04 02 12 06 59.9000000  0  6G01G18G08G10G11G21                              
  23798137.39849 125060054.89149     -3205.64849        48.000  

  22166835.95349 116487508.54749     -8496.49649        49.000  

  20375271.57849 107072774.49649      6930.34849        49.000  

  20186520.08649 106080878.14549      7199.68849        49.000  

  22223808.85249 116786901.51649     -7155.57849        50.000  

  24886490.75849 130779393.01249     10364.46549        48.000  

 16 04 02 12 07  0.0000000  0  6G01G18G08G10G11G21                              
  23798198.41449 125060375.54349     -3207.62149        48.000  

  22166997.68049 116488358.44549     -8501.27749        49.000  

  20375139.73449 107072081.66449      6926.23849        49.000  

  20186383.13349 106080158.48049      7193.37149        49.000  

  22223945.04749 116787617.23849     -7158.59449        50.000  

  24886293.54749 130778356.68449     10362.43049        48.000  

 16 04 02 12 07  0.1000000  0  6G01G18G08G10G11G21                              
  23798259.46949 125060696.36749     -3209.29349        48.000  

  22167159.49249 116489208.77049     -8505.56249        49.000  

  20375007.96149 107071389.18849      6922.62549        49.000  

  20186246.29749 106079439.41449      7187.25849        49.000  

  22224081.28949 116788333.20749     -7161.12149        50.000  

  24886096.36749 130777320.50049     10360.90649        48.000  

 16 04 02 12 07  0.2000000  0  6G01G18G08G10G11G21                              
  23798320.56249 125061017.39549     -3211.32049        48.000  

  22167321.39849 116490059.56649     -8510.26249        49.000  

  20374876.26649 107070697.12149      6918.63749        49.000  

  20186109.59449 106078721.00049      7180.77349        49.000  

  22224217.58649 116789049.45749     -7163.92649        50.000  

  24885899.21949 130776284.49649     10359.10949        48.000  

 16 04 02 12 07  0.3000000  0  6G01G18G08G10G11G21                              
  23798381.69549 125061338.64849     -3213.76649        48.000  

  22167483.38349 116490910.82849     -8514.96149        49.000  

  20374744.64849 107070005.44949      6914.43849        49.000  

  20185973.00849 106078003.21149      7174.32049        49.000  

  22224353.93849 116789765.98449     -7166.76649        50.000  

  24885702.10949 130775248.67249     10357.26649        48.000  

 16 04 02 12 07  0.4000000  0  6G01G18G08G10G11G21                              
  23798442.86749 125061660.12549     -3216.05549        48.000  

  22167645.46949 116491762.58249     -8519.98049        49.000  

  20374613.10949 107069314.20749      6910.16449        49.000  

  20185836.53949 106077286.09849      7167.73049        49.000  

  22224490.35249 116790482.84049     -7170.00049        50.000  

  24885505.03149 130774213.05949     10355.23449        48.000  

 16 04 02 12 07  0.5000000  0  6G01G18G08G10G11G21                              
  23798504.09449 125061981.88749     -3218.85949        48.000  

  22167807.65649 116492614.88349     -8525.37549        49.000  

  20374481.65649 107068623.43449      6905.48049        49.000  

  20185700.21149 106076569.69149      7160.60949        49.000  

  22224626.82849 116791200.05149     -7173.56649        50.000  

  24885308.00849 130773177.70749     10352.56649        48.000  

 16 04 02 12 07  0.6000000  0  6G01G18G08G10G11G21                              
  23798565.34449 125062303.72349     -3219.43049        48.000  

  22167969.90649 116493467.51649     -8528.58249        50.000  

  20374350.25849 107067932.92649      6902.96949        49.000  

  20185563.97749 106075853.78949      7155.77049        49.000  

  22224763.33649 116791917.40249     -7174.85549        50.000  

  24885110.98449 130772142.39849     10352.30149        48.000  

 16 04 02 12 07  0.7000000  0  6G01G18G08G10G11G21                              
  23798626.63349 125062625.80549     -3221.73049        48.000  

  22168132.25849 116494320.66049     -8533.62549        49.000  

  20374218.94549 107067242.87549      6898.63749        49.000  

  20185427.87549 106075138.56249      7149.03949        49.000  

  22224899.91449 116792635.09049     -7178.10949        50.000  

  24884914.01649 130771107.31649     10350.12149        48.000  

 16 04 02 12 07  0.8000000  0  6G01G18G08G10G11G21                              
  23798687.97749 125062948.16049     -3224.91449        48.000  

  22168294.69549 116495174.30949     -8538.94949        49.000  

  20374087.71149 107066553.25849      6893.81649        49.000  

  20185291.89849 106074424.02749      7141.75449        49.000  

  22225036.53949 116793353.09049     -7181.59449        50.000  

  24884717.09449 130770072.46549     10347.44549        48.000  

 16 04 02 12 07  0.9000000  0  6G01G18G08G10G11G21                              
  23798749.35249 125063270.70749     -3226.98449        48.000  

  22168457.23449 116496028.43849     -8543.86749        49.000  

  20373956.56249 107065864.04749      6889.65249        49.000  

  20185156.04749 106073710.13749      7135.27049        49.000  

  22225173.23449 116794071.39849     -7184.71949        50.000  

  24884520.19549 130769037.78149     10345.70349        48.000  

 16 04 02 12 07  1.0000000  0  6G01G18G08G10G11G21                              
  23798810.78149 125063593.51249     -3229.13749        48.000  

  22168619.86749 116496883.06249     -8548.61749        49.000  

  20373825.49249 107065175.27049      6885.58249        49.000  

  20185020.32849 106072996.91449      7128.80149        49.000  

  22225309.98449 116794790.01249     -7187.55549        50.000  

  24884323.35949 130768003.33649     10343.59049        48.000  

 16 04 02 12 07  1.1000000  0  6G01G18G08G10G11G21                              
  23798872.23449 125063916.47349     -3230.98049        48.000  

  22168782.57849 116497738.11749     -8552.93849        50.000  

  20373694.49249 107064486.85249      6882.07449        49.000  

  20184884.71949 106072284.28949      7122.72749        49.000  

  22225446.77349 116795508.87549     -7190.08249        50.000  

  24884126.53149 130766969.02349     10342.18049        48.000  

 16 04 02 12 07  1.2000000  0  6G01G18G08G10G11G21                              
  23798933.74249 125064239.67249     -3233.06249        48.000  

  22168945.38349 116498593.66449     -8557.79749        49.000  

  20373563.57049 107063798.87949      6877.62949        49.000  

  20184749.24249 106071572.33249      7116.21549        49.000  

  22225583.63349 116796228.05149     -7193.18049        50.000  

  24883929.75849 130765934.91449     10340.15649        48.000  

 16 04 02 12 07  1.3000000  0  6G01G18G08G10G11G21                              
  23798995.29749 125064563.14149     -3235.97349        48.000  

  22169108.28949 116499449.73449     -8563.21149        50.000  

  20373432.73449 107063111.34049      6872.93049        49.000  

  20184613.89149 106070861.07849      7108.97349        49.000  

  22225720.54749 116796947.56649     -7196.82449        50.000  

  24883733.01649 130764901.05549     10337.64849        48.000  

 16 04 02 12 07  1.4000000  0  6G01G18G08G10G11G21                              
  23799056.88349 125064886.79749     -3237.77049        48.000  

  22169271.28149 116500306.25449     -8567.62949        50.000  

  20373301.97749 107062424.19149      6869.24649        49.000  

  20184478.66449 106070150.42649      7102.96549        49.000  

  22225857.51649 116797667.34049     -7199.29749        50.000  

  24883536.30549 130763867.34849     10336.03549        48.000  

 16 04 02 12 07  1.5000000  0  6G01G18G08G10G11G21                              
  23799118.50849 125065210.62549     -3239.49649        48.000  

  22169434.35249 116501163.21549     -8571.85949        49.000  

  20373171.28149 107061737.41449      6865.69549        49.000  

  20184343.54749 106069440.39849      7097.03549        49.000  

  22225994.53149 116798387.37149     -7201.70349        50.000  

  24883339.63349 130762833.80549     10334.57849        48.000  

 16 04 02 12 07  1.6000000  0  6G01G18G08G10G11G21                              
  23799180.18049 125065534.71949     -3242.07049        48.000  

  22169597.52349 116502020.68049     -8577.09849        50.000  

  20373040.68049 107061051.08649      6861.07449        49.000  

  20184208.56249 106068731.04749      7090.05549        49.000  

  22226131.61749 116799107.73849     -7205.19549        50.000  

  24883142.99249 130761800.48049     10332.23049        48.000  

 16 04 02 12 07  1.7000000  0  6G01G18G08G10G11G21                              
  23799241.89149 125065859.00849     -3244.07049        48.000  

  22169760.78149 116502878.60549     -8581.64149        50.000  

  20372910.14149 107060365.14149      6857.19949        49.000  

  20184073.69549 106068022.32449      7083.81649        49.000  

  22226268.75049 116799828.36749     -7207.78949        50.000  

  24882946.39149 130760767.32849     10330.59849        48.000  

 16 04 02 12 07  1.8000000  0  6G01G18G08G10G11G21                              
  23799303.64149 125066183.50849     -3246.15249        48.000  

  22169924.13349 116503737.00049     -8586.33249        49.000  

  20372779.69549 107059679.60549      6853.29349        49.000  

  20183938.95349 106067314.24649      7077.36349        49.000  

  22226405.93849 116800549.30149     -7210.73449        50.000  

  24882749.81249 130759734.36749     10328.76649        48.000  

 16 04 02 12 07  1.9000000  0  6G01G18G08G10G11G21                              
  23799365.43049 125066508.19549     -3248.04349        48.000  

  22170087.56249 116504595.84449     -8590.82049        50.000  

  20372649.31249 107058994.44949      6849.37149        49.000  

  20183804.32849 106066606.78949      7071.16849        49.000  

  22226543.17249 116801270.48049     -7213.30149        50.000  

  24882553.28149 130758701.57049     10327.05149        48.000  

 16 04 02 12 07  2.0000000  0  6G01G18G08G10G11G21                              
  23799427.25849 125066833.10249     -3250.43849        48.000  

  22170251.08649 116505455.16849     -8595.69149        50.000  

  20372519.00849 107058309.70749      6845.08649        49.000  

  20183669.82849 106065899.98049      7064.53949        49.000  

  22226680.46949 116801991.96549     -7216.34049        50.000  

  24882356.77349 130757668.95749     10325.10249        48.000  

 16 04 02 12 07  2.1000000  0  6G01G18G08G10G11G21                              
  23799489.14849 125067158.30149     -3253.25449        48.000  

  22170414.71949 116506315.03949     -8601.08249        50.000  

  20372388.79749 107057625.44549      6840.33249        49.000  

  20183535.45349 106065193.88749      7057.46949        49.000  

  22226817.82849 116802713.81249     -7219.96949        50.000  

  24882160.32849 130756636.61749     10322.48849        48.000  

 16 04 02 12 07  2.2000000  0  6G01G18G08G10G11G21                              
  23799551.07049 125067483.70749     -3255.30949        48.000  

  22170578.43849 116507175.36749     -8605.74649        50.000  

  20372258.66449 107056941.57449      6836.42249        49.000  

  20183401.21149 106064488.43049      7051.10949        49.000  

  22226955.25049 116803435.93849     -7222.73049        50.000  

  24881963.91449 130755604.44949     10320.63749        48.000  

 16 04 02 12 07  2.3000000  0  6G01G18G08G10G11G21                              
  23799613.03149 125067809.31649     -3257.27749        48.000  

  22170742.24249 116508036.17649     -8610.43449        50.000  

  20372128.60249 107056258.12149      6832.35549        49.000  

  20183267.08649 106063783.62949      7044.68849        49.000  

  22227092.71949 116804158.36349     -7225.72349        50.000  

  24881767.53149 130754572.47749     10318.71549        48.000  

 16 04 02 12 07  2.4000000  0  6G01G18G08G10G11G21                              
  23799675.03149 125068135.12549     -3259.34049        48.000  

  22170906.13349 116508897.41449     -8614.75049        50.000  

  20371998.61749 107055575.03149      6828.70349        49.000  

  20183133.07849 106063079.43049      7038.48049        49.000  

  22227230.24249 116804881.03149     -7228.19549        50.000  

  24881571.18849 130753540.64549     10317.29349        48.000  

 16 04 02 12 07  2.5000000  0  6G01G18G08G10G11G21                              
  23799737.07049 125068461.17249     -3261.59449        48.000  

  22171070.11749 116509759.18049     -8619.96149        50.000  

  20371868.71949 107054892.39549      6824.22749        49.000  

  20182999.20349 106062375.91849      7031.69149        49.000  

  22227367.82049 116805604.03949     -7231.42249        50.000  

  24881374.88349 130752509.05149     10315.09049        48.000  

 16 04 02 12 07  2.6000000  0  6G01G18G08G10G11G21                              
  23799799.14849 125068787.36749     -3263.20349        48.000  

  22171234.18049 116510621.32849     -8623.83649        49.000  

  20371738.87549 107054210.07849      6820.91049        49.000  

  20182865.43849 106061672.96549      7026.04349        49.000  

  22227505.44549 116806327.25849     -7233.66449        50.000  

  24881178.59449 130751477.55949     10314.01649        48.000  

 16 04 02 12 07  2.7000000  0  6G01G18G08G10G11G21                              
  23799861.27349 125069113.85249     -3265.98049        48.000  

  22171398.34449 116511484.03549     -8629.40249        50.000  

  20371609.13349 107053528.25849      6816.08649        49.000  

  20182731.81249 106060970.75049      7018.82849        49.000  

  22227643.14149 116807050.85249     -7237.32449        50.000  

  24880982.35949 130750446.34049     10311.41849        48.000  

 16 04 02 12 07  2.8000000  0  6G01G18G08G10G11G21                              
  23799923.45349 125069440.58649     -3268.58249        48.000  

  22171562.60949 116512347.24649     -8634.55149        50.000  

  20371479.46949 107052846.87549      6811.57849        49.000  

  20182598.31249 106060269.20749      7011.88349        49.000  

  22227780.89849 116807774.75049     -7240.58249        50.000  

  24880786.17249 130749415.34849     10308.93849        48.000  

 16 04 02 12 07  2.9000000  0  6G01G18G08G10G11G21                              
  23799985.66449 125069767.50449     -3270.44949        48.000  

  22171726.95349 116513210.90249     -8639.03149        49.000  

  20371349.88349 107052165.87549      6807.76249        49.000  

  20182464.93049 106059568.27049      7005.84849        49.000  

  22227918.70349 116808498.91449     -7243.18049        50.000  

  24880590.01649 130748384.50449     10307.48049        48.000  

 16 04 02 12 07  3.0000000  0  6G01G18G08G10G11G21                              
  23800047.91449 125070094.61349     -3272.05549        48.000  

  22171891.39149 116514075.00449     -8643.39549        50.000  

  20371220.35949 107051485.25449      6804.18049        49.000  

  20182331.66449 106058867.97349      6999.77749        49.000  

  22228056.56249 116809223.36749     -7245.85949        50.000  

  24880393.87549 130747353.84049     10305.86749        48.000  

 16 04 02 12 07  3.1000000  0  6G01G18G08G10G11G21                              
  23800110.19549 125070421.88349     -3273.85549        48.000  

  22172055.89849 116514939.52349     -8647.50449        50.000  

  20371090.91449 107050804.97749      6800.60549        49.000  

  20182198.51649 106058168.25049      6993.74649        49.000  

  22228194.46149 116809948.02749     -7248.03149        50.000  

  24880197.76649 130746323.29349     10304.63349        48.000  

 16 04 02 12 07  3.2000000  0  6G01G18G08G10G11G21                              
  23800172.52349 125070749.43049     -3276.61749        48.000  

  22172220.51649 116515804.58249     -8652.89149        50.000  

  20370961.55549 107050125.18449      6795.80549        49.000  

  20182065.50049 106057469.24649      6986.65649        49.000  

  22228332.43049 116810673.05949     -7251.63349        50.000  

  24880001.71149 130745293.00849     10302.00849        48.000  

 16 04 02 12 07  3.3000000  0  6G01G18G08G10G11G21                              
  23800234.91449 125071077.25849     -3279.74249        48.000  

  22172385.23449 116516670.17649     -8658.56649        50.000  

  20370832.27349 107049445.85249      6790.79749        49.000  

  20181932.61749 106056770.94149      6979.34449        49.000  

  22228470.46949 116811398.44149     -7255.48449        50.000  

  24879805.70349 130744262.98049     10299.25049        48.000  

 16 04 02 12 07  3.4000000  0  6G01G18G08G10G11G21                              
  23800297.32849 125071405.24249     -3280.89849        48.000  

  22172550.03149 116517536.18049     -8662.45749        50.000  

  20370703.07049 107048766.86749      6787.66849        49.000  

  20181799.84449 106056073.23049      6973.69149        49.000  

  22228608.54749 116812124.04749     -7257.54749        50.000  

  24879609.71149 130743233.06249     10298.16849        48.000  

 16 04 02 12 07  3.5000000  0  6G01G18G08G10G11G21                              
  23800359.78149 125071733.44949     -3283.38349        48.000  

  22172714.91449 116518402.66849     -8667.30549        50.000  

  20370573.93849 107048088.30149      6783.32449        49.000  

  20181667.20349 106055376.18049      6966.92649        49.000  

  22228746.68049 116812849.96149     -7260.67649        50.000  

  24879413.77349 130742203.36749     10295.91449        48.000  

 16 04 02 12 07  3.6000000  0  6G01G18G08G10G11G21                              
  23800422.28949 125072061.93849     -3286.15649        48.000  

  22172879.90649 116519269.69149     -8672.71949        50.000  

  20370444.89849 107047410.20349      6778.66449        49.000  

  20181534.68849 106054679.82049      6960.03949        49.000  

  22228884.88349 116813576.22349     -7264.22749        50.000  

  24879217.86749 130741173.90649     10293.44949        48.000  

 16 04 02 12 07  3.7000000  0  6G01G18G08G10G11G21                              
  23800484.83649 125072390.60249     -3288.01649        48.000  

  22173044.97749 116520137.16049     -8677.09449        50.000  

  20370315.93849 107046732.48449      6774.93849        49.000  

  20181402.29749 106053984.09449      6953.73449        49.000  

  22229023.14149 116814302.74249     -7266.68849        50.000  

  24879022.00049 130740144.59449     10292.11349        48.000  

 16 04 02 12 07  3.8000000  0  6G01G18G08G10G11G21                              
  23800547.42249 125072719.50849     -3290.27749        48.000  

  22173210.14849 116521005.11749     -8682.07049        50.000  

  20370187.05549 107046055.19949      6770.57849        49.000  

  20181270.03149 106053289.02049      6947.31649        49.000  

  22229161.45349 116815029.58249     -7269.86349        50.000  

  24878826.16449 130739115.50849     10289.87949        48.000  

 16 04 02 12 07  3.9000000  0  6G01G18G08G10G11G21                              
  23800610.05549 125073048.66049     -3292.87149        48.000  

  22173375.40649 116521873.57849     -8687.07849        50.000  

  20370058.25049 107045378.33649      6766.28549        49.000  

  20181137.89849 106052594.62949      6940.33649        49.000  

  22229299.82049 116815756.73449     -7273.10549        50.000  

  24878630.37549 130738086.62949     10287.76249        48.000  

 16 04 02 12 07  4.0000000  0  6G01G18G08G10G11G21                              
  23800672.72749 125073377.99649     -3294.64549        48.000  

  22173540.75849 116522742.48449     -8691.43449        50.000  

  20369929.52349 107044701.86349      6762.48049        49.000  

  20181005.87549 106051900.84449      6934.39149        49.000  

  22229438.24249 116816484.14549     -7275.64849        50.000  

  24878434.61749 130737057.92249     10286.11349        48.000  

 16 04 02 12 07  4.1000000  0  6G01G18G08G10G11G21                              
  23800735.44549 125073707.55149     -3296.71149        48.000  

  22173706.19549 116523611.86349     -8696.08249        50.000  

  20369800.86749 107044025.80149      6758.54749        49.000  

  20180873.97749 106051207.72349      6927.83649        49.000  

  22229576.71949 116817211.84849     -7278.44549        50.000  

  24878238.89849 130736029.39849     10284.24249        48.000  

 16 04 02 12 07  4.2000000  0  6G01G18G08G10G11G21                              
  23800798.18849 125074037.29349     -3298.63349        48.000  

  22173871.71949 116524481.69949     -8700.69949        50.000  

  20369672.28949 107043350.11749      6754.69549        49.000  

  20180742.19549 106050515.21149      6921.62549        49.000  

  22229715.25049 116817939.82849     -7281.18449        50.000  

  24878043.20349 130735001.03949     10282.68049        48.000  

 16 04 02 12 07  4.3000000  0  6G01G18G08G10G11G21                              
  23800860.99249 125074367.30949     -3301.43849        48.000  

  22174037.34449 116525352.05149     -8705.87149        50.000  

  20369543.79749 107042674.89849      6749.89849        49.000  

  20180610.54749 106049823.41049      6914.41449        49.000  

  22229853.84449 116818668.15249     -7284.75849        50.000  

  24877847.56249 130733972.93049     10280.02749        48.000  

 16 04 02 12 07  4.4000000  0  6G01G18G08G10G11G21                              
  23800923.83649 125074697.55149     -3303.71549        48.000  

  22174203.05549 116526222.89849     -8710.90649        50.000  

  20369415.39149 107042000.10949      6745.66849        49.000  

  20180479.03149 106049132.25449      6908.06649        49.000  

  22229992.50049 116819396.77749     -7287.78149        50.000  

  24877651.96149 130732945.02749     10277.96949        48.000  

 16 04 02 12 07  4.5000000  0  6G01G18G08G10G11G21                              
  23800986.71149 125075027.98049     -3305.69949        48.000  

  22174368.85949 116527094.17649     -8715.29349        50.000  

  20369287.05549 107041325.68049      6741.94549        49.000  

  20180347.62549 106048441.71949      6901.73449        49.000  

  22230131.19549 116820125.65249     -7290.43049        50.000  

  24877456.38349 130731917.26649     10276.59849        48.000  

 16 04 02 12 07  4.6000000  0  6G01G18G08G10G11G21                              
  23801049.64149 125075358.66049     -3307.82849        48.000  

  22174534.75849 116527965.97749     -8720.18449        50.000  

  20369158.79749 107040651.70349      6737.72749        49.000  

  20180216.35249 106047751.87149      6895.19949        49.000  

  22230269.96149 116820854.87149     -7293.43849        50.000  

  24877260.85249 130730889.72749     10274.69549        48.000  

 16 04 02 12 07  4.7000000  0  6G01G18G08G10G11G21                              
  23801112.60249 125075689.52749     -3309.94949        48.000  

  22174700.73449 116528838.21149     -8724.77349        50.000  

  20369030.62549 107039978.10949      6733.57849        49.000  

  20180085.18849 106047062.64149      6888.77349        49.000  

  22230408.77349 116821584.34049     -7296.28549        50.000  

  24877065.35249 130729862.37949     10272.43449        48.000  

 16 04 02 12 07  4.8000000  0  6G01G18G08G10G11G21                              
  23801175.60249 125076020.58649     -3311.45349        48.000  

  22174866.80549 116529710.89849     -8729.03149        50.000  

  20368902.51649 107039304.89149      6730.30549        49.000  

  20179954.15649 106046374.02749      6882.98449        49.000  

  22230547.64149 116822314.07849     -7298.54349        50.000  

  24876869.87549 130728835.15249     10271.53149        48.000  

 16 04 02 12 07  4.9000000  0  6G01G18G08G10G11G21                              
  23801238.62549 125076351.81249     -3313.30549        48.000  

  22175032.95349 116530584.00049     -8733.29749        50.000  

  20368774.47749 107038632.03149      6726.41849        49.000  

  20179823.22749 106045686.00849      6876.79749        49.000  

  22230686.54749 116823044.04349     -7301.15249        50.000  

  24876674.43849 130727808.09449     10269.66849        48.000  

 16 04 02 12 07  5.0000000  0  6G01G18G08G10G11G21                              
  23801301.70349 125076683.28549     -3315.87949        48.000  

  22175199.19549 116531457.62949     -8738.53149        50.000  

  20368646.51649 107037959.62149      6721.99649        49.000  

  20179692.43049 106044998.67649      6870.02049        49.000  

  22230825.51649 116823774.35549     -7304.48049        50.000  

  24876479.03149 130726781.25449     10267.50449        48.000  

 16 04 02 12 07  5.1000000  0  6G01G18G08G10G11G21                              
  23801364.83649 125077015.02049     -3318.74249        48.000  

  22175365.53949 116532331.75849     -8743.87949        50.000  

  20368518.64149 107037287.66049      6717.19949        49.000  

  20179561.77349 106044312.03949      6862.74649        49.000  

  22230964.55549 116824504.99649     -7308.05549        50.000  

  24876283.67249 130725754.65249     10264.97349        48.000  

 16 04 02 12 07  5.2000000  0  6G01G18G08G10G11G21                              
  23801427.99249 125077346.92649     -3320.21949        48.000  

  22175531.96149 116533206.31249     -8747.89149        50.000  

  20368390.84449 107036616.05149      6713.90249        49.000  

  20179431.21949 106043625.98449      6857.12549        49.000  

  22231103.63349 116825235.87149     -7310.17649        50.000  

  24876088.34449 130724728.18049     10263.79349        48.000  

 16 04 02 12 07  5.3000000  0  6G01G18G08G10G11G21                              
  23801491.20349 125077679.12949     -3323.11349        48.000  

  22175698.48449 116534081.43049     -8753.52049        50.000  

  20368263.13349 107035944.94149      6708.98049        49.000  

  20179300.80549 106042940.66849      6849.80149        49.000  

  22231242.79749 116825967.12949     -7313.99249        50.000  

  24875893.06249 130723701.98449     10261.07849        48.000  

 16 04 02 12 07  5.4000000  0  6G01G18G08G10G11G21                              
  23801554.44549 125078011.46949     -3324.86749        48.000  

  22175865.09449 116534956.95749     -8757.76649        50.000  

  20368135.49249 107035274.18849      6705.19149        49.000  

  20179170.50849 106042255.93849      6843.76249        49.000  

  22231381.99249 116826698.61749     -7316.44149        50.000  

  24875697.81249 130722675.91449     10259.69949        48.000  

 16 04 02 12 07  5.5000000  0  6G01G18G08G10G11G21                              
  23801617.74249 125078344.09449     -3327.45749        48.000  

  22176031.79749 116535833.00849     -8762.92249        50.000  

  20368007.94549 107034603.87949      6700.80149        49.000  

  20179040.33649 106041571.90249      6836.86749        49.000  

  22231521.25049 116827430.44949     -7319.92649        50.000  

  24875502.60249 130721650.09049     10257.27049        48.000  

 16 04 02 12 07  5.6000000  0  6G01G18G08G10G11G21                              
  23801681.08649 125078676.96549     -3329.83249        48.000  

  22176198.60249 116536709.55149     -8767.80549        50.000  

  20367880.46949 107033934.00449      6696.54349        49.000  

  20178910.29749 106040888.53949      6830.19549        49.000  

  22231660.57049 116828162.58249     -7322.80149        50.000  

  24875307.43849 130720624.47749     10255.23049        48.000  

 16 04 02 12 07  5.7000000  0  6G01G18G08G10G11G21                              
  23801744.45349 125079009.96149     -3331.08249        48.000  

  22176365.47749 116537586.49249     -8771.82049        50.000  

  20367753.05549 107033264.46549      6693.07449        49.000  

  20178780.36749 106040205.75449      6824.38749        49.000  

  22231799.93849 116828894.93849     -7325.05549        50.000  

  24875112.28949 130719599.00049     10253.69549        48.000  

 16 04 02 12 07  5.8000000  0  6G01G18G08G10G11G21                              
  23801807.85949 125079343.16449     -3333.15649        48.000  

  22176532.44549 116538463.89849     -8776.24649        50.000  

  20367625.71949 107032595.32849      6689.29749        49.000  

  20178650.55549 106039523.59049      6818.33649        49.000  

  22231939.35249 116829627.57849     -7327.61749        50.000  

  24874917.18049 130718573.65649     10252.41449        48.000  

 16 04 02 12 07  5.9000000  0  6G01G18G08G10G11G21                              
  23801871.32849 125079676.65249     -3336.10249        48.000  

  22176699.50849 116539341.82849     -8781.77049        50.000  

  20367498.47749 107031926.63749      6684.59049        49.000  

  20178520.86749 106038842.13349      6811.04349        49.000  

  22232078.83649 116830360.56649     -7331.50849        50.000  

  24874722.10949 130717548.58249     10249.79749        48.000  

 16 04 02 12 07  6.0000000  0  6G01G18G08G10G11G21                              
  23801934.82049 125080010.30949     -3337.80949        48.000  

  22176866.65649 116540220.20349     -8786.11749        50.000  

  20367371.30549 107031258.34049      6680.67249        49.000  

  20178391.31249 106038161.28949      6804.95349        49.000  

  22232218.36749 116831093.80949     -7333.99249        50.000  

  24874527.07849 130716523.66449     10248.18849        48.000  

 16 04 02 12 07  6.1000000  0  6G01G18G08G10G11G21                              
  23801998.35249 125080344.19549     -3340.12549        48.000  

  22177033.89849 116541099.05149     -8790.82449        50.000  

  20367244.21149 107030590.44949      6676.62549        49.000  

  20178261.87549 106037481.10249      6798.41049        49.000  

  22232357.95349 116831827.33649     -7336.73849        50.000  

  24874332.07849 130715498.93449     10246.34449        48.000  

 16 04 02 12 07  6.2000000  0  6G01G18G08G10G11G21                              
  23802061.93849 125080678.33649     -3342.55149        48.000  

  22177201.23449 116541978.41849     -8796.06249        50.000  

  20367117.19549 107029923.00849      6672.18849        49.000  

  20178132.57049 106036801.60549      6791.43449        49.000  

  22232497.60249 116832561.20749     -7340.27749        50.000  

  24874137.12549 130714474.44549     10243.86349        48.000  

 16 04 02 12 07  6.3000000  0  6G01G18G08G10G11G21                              
  23802125.55549 125081012.68449     -3344.93849        48.000  

  22177368.65649 116542858.25449     -8800.79749        50.000  

  20366990.26649 107029255.97349      6668.05149        49.000  

  20178003.39149 106036122.74249      6785.10549        49.000  

  22232637.30549 116833295.36349     -7343.16449        50.000  

  24873942.20349 130713450.12549     10242.14149        48.000  

 16 04 02 12 07  6.4000000  0  6G01G18G08G10G11G21                              
  23802189.22749 125081347.28949     -3347.34849        48.000  

  22177536.18049 116543738.59849     -8805.96949        50.000  

  20366863.41449 107028589.37949      6663.73849        49.000  

  20177874.33649 106035444.56249      6778.33249        49.000  

  22232777.07049 116834029.84849     -7346.35249        50.000  

  24873747.32849 130712426.04749     10239.83249        48.000  

 16 04 02 12 07  6.5000000  0  6G01G18G08G10G11G21                              
  23802252.94549 125081682.13749     -3349.73849        48.000  

  22177703.79749 116544619.43849     -8810.82849        50.000  

  20366736.65649 107027923.22349      6659.39149        49.000  

  20177745.41449 106034767.06249      6771.55949        49.000  

  22232916.90649 116834764.64849     -7349.45349        50.000  

  24873552.49249 130711402.17249     10237.85249        48.000  

 16 04 02 12 07  6.6000000  0  6G01G18G08G10G11G21                              
  23802316.69549 125082017.15649     -3351.43049        48.000  

  22177871.50049 116545500.71149     -8815.22349        50.000  

  20366609.96149 107027257.43849      6655.60249        49.000  

  20177616.60249 106034090.15649      6765.53949        49.000  

  22233056.78149 116835499.69549     -7351.97749        50.000  

  24873357.68049 130710378.45349     10236.21949        48.000  

 16 04 02 12 07  6.7000000  0  6G01G18G08G10G11G21                              
  23802380.49249 125082352.38749     -3353.59849        48.000  

  22178039.29749 116546382.44949     -8819.80149        50.000  

  20366483.34449 107026592.04749      6651.71549        49.000  

  20177487.92249 106033413.90249      6759.09849        49.000  

  22233196.71149 116836235.03549     -7354.94949        50.000  

  24873162.90649 130709354.92649     10234.26249        48.000  

 16 04 02 12 07  6.8000000  0  6G01G18G08G10G11G21                              
  23802444.32849 125082687.85549     -3355.87549        48.000  

  22178207.18049 116547264.68049     -8824.66449        50.000  

  20366356.80549 107025927.09449      6647.39849        49.000  

  20177359.35949 106032738.31649      6752.45749        49.000  

  22233336.69549 116836970.67249     -7357.78149        50.000  

  24872968.18049 130708331.59449     10232.39149        48.000  

 16 04 02 12 07  6.9000000  0  6G01G18G08G10G11G21                              
  23802508.21949 125083023.54749     -3357.95749        48.000  

  22178375.15649 116548147.39149     -8829.43849        50.000  

  20366230.35249 107025262.56249      6643.11349        49.000  

  20177230.93049 106032063.37949      6745.89549        49.000  

  22233476.74249 116837706.62949     -7360.98049        50.000  

  24872773.48449 130707308.46949     10230.33649        48.000  

 16 04 02 12 07  7.0000000  0  6G01G18G08G10G11G21                              
  23802572.14149 125083359.46549     -3360.46949        48.000  

  22178543.22749 116549030.59049     -8834.56649        50.000  

  20366103.96949 107024598.43849      6638.64149        49.000  

  20177102.61749 106031389.10949      6739.03949        49.000  

  22233616.85249 116838442.87149     -7364.07049        50.000  

  24872578.82049 130706285.53149     10228.17249        48.000  

 16 04 02 12 07  7.1000000  0  6G01G18G08G10G11G21                              
  23802636.10949 125083695.62549     -3362.91849        48.000  

  22178711.38349 116549914.27749     -8839.37149        50.000  

  20365977.67249 107023934.74649      6634.68849        49.000  

  20176974.43849 106030715.49249      6732.58649        49.000  

  22233757.00849 116839179.43449     -7367.20349        50.000  

  24872384.20349 130705262.82049     10226.10949        48.000  

 16 04 02 12 07  7.2000000  0  6G01G18G08G10G11G21                              
  23802700.13349 125084032.06649     -3365.75849        48.000  

  22178879.64849 116550798.49649     -8844.71149        50.000  

  20365851.46149 107023271.51649      6629.91449        49.000  

  20176846.38349 106030042.59049      6725.43049        49.000  

  22233897.23449 116839916.33249     -7370.70349        50.000  

  24872189.63349 130704240.34449     10223.64549        48.000  

 16 04 02 12 07  7.3000000  0  6G01G18G08G10G11G21                              
  23802764.18849 125084368.65649     -3367.19149        48.000  

  22179047.99249 116551683.13749     -8848.77749        50.000  

  20365725.32049 107022608.62949      6626.80149        49.000  

  20176718.44549 106029370.28149      6719.69949        49.000  

  22234037.51649 116840653.50049     -7373.06649        50.000  

  24871995.09449 130703218.00849     10222.44949        48.000  

 16 04 02 12 07  7.4000000  0  6G01G18G08G10G11G21                              
  23802828.27349 125084705.44149     -3369.24249        48.000  

  22179216.41449 116552568.22349     -8853.31249        50.000  

  20365599.25849 107021946.14849      6622.43449        49.000  

  20176590.62549 106028698.59449      6713.34049        49.000  

  22234177.83649 116841390.90249     -7375.53949        50.000  

  24871800.57849 130702195.84449     10220.65249        48.000  

 16 04 02 12 07  7.5000000  0  6G01G18G08G10G11G21                              
  23802892.41449 125085042.48449     -3371.61349        48.000  

  22179384.93849 116553453.82849     -8858.43849        50.000  

  20365473.28149 107021284.14149      6617.94549        49.000  

  20176462.94549 106028027.59849      6706.50049        49.000  

  22234318.22749 116842128.65249     -7378.98049        50.000  

  24871606.10949 130701173.90649     10218.44949        48.000  

 16 04 02 12 07  7.6000000  0  6G01G18G08G10G11G21                              
  23802956.59449 125085379.74649     -3373.86349        48.000  

  22179553.55549 116554339.89849     -8862.99249        50.000  

  20365347.37549 107020622.50449      6614.19949        49.000  

  20176335.37549 106027357.24249      6700.17649        49.000  

  22234458.67249 116842866.68449     -7381.85549        50.000  

  24871411.67249 130700152.15649     10216.54349        48.000  

 16 04 02 12 07  7.7000000  0  6G01G18G08G10G11G21                              
  23803020.79749 125085717.11749     -3374.90649        48.000  

  22179722.23449 116555226.35249     -8866.80949        50.000  

  20365221.52349 107019961.18849      6611.14149        49.000  

  20176207.92249 106026687.43849      6694.73049        49.000  

  22234599.14849 116843604.91049     -7383.72349        50.000  

  24871217.25849 130699130.50449     10215.65649        48.000  

 16 04 02 12 07  7.8000000  0  6G01G18G08G10G11G21                              
  23803085.03949 125086054.73449     -3377.35949        48.000  

  22179891.01649 116556113.29349     -8871.72349        49.000  

  20365095.76649 107019300.31649      6606.47349        49.000  

  20176080.59449 106026018.31649      6687.80949        49.000  

  22234739.69549 116844343.45749     -7386.84049        50.000  

  24871022.88349 130698109.05949     10213.53149        48.000  

 16 04 02 12 07  7.9000000  0  6G01G18G08G10G11G21                              
  23803149.34449 125086392.63349     -3380.28549        48.000  

  22180059.89849 116557000.76649     -8877.12949        50.000  

  20364970.09449 107018639.89149      6602.03949        49.000  

  20175953.39149 106025349.87549      6680.85949        49.000  

  22234880.29749 116845082.34049     -7390.30149        50.000  

  24870828.55549 130697087.85249     10211.13349        48.000  

 16 04 02 12 07  8.0000000  0  6G01G18G08G10G11G21                              
  23803213.69549 125086730.79349     -3382.96949        48.000  

  22180228.88349 116557888.76249     -8882.51249        49.000  

  20364844.50849 107017979.93449      6597.23849        49.000  

  20175826.32849 106024682.14549      6673.75449        49.000  

  22235020.96949 116845821.57449     -7393.90249        50.000  

  24870634.26649 130696066.89549     10208.53149        48.000  

 16 04 02 12 07  8.1000000  0  6G01G18G08G10G11G21                              
  23803278.07049 125087069.10549     -3384.32849        48.000  

  22180397.93849 116558777.16849     -8886.42649        49.000  

  20364718.99249 107017320.32449      6593.94149        49.000  

  20175699.38349 106024015.00849      6667.95349        49.000  

  22235161.68849 116846561.04749     -7396.26249        50.000  

  24870440.01649 130695046.07049     10207.25449        48.000  

 16 04 02 12 07  8.2000000  0  6G01G18G08G10G11G21                              
  23803342.49249 125087407.66049     -3386.93049        48.000  

  22180567.09449 116559666.05549     -8891.21549        49.000  

  20364593.55549 107016661.13749      6589.62549        49.000  

  20175572.54749 106023348.51649      6661.30549        49.000  

  22235302.45349 116847300.80549     -7399.06249        50.000  

  24870245.78949 130694025.44549     10205.28549        48.000  

 16 04 02 12 07  8.3000000  0  6G01G18G08G10G11G21                              
  23803406.96149 125087746.40649     -3388.71949        48.000  

  22180736.32849 116560555.42649     -8895.87949        49.000  

  20364468.19549 107016002.36749      6585.68849        49.000  

  20175445.84449 106022682.68049      6655.06249        49.000  

  22235443.28149 116848040.87549     -7402.06249        50.000  

  24870051.60249 130693005.00849     10203.67249        48.000  

 16 04 02 12 07  8.4000000  0  6G01G18G08G10G11G21                              
  23803471.45349 125088085.34849     -3390.44149        48.000  

  22180905.65649 116561445.22749     -8900.19149        49.000  

  20364342.90649 107015343.95749      6582.03149        49.000  

  20175319.25049 106022017.46149      6648.96149        49.000  

  22235584.15649 116848781.17249     -7404.23049        50.000  

  24869857.45349 130691984.72749     10202.05549        48.000  

 16 04 02 12 07  8.5000000  0  6G01G18G08G10G11G21                              
  23803536.00049 125088424.53949     -3393.18449        48.000  

  22181075.07049 116562335.53149     -8905.45349        49.000  

  20364217.69549 107014685.99649      6577.29349        49.000  

  20175192.78949 106021352.90649      6642.07449        49.000  

  22235725.09449 116849521.81649     -7407.95349        50.000  

  24869663.34449 130690964.66049     10199.64849        48.000  

 16 04 02 12 07  8.6000000  0  6G01G18G08G10G11G21                              
  23803600.57849 125088763.88349     -3394.61749        48.000  

  22181244.57049 116563226.25449     -8909.56249        50.000  

  20364092.55549 107014028.37949      6573.98449        49.000  

  20175066.44549 106020688.95749      6636.13349        49.000  

  22235866.07849 116850262.69149     -7410.12949        50.000  

  24869469.25049 130689944.74249     10198.32849        48.000  

 16 04 02 12 07  8.7000000  0  6G01G18G08G10G11G21                              
  23803665.19549 125089103.46149     -3396.91849        48.000  

  22181414.15649 116564117.45749     -8914.30149        50.000  

  20363967.50049 107013371.19549      6569.73049        49.000  

  20174940.21949 106020025.65649      6629.65649        49.000  

  22236007.11749 116851003.86749     -7413.18449        50.000  

  24869275.20349 130688925.01249     10196.39849        48.000  

 16 04 02 12 07  8.8000000  0  6G01G18G08G10G11G21                              
  23803729.85249 125089443.25849     -3399.18849        48.000  

  22181583.84449 116565009.15249     -8919.31249        49.000  

  20363842.51649 107012714.42249      6565.47749        49.000  

  20174814.12549 106019363.02749      6622.87149        49.000  

  22236148.21949 116851745.34849     -7416.30149        50.000  

  24869081.20349 130687905.49249     10194.24249        48.000  

 16 04 02 12 07  8.9000000  0  6G01G18G08G10G11G21                              
  23803794.57049 125089783.30149     -3401.76249        48.000  

  22181753.60949 116565901.31249     -8924.05149        50.000  

  20363717.61749 107012058.07049      6561.33249        49.000  

  20174688.14849 106018701.03949      6616.43049        49.000  

  22236289.36749 116852487.10549     -7419.02349        50.000  

  24868887.23449 130686886.15649     10192.32449        48.000  

 16 04 02 12 07  9.0000000  0  6G01G18G08G10G11G21                              
  23803859.31249 125090123.52349     -3403.71549        48.000  

  22181923.47749 116566793.94149     -8928.84449        50.000  

  20363592.78949 107011402.11349      6557.22349        49.000  

  20174562.29749 106018039.69949      6609.67649        49.000  

  22236430.57049 116853229.15649     -7422.07449        50.000  

  24868693.28149 130685867.00449     10190.47749        48.000  

 16 04 02 12 07  9.1000000  0  6G01G18G08G10G11G21                              
  23803924.10249 125090464.00049     -3405.95349        48.000  

  22182093.43049 116567687.07849     -8933.82449        50.000  

  20363468.05549 107010746.59849      6552.85949        49.000  

  20174436.57049 106017379.02049      6603.15649        49.000  

  22236571.84449 116853971.53949     -7425.43449        50.000  

  24868499.38349 130684848.07449     10188.34849        48.000  

 16 04 02 12 07  9.2000000  0  6G01G18G08G10G11G21                              
  23803988.94549 125090804.74249     -3408.64849        48.000  

  22182263.48449 116568580.71949     -8938.89549        49.000  

  20363343.39849 107010091.53149      6548.38749        49.000  

  20174310.98449 106016719.04349      6596.25849        49.000  

  22236713.18049 116854714.25449     -7428.71149        50.000  

  24868305.53149 130683829.37949     10186.00049        48.000  

 16 04 02 12 07  9.3000000  0  6G01G18G08G10G11G21                              
  23804053.80549 125091145.62149     -3409.91449        48.000  

  22182433.61749 116569474.75849     -8942.65649        49.000  

  20363218.80549 107009436.80549      6545.13749        49.000  

  20174185.50049 106016059.64849      6590.57449        49.000  

  22236854.54749 116855457.17649     -7430.69549        50.000  

  24868111.70349 130682810.80949     10184.77049        48.000  

 16 04 02 12 07  9.4000000  0  6G01G18G08G10G11G21                              
  23804118.71949 125091486.72349     -3412.22749        48.000  

  22182603.83649 116570369.27749     -8947.48849        49.000  

  20363094.28949 107008782.48449      6541.05549        49.000  

  20174060.14149 106015400.88349      6584.16049        49.000  

  22236995.97749 116856200.39549     -7433.60549        50.000  

  24867917.89849 130681792.40649     10183.09049        48.000  

 16 04 02 12 07  9.5000000  0  6G01G18G08G10G11G21                              
  23804183.66449 125091828.02749     -3414.00849        48.000  

  22182774.14849 116571264.26249     -8952.03549        49.000  

  20362969.85949 107008128.59049      6536.94549        49.000  

  20173934.91449 106014742.77349      6577.85549        49.000  

  22237137.46949 116856943.90249     -7436.36749        50.000  

  24867724.14149 130680774.20749     10181.21949        48.000  

 16 04 02 12 07  9.6000000  0  6G01G18G08G10G11G21                              
  23804248.65649 125092169.58249     -3416.75449        48.000  

  22182944.54749 116572159.73049     -8957.09849        49.000  

  20362845.50849 107007475.08249      6532.53549        49.000  

  20173809.80549 106014085.31649      6570.92649        49.000  

  22237279.00849 116857687.71149     -7439.66849        50.000  

  24867530.43049 130679756.19949     10179.02049        48.000  

 16 04 02 12 07  9.7000000  0  6G01G18G08G10G11G21                              
  23804313.69549 125092511.35549     -3419.03949        48.000  

  22183115.04749 116573055.69549     -8961.99249        49.000  

  20362721.23449 107006822.02349      6528.28949        49.000  

  20173684.82049 106013428.53149      6564.25849        49.000  

  22237420.60949 116858431.83249     -7442.73849        50.000  

  24867336.75049 130678738.40649     10177.00849        48.000  

 16 04 02 12 07  9.8000000  0  6G01G18G08G10G11G21                              
  23804378.77349 125092853.32449     -3420.90249        48.000  

  22183285.62549 116573952.09849     -8966.39149        49.000  

  20362597.03149 107006169.34449      6524.53149        49.000  

  20173559.95349 106012772.36349      6558.32049        49.000  

  22237562.26649 116859176.21549     -7445.21949        50.000  

  24867143.08649 130677720.78549     10175.32049        48.000  

 16 04 02 12 07  9.9000000  0  6G01G18G08G10G11G21                              
  23804443.89849 125093195.54349     -3423.33649        48.000  

  22183456.30549 116574849.01649     -8971.50849        49.000  

  20362472.92249 107005517.11349      6520.12149        49.000  

  20173435.22749 106012116.89849      6551.24649        49.000  

  22237703.98449 116859920.93449     -7448.59849        50.000  

  24866949.48449 130676703.38349     10173.07449        48.000  

 16 04 02 12 07 10.0000000  0  6G01G18G08G10G11G21                              
  23804509.05549 125093537.95749     -3425.40249        48.000  

  22183627.06249 116575746.37949     -8976.09849        49.000  

  20362348.87549 107004865.26649      6516.26649        49.000  

  20173310.60949 106011462.03949      6545.03149        49.000  

  22237845.74249 116860665.90649     -7451.25849        50.000  

  24866755.89849 130675686.14149     10171.46549        48.000  

 16 04 02 12 07 10.1000000  0  6G01G18G08G10G11G21                              
  23804574.25849 125093880.59849     -3427.62549        48.000  

  22183797.91449 116576644.22349     -8980.87949        49.000  

  20362224.90649 107004213.82049      6512.12949        49.000  

  20173186.11749 106010807.82449      6538.56249        49.000  

  22237987.57049 116861411.18849     -7454.31649        50.000  

  24866562.36749 130674669.10249     10169.44149        48.000  

 16 04 02 12 07 10.2000000  0  6G01G18G08G10G11G21                              
  23804639.50849 125094223.47749     -3430.02049        48.000  

  22183968.86749 116577542.55549     -8985.73049        49.000  

  20362101.03149 107003562.83249      6507.68449        49.000  

  20173061.75849 106010154.31249      6531.60949        49.000  

  22238129.44549 116862156.78149     -7457.35549        50.000  

  24866368.86749 130673652.28149     10167.27749        48.000  

 16 04 02 12 07 10.3000000  0  6G01G18G08G10G11G21                              
  23804704.78949 125094566.53549     -3431.65649        48.000  

  22184139.89849 116578441.32849     -8989.96549        49.000  

  20361977.21949 107002912.20749      6504.12549        49.000  

  20172937.50849 106009501.38749      6525.84049        49.000  

  22238271.37549 116862902.62549     -7459.84849        50.000  

  24866175.39849 130672635.60949     10165.80549        48.000  

 16 04 02 12 07 10.4000000  0  6G01G18G08G10G11G21                              
  23804770.11749 125094909.82849     -3434.08249        48.000  

  22184311.02349 116579340.59449     -8994.92249        49.000  

  20361853.49249 107002262.01649      6499.90649        49.000  

  20172813.39149 106008849.12949      6519.25049        49.000  

  22238413.36749 116863648.78949     -7462.89549        50.000  

  24865981.96949 130671619.13749     10163.97349        48.000  

 16 04 02 12 07 10.5000000  0  6G01G18G08G10G11G21                              
  23804835.47749 125095253.31249     -3436.12549        48.000  

  22184482.22749 116580240.30949     -8999.54749        50.000  

  20361729.84449 107001612.20349      6495.78549        49.000  

  20172689.39149 106008197.50849      6512.78949        49.000  

  22238555.40649 116864395.21149     -7465.73449        50.000  

  24865788.57049 130670602.84449     10162.05949        48.000  

 16 04 02 12 07 10.6000000  0  6G01G18G08G10G11G21                              
  23804900.88349 125095597.00449     -3437.90249        48.000  

  22184653.52349 116581140.48049     -9003.96149        49.000  

  20361606.26649 107000962.79749      6492.01249        49.000  

  20172565.50849 106007546.51649      6506.63349        49.000  

  22238697.50049 116865141.92649     -7468.46949        50.000  

  24865595.21149 130669586.73849     10160.23449        48.000  

 16 04 02 12 07 10.7000000  0  6G01G18G08G10G11G21                              
  23804966.32049 125095940.89149     -3439.77749        48.000  

  22184824.90649 116582041.09849     -9008.38349        49.000  

  20361482.76649 107000313.76649      6488.41849        49.000  

  20172441.75049 106006896.14849      6500.44949        49.000  

  22238839.64149 116865888.89149     -7470.93849        50.000  

  24865401.88349 130668570.77349     10158.89149        48.000  

 16 04 02 12 07 10.8000000  0  6G01G18G08G10G11G21                              
  23805031.80549 125096284.98849     -3442.44949        48.000  

  22184996.37549 116582942.18849     -9013.41449        49.000  

  20361359.33649 106999665.14849      6483.72749        49.000  

  20172318.10949 106006246.42649      6493.61749        49.000  

  22238981.84449 116866636.14849     -7474.12949        50.000  

  24865208.57849 130667555.01249     10156.59049        48.000  

 16 04 02 12 07 10.9000000  0  6G01G18G08G10G11G21                              
  23805097.34449 125096629.40649     -3445.56649        48.000  

  22185167.96149 116583843.84049     -9019.04749        49.000  

  20361236.00049 106999017.03949      6478.73049        49.000  

  20172194.61749 106005597.45349      6486.05949        49.000  

  22239124.11749 116867383.79749     -7478.07049        50.000  

  24865015.33649 130666539.53949     10153.64849        48.000  

 16 04 02 12 07 11.0000000  0  6G01G18G08G10G11G21                              
  23805162.91449 125096974.00049     -3447.05949        48.000  

  22185339.62549 116584745.93849     -9023.33249        49.000  

  20361112.74249 106998369.30149      6475.18449        49.000  

  20172071.24249 106004949.09449      6480.17249        49.000  

  22239266.43849 116868131.71149     -7480.52749        50.000  

  24864822.13349 130665524.21549     10152.25449        48.000  

 16 04 02 12 07 11.1000000  0  6G01G18G08G10G11G21                              
  23805228.51649 125097318.74249     -3448.50849        48.000  

  22185511.36749 116585648.43449     -9027.18049        49.000  

  20360989.54749 106997721.90649      6471.92249        49.000  

  20171947.97749 106004301.30549      6474.59849        49.000  

  22239408.80549 116868879.83649     -7482.56649        50.000  

  24864628.94549 130664509.00849     10151.32049        48.000  

 16 04 02 12 07 11.2000000  0  6G01G18G08G10G11G21                              
  23805294.16449 125097663.71949     -3450.84849        48.000  

  22185683.19549 116586551.41449     -9031.98449        49.000  

  20360866.43049 106997074.93049      6467.71149        49.000  

  20171824.82849 106003654.18449      6467.89549        49.000  

  22239551.22749 116869628.26649     -7485.59049        50.000  

  24864435.79749 130663494.01649     10149.15649        48.000  

 16 04 02 12 07 11.3000000  0  6G01G18G08G10G11G21                              
  23805359.84449 125098008.86749     -3452.66049        48.000  

  22185855.11749 116587454.83249     -9036.36749        49.000  

  20360743.39149 106996428.33249      6463.90249        49.000  

  20171701.80549 106003007.66849      6461.80149        49.000  

  22239693.70349 116870376.95749     -7488.24249        50.000  

  24864242.68049 130662479.17249     10147.61749        48.000  

 16 04 02 12 07 11.4000000  0  6G01G18G08G10G11G21                              
  23805425.57049 125098354.28549     -3455.46549        48.000  

  22186027.12549 116588358.76649     -9041.71949        49.000  

  20360620.43049 106995782.18849      6459.28149        49.000  

  20171578.91449 106002361.86349      6454.52349        49.000  

  22239836.23449 116871125.97749     -7491.70349        50.000  

  24864049.60249 130661464.55549     10145.19149        48.000  

 16 04 02 12 07 11.5000000  0  6G01G18G08G10G11G21                              
  23805491.34449 125098699.94549     -3457.89149        48.000  

  22186199.23449 116589263.19949     -9046.71549        49.000  

  20360497.55549 106995136.47749      6454.81249        49.000  

  20171456.14149 106001716.71149      6447.91449        49.000  

  22239978.82849 116871875.32049     -7494.96149        50.000  

  24863856.57049 130660450.16849     10142.89549        48.000  

 16 04 02 12 07 11.6000000  0  6G01G18G08G10G11G21                              
  23805557.16449 125099045.82049     -3460.23049        48.000  

  22186371.43849 116590168.10549     -9051.62949        49.000  

  20360374.75849 106994491.17649      6450.58649        49.000  

  20171333.50049 106001072.21149      6441.37549        49.000  

  22240121.47749 116872624.95349     -7497.96549        50.000  

  24863663.57049 130659435.97349     10140.81649        48.000  

 16 04 02 12 07 11.7000000  0  6G01G18G08G10G11G21                              
  23805623.02349 125099391.89549     -3461.98049        48.000  

  22186543.71949 116591073.46949     -9056.02349        49.000  

  20360252.03949 106993846.27349      6446.86349        49.000  

  20171210.97749 106000428.35949      6435.06649        49.000  

  22240264.18849 116873374.87149     -7500.60549        50.000  

  24863470.60949 130658421.94549     10139.32449        48.000  

 16 04 02 12 07 11.8000000  0  6G01G18G08G10G11G21                              
  23805688.92249 125099738.20349     -3464.08649        48.000  

  22186716.09449 116591979.30949     -9060.67249        49.000  

  20360129.39849 106993201.79749      6442.68449        49.000  

  20171088.57849 105999785.16049      6428.64849        49.000  

  22240406.94549 116874125.07049     -7503.46149        50.000  

  24863277.68849 130657408.12149     10137.41049        48.000  

 16 04 02 12 07 11.9000000  0  6G01G18G08G10G11G21                              
  23805754.85249 125100084.66849     -3465.66049        48.000  

  22186888.55549 116592885.56649     -9064.82049        49.000  

  20360006.82849 106992557.66449      6439.19949        49.000  

  20170966.29749 105999142.54749      6422.71949        49.000  

  22240549.75849 116874875.53549     -7505.97749        50.000  

  24863084.78949 130656394.42649     10136.07049        48.000  

