     2.10           OBSERVATION DATA    G (GPS)             RINEX VERSION / TYPE
Convert v1.8.0                          07-Jun-2016 18:56   PGM / RUN BY / DATE 
Signal Strength values S1,S2 are in dBHz                    COMMENT             
                                                            MARKER NAME         
                                                            MARKER NUMBER       
                                                            OBSERVER / AGENCY   
                    NovAtel GPSCard                         REC # / TYPE / VERS 
                                                            ANT # / TYPE        
0.0000        0.0000        0.0000                          APPROX POSITION XYZ 
        0.0000        0.0000        0.0000                  ANTENNA: DELTA H/E/N
     1     1                                                WAVELENGTH FACT L1/2
     1     1     7   G01   G03   G08   G10   G11   G14   G17WAVELENGTH FACT L1/2
     1     1     5   G22   G23   G27   G28   G32            WAVELENGTH FACT L1/2
                                                            COMMENT             
                                                            COMMENT             
                                                            COMMENT             
                                                            COMMENT             
                                                            COMMENT             
     4    C1    L1    D1    S1                              # / TYPES OF OBSERV 
     0.100                                                  INTERVAL            
  2016    04    02    13    46     7.0000000    GPS         TIME OF FIRST OBS   
  2016    04    02    13    50    27.5000000    GPS         TIME OF LAST OBS    
Leap Seconds Unknown                                        COMMENT             
                                                            END OF HEADER       
 16 04 02 13 46  7.0000000  0  1G11                                             
  22315644.59449 117269502.96159      -583.24649        50.000  
 16 04 02 13 46  7.1000000  0  1G11                                             
  22315655.74249 117269561.53949      -588.31249        50.000  
 16 04 02 13 46  7.2000000  0  1G11                                             
  22315667.00049 117269620.67249      -594.16449        50.000  
 16 04 02 13 46  7.3000000  0  1G11                                             
  22315678.36749 117269680.43449      -600.40649        50.000  
 16 04 02 13 46  7.4000000  0  1G11                                             
  22315689.82049 117269740.70749      -605.57849        50.000  
 16 04 02 13 46  7.5000000  0  1G11                                             
  22315701.38349 117269801.46949      -610.41049        50.000  
 16 04 02 13 46  7.6000000  0  1G11                                             
  22315713.03949 117269862.74249      -615.28949        50.000  
 16 04 02 13 46  7.7000000  0  1G11                                             
  22315724.79749 117269924.53149      -620.43849        50.000  
 16 04 02 13 46  7.8000000  0  1G11                                             
  22315736.67249 117269986.87549      -626.12549        50.000  
 16 04 02 13 46  7.9000000  0  1G11                                             
  22315748.64849 117270049.79749      -632.10949        50.000  
 16 04 02 13 46  8.0000000  0  1G11                                             
  22315760.72749 117270113.26649      -637.59049        50.000  
 16 04 02 13 46  8.1000000  0  1G11                                             
  22315772.90649 117270177.28149      -642.84849        50.000  
 16 04 02 13 46  8.2000000  0  1G11                                             
  22315785.16449 117270241.80549      -647.97349        50.000  
 16 04 02 13 46  8.3000000  0  1G11                                             
  22315797.55549 117270306.91049      -653.69949        50.000  
 16 04 02 13 46  8.4000000  0  1G11                                             
  22315810.04749 117270372.55149      -659.23449        50.000  
 16 04 02 13 46  8.5000000  0  1G11                                             
  22315822.64849 117270438.79349      -665.17249        50.000  
 16 04 02 13 46  8.6000000  0  1G11                                             
  22315835.34449 117270505.53149      -670.24649        50.000  
 16 04 02 13 46  8.7000000  0  1G11                                             
  22315848.14149 117270572.78149      -675.16449        50.000  
 16 04 02 13 46  8.8000000  0  1G11                                             
  22315861.03949 117270640.58249      -680.66449        50.000  
 16 04 02 13 46  8.9000000  0  1G11                                             
  22315874.04749 117270708.91449      -685.93449        50.000  
 16 04 02 13 46  9.0000000  0  1G11                                             
  22315887.14849 117270777.74649      -691.23449        50.000  
 16 04 02 13 46  9.1000000  0  1G11                                             
  22315900.35949 117270847.17649      -696.90249        50.000  
 16 04 02 13 46  9.2000000  0  1G11                                             
  22315913.66449 117270917.09849      -701.87149        50.000  
 16 04 02 13 46  9.3000000  0  1G11                                             
  22315927.08649 117270987.64149      -708.26649        50.000  
 16 04 02 13 46  9.4000000  0  1G11                                             
  22315940.62549 117271058.75849      -713.99249        50.000  
 16 04 02 13 46  9.5000000  0  1G11                                             
  22315954.25049 117271130.35549      -718.79349        50.000  
 16 04 02 13 46  9.6000000  0  1G11                                             
  22315967.97749 117271202.48049      -723.83249        50.000  
 16 04 02 13 46  9.7000000  0  1G11                                             
  22315981.79749 117271275.09849      -728.86749        50.000  
 16 04 02 13 46  9.8000000  0  1G11                                             
  22315995.72749 117271348.29749      -734.55549        50.000  
 16 04 02 13 46  9.9000000  0  1G11                                             
  22316009.75049 117271421.98049      -739.51649        50.000  
 16 04 02 13 46 10.0000000  0  1G11                                             
  22316023.87549 117271496.20749      -744.85549        50.000  
 16 04 02 13 46 10.1000000  0  1G11                                             
  22316038.09449 117271570.91849      -749.86349        50.000  
 16 04 02 13 46 10.2000000  0  1G11                                             
  22316052.42249 117271646.20749      -755.32449        50.000  
 16 04 02 13 46 10.3000000  0  1G11                                             
  22316066.85249 117271722.00449      -760.88749        50.000  
 16 04 02 13 46 10.4000000  0  1G11                                             
  22316081.39149 117271798.43049      -767.04749        50.000  
 16 04 02 13 46 10.5000000  0  1G11                                             
  22316096.03149 117271875.35949      -771.93449        50.000  
 16 04 02 13 46 10.6000000  0  1G11                                             
  22316110.75849 117271952.80549      -777.41449        50.000  
 16 04 02 13 46 10.7000000  0  1G11                                             
  22316125.60949 117272030.82849      -783.01249        50.000  
 16 04 02 13 46 10.8000000  0  1G11                                             
  22316140.54749 117272109.35949      -788.12549        50.000  
 16 04 02 13 46 10.9000000  0  1G11                                             
  22316155.59449 117272188.43049      -793.62149        50.000  
 16 04 02 13 46 11.0000000  0  1G11                                             
  22316170.75049 117272268.06649      -798.90249        50.000  
 16 04 02 13 46 11.1000000  0  1G11                                             
  22316186.00849 117272348.23449      -804.48449        50.000  
 16 04 02 13 46 11.2000000  0  1G11                                             
  22316201.35949 117272428.90649      -809.52049        50.000  
 16 04 02 13 46 11.3000000  0  1G11                                             
  22316216.80549 117272510.10249      -814.71549        50.000  
 16 04 02 13 46 11.4000000  0  1G11                                             
  22316232.35949 117272591.86349      -820.26649        50.000  
 16 04 02 13 46 11.5000000  0  1G11                                             
  22316248.02349 117272674.16449      -825.76649        50.000  
 16 04 02 13 46 11.6000000  0  1G11                                             
  22316263.79749 117272757.02349      -831.42649        50.000  
 16 04 02 13 46 11.7000000  0  1G11                                             
  22316279.66449 117272840.39149      -836.50049        50.000  
 16 04 02 13 46 11.8000000  0  1G11                                             
  22316295.65649 117272924.35949      -842.32849        50.000  
 16 04 02 13 46 11.9000000  0  1G11                                             
  22316311.71949 117273008.78949      -846.91849        50.000  
 16 04 02 13 46 12.0000000  0  1G11                                             
  22316327.88349 117273093.73049      -851.92249        50.000  
 16 04 02 13 46 12.1000000  0  1G11                                             
  22316344.15649 117273179.22349      -857.41849        50.000  
 16 04 02 13 46 12.2000000  0  1G11                                             
  22316360.53149 117273265.22749      -862.81249        50.000  
 16 04 02 13 46 12.3000000  0  1G11                                             
  22316377.00049 117273351.79749      -868.47349        50.000  
 16 04 02 13 46 12.4000000  0  1G11                                             
  22316393.58649 117273438.89849      -873.69549        50.000  
 16 04 02 13 46 12.5000000  0  1G11                                             
  22316410.25849 117273526.51649      -878.90249        50.000  
 16 04 02 13 46 12.6000000  0  1G11                                             
  22316427.03149 117273614.70749      -884.65649        50.000  
 16 04 02 13 46 12.7000000  0  1G11                                             
  22316443.90649 117273703.37149      -889.34849        50.000  
 16 04 02 13 46 12.8000000  0  1G11                                             
  22316460.89149 117273792.59849      -894.85949        50.000  
 16 04 02 13 46 12.9000000  0  1G11                                             
  22316477.96949 117273882.34849      -900.18449        50.000  
 16 04 02 13 46 13.0000000  0  1G11                                             
  22316495.16449 117273972.68049      -905.91049        50.000  
 16 04 02 13 46 13.1000000  0  1G11                                             
  22316512.44549 117274063.50449      -910.98849        50.000  
 16 04 02 13 46 13.2000000  0  1G11                                             
  22316529.83649 117274154.88749      -916.52749        50.000  
 16 04 02 13 46 13.3000000  0  1G11                                             
  22316547.33649 117274246.82849      -922.17249        50.000  
 16 04 02 13 46 13.4000000  0  1G11                                             
  22316564.93849 117274339.30149      -927.57449        50.000  
 16 04 02 13 46 13.5000000  0  1G11                                             
  22316582.64149 117274432.33249      -932.93849        50.000  
 16 04 02 13 46 13.6000000  0  2G11G01                                          
  22316600.42249 117274525.82849      -937.81249        50.000  
  22821108.69549 119925734.34059     -9017.51249        49.000  
 16 04 02 13 46 13.7000000  0  3G14G11G01                                       
  25372811.89149 133335025.04359    -12845.39149        49.000  
  22316618.32849 117274619.91049      -943.37149        50.000  
  22821280.34449 119926636.37549     -9023.00049        49.000  
 16 04 02 13 46 13.8000000  0  3G14G11G01                                       
  25373056.36749 133336309.80149    -12850.24249        49.000  
  22316636.32849 117274714.49249      -948.66449        50.000  
  22821452.10249 119927538.91049     -9028.27049        49.000  
 16 04 02 13 46 13.9000000  0  4G14G11G22G01                                    
  25373300.96149 133337595.10249    -12855.50049        50.000  
  22316654.43049 117274809.63749      -954.14549        50.000  
  22678517.91449 119176414.83659      5746.76649        49.000  
  22821623.95349 119928442.02349     -9033.93849        49.000  
 16 04 02 13 46 14.0000000  0  4G14G11G22G01                                    
  25373545.63349 133338880.85949    -12860.17649        50.000  
  22316672.62549 117274905.29349      -959.27349        50.000  
  22678408.60949 119175840.45749      5740.24249        49.000  
  22821795.91449 119929345.63349     -9038.97349        49.000  
 16 04 02 13 46 14.1000000  0  4G14G11G22G01                                    
  25373790.42249 133340167.14149    -12865.55549        50.000  
  22316690.93849 117275001.50849      -965.08249        50.000  
  22678299.41449 119175266.78149      5733.08649        49.000  
  22821967.96949 119930249.80149     -9044.71549        49.000  
 16 04 02 13 46 14.2000000  0  4G14G11G22G01                                    
  25374035.28949 133341453.91849    -12870.35549        50.000  
  22316709.33649 117275098.24249      -970.18449        50.000  
  22678190.37549 119174693.77349      5726.47349        49.000  
  22822140.14149 119931154.51249     -9049.87149        49.000  
 16 04 02 13 46 14.3000000  0  4G14G11G22G01                                    
  25374280.25049 133342741.10949    -12874.44549        50.000  
  22316727.82849 117275195.43849      -974.53549        50.000  
  22678081.43849 119174121.36749      5720.68849        49.000  
  22822312.38349 119932059.67249     -9054.35249        49.000  
 16 04 02 13 46 14.4000000  0  4G14G11G22G01                                    
  25374525.29749 133344028.85249    -12879.84849        49.000  
  22316746.43849 117275293.21949      -980.46149        50.000  
  22677972.65649 119173549.69949      5713.31249        49.000  
  22822484.72749 119932965.42249     -9060.23849        49.000  
 16 04 02 13 46 14.5000000  0  4G14G11G22G01                                    
  25374770.44549 133345317.11749    -12885.10249        49.000  
  22316765.15649 117275391.57049      -986.27349        50.000  
  22677864.00049 119172978.73049      5706.06249        49.000  
  22822657.19549 119933871.73849     -9066.05549        49.000  
 16 04 02 13 46 14.6000000  0  4G14G11G22G01                                    
  25375015.69549 133346605.91849    -12890.59449        49.000  
  22316783.97749 117275490.46949      -991.85549        50.000  
  22677755.48449 119172408.47749      5698.98049        49.000  
  22822829.77349 119934778.61749     -9071.71549        49.000  
 16 04 02 13 46 14.7000000  0  4G14G11G22G01                                    
  25375261.03949 133347895.24249    -12895.92649        49.000  
  22316802.90649 117275589.93449      -997.35549        50.000  
  22677647.09449 119171838.91849      5691.98449        49.000  
  22823002.45349 119935686.05949     -9077.30949        49.000  
 16 04 02 13 46 14.8000000  0  4G14G11G22G01                                    
  25375506.48449 133349185.03949    -12900.41449        49.000  
  22316821.91449 117275689.92249     -1002.52749        50.000  
  22677538.83649 119171270.03149      5685.45349        49.000  
  22823175.25049 119936594.02749     -9082.28549        49.000  
 16 04 02 13 46 14.9000000  0  4G14G11G22G01                                    
  25375752.01649 133350475.24249    -12904.56249        49.000  
  22316841.02349 117275790.34049     -1006.86349        50.000  
  22677430.67249 119170701.71549      5679.60949        49.000  
  22823348.10949 119937502.42649     -9086.78949        49.000  
 16 04 02 13 46 15.0000000  0  4G14G11G22G01                                    
  25375997.63349 133351765.96949    -12909.73849        49.000  
  22316860.24249 117275891.31649     -1012.30549        50.000  
  22677322.65649 119170134.10549      5672.73849        49.000  
  22823521.07849 119938411.38749     -9092.36349        49.000  
 16 04 02 13 46 15.1000000  0  4G14G11G22G01                                    
  25376243.31249 133353057.14149    -12914.16049        49.000  
  22316879.55549 117275992.80149     -1017.36349        50.000  
  22677214.77349 119169567.14149      5666.41049        49.000  
  22823694.14149 119939320.85249     -9097.22749        49.000  
 16 04 02 13 46 15.2000000  0  4G14G11G22G01                                    
  25376489.10949 133354348.82049    -12919.22749        49.000  
  22316898.97749 117276094.81249     -1022.74649        50.000  
  22677107.01649 119169000.85949      5659.24249        49.000  
  22823867.31249 119940230.84049     -9102.76249        49.000  
 16 04 02 13 46 15.3000000  0  4G14G11G22G01                                    
  25376735.02349 133355641.02049    -12924.52749        49.000  
  22316918.49249 117276197.37149     -1028.44949        50.000  
  22676999.39149 119168435.25849      5652.43449        49.000  
  22824040.58649 119941141.38749     -9108.27749        49.000  
 16 04 02 13 46 15.4000000  0  4G14G11G22G01                                    
  25376981.01649 133356933.73049    -12929.56649        49.000  
  22316938.10949 117276300.47749     -1033.71549        50.000  
  22676891.89149 119167870.36349      5645.66449        49.000  
  22824213.96149 119942052.50049     -9113.74249        49.000  
 16 04 02 13 46 15.5000000  0  4G14G11G22G01                                    
  25377227.09449 133358226.89549    -12934.08649        49.000  
  22316957.82849 117276404.08249     -1038.62549        50.000  
  22676784.52349 119167306.10249      5639.24649        49.000  
  22824387.43049 119942964.08649     -9118.59849        49.000  
 16 04 02 13 46 15.6000000  0  4G14G11G22G01                                    
  25377473.27349 133359520.56649    -12939.37149        49.000  
  22316977.64849 117276508.23849     -1044.32449        50.000  
  22676677.27349 119166742.53549      5632.11749        49.000  
  22824561.00049 119943876.24249     -9124.34849        49.000  
 16 04 02 13 46 15.7000000  0  4G14G11G22G01                                    
  25377719.53949 133360814.75849    -12944.37549        49.000  
  22316997.57049 117276612.94549     -1049.74649        50.000  
  22676570.15649 119166179.66849      5625.30549        49.000  
  22824734.68049 119944788.94149     -9129.68849        49.000  
 16 04 02 13 46 15.8000000  0  4G14G11G22G01                                    
  25377965.90649 133362109.42249    -12949.19949        49.000  
  22317017.59449 117276718.15249     -1054.78149        50.000  
  22676463.17249 119165617.46149      5618.60949        49.000  
  22824908.44549 119945702.15249     -9134.88749        49.000  
 16 04 02 13 46 15.9000000  0  4G14G11G22G01                                    
  25378212.35949 133363404.61349    -12954.46949        49.000  
  22317037.72749 117276823.93849     -1060.54749        50.000  
  22676356.32849 119165055.95749      5611.31649        49.000  
  22825082.32849 119946615.93849     -9140.77049        49.000  
 16 04 02 13 46 16.0000000  0  4G14G11G22G01                                    
  25378458.91449 133364700.29749    -12959.25449        49.000  
  22317057.96149 117276930.24649     -1065.70349        49.000  
  22676249.60249 119164495.12149      5604.96549        49.000  
  22825256.33649 119947530.24649     -9145.82049        49.000  
 16 04 02 13 46 16.1000000  0  4G14G11G22G01                                    
  25378705.56249 133365996.48049    -12964.37149        49.000  
  22317078.28949 117277037.09449     -1071.12949        50.000  
  22676143.00049 119163934.96949      5598.08649        49.000  
  22825430.43049 119948445.10249     -9151.27749        49.000  
 16 04 02 13 46 16.2000000  0  4G14G11G22G01                                    
  25378952.30549 133367293.10549    -12968.72749        49.000  
  22317098.71149 117277144.42249     -1075.96949        50.000  
  22676036.52349 119163375.45349      5591.70349        49.000  
  22825604.60249 119949360.42649     -9156.03149        49.000  
 16 04 02 13 46 16.3000000  0  4G14G11G22G01                                    
  25379199.15649 133368590.25849    -12974.06249        50.000  
  22317119.24249 117277252.31249     -1081.62549        50.000  
  22675930.18049 119162816.64149      5584.55549        49.000  
  22825778.89149 119950276.32449     -9161.79349        49.000  
 16 04 02 13 46 16.4000000  0  4G14G11G22G01                                    
  25379446.08649 133369887.87549    -12978.48449        49.000  
  22317139.86749 117277360.69949     -1086.41849        50.000  
  22675823.96149 119162258.46149      5578.42249        49.000  
  22825953.26649 119951192.72349     -9166.56649        49.000  
 16 04 02 13 46 16.5000000  0  4G14G11G22G01                                    
  25379693.10249 133371186.03549    -12984.20749        49.000  
  22317160.60249 117277469.66049     -1092.41049        50.000  
  22675717.88349 119161701.02049      5570.82849        49.000  
  22826127.75849 119952109.70349     -9172.68449        49.000  
 16 04 02 13 46 16.6000000  0  4G14G11G22G01                                    
  25379940.23449 133372484.69949    -12989.29349        49.000  
  22317181.44549 117277579.18449     -1098.10949        50.000  
  22675611.93049 119161144.26249      5563.85249        49.000  
  22826302.36749 119953027.23049     -9178.30549        49.000  
 16 04 02 13 46 16.7000000  0  4G14G11G22G01                                    
  25380187.43849 133373783.87949    -12994.34049        49.000  
  22317202.38349 117277689.24649     -1103.38349        50.000  
  22675506.10249 119160588.20349      5557.09049        49.000  
  22826477.07849 119953945.31649     -9183.68449        49.000  
 16 04 02 13 46 16.8000000  0  4G14G11G22G01                                    
  25380434.75049 133375083.52749    -12998.80949        49.000  
  22317223.43049 117277799.81249     -1108.19549        49.000  
  22675400.41449 119160032.79749      5550.70349        49.000  
  22826651.86749 119954863.89549     -9188.44149        49.000  
 16 04 02 13 46 16.9000000  0  4G14G11G22G01                                    
  25380682.14149 133376383.61749    -13003.33249        49.000  
  22317244.56249 117277910.87549     -1113.31249        50.000  
  22675294.83649 119159478.01649      5544.28949        49.000  
  22826826.76649 119955782.97349     -9193.55949        49.000  
 16 04 02 13 46 17.0000000  0  4G14G11G22G01                                    
  25380929.64849 133377684.28949    -13009.17649        49.000  
  22317265.81249 117278022.53949     -1119.37549        50.000  
  22675189.40649 119158923.99649      5536.59049        49.000  
  22827001.78949 119956702.65649     -9199.71549        49.000  
 16 04 02 13 46 17.1000000  0  4G14G11G22G01                                    
  25381177.25849 133378985.42649    -13013.85549        49.000  
  22317287.15649 117278134.71149     -1124.41849        50.000  
  22675084.12549 119158370.62149      5530.25449        49.000  
  22827176.89849 119957622.85549     -9204.79349        49.000  
 16 04 02 13 46 17.2000000  0  4G14G11G22G01                                    
  25381424.94549 133380287.05149    -13018.60249        49.000  
  22317308.60949 117278247.41049     -1129.53949        50.000  
  22674978.94549 119157817.92249      5523.60949        49.000  
  22827352.08649 119958543.56649     -9209.85549        49.000  
 16 04 02 13 46 17.3000000  0  4G14G11G22G01                                    
  25381672.73449 133381589.14849    -13023.28149        50.000  
  22317330.14849 117278360.61349     -1134.59449        50.000  
  22674873.92249 119157265.86349      5517.14149        49.000  
  22827527.39149 119959464.79749     -9214.91049        49.000  
 16 04 02 13 46 17.4000000  0  4G14G11G22G01                                    
  25381920.61749 133382891.76249    -13028.67249        50.000  
  22317351.79749 117278474.37549     -1140.28149        50.000  
  22674769.00049 119156714.51649      5510.02349        49.000  
  22827702.79749 119960386.58649     -9220.66049        49.000  
 16 04 02 13 46 17.5000000  0  4G14G11G22G01                                    
  25382168.57849 133384194.91049    -13033.98049        50.000  
  22317373.55549 117278588.69549     -1145.93049        50.000  
  22674664.23449 119156163.88349      5502.84049        49.000  
  22827878.31249 119961308.94149     -9226.37149        49.000  
 16 04 02 13 46 17.6000000  0  4G14G11G22G01                                    
  25382416.64849 133385498.51249    -13038.74249        50.000  
  22317395.40649 117278703.52049     -1151.00049        50.000  
  22674559.57849 119155613.88749      5496.36349        49.000  
  22828053.93849 119962231.78949     -9231.35549        49.000  
 16 04 02 13 46 17.7000000  0  4G14G11G22G01                                    
  25382664.80549 133386802.64549    -13043.91449        50.000  
  22317417.36749 117278818.92249     -1156.70349        50.000  
  22674455.05549 119155064.60949      5489.26649        49.000  
  22828229.65649 119963155.21949     -9237.12949        49.000  
 16 04 02 13 46 17.8000000  0  4G14G11G22G01                                    
  25382913.06249 133388107.26649    -13048.84849        50.000  
  22317439.43049 117278934.83649     -1161.97749        50.000  
  22674350.65649 119154515.99249      5482.49649        49.000  
  22828405.50849 119964079.16049     -9242.41849        49.000  
 16 04 02 13 46 17.9000000  0  4G14G11G22G01                                    
  25383161.41449 133389412.44549    -13054.31249        50.000  
  22317461.60949 117279051.35249     -1167.96549        50.000  
  22674246.39149 119153968.12949      5475.21149        49.000  
  22828581.44549 119965003.72349     -9248.39549        49.000  
 16 04 02 13 46 18.0000000  0  4G14G11G22G01                                    
  25383409.87549 133390718.09449    -13059.05549        49.000  
  22317483.86749 117279168.37549     -1173.09049        50.000  
  22674142.26649 119153420.91449      5468.53549        49.000  
  22828757.50049 119965928.77349     -9253.44949        49.000  
 16 04 02 13 46 18.1000000  0  4G14G11G22G01                                    
  25383658.42249 133392024.23849    -13064.04749        49.000  
  22317506.23449 117279285.92649     -1178.32049        50.000  
  22674038.24249 119152874.37549      5461.80949        49.000  
  22828933.63349 119966854.36749     -9258.81649        49.000  
 16 04 02 13 46 18.2000000  0  4G14G11G22G01                                    
  25383907.07049 133393330.90249    -13069.10549        49.000  
  22317528.71149 117279404.03549     -1183.71949        50.000  
  22673934.37549 119152328.53149      5454.98049        49.000  
  22829109.89149 119967780.51249     -9264.18049        49.000  
 16 04 02 13 46 18.3000000  0  4G14G11G22G01                                    
  25384155.78949 133394638.03949    -13074.06649        49.000  
  22317551.28949 117279522.66449     -1189.13349        50.000  
  22673830.64149 119151783.35949      5448.12549        49.000  
  22829286.23449 119968707.18049     -9269.59449        49.000  
 16 04 02 13 46 18.4000000  0  4G14G11G22G01                                    
  25384404.64149 133395945.73849    -13079.61349        50.000  
  22317573.96949 117279641.87949     -1194.94949        50.000  
  22673727.03949 119151238.91449      5440.94549        49.000  
  22829462.67249 119969634.43849     -9275.45349        49.000  
 16 04 02 13 46 18.5000000  0  4G14G11G22G01                                    
  25384653.59449 133397253.90249    -13084.37149        50.000  
  22317596.75049 117279761.60949     -1200.14849        50.000  
  22673623.56249 119150695.14549      5433.96949        49.000  
  22829639.22749 119970562.20749     -9280.68449        49.000  
 16 04 02 13 46 18.6000000  0  4G14G11G22G01                                    
  25384902.60949 133398562.51649    -13088.65649        49.000  
  22317619.62549 117279881.81649     -1204.69549        50.000  
  22673520.20349 119150151.98049      5428.09049        49.000  
  22829815.86749 119971490.45749     -9285.18849        49.000  
 16 04 02 13 46 18.7000000  0  4G14G11G22G01                                    
  25385151.76649 133399871.68449    -13094.02049        49.000  
  22317642.61749 117280002.62949     -1210.60249        50.000  
  22673416.97749 119149609.57849      5420.70349        49.000  
  22829992.61749 119972419.32049     -9291.22749        49.000  
 16 04 02 13 46 18.8000000  0  4G14G11G22G01                                    
  25385400.97749 133401181.29349    -13098.55949        49.000  
  22317665.70349 117280123.91449     -1215.53949        50.000  
  22673313.87549 119149067.77749      5414.49249        49.000  
  22830169.46149 119973348.64549     -9296.02049        49.000  
 16 04 02 13 46 18.9000000  0  4G14G11G22G01                                    
  25385650.28949 133402491.40249    -13103.73449        49.000  
  22317688.89149 117280245.73849     -1221.01249        50.000  
  22673210.89149 119148526.67249      5407.51649        49.000  
  22830346.41449 119974278.52349     -9301.64549        49.000  
 16 04 02 13 46 19.0000000  0  4G14G11G22G01                                    
  25385899.70349 133403802.07849    -13109.22349        49.000  
  22317712.18849 117280368.15649     -1226.89549        50.000  
  22673108.06249 119147986.31649      5400.07449        49.000  
  22830523.47749 119975208.99249     -9307.43849        49.000  
 16 04 02 13 46 19.1000000  0  4G14G11G22G01                                    
  25386149.21949 133405113.17649    -13113.68449        49.000  
  22317735.57049 117280491.04749     -1231.82449        50.000  
  22673005.35249 119147446.56649      5393.82449        49.000  
  22830700.62549 119976139.93049     -9312.29349        49.000  
 16 04 02 13 46 19.2000000  0  4G14G11G22G01                                    
  25386398.80549 133406424.76249    -13118.16849        49.000  
  22317759.06249 117280614.46549     -1236.81249        50.000  
  22672902.77349 119146907.48849      5387.36349        49.000  
  22830877.89149 119977071.40249     -9317.37149        49.000  
 16 04 02 13 46 19.3000000  0  4G14G11G22G01                                    
  25386648.50049 133407736.89149    -13123.79349        49.000  
  22317782.65649 117280738.46149     -1242.64149        50.000  
  22672800.32849 119146369.14149      5379.97749        49.000  
  22831055.25049 119978003.45349     -9323.27749        49.000  
 16 04 02 13 46 19.4000000  0  4G14G11G22G01                                    
  25386898.28149 133409049.49649    -13128.55949        49.000  
  22317806.34449 117280862.96949     -1247.69949        50.000  
  22672698.00849 119145831.44549      5373.42649        49.000  
  22831232.70349 119978936.01649     -9328.37949        49.000  
 16 04 02 13 46 19.5000000  0  4G14G11G22G01                                    
  25387148.17249 133410362.59049    -13133.53549        49.000  
  22317830.14149 117280988.00849     -1253.22349        49.000  
  22672595.82049 119145294.43049      5366.44549        49.000  
  22831410.26649 119979869.10949     -9333.85949        49.000  
 16 04 02 13 46 19.6000000  0  4G14G11G22G01                                    
  25387398.14849 133411676.22349    -13139.04749        49.000  
  22317854.03949 117281113.61749     -1258.93849        49.000  
  22672493.76649 119144758.12949      5359.30549        49.000  
  22831587.93049 119980802.77749     -9339.68449        49.000  
 16 04 02 13 46 19.7000000  0  4G14G11G22G01                                    
  25387648.22749 133412990.39549    -13144.35949        49.000  
  22317878.04749 117281239.81249     -1264.82449        49.000  
  22672391.84449 119144222.56249      5351.97749        49.000  
  22831765.71149 119981737.02749     -9345.50849        49.000  
 16 04 02 13 46 19.8000000  0  4G14G11G22G01                                    
  25387898.39149 133414305.03549    -13149.02049        49.000  
  22317902.15649 117281366.50449     -1269.72749        49.000  
  22672290.05549 119143687.63749      5345.60249        49.000  
  22831943.59449 119982671.77749     -9350.46949        49.000  
 16 04 02 13 46 19.9000000  0  4G14G11G22G01                                    
  25388148.64849 133415620.15649    -13153.50049        49.000  
  22317926.36749 117281493.72749     -1274.71549        49.000  
  22672188.39149 119143153.37949      5339.23449        49.000  
  22832121.57849 119983607.06249     -9355.41849        49.000  
 16 04 02 13 46 20.0000000  0  4G14G11G22G01                                    
  25388398.99249 133416935.71549    -13157.92649        49.000  
  22317950.67249 117281621.42249     -1279.64849        49.000  
  22672086.84449 119142619.74649      5332.85549        49.000  
  22832299.63349 119984542.81649     -9360.35549        49.000  
 16 04 02 13 46 20.1000000  0  4G14G11G22G01                                    
  25388649.43049 133418251.74249    -13162.39549        49.000  
  22317975.07049 117281749.61349     -1284.29749        49.000  
  22671985.43049 119142086.75849      5326.71549        49.000  
  22832477.79749 119985479.07449     -9365.07849        49.000  
 16 04 02 13 46 20.2000000  0  4G14G11G22G01                                    
  25388899.96149 133419568.26249    -13167.46549        49.000  
  22317999.56249 117281878.34049     -1289.81249        49.000  
  22671884.13349 119141554.44949      5319.75049        49.000  
  22832656.07849 119986415.86349     -9370.57049        49.000  
 16 04 02 13 46 20.3000000  0  4G14G11G22G01                                    
  25389150.57049 133420885.26249    -13172.51649        49.000  
  22318024.15649 117282007.58649     -1295.09849        50.000  
  22671782.96149 119141022.80149      5313.05949        49.000  
  22832834.43849 119987353.17649     -9375.88749        49.000  
 16 04 02 13 46 20.4000000  0  4G14G11G22G01                                    
  25389401.27349 133422202.72749    -13177.15649        49.000  
  22318048.85949 117282137.34449     -1300.18049        49.000  
  22671681.91449 119140491.82449      5306.35249        49.000  
  22833012.90649 119988290.99249     -9380.91049        49.000  
 16 04 02 13 46 20.5000000  0  4G14G11G22G01                                    
  25389652.07849 133423520.71549    -13182.28949        49.000  
  22318073.65649 117282267.66849     -1305.87149        49.000  
  22671581.01649 119139961.55149      5299.18049        49.000  
  22833191.47749 119989229.38749     -9386.69949        49.000  
 16 04 02 13 46 20.6000000  0  4G14G11G22G01                                    
  25389902.96949 133424839.15649    -13186.89849        49.000  
  22318098.54749 117282398.46549     -1310.72349        49.000  
  22671480.22749 119139431.88749      5293.06649        49.000  
  22833370.14149 119990168.24649     -9391.44549        49.000  
 16 04 02 13 46 20.7000000  0  4G14G11G22G01                                    
  25390153.96949 133426158.11349    -13192.12149        49.000  
  22318123.54749 117282529.83249     -1316.28949        49.000  
  22671379.57849 119138902.95349      5285.91849        49.000  
  22833548.90649 119991107.68849     -9397.15249        49.000  
 16 04 02 13 46 20.8000000  0  4G14G11G22G01                                    
  25390405.05549 133427477.58649    -13197.27049        49.000  
  22318148.64849 117282661.74249     -1321.88749        49.000  
  22671279.05549 119138374.69549      5278.92649        49.000  
  22833727.78949 119992047.66449     -9402.64549        49.000  
 16 04 02 13 46 20.9000000  0  4G14G11G22G01                                    
  25390656.25049 133428797.54349    -13202.25049        49.000  
  22318173.85249 117282794.18449     -1327.23049        49.000  
  22671178.65649 119137847.12549      5272.09449        49.000  
  22833906.75849 119992988.17649     -9407.97749        49.000  
 16 04 02 13 46 21.0000000  0  4G14G11G22G01                                    
  25390907.51649 133430117.96549    -13206.84449        49.000  
  22318199.14849 117282927.12149     -1332.17249        49.000  
  22671078.39149 119137320.19549      5265.69549        49.000  
  22834085.83649 119993929.19149     -9413.07049        49.000  
 16 04 02 13 46 21.1000000  0  4G14G11G22G01                                    
  25391158.86749 133431438.87949    -13211.46149        49.000  
  22318224.54749 117283060.59849     -1337.21149        49.000  
  22670978.26649 119136793.94149      5259.25849        49.000  
  22834265.00049 119994870.73049     -9418.00049        49.000  
 16 04 02 13 46 21.2000000  0  4G14G11G22G01                                    
  25391410.32049 133432760.27749    -13216.53149        49.000  
  22318250.05549 117283194.59449     -1342.68849        49.000  
  22670878.25049 119136268.35949      5252.34049        49.000  
  22834444.28949 119995812.80949     -9423.53549        49.000  
 16 04 02 13 46 21.3000000  0  4G14G11G22G01                                    
  25391661.86749 133434082.18449    -13221.66849        49.000  
  22318275.65649 117283329.13749     -1348.22749        49.000  
  22670778.35949 119135743.47749      5245.30549        49.000  
  22834623.66449 119996755.41849     -9429.04749        49.000  
 16 04 02 13 46 21.4000000  0  4G14G11G22G01                                    
  25391913.52349 133435404.65649    -13227.17249        49.000  
  22318301.37549 117283464.28949     -1354.16849        49.000  
  22670678.61749 119135219.34449      5237.88749        49.000  
  22834803.14149 119997698.64549     -9434.99249        49.000  
 16 04 02 13 46 21.5000000  0  4G14G11G22G01                                    
  25392165.25049 133436727.57849    -13231.73049        49.000  
  22318327.18849 117283599.91849     -1359.02749        49.000  
  22670578.99249 119134695.83249      5231.56249        49.000  
  22834982.72749 119998642.35949     -9440.01249        49.000  
 16 04 02 13 46 21.6000000  0  4G14G11G22G01                                    
  25392417.08649 133438050.96149    -13236.39149        49.000  
  22318353.09449 117283736.05949     -1364.13749        49.000  
  22670479.50049 119134172.98049      5224.89849        49.000  
  22835162.39149 119999586.57049     -9445.05149        49.000  
 16 04 02 13 46 21.7000000  0  4G14G11G22G01                                    
  25392669.03949 133439374.94149    -13242.39849        49.000  
  22318379.11749 117283872.83249     -1370.49249        49.000  
  22670380.16449 119133650.90249      5217.25849        49.000  
  22835342.18849 120000531.42649     -9451.43049        49.000  
 16 04 02 13 46 21.8000000  0  4G14G11G22G01                                    
  25392921.08649 133440699.44149    -13247.68849        49.000  
  22318405.25849 117284010.16049     -1376.13749        49.000  
  22670280.95349 119133129.53549      5210.05549        49.000  
  22835522.07849 120001476.82849     -9457.00449        49.000  
 16 04 02 13 46 21.9000000  0  4G14G11G22G01                                    
  25393173.22749 133442024.42249    -13252.35549        49.000  
  22318431.48449 117284148.01649     -1381.31249        49.000  
  22670181.85949 119132608.83249      5203.46549        49.000  
  22835702.08649 120002422.76249     -9462.16449        49.000  
 16 04 02 13 46 22.0000000  0  4G14G11G22G01                                    
  25393425.43849 133443349.83649    -13256.59049        49.000  
  22318457.81249 117284286.33249     -1385.77749        49.000  
  22670082.89149 119132088.74249      5197.51249        49.000  
  22835882.18049 120003369.16049     -9466.75049        49.000  
 16 04 02 13 46 22.1000000  0  4G14G11G22G01                                    
  25393677.74249 133444675.69549    -13261.12949        49.000  
  22318484.22749 117284425.15249     -1390.88349        49.000  
  22669984.03949 119131569.30149      5190.81249        49.000  
  22836062.36749 120004316.06649     -9471.84049        49.000  
 16 04 02 13 46 22.2000000  0  4G14G11G22G01                                    
  25393930.14849 133446002.08249    -13266.11749        49.000  
  22318510.75049 117284564.51649     -1396.12149        49.000  
  22669885.32049 119131050.55149      5184.21149        49.000  
  22836242.66449 120005263.50449     -9476.89549        49.000  
 16 04 02 13 46 22.3000000  0  4G14G11G22G01                                    
  25394182.64849 133447328.97349    -13271.50049        49.000  
  22318537.36749 117284704.42649     -1401.80949        49.000  
  22669786.72749 119130532.48849      5177.08649        49.000  
  22836423.06249 120006211.49649     -9482.75049        49.000  
 16 04 02 13 46 22.4000000  0  4G14G11G22G01                                    
  25394435.23449 133448656.32849    -13276.19149        49.000  
  22318564.08649 117284844.85549     -1407.07049        49.000  
  22669688.26649 119130015.09449      5170.37149        49.000  
  22836603.54749 120007160.01249     -9488.02049        49.000  
 16 04 02 13 46 22.5000000  0  4G14G11G22G01                                    
  25394687.90649 133449984.18849    -13280.84049        49.000  
  22318590.91449 117284985.81649     -1411.96549        49.000  
  22669589.94549 119129498.37149      5163.98049        49.000  
  22836784.14849 120008109.04749     -9492.92249        49.000  
 16 04 02 13 46 22.6000000  0  4G14G11G22G01                                    
  25394940.66449 133451312.46949    -13285.47349        49.000  
  22318617.83649 117285127.25449     -1417.16849        49.000  
  22669491.73449 119128982.28549      5157.24249        49.000  
  22836964.85949 120009058.56649     -9498.08249        49.000  
 16 04 02 13 46 22.7000000  0  4G14G11G22G01                                    
  25395193.55549 133452641.37149    -13291.70749        49.000  
  22318644.86749 117285269.33249     -1423.62149        49.000  
  22669393.68049 119128466.97749      5149.37149        49.000  
  22837145.67249 120010008.73449     -9504.64549        49.000  
 16 04 02 13 46 22.8000000  0  4G14G11G22G01                                    
  25395446.52349 133453970.71149    -13295.85949        49.000  
  22318672.00049 117285411.90249     -1428.26649        49.000  
  22669295.74249 119127952.30949      5143.19549        49.000  
  22837326.57049 120010959.39149     -9509.22749        49.000  
 16 04 02 13 46 22.9000000  0  4G14G11G22G01                                    
  25395699.58649 133455300.53549    -13300.81249        49.000  
  22318699.22749 117285554.98449     -1433.66449        49.000  
  22669197.92249 119127438.29349      5136.48049        49.000  
  22837507.57049 120011910.54749     -9514.54349        49.000  
 16 04 02 13 46 23.0000000  0  4G14G11G22G01                                    
  25395952.75049 133456630.91449    -13306.38349        49.000  
  22318726.57049 117285698.66449     -1439.52749        49.000  
  22669100.25849 119126925.03149      5129.06649        49.000  
  22837688.68849 120012862.32849     -9520.54349        49.000  
 16 04 02 13 46 23.1000000  0  4G14G11G22G01                                    
  25396206.00849 133457961.73449    -13310.83649        49.000  
  22318754.00849 117285842.84049     -1444.40649        49.000  
  22669002.68849 119126412.39849      5122.85549        49.000  
  22837869.89849 120013814.57849     -9525.32849        49.000  
 16 04 02 13 46 23.2000000  0  4G14G11G22G01                                    
  25396459.35249 133459293.05549    -13315.75849        49.000  
  22318781.53149 117285987.53549     -1449.73849        49.000  
  22668905.26649 119125900.43449      5116.06249        49.000  
  22838051.20349 120014767.35949     -9530.69149        49.000  
 16 04 02 13 46 23.3000000  0  4G14G11G22G01                                    
  25396712.78949 133460624.91049    -13321.19149        49.000  
  22318809.18049 117286132.81249     -1455.52749        49.000  
  22668807.98449 119125389.21149      5108.80149        49.000  
  22838232.62549 120015720.72749     -9536.45749        49.000  
 16 04 02 13 46 23.4000000  0  4G14G11G22G01                                    
  25396966.32849 133461957.25849    -13326.05949        49.000  
  22318836.92249 117286278.62949     -1460.98049        49.000  
  22668710.83649 119124878.66849      5101.84449        49.000  
  22838414.15649 120016674.63349     -9542.02749        49.000  
 16 04 02 13 46 23.5000000  0  4G14G11G22G01                                    
  25397219.96149 133463290.09049    -13330.74649        49.000  
  22318864.77349 117286424.95349     -1466.04349        49.000  
  22668613.79749 119124368.77749      5095.41049        49.000  
  22838595.77349 120017629.03949     -9546.91449        49.000  
 16 04 02 13 46 23.6000000  0  4G14G11G22G01                                    
  25397473.68849 133464623.42249    -13335.71949        49.000  
  22318892.71949 117286571.82849     -1471.34049        49.000  
  22668516.90649 119123859.58249      5088.57849        49.000  
  22838777.48449 120018584.00449     -9552.20749        49.000  
 16 04 02 13 46 23.7000000  0  4G14G11G22G01                                    
  25397727.49249 133465957.23449    -13340.56649        49.000  
  22318920.76649 117286719.22749     -1476.56649        49.000  
  22668420.14849 119123351.05949      5081.94149        49.000  
  22838959.30549 120019539.49249     -9557.45349        49.000  
 16 04 02 13 46 23.8000000  0  4G14G11G22G01                                    
  25397981.40649 133467291.54349    -13345.43049        49.000  
  22318948.91449 117286867.14549     -1481.79349        49.000  
  22668323.50849 119122843.21549      5075.04349        49.000  
  22839141.22749 120020495.51649     -9562.86349        49.000  
 16 04 02 13 46 23.9000000  0  4G14G11G22G01                                    
  25398235.39149 133468626.33649    -13350.58249        49.000  
  22318977.17249 117287015.60549     -1487.37949        49.000  
  22668227.00049 119122336.03549      5068.15649        49.000  
  22839323.25049 120021452.05549     -9568.30949        49.000  
 16 04 02 13 46 24.0000000  0  4G14G11G22G01                                    
  25398489.48449 133469961.62549    -13355.41049        49.000  
  22319005.53149 117287164.59049     -1492.62549        49.000  
  22668130.61749 119121829.54349      5061.32849        49.000  
  22839505.38349 120022409.12949     -9573.58249        49.000  
 16 04 02 13 46 24.1000000  0  4G14G11G22G01                                    
  25398743.68049 133471297.35949    -13359.78949        49.000  
  22319033.96949 117287314.06249     -1497.26249        49.000  
  22668034.35949 119121323.68449      5055.24249        49.000  
  22839687.60249 120023366.69549     -9578.36749        49.000  
 16 04 02 13 46 24.2000000  0  4G14G11G22G01                                    
  25398997.96149 133472633.60949    -13365.03549        49.000  
  22319062.52349 117287464.09049     -1502.94149        49.000  
  22667938.22749 119120818.51649      5048.15649        49.000  
  22839869.92249 120024324.80949     -9583.99649        49.000  
 16 04 02 13 46 24.3000000  0  4G14G11G22G01                                    
  25399252.32849 133473970.30949    -13369.61349        49.000  
  22319091.16449 117287614.61749     -1508.01649        49.000  
  22667842.21949 119120314.00849      5041.57449        49.000  
  22840052.34449 120025283.43049     -9589.07849        49.000  
 16 04 02 13 46 24.4000000  0  4G14G11G22G01                                    
  25399506.78949 133475307.53149    -13374.77049        49.000  
  22319119.92249 117287765.69949     -1513.53149        49.000  
  22667746.34449 119119810.18849      5034.61349        49.000  
  22840234.86749 120026242.59849     -9594.53149        49.000  
 16 04 02 13 46 24.5000000  0  4G14G11G22G01                                    
  25399761.35249 133476645.29749    -13380.18049        49.000  
  22319148.78149 117287917.35949     -1519.38349        49.000  
  22667650.60949 119119307.09849      5027.37549        49.000  
  22840417.50849 120027202.35249     -9600.36349        49.000  
 16 04 02 13 46 24.6000000  0  4G14G11G22G01                                    
  25400016.01649 133477983.54349    -13385.10549        49.000  
  22319177.74249 117288069.55549     -1524.75449        49.000  
  22667555.00049 119118804.68849      5020.57449        49.000  
  22840600.21149 120028162.63749     -9605.70749        49.000  
 16 04 02 13 46 24.7000000  0  4G14G11G22G01                                    
  25400270.74249 133479322.23849    -13389.35549        49.000  
  22319206.78949 117288222.21549     -1529.22749        49.000  
  22667459.53149 119118302.90649      5014.44549        49.000  
  22840783.03949 120029123.38749     -9610.19949        49.000  
 16 04 02 13 46 24.8000000  0  4G14G11G22G01                                    
  25400525.58649 133480661.43049    -13394.48049        49.000  
  22319235.95349 117288375.43849     -1534.88349        49.000  
  22667364.18049 119117801.80949      5007.51649        49.000  
  22840965.98449 120030084.70749     -9616.00049        49.000  
 16 04 02 13 46 24.9000000  0  4G14G11G22G01                                    
  25400780.51649 133482001.10949    -13399.12549        49.000  
  22319265.21149 117288529.17249     -1539.86749        49.000  
  22667268.93849 119117301.39149      5000.87149        49.000  
  22841149.01649 120031046.53149     -9620.84449        49.000  
 16 04 02 13 46 25.0000000  0  4G14G11G22G01                                    
  25401035.53949 133483341.26249    -13404.10249        49.000  
  22319294.55549 117288683.41849     -1545.21149        49.000  
  22667173.83649 119116801.62149      4994.08249        49.000  
  22841332.14849 120032008.86749     -9626.23049        49.000  
 16 04 02 13 46 25.1000000  0  4G14G11G22G01                                    
  25401290.67249 133484681.93849    -13409.31249        49.000  
  22319324.01649 117288838.23449     -1550.82449        49.000  
  22667078.83649 119116302.57049      4986.94949        49.000  
  22841515.38349 120032971.78949     -9631.93849        49.000  
 16 04 02 13 46 25.2000000  0  4G14G11G22G01                                    
  25401545.89149 133486023.11349    -13414.38749        49.000  
  22319353.59449 117288993.60249     -1556.36349        49.000  
  22666984.00049 119115804.20349      4980.05549        49.000  
  22841698.73449 120033935.23849     -9637.41449        49.000  
 16 04 02 13 46 25.3000000  0  4G14G11G22G01                                    
  25401801.18049 133487364.75449    -13418.92249        49.000  
  22319383.25049 117289149.45749     -1561.29349        49.000  
  22666889.27349 119115306.49649      4973.64549        49.000  
  22841882.16449 120034899.19149     -9642.31649        49.000  
 16 04 02 13 46 25.4000000  0  4G14G11G22G01                                    
  25402056.58649 133488706.90649    -13423.96949        49.000  
  22319413.00849 117289305.87149     -1566.79749        49.000  
  22666794.69549 119114809.48449      4966.66449        49.000  
  22842065.71149 120035863.69949     -9647.75449        49.000  
 16 04 02 13 46 25.5000000  0  4G14G11G22G01                                    
  25402312.08649 133490049.52749    -13428.54349        49.000  
  22319442.86749 117289462.79749     -1571.80549        49.000  
  22666700.23449 119114313.12549      4960.21949        49.000  
  22842249.35249 120036828.71549     -9652.73449        49.000  
 16 04 02 13 46 25.6000000  0  4G14G11G22G01                                    
  25402567.65649 133491392.57849    -13433.04349        49.000  
  22319472.82849 117289620.19149     -1576.61749        49.000  
  22666605.89849 119113817.39149      4953.71949        49.000  
  22842433.08649 120037794.20749     -9657.70349        49.000  
 16 04 02 13 46 25.7000000  0  4G14G11G22G01                                    
  25402823.35949 133492736.24249    -13439.08649        49.000  
  22319502.90649 117289778.24249     -1583.16449        49.000  
  22666511.70349 119113322.44549      4945.95749        49.000  
  22842616.93849 120038760.34049     -9664.03149        49.000  
 16 04 02 13 46 25.8000000  0  4G14G11G22G01                                    
  25403079.14149 133494080.37949    -13443.95749        49.000  
  22319533.08649 117289936.80149     -1588.43849        49.000  
  22666417.64849 119112828.16449      4939.17249        49.000  
  22842800.88349 120039726.99649     -9669.41849        49.000  
 16 04 02 13 46 25.9000000  0  4G14G11G22G01                                    
  25403335.00849 133495424.95749    -13448.08649        49.000  
  22319563.35249 117290095.84449     -1592.97749        49.000  
  22666323.69549 119112334.51649      4933.05149        49.000  
  22842984.92249 120040694.13749     -9673.98849        49.000  
 16 04 02 13 46 26.0000000  0  4G14G11G22G01                                    
  25403590.96949 133496770.03949    -13453.28949        49.000  
  22319593.71949 117290255.42249     -1598.47349        49.000  
  22666229.89149 119111841.54749      4926.22749        49.000  
  22843169.08649 120041661.80949     -9679.46149        49.000  
 16 04 02 13 46 26.1000000  0  4G14G11G22G01                                    
  25403847.02349 133498115.56649    -13457.76649        49.000  
  22319624.18049 117290415.49649     -1603.46149        49.000  
  22666136.21149 119111349.22749      4919.68849        49.000  
  22843353.32049 120042629.97349     -9684.39549        49.000  
 16 04 02 13 46 26.2000000  0  4G14G11G22G01                                    
  25404103.17249 133499461.62149    -13462.84449        49.000  
  22319654.75049 117290576.13749     -1608.96549        49.000  
  22666042.65649 119110857.60949      4912.83249        49.000  
  22843537.66449 120043598.70749     -9689.94149        49.000  
 16 04 02 13 46 26.3000000  0  4G14G11G22G01                                    
  25404359.40649 133500808.16849    -13468.11749        49.000  
  22319685.42249 117290737.29749     -1614.45349        49.000  
  22665949.24249 119110366.67249      4905.72749        49.000  
  22843722.10949 120044567.96549     -9695.58249        49.000  
 16 04 02 13 46 26.4000000  0  4G14G11G22G01                                    
  25404615.74249 133502155.21949    -13472.91849        49.000  
  22319716.19549 117290899.02749     -1619.89849        49.000  
  22665855.95349 119109876.43449      4898.96549        49.000  
  22843906.66449 120045537.78549     -9700.93049        49.000  
 16 04 02 13 46 26.5000000  0  4G14G11G22G01                                    
  25404872.15649 133503502.66849    -13477.07849        49.000  
  22319747.05549 117291061.19549     -1624.46149        49.000  
  22665762.78149 119109386.78949      4892.82449        49.000  
  22844091.29749 120046508.03949     -9705.48049        49.000  
 16 04 02 13 46 26.6000000  0  4G14G11G22G01                                    
  25405128.67249 133504850.69949    -13482.72349        49.000  
  22319778.03149 117291223.94949     -1630.12949        49.000  
  22665669.75049 119108897.89149      4885.57849        49.000  
  22844276.04749 120047478.89149     -9711.17649        49.000  
 16 04 02 13 46 26.7000000  0  4G14G11G22G01                                    
  25405385.27349 133506199.14849    -13486.90649        49.000  
  22319809.09449 117291387.19149     -1635.06649        49.000  
  22665576.83649 119108409.60249      4879.34049        49.000  
  22844460.88349 120048450.22749     -9716.10249        49.000  
 16 04 02 13 46 26.8000000  0  4G14G11G22G01                                    
  25405641.96149 133507548.04349    -13491.40249        49.000  
  22319840.25849 117291550.93449     -1639.96549        49.000  
  22665484.04749 119107921.98849      4872.82049        49.000  
  22844645.82049 120049422.06249     -9721.05949        49.000  
 16 04 02 13 46 26.9000000  0  4G14G11G22G01                                    
  25405898.74249 133508897.49649    -13496.90649        49.000  
  22319871.52349 117291715.23449     -1645.66049        49.000  
  22665391.39149 119107435.06649      4865.68049        49.000  
  22844830.85949 120050394.44549     -9726.55549        49.000  
 16 04 02 13 46 27.0000000  0  4G14G11G22G01                                    
  25406155.62549 133510247.40649    -13501.66449        49.000  
  22319902.89849 117291880.07449     -1651.09849        49.000  
  22665298.85949 119106948.82049      4858.84049        49.000  
  22845016.01649 120051367.37949     -9732.15249        49.000  
 16 04 02 13 46 27.1000000  0  4G14G11G22G01                                    
  25406412.60949 133511597.84449    -13507.00049        49.000  
  22319934.36749 117292045.46149     -1656.66049        49.000  
  22665206.46149 119106463.28149      4851.78949        49.000  
  22845201.25849 120052340.85949     -9737.62949        49.000  
 16 04 02 13 46 27.2000000  0  4G14G11G22G01                                    
  25406669.68049 133512948.75049    -13511.70749        49.000  
  22319965.93849 117292211.35249     -1661.68849        49.000  
  22665114.19549 119105978.40249      4845.13749        49.000  
  22845386.60949 120053314.84849     -9742.83249        49.000  
 16 04 02 13 46 27.3000000  0  4G14G11G22G01                                    
  25406926.84449 133514300.17649    -13516.68049        49.000  
  22319997.61749 117292377.82449     -1667.39149        49.000  
  22665022.07049 119105494.23449      4838.08249        49.000  
  22845572.06249 120054289.39849     -9748.28549        49.000  
 16 04 02 13 46 27.4000000  0  4G14G11G22G01                                    
  25407184.10249 133515652.06649    -13521.39149        49.000  
  22320029.39849 117292544.77349     -1672.22349        49.000  
  22664930.05549 119105010.69549      4831.78949        49.000  
  22845757.60949 120055264.44949     -9753.33249        49.000  
 16 04 02 13 46 27.5000000  0  4G14G11G22G01                                    
  25407441.44549 133517004.45349    -13526.67649        49.000  
  22320061.27349 117292712.30149     -1678.00049        49.000  
  22664838.18849 119104527.87949      4824.56249        49.000  
  22845943.26649 120056240.06249     -9759.06249        49.000  
 16 04 02 13 46 27.6000000  0  4G14G11G22G01                                    
  25407698.89849 133518357.36749    -13531.44549        49.000  
  22320093.26649 117292880.36349     -1683.32849        49.000  
  22664746.44549 119104045.74649      4817.80149        49.000  
  22846129.01649 120057216.20749     -9764.23849        49.000  
 16 04 02 13 46 27.7000000  0  4G14G11G22G01                                    
  25407956.43849 133519710.72749    -13536.02049        49.000  
  22320125.33649 117293048.90649     -1688.11349        49.000  
  22664654.79749 119103564.25049      4811.55149        49.000  
  22846314.85949 120058192.85249     -9769.18049        49.000  
 16 04 02 13 46 27.8000000  0  4G14G11G22G01                                    
  25408214.06249 133521064.57849    -13541.12549        49.000  
  22320157.50849 117293218.00849     -1693.62549        49.000  
  22664563.30549 119103083.45749      4804.49649        49.000  
  22846500.80549 120059170.04349     -9774.72349        49.000  
 16 04 02 13 46 27.9000000  0  4G14G11G22G01                                    
  25408471.77349 133522418.89549    -13545.53549        49.000  
  22320189.78949 117293387.61349     -1698.66049        49.000  
  22664471.93849 119102603.30149      4798.15249        49.000  
  22846686.85949 120060147.73049     -9779.55949        49.000  
 16 04 02 13 46 28.0000000  0  4G14G11G22G01                                    
  25408729.58649 133523773.73449    -13550.82449        49.000  
  22320222.17249 117293557.77049     -1704.24649        49.000  
  22664380.70349 119102123.87149      4790.79349        49.000  
  22846873.00049 120061125.98049     -9785.28949        49.000  
 16 04 02 13 46 28.1000000  0  4G14G11G22G01                                    
  25408987.49249 133525129.03549    -13555.35549        49.000  
  22320254.64849 117293728.43449     -1709.27049        49.000  
  22664289.59449 119101645.07049      4784.64149        49.000  
  22847059.25049 120062104.72749     -9790.12549        49.000  
 16 04 02 13 46 28.2000000  0  4G14G11G22G01                                    
  25409245.47749 133526484.78149    -13560.03949        49.000  
  22320287.21949 117293899.58649     -1714.33649        50.000  
  22664198.60949 119101166.91449      4777.98849        49.000  
  22847245.57849 120063083.96949     -9795.29349        49.000  
 16 04 02 13 46 28.3000000  0  4G14G11G22G01                                    
  25409503.56249 133527841.07049    -13565.29349        49.000  
  22320319.89149 117294071.30549     -1719.71949        49.000  
  22664107.75849 119100689.48449      4770.90249        49.000  
  22847432.03149 120064063.78149     -9800.89849        49.000  
 16 04 02 13 46 28.4000000  0  4G14G11G22G01                                    
  25409761.75849 133529197.89549    -13570.84849        49.000  
  22320352.69549 117294243.63349     -1725.96149        49.000  
  22664017.04749 119100212.79349      4763.36349        49.000  
  22847618.59449 120065044.18849     -9806.93049        49.000  
 16 04 02 13 46 28.5000000  0  4G14G11G22G01                                    
  25410020.03949 133530555.19149    -13575.77049        49.000  
  22320385.57849 117294416.46149     -1731.20749        49.000  
  22663926.43049 119099736.75049      4756.62949        49.000  
  22847805.25849 120066025.09849     -9812.12549        49.000  
 16 04 02 13 46 28.6000000  0  4G14G11G22G01                                    
  25410278.41449 133531912.93049    -13579.68449        49.000  
  22320418.56249 117294589.75849     -1735.40649        49.000  
  22663835.96149 119099261.34449      4750.77749        49.000  
  22847992.02349 120067006.48849     -9816.37149        49.000  
 16 04 02 13 46 28.7000000  0  4G14G11G22G01                                    
  25410536.86749 133533271.14549    -13584.84849        49.000  
  22320451.64149 117294763.58649     -1741.00049        50.000  
  22663745.62549 119098786.59049      4743.95349        49.000  
  22848178.87549 120067988.39849     -9821.88749        49.000  
 16 04 02 13 46 28.8000000  0  4G14G11G22G01                                    
  25410795.43049 133534629.85949    -13589.65649        49.000  
  22320484.82049 117294937.96549     -1746.48049        50.000  
  22663655.41449 119098312.54749      4736.87549        49.000  
  22848365.83649 120068970.85949     -9827.39149        49.000  
 16 04 02 13 46 28.9000000  0  4G14G11G22G01                                    
  25411054.07049 133535989.03549    -13594.05949        49.000  
  22320518.10249 117295112.83249     -1751.19949        50.000  
  22663565.32049 119097839.14149      4730.73849        49.000  
  22848552.88349 120069953.81249     -9832.16049        49.000  
 16 04 02 13 46 29.0000000  0  4G14G11G22G01                                    
  25411312.80549 133537348.69549    -13599.04349        49.000  
  22320551.47749 117295288.23849     -1756.74649        50.000  
  22663475.36749 119097366.41849      4723.60249        49.000  
  22848740.04749 120070937.30149     -9837.72349        49.000  
 16 04 02 13 46 29.1000000  0  4G14G11G22G01                                    
  25411571.64149 133538708.89549    -13604.33249        49.000  
  22320584.96149 117295464.21149     -1762.31249        50.000  
  22663385.54749 119096894.41449      4716.65649        49.000  
  22848927.30549 120071921.35949     -9843.29749        49.000  
 16 04 02 13 46 29.2000000  0  4G14G11G22G01                                    
  25411830.57049 133540069.55549    -13609.00849        49.000  
  22320618.54749 117295640.68849     -1767.42249        50.000  
  22663295.85249 119096423.05949      4710.06649        49.000  
  22849114.65649 120072905.91449     -9848.26249        49.000  
 16 04 02 13 46 29.3000000  0  4G14G11G22G01                                    
  25412089.58649 133541430.71149    -13614.18849        49.000  
  22320652.23449 117295817.71149     -1772.98449        50.000  
  22663206.28949 119095952.39849      4703.06649        49.000  
  22849302.11749 120073891.01649     -9853.79749        49.000  
 16 04 02 13 46 29.4000000  0  4G14G11G22G01                                    
  25412348.70349 133542792.38349    -13619.39149        49.000  
  22320686.02349 117295995.27749     -1778.46949        50.000  
  22663116.85249 119095482.43849      4695.83249        49.000  
  22849489.67249 120074876.67649     -9859.47749        49.000  
 16 04 02 13 46 29.5000000  0  4G14G11G22G01                                    
  25412607.91449 133544154.59049    -13624.50449        49.000  
  22320719.92249 117296173.44149     -1784.27349        49.000  
  22663027.55549 119095013.19549      4688.84849        49.000  
  22849677.35249 120075862.91049     -9865.11349        49.000  
 16 04 02 13 46 29.6000000  0  4G14G11G22G01                                    
  25412867.21949 133545517.25849    -13629.14549        49.000  
  22320753.92249 117296352.09449     -1789.25049        49.000  
  22662938.38349 119094544.60949      4682.32449        49.000  
  22849865.11749 120076849.64149     -9870.07849        49.000  
 16 04 02 13 46 29.7000000  0  4G14G11G22G01                                    
  25413126.61749 133546880.37549    -13633.41049        49.000  
  22320788.01649 117296531.23449     -1793.81649        50.000  
  22662849.32849 119094076.66049      4676.22749        49.000  
  22850052.98449 120077836.87149     -9874.75449        49.000  
 16 04 02 13 46 29.8000000  0  4G14G11G22G01                                    
  25413386.10249 133548243.94149    -13637.96549        49.000  
  22320822.20349 117296710.87549     -1798.82049        50.000  
  22662760.40649 119093609.35549      4669.74249        49.000  
  22850240.93849 120078824.58649     -9879.79349        49.000  
 16 04 02 13 46 29.9000000  0  4G14G11G22G01                                    
  25413645.68049 133549608.00049    -13643.07849        49.000  
  22320856.48449 117296891.05149     -1804.41849        50.000  
  22662671.60949 119093142.73049      4662.73449        49.000  
  22850428.99249 120079812.83249     -9885.28949        49.000  
 16 04 02 13 46 30.0000000  0  4G14G11G22G01                                    
  25413905.35949 133550972.60549    -13648.62149        49.000  
  22320890.88349 117297071.81649     -1810.35949        50.000  
  22662582.94549 119092676.83649      4655.32049        49.000  
  22850617.16449 120080801.66849     -9891.25049        49.000  
 16 04 02 13 46 30.1000000  0  4G14G11G22G01                                    
  25414165.12549 133552337.71549    -13653.69149        49.000  
  22320925.38349 117297253.11349     -1815.80149        50.000  
  22662494.43049 119092211.63349      4648.43449        49.000  
  22850805.43849 120081791.04749     -9896.67649        49.000  
 16 04 02 13 46 30.2000000  0  4G14G11G22G01                                    
  25414424.97749 133553703.24649    -13657.65649        49.000  
  22320959.96149 117297434.87949     -1820.18849        50.000  
  22662406.02349 119091747.04749      4642.52049        49.000  
  22850993.79749 120082780.89549     -9901.10549        49.000  
 16 04 02 13 46 30.3000000  0  4G14G11G22G01                                    
  25414684.91449 133555069.24649    -13662.45349        49.000  
  22320994.65649 117297617.16849     -1825.50449        50.000  
  22662317.74249 119091283.12949      4635.72749        49.000  
  22851182.25049 120083771.24249     -9906.28549        49.000  
 16 04 02 13 46 30.4000000  0  4G14G11G22G01                                    
  25414944.95349 133556435.74249    -13667.39149        49.000  
  22321029.43849 117297799.98449     -1830.74249        50.000  
  22662229.58649 119090819.88349      4629.05549        49.000  
  22851370.82049 120084762.14149     -9911.56649        49.000  
 16 04 02 13 46 30.5000000  0  4G14G11G22G01                                    
  25415205.08649 133557802.75049    -13672.80949        49.000  
  22321064.33649 117297983.35949     -1836.61749        49.000  
  22662141.57049 119090357.34449      4621.65249        49.000  
  22851559.48449 120085753.58649     -9917.50049        49.000  
 16 04 02 13 46 30.6000000  0  4G14G11G22G01                                    
  25415465.31249 133559170.25849    -13677.51249        49.000  
  22321099.32849 117298167.27049     -1841.76249        49.000  
  22662053.68049 119089895.50049      4614.98849        49.000  
  22851748.25849 120086745.57449     -9922.61749        49.000  
 16 04 02 13 46 30.7000000  0  4G14G11G22G01                                    
  25415725.63349 133560538.22349    -13682.12149        49.000  
  22321134.42249 117298351.68449     -1846.73449        50.000  
  22661965.91449 119089434.29749      4608.55949        49.000  
  22851937.11749 120087738.05549     -9927.44149        49.000  
 16 04 02 13 46 30.8000000  0  4G14G11G22G01                                    
  25415986.04749 133561906.69549    -13687.21549        49.000  
  22321169.62549 117298536.66049     -1852.32849        50.000  
  22661878.28149 119088973.80149      4601.49249        49.000  
  22852126.09449 120088731.09449     -9933.17649        49.000  
 16 04 02 13 46 30.9000000  0  4G14G11G22G01                                    
  25416246.54749 133563275.65649    -13692.00449        49.000  
  22321204.92249 117298722.15249     -1857.53949        50.000  
  22661790.78149 119088513.97749      4594.79749        49.000  
  22852315.16449 120089724.65649     -9938.29749        49.000  
 16 04 02 13 46 31.0000000  0  4G14G11G22G01                                    
  25416507.14849 133564645.11349    -13697.06649        49.000  
  22321240.32849 117298908.18849     -1863.05149        50.000  
  22661703.41449 119088054.83649      4587.79349        49.000  
  22852504.34449 120090718.75449     -9943.75849        49.000  
 16 04 02 13 46 31.1000000  0  4G14G11G22G01                                    
  25416767.84449 133566015.01249    -13701.43049        49.000  
  22321275.82049 117299094.69549     -1867.66049        49.000  
  22661616.16449 119087596.32049      4581.79749        49.000  
  22852693.60249 120091713.33249     -9948.43849        49.000  
 16 04 02 13 46 31.2000000  0  4G14G11G22G01                                    
  25417028.60949 133567385.34849    -13705.89149        49.000  
  22321311.40649 117299281.70749     -1872.75849        50.000  
  22661529.03949 119087138.46149      4575.04749        49.000  
  22852882.96149 120092708.40649     -9953.40249        49.000  
 16 04 02 13 46 31.3000000  0  4G14G11G22G01                                    
  25417289.46949 133568756.20749    -13710.90649        49.000  
  22321347.10249 117299469.26649     -1878.20749        49.000  
  22661442.03949 119086681.28949      4568.29349        49.000  
  22853072.42249 120093704.03149     -9958.94149        49.000  
 16 04 02 13 46 31.4000000  0  4G14G11G22G01                                    
  25417550.41449 133570127.48449    -13715.01249        49.000  
  22321382.87549 117299657.28549     -1882.70349        49.000  
  22661355.15649 119086224.73049      4562.32849        49.000  
  22853261.95349 120094700.11349     -9963.40649        49.000  
 16 04 02 13 46 31.5000000  0  7G14G08G32G17G11G22G01                           
  25417811.46149 133571499.24649    -13719.95749        49.000  
  24121350.53149 126758552.52759     24544.75449        50.000  
  24881456.03949 130752932.48859    -11740.00449        50.000  
  27703510.25849 145582927.65659    -27174.29749        48.000  
  22321418.75849 117299845.84049     -1888.10549        49.000  
  22661268.40649 119085768.85249      4555.46149        49.000  
  22853451.60949 120095696.72749     -9968.76249        49.000  
 16 04 02 13 46 31.6000000  0  8G14G08G28G32G17G11G22G01                        
  25418072.58649 133572871.45749    -13724.47349        49.000  
  24120883.49249 126756098.21149     24541.87949        50.000  
  25966283.33649 136453739.78159    -17027.07849        49.000  
  24881679.48449 130754106.72749    -11744.82049        50.000  
  27704027.37549 145585645.11749    -27174.94149        48.000  
  22321454.74249 117300034.88349     -1892.97349        49.000  
  22661181.77349 119085313.61749      4548.96549        49.000  
  22853641.35949 120096693.84049     -9973.80949        49.000  
 16 04 02 13 46 31.7000000  0  8G14G08G28G32G17G11G22G01                        
  25418333.80549 133574244.19949    -13730.02749        49.000  
  24120416.52349 126753644.24249     24538.14849        50.000  
  25966607.38349 136455442.63749    -17029.77749        49.000  
  24881903.04749 130755281.54349    -11750.78149        50.000  
  27704544.50849 145588362.71149    -27176.46549        48.000  
  22321490.82849 117300224.50049     -1898.98849        49.000  
  22661095.28949 119084859.09449      4541.56649        49.000  
  22853831.21149 120097691.51249     -9979.60549        49.000  
 16 04 02 13 46 31.8000000  0  9G14G08G28G32G17G27G11G22G01                     
  25418595.12549 133575617.41449    -13734.65249        49.000  
  24119949.60949 126751190.57449     24535.20749        50.000  
  25966931.43049 136457145.64849    -17031.18049        49.000  
  24882126.70349 130756456.83649    -11755.53149        50.000  
  27705061.66449 145591080.38349    -27177.19149        48.000  
  26844192.57849 141067184.00859     30967.64549        48.000  
  22321527.00049 117300414.62149     -1903.87949        49.000  
  22661008.92249 119084405.24249      4534.98449        49.000  
  22854021.16449 120098689.69549     -9984.62149        49.000  
 16 04 02 13 46 31.9000000  0  9G14G08G28G32G17G27G11G22G01                     
  25418856.53949 133576991.11349    -13739.46549        49.000  
  24119482.74249 126748737.22749     24531.96149        50.000  
  25967255.53149 136458848.85249    -17032.96549        49.000  
  24882350.43849 130757632.67649    -11760.89549        50.000  
  27705578.85949 145593798.15249    -27178.16849        48.000  
  26843603.29749 141064087.30949     30966.22749        48.000  
  22321563.28149 117300605.28549     -1909.34449        49.000  
  22660922.68049 119083952.05949      4528.26249        49.000  
  22854211.21149 120099688.41049     -9989.90649        49.000  
 16 04 02 13 46 32.0000000  0  9G14G08G28G32G17G27G11G22G01                     
  25419118.04749 133578365.34449    -13744.78949        49.000  
  24119015.96149 126746284.24249     24528.32849        50.000  
  25967579.68849 136460552.30149    -17035.53949        49.000  
  24882574.30549 130758809.07049    -11766.50449        50.000  
  27706096.06249 145596516.06249    -27179.49249        48.000  
  26843014.04749 141060990.75449     30964.79349        48.000  
  22321599.67249 117300796.52349     -1914.98449        50.000  
  22660836.57849 119083499.59449      4521.13349        49.000  
  22854401.36749 120100687.70349     -9995.65249        49.000  
 16 04 02 13 46 32.1000000  0  9G14G08G28G32G17G27G11G22G01                     
  25419379.63349 133579740.00849    -13749.10249        49.000  
  24118549.19549 126743831.52349     24525.64149        50.000  
  25967903.86749 136462255.87149    -17036.77749        49.000  
  24882798.24249 130759985.93849    -11771.24649        50.000  
  27706613.32049 145599234.02049    -27180.06249        48.000  
  26842424.81249 141057894.30549     30963.84049        48.000  
  22321636.15649 117300988.23449     -1919.85949        50.000  
  22660750.59449 119083047.77049      4514.78149        49.000  
  22854591.61749 120101687.47349    -10000.41449        49.000  
 16 04 02 13 46 32.2000000  0  9G14G08G28G32G17G27G11G22G01                     
  25419641.30549 133581115.09849    -13753.19549        49.000  
  24118082.50849 126741379.05149     24523.37949        50.000  
  25968228.07049 136463959.57449    -17037.71149        49.000  
  24883022.28149 130761163.27049    -11775.62949        50.000  
  27707130.53949 145601952.01249    -27180.16849        48.000  
  26841835.55549 141054797.91049     30963.33249        48.000  
  22321672.71949 117301180.41049     -1924.22349        50.000  
  22660664.72749 119082596.54749      4508.85949        49.000  
  22854781.95349 120102687.69549    -10004.90249        49.000  
 16 04 02 13 46 32.3000000  0  9G14G08G28G32G17G27G11G22G01                     
  25419903.07049 133582490.65249    -13758.00849        49.000  
  24117615.85249 126738926.87549     24520.37149        50.000  
  25968552.30549 136465663.43049    -17039.45349        49.000  
  24883246.42249 130762341.08649    -11780.62949        50.000  
  27707647.64149 145604670.06249    -27180.87549        48.000  
  26841246.35249 141051701.62549     30962.07449        48.000  
  22321709.39149 117301373.09449     -1929.40249        50.000  
  22660578.99249 119082145.98049      4502.22349        49.000  
  22854972.38349 120103688.43049    -10010.10549        49.000  
 16 04 02 13 46 32.4000000  0  9G14G08G28G32G17G27G11G22G01                     
  25420164.91449 133583866.62149    -13761.84049        49.000  
  24117149.26649 126736474.94149     24518.12149        50.000  
  25968876.54749 136467367.41449    -17040.55149        49.000  
  24883470.64149 130763519.35549    -11784.93449        50.000  
  27708164.87549 145607388.14549    -27180.94549        48.000  
  26840657.15649 141048605.39549     30961.92249        48.000  
  22321746.14849 117301566.23449     -1933.83249        50.000  
  22660493.36749 119081696.03149      4496.27749        49.000  
  22855162.91449 120104689.62949    -10014.45349        49.000  
 16 04 02 13 46 32.5000000  0  9G14G08G28G32G17G27G11G22G01                     
  25420426.83649 133585243.01649    -13766.10249        49.000  
  24116682.75049 126734023.27349     24515.58649        50.000  
  25969200.82849 136469071.51649    -17041.60949        49.000  
  24883694.91449 130764698.09849    -11789.60249        50.000  
  27708682.18049 145610106.27349    -27181.43049        48.000  
  26840067.97749 141045509.24249     30961.16849        48.000  
  22321782.99249 117301759.83649     -1938.37149        50.000  
  22660407.85949 119081246.68449      4490.28149        49.000  
  22855353.52349 120105691.28949    -10019.09449        49.000  
 16 04 02 13 46 32.6000000  0  9G14G08G28G32G17G27G11G22G01                     
  25420688.82849 133586619.79749    -13769.88749        49.000  
  24116216.25049 126731571.82049     24513.39849        50.000  
  25969525.14149 136470775.71549    -17042.54349        49.000  
  24883919.30549 130765877.25049    -11793.62949        50.000  
  27709199.41449 145612824.37949    -27181.08649        48.000  
  26839478.79749 141042413.11749     30961.02749        48.000  
  22321819.91449 117301953.88749     -1942.68849        50.000  
  22660322.46149 119080797.93049      4484.48449        49.000  
  22855544.21949 120106693.37549    -10023.17249        49.000  
 16 04 02 13 46 32.7000000  0  9G14G08G28G32G17G27G11G22G01                     
  25420950.89149 133587996.94949    -13773.40649        49.000  
  24115749.78949 126729120.55949     24511.63349        50.000  
  25969849.45349 136472479.98449    -17043.15249        49.000  
  24884143.78149 130767056.80949    -11797.62149        50.000  
  27709716.68849 145615542.47349    -27180.86349        48.000  
  26838889.62549 141039317.00449     30961.11749        48.000  
  22321856.91449 117302148.34049     -1946.70349        50.000  
  22660237.17249 119080349.73449      4479.03149        49.000  
  22855734.99249 120107695.87549    -10027.14849        49.000  
 16 04 02 13 46 32.8000000  0  9G14G08G28G32G17G27G11G22G01                     
  25421213.01649 133589374.43849    -13776.78149        49.000  
  24115283.35949 126726669.47349     24509.89149        50.000  
  25970173.76649 136474184.27749    -17043.40649        49.000  
  24884368.31249 130768236.73849    -11801.25049        50.000  
  27710233.91449 145618260.52049    -27180.35549        48.000  
  26838300.43049 141036220.86349     30961.28949        48.000  
  22321893.99249 117302343.16849     -1950.40649        50.000  
  22660151.98449 119079902.05949      4473.79349        49.000  
  22855925.82849 120108698.75449    -10030.96949        49.000  
 16 04 02 13 46 32.9000000  0  9G14G08G28G32G17G27G11G22G01                     
  25421475.21149 133590752.30549    -13780.33649        49.000  
  24114816.97749 126724218.59849     24507.95349        50.000  
  25970498.10249 136475888.65649    -17043.88749        49.000  
  24884592.93849 130769417.08249    -11805.25849        50.000  
  27710751.07849 145620978.53949    -27179.94949        48.000  
  26837711.26649 141033124.76649     30961.16849        48.000  
  22321931.14849 117302538.43049     -1954.48449        50.000  
  22660066.91449 119079454.96149      4468.28949        49.000  
  22856116.75049 120109702.05949    -10034.89549        49.000  
 16 04 02 13 46 33.0000000  0  9G14G08G28G32G17G27G11G22G01                     
  25421737.46949 133592130.45749    -13783.44549        49.000  
  24114350.60949 126721767.82449     24506.77349        50.000  
  25970822.47749 136477593.03549    -17044.19149        49.000  
  24884817.60949 130770597.73849    -11808.57449        50.000  
  27711268.28149 145623696.46149    -27179.09849        48.000  
  26837122.10949 141030028.58249     30961.60549        48.000  
  22321968.35949 117302734.00449     -1957.94149        50.000  
  22659981.92249 119079008.33249      4463.36749        49.000  
  22856307.75049 120110705.68049    -10038.48049        49.000  
 16 04 02 13 46 33.1000000  0  9G14G08G28G32G17G27G11G22G01                     
  25421999.79749 133593508.98449    -13786.65649        49.000  
  24113884.30549 126719317.27349     24504.91449        50.000  
  25971146.81249 136479297.47349    -17044.13349        49.000  
  24885042.35249 130771778.81249    -11812.28549        50.000  
  27711785.46949 145626414.35949    -27178.44149        48.000  
  26836532.93049 141026932.41849     30962.10949        48.000  
  22322005.65649 117302930.01249     -1961.68049        50.000  
  22659897.04749 119078562.27749      4458.10249        49.000  
  22856498.81249 120111709.72749    -10042.21149        49.000  
 16 04 02 13 46 33.2000000  0  9G14G08G28G32G17G27G11G22G01                     
  25422262.17249 133594887.78149    -13789.67249        49.000  
  24113417.99249 126716866.82049     24503.71149        50.000  
  25971471.13349 136481001.89149    -17044.39549        49.000  
  24885267.16449 130772960.18849    -11815.60949        50.000  
  27712302.64149 145629132.15249    -27177.69149        48.000  
  26835943.75049 141023836.17249     30962.57449        48.000  
  22322043.01649 117303126.32849     -1965.09449        50.000  
  22659812.25049 119078116.68449      4453.10249        49.000  
  22856689.93049 120112714.07849    -10045.46549        49.000  
 16 04 02 13 46 33.3000000  0  9G14G08G28G32G17G27G11G22G01                     
  25422524.59449 133596266.85249    -13792.01649        49.000  
  24112951.70349 126714416.45349     24503.17649        50.000  
  25971795.46949 136482706.26649    -17043.61749        49.000  
  24885492.00049 130774141.86349    -11818.16849        50.000  
  27712819.83649 145631849.80549    -27175.98449        48.000  
  26835354.53149 141020739.83249     30964.01649        48.000  
  22322080.43049 117303322.94549     -1967.69949        50.000  
  22659727.53949 119077671.53549      4449.14549        49.000  
  22856881.10949 120113718.74249    -10048.11749        49.000  
 16 04 02 13 46 33.4000000  0  9G14G08G28G32G17G27G11G22G01                     
  25422787.06249 133597646.13349    -13794.07449        49.000  
  24112485.42249 126711966.13749     24502.82049        50.000  
  25972119.78949 136484410.55949    -17042.55549        49.000  
  24885716.91449 130775323.78949    -11820.56249        50.000  
  27713336.95349 145634567.28549    -27174.06649        48.000  
  26834765.27349 141017643.35249     30965.56249        48.000  
  22322117.89849 117303519.83249     -1970.22349        50.000  
  22659642.91449 119077226.81649      4445.05549        49.000  
  22857072.34449 120114723.66449    -10050.65649        49.000  
 16 04 02 13 46 33.5000000  0  9G14G08G28G32G17G27G11G22G01                     
  25423049.57849 133599025.64549    -13796.42649        49.000  
  24112019.16449 126709515.89149     24502.14849        50.000  
  25972444.09449 136486114.79349    -17042.04749        49.000  
  24885941.88349 130776505.98849    -11823.39849        50.000  
  27713854.03149 145637284.60949    -27172.55949        48.000  
  26834176.00849 141014546.75049     30966.63749        48.000  
  22322155.42249 117303717.00049     -1973.18849        50.000  
  22659558.35249 119076782.51249      4440.72749        49.000  
  22857263.62549 120115728.86349    -10053.56249        49.000  
 16 04 02 13 46 33.6000000  0  9G14G08G28G32G17G27G11G22G01                     
  25423312.12549 133600405.33649    -13797.88749        49.000  
  24111552.89849 126707065.65249     24502.24649        50.000  
  25972768.35949 136487818.91049    -17040.60549        49.000  
  24886166.88349 130777688.39149    -11825.17649        50.000  
  27714371.07849 145640001.71949    -27170.13349        48.000  
  26833586.70349 141011449.96949     30968.78149        48.000  
  22322192.97749 117303914.37949     -1974.94549        50.000  
  22659473.86749 119076338.57449      4437.42649        49.000  
  22857454.96149 120116734.28149    -10055.41049        49.000  
 16 04 02 13 46 33.7000000  0  9G14G08G28G32G17G27G11G22G01                     
  25423574.71149 133601785.19549    -13799.73049        49.000  
  24111086.61749 126704615.41049     24502.24649        50.000  
  25973092.61749 136489522.88349    -17039.33249        49.000  
  24886391.90649 130778870.99249    -11827.24649        50.000  
  27714888.04749 145642718.60549    -27167.94549        48.000  
  26832997.36749 141008353.00849     30970.40249        48.000  
  22322230.57849 117304111.96149     -1977.14849        50.000  
  22659389.45349 119075894.99249      4433.72349        49.000  
  22857646.32849 120117739.90249    -10057.56649        49.000  
 16 04 02 13 46 33.8000000  0  9G14G08G28G32G17G27G11G22G01                     
  25423837.33649 133603165.30949    -13802.15649        49.000  
  24110620.36749 126702165.25849     24501.43049        50.000  
  25973416.85249 136491226.81649    -17038.75849        49.000  
  24886617.00849 130780053.89549    -11830.06649        50.000  
  27715405.03149 145645435.35949    -27166.50049        48.000  
  26832408.02349 141005255.94949     30971.50049        48.000  
  22322268.23449 117304309.85549     -1980.05949        50.000  
  22659305.13349 119075451.87149      4429.26249        49.000  
  22857837.75049 120118745.82449    -10060.41849        49.000  
 16 04 02 13 46 33.9000000  0  9G14G08G28G32G17G27G11G22G01                     
  25424099.99249 133604545.56249    -13803.43849        49.000  
  24110154.10949 126699715.07449     24501.76649        50.000  
  25973741.07049 136492930.59849    -17037.21549        49.000  
  24886842.13349 130781236.96549    -11831.74249        50.000  
  27715921.94549 145648151.86349    -27163.98049        48.000  
  26831818.62549 141002158.66449     30973.93049        48.000  
  22322305.92249 117304507.93849     -1981.93849        50.000  
  22659220.87549 119075009.07449      4426.09049        49.000  
  22858029.21149 120119751.93449    -10062.09049        49.000  
 16 04 02 13 46 34.0000000  0  9G14G08G28G32G17G27G11G22G01                     
  25424362.67249 133605925.98449    -13805.25449        49.000  
  24109687.85249 126697264.88349     24501.72749        50.000  
  25974065.28149 136494634.22749    -17035.77049        49.000  
  24887067.30549 130782420.23849    -11833.87549        50.000  
  27716438.83649 145650868.13749    -27161.89149        48.000  
  26831229.21149 140999061.19149     30975.47749        48.000  
  22322343.65649 117304706.21949     -1984.16049        50.000  
  22659136.68849 119074566.63349      4422.30149        49.000  
  22858220.69549 120120758.23849    -10064.37549        49.000  
 16 04 02 13 46 34.1000000  0  9G14G08G28G32G17G27G11G22G01                     
  25424625.39149 133607306.61749    -13807.33249        49.000  
  24109221.60949 126694814.74249     24501.34449        50.000  
  25974389.46149 136496337.78549    -17034.96949        49.000  
  24887292.50049 130783603.75849    -11836.36749        50.000  
  27716955.67249 145653584.23849    -27160.00449        48.000  
  26830639.75849 140995963.57449     30976.93049        48.000  
  22322381.43849 117304904.75049     -1986.52749        50.000  
  22659052.57849 119074124.59849      4418.42649        49.000  
  22858412.24249 120121764.81249    -10066.93449        49.000  
 16 04 02 13 46 34.2000000  0  9G14G08G28G32G17G27G11G22G01                     
  25424888.15649 133608687.44549    -13809.19149        49.000  
  24108755.36749 126692364.62549     24501.17649        50.000  
  25974713.64149 136498041.24649    -17033.85249        49.000  
  24887517.75849 130784787.51249    -11838.53149        50.000  
  27717472.49249 145656300.14149    -27157.96949        48.000  
  26830050.25849 140992865.81649     30978.66849        48.000  
  22322419.25849 117305103.53949     -1988.96149        50.000  
  22658968.53149 119073682.95349      4414.60949        49.000  
  22858603.82849 120122771.61749    -10069.14149        49.000  
 16 04 02 13 46 34.3000000  0  9G14G08G28G32G17G27G11G22G01                     
  25425150.94549 133610068.43849    -13810.71149        49.000  
  24108289.10949 126689914.50849     24501.16849        50.000  
  25975037.76649 136499744.55149    -17032.41849        49.000  
  24887743.02349 130785971.44549    -11840.37549        50.000  
  27717989.25049 145659015.80549    -27155.54749        48.000  
  26829460.73449 140989767.84049     30980.82849        48.000  
  22322457.12549 117305302.51649     -1990.87549        50.000  
  22658884.54749 119073241.66049      4411.12949        49.000  
  22858795.46149 120123778.61749    -10071.09049        49.000  
 16 04 02 13 46 34.4000000  0  9G14G08G28G32G17G27G11G22G01                     
  25425413.77349 133611449.58649    -13812.36349        49.000  
  24107822.86749 126687464.37149     24501.28149        50.000  
  25975361.89149 136501447.72349    -17031.17249        49.000  
  24887968.35949 130787155.59049    -11842.50049        50.000  
  27718505.98449 145661731.24249    -27153.31249        48.000  
  26828871.17249 140986669.68049     30982.50849        48.000  
  22322495.03149 117305501.70349     -1993.02049        50.000  
  22658800.64149 119072800.71149      4407.63749        49.000  
  22858987.12549 120124785.82849    -10073.22749        49.000  
 16 04 02 13 46 34.5000000  0  9G14G08G28G32G17G27G11G22G01                     
  25425676.63349 133612830.90249    -13814.03949        49.000  
  24107356.59449 126685014.24249     24501.33249        50.000  
  25975685.96949 136503150.77049    -17029.69149        49.000  
  24888193.73449 130788339.93049    -11844.41449        50.000  
  27719022.71949 145664446.47349    -27151.18449        48.000  
  26828281.57849 140983571.33649     30984.50849        48.000  
  22322532.97749 117305701.10249     -1995.03949        50.000  
  22658716.79749 119072360.14149      4403.79349        49.000  
  22859178.82849 120125793.25449    -10075.43049        49.000  
 16 04 02 13 46 34.6000000  0  9G14G08G28G32G17G27G11G22G01                     
  25425939.52349 133614212.42649    -13816.09049        49.000  
  24106890.35249 126682564.14849     24500.89849        50.000  
  25976010.05549 136504853.72349    -17028.93849        49.000  
  24888419.14849 130789524.51249    -11846.85249        50.000  
  27719539.36749 145667161.49649    -27149.25049        48.000  
  26827691.95349 140980472.82049     30986.07449        48.000  
  22322570.96949 117305900.75449     -1997.61749        50.000  
  22658633.03149 119071919.95349      4400.00849        49.000  
  22859370.57849 120126800.91849    -10077.78949        49.000  
 16 04 02 13 46 34.7000000  0  9G14G08G28G32G17G27G11G22G01                     
  25426202.45349 133615594.11749    -13817.96549        49.000  
  24106424.10949 126680114.05549     24500.73049        50.000  
  25976334.08649 136506556.53549    -17027.67649        49.000  
  24888644.59449 130790709.28949    -11848.97749        50.000  
  27720055.96949 145669876.30549    -27147.14149        48.000  
  26827102.29749 140977374.14149     30987.63349        48.000  
  22322609.00049 117306100.60949     -1999.87949        50.000  
  22658549.33649 119071480.13749      4396.09849        49.000  
  22859562.36749 120127808.79349    -10080.01249        49.000  
 16 04 02 13 46 34.8000000  0  9G14G08G28G32G17G27G11G22G01                     
  25426465.42249 133616976.04349    -13820.12949        49.000  
  24105957.88349 126677664.02349     24500.28549        50.000  
  25976658.09449 136508259.28949    -17026.96949        49.000  
  24888870.10249 130791894.33649    -11851.43049        50.000  
  27720572.54749 145672590.96149    -27145.46149        48.000  
  26826512.60949 140974275.33249     30989.16449        48.000  
  22322647.09449 117306300.74249     -2002.41849        50.000  
  22658465.71949 119071040.73049      4392.09049        49.000  
  22859754.20349 120128816.94149    -10082.63349        49.000  
 16 04 02 13 46 34.9000000  0  9G14G08G28G32G17G27G11G22G01                     
  25426728.42249 133618358.11749    -13821.57049        49.000  
  24105491.64849 126675213.98049     24500.40249        50.000  
  25976982.08649 136509961.89549    -17025.39549        49.000  
  24889095.64149 130793079.57449    -11853.43049        50.000  
  27721089.03949 145675305.37149    -27143.06249        48.000  
  26825922.89149 140971176.32449     30991.20349        48.000  
  22322685.21149 117306501.08249     -2004.47349        50.000  
  22658382.18049 119070601.68449      4388.61749        49.000  
  22859946.08649 120129825.28549    -10084.58249        49.000  
 16 04 02 13 46 35.0000000  0  9G14G08G28G32G17G27G11G22G01                     
  25426991.45349 133619740.34849    -13823.20749        50.000  
  24105025.42249 126672763.91849     24500.56249        50.000  
  25977306.04749 136511664.34849    -17023.94149        49.000  
  24889321.21949 130794264.99649    -11855.25049        50.000  
  27721605.53149 145678019.53949    -27140.65249        48.000  
  26825333.12549 140968077.12149     30993.09449        48.000  
  22322723.36749 117306701.59849     -2006.26249        49.000  
  22658298.69549 119070162.96149      4385.41049        49.000  
  22860138.00049 120130833.82849    -10086.50049        49.000  
 16 04 02 13 46 35.1000000  0  9G14G08G28G32G17G27G11G22G01                     
  25427254.52349 133621122.75049    -13824.93049        50.000  
  24104559.19549 126670313.86349     24500.54349        50.000  
  25977629.99249 136513366.68449    -17022.73049        49.000  
  24889546.84449 130795450.62949    -11857.33649        50.000  
  27722122.00849 145680733.49649    -27138.47749        48.000  
  26824743.32849 140964977.71549     30994.91449        48.000  
  22322761.57049 117306902.34849     -2008.48449        49.000  
  22658215.28149 119069724.63349      4381.45349        49.000  
  22860329.95349 120131842.58249    -10088.66449        49.000  
 16 04 02 13 46 35.2000000  0  9G14G08G28G32G17G27G11G22G01                     
  25427517.62549 133622505.38749    -13827.37149        50.000  
  24104092.97749 126667863.87149     24499.80949        50.000  
  25977953.92249 136515068.94549    -17022.16049        49.000  
  24889772.51649 130796636.52749    -11860.10549        50.000  
  27722638.43049 145683447.29749    -27137.07449        48.000  
  26824153.52349 140961878.20749     30995.87949        48.000  
  22322799.82849 117307103.37549     -2011.39549        50.000  
  22658131.95349 119069286.71949      4377.11749        49.000  
  22860521.96949 120132851.61749    -10091.60549        49.000  
 16 04 02 13 46 35.3000000  0  9G14G08G28G32G17G27G11G22G01                     
  25427780.78949 133623888.29349    -13830.31249        50.000  
  24103626.78949 126665413.98849     24498.53949        50.000  
  25978277.84449 136516771.18449    -17022.14549        49.000  
  24889998.23449 130797822.73449    -11863.43049        50.000  
  27723154.83649 145686160.97749    -27136.09849        48.000  
  26823563.68849 140958778.60549     30996.66849        48.000  
  22322838.14149 117307304.71549     -2014.87149        50.000  
  22658048.71149 119068849.26249      4372.28149        49.000  
  22860714.03949 120133860.95349    -10094.87549        49.000  
 16 04 02 13 46 35.4000000  0  9G14G08G28G32G17G27G11G22G01                     
  25428043.98449 133625271.41449    -13832.46549        50.000  
  24103160.60249 126662964.15249     24498.00849        50.000  
  25978601.77349 136518473.34049    -17021.35549        49.000  
  24890224.00849 130799009.18849    -11865.84449        50.000  
  27723671.19549 145688874.48449    -27134.40249        48.000  
  26822973.82049 140955678.87549     30997.95749        48.000  
  22322876.50849 117307506.31649     -2017.51249        50.000  
  22657965.53949 119068412.21549      4368.27349        49.000  
  22860906.16449 120134870.55949    -10097.38749        49.000  
 16 04 02 13 46 35.5000000  0  9G14G08G28G32G17G27G11G22G01                     
  25428307.23449 133626654.76649    -13834.62149        50.000  
  24102694.40649 126660514.36749     24497.59049        50.000  
  25978925.67249 136520175.41849    -17020.45349        49.000  
  24890449.82049 130800195.89849    -11868.43049        50.000  
  27724187.53149 145691587.80549    -27132.45349        48.000  
  26822383.93049 140952579.00849     30999.38349        48.000  
  22322914.91449 117307708.17249     -2020.02749        50.000  
  22657882.46949 119067975.58649      4364.13349        49.000  
  22861098.33649 120135880.42249    -10100.10549        49.000  
 16 04 02 13 46 35.6000000  0  9G14G08G28G32G17G27G11G22G01                     
  25428570.52349 133628038.33249    -13836.85249        50.000  
  24102228.23449 126658064.64549     24497.02049        50.000  
  25979249.53949 136521877.43449    -17019.83249        49.000  
  24890675.69549 130801382.86349    -11870.91449        50.000  
  27724703.82849 145694300.98049    -27130.85949        48.000  
  26821794.01649 140949479.00449     31000.69949        48.000  
  22322953.38349 117307910.29749     -2022.52049        50.000  
  22657799.46149 119067539.38349      4359.95749        49.000  
  22861290.55549 120136890.55549    -10102.68849        49.000  
 16 04 02 13 46 35.7000000  0  9G14G08G28G32G17G27G11G22G01                     
  25428833.85949 133629422.17249    -13839.57449        49.000  
  24101762.09449 126655615.02349     24495.91049        50.000  
  25979573.40649 136523579.39549    -17019.30149        49.000  
  24890901.60249 130802570.14549    -11874.07449        50.000  
  27725220.10249 145697014.02749    -27129.65249        48.000  
  26821204.08649 140946378.91849     31001.68849        48.000  
  22322991.91449 117308112.75449     -2025.98449        50.000  
  22657716.52349 119067103.64149      4355.23849        49.000  
  22861482.83649 120137901.00449    -10105.84449        49.000  
 16 04 02 13 46 35.8000000  0  9G14G08G28G32G17G27G11G22G01                     
  25429097.24249 133630806.27749    -13842.43049        49.000  
  24101295.96149 126653165.48849     24494.88349        50.000  
  25979897.26649 136525281.33649    -17019.15649        49.000  
  24891127.58649 130803757.71149    -11877.20749        50.000  
  27725736.35249 145699726.94549    -27128.59049        48.000  
  26820614.13349 140943278.75049     31002.27749        48.000  
  22323030.50049 117308315.49649     -2029.05149        50.000  
  22657633.68849 119066668.34049      4350.67649        49.000  
  22861675.18049 120138911.75049    -10109.05549        49.000  
 16 04 02 13 46 35.9000000  0  9G14G08G28G32G17G27G11G22G01                     
  25429360.68849 133632190.67649    -13845.55149        50.000  
  24100829.85249 126650716.10549     24493.34849        50.000  
  25980221.13349 136526983.27749    -17019.22749        49.000  
  24891353.64149 130804945.62149    -11880.62949        50.000  
  27726252.59449 145702439.78149    -27127.84449        48.000  
  26820024.18049 140940178.52749     31002.52349        48.000  
  22323069.14849 117308518.59849     -2032.65649        50.000  
  22657550.95349 119066233.54349      4345.56249        49.000  
  22861867.58649 120139922.84849    -10112.67249        49.000  
 16 04 02 13 46 36.0000000  0  9G14G08G28G32G17G27G11G22G01                     
  25429624.17249 133633575.27349    -13847.23049        50.000  
  24100363.75849 126648266.73849     24493.29749        50.000  
  25980544.98449 136528685.12149    -17018.14149        49.000  
  24891579.73449 130806133.75049    -11882.63349        50.000  
  27726768.78949 145705152.40649    -27125.58649        48.000  
  26819434.19549 140937078.12949     31004.52049        48.000  
  22323107.84449 117308721.93049     -2034.77049        50.000  
  22657468.28949 119065799.12949      4341.88749        49.000  
  22862060.03949 120140934.17249    -10114.71549        49.000  
 16 04 02 13 46 36.1000000  0  9G14G08G28G32G17G27G11G22G01                     
  25429887.71149 133634960.13749    -13850.05949        50.000  
  24099897.67249 126645817.46549     24492.27049        50.000  
  25980868.82049 136530386.90649    -17017.82049        49.000  
  24891805.89149 130807322.17649    -11885.68849        50.000  
  27727284.98449 145707864.91049    -27124.50849        48.000  
  26818844.18849 140933977.65649     31005.16849        48.000  
  22323146.59449 117308925.58249     -2038.08649        50.000  
  22657385.71149 119065365.18049      4337.08249        49.000  
  22862252.54749 120141945.80949    -10118.03949        49.000  
 16 04 02 13 46 36.2000000  0  9G14G08G28G32G17G27G11G22G01                     
  25430151.30549 133636345.34049    -13853.59049        49.000  
  24099431.62549 126643368.37549     24490.32049        50.000  
  25981192.67249 136532088.76249    -17018.62549        49.000  
  24892032.10949 130808510.99649    -11889.80949        50.000  
  27727801.14849 145710577.37549    -27124.10249        48.000  
  26818254.21149 140930877.17249     31005.05949        48.000  
  22323185.42249 117309129.60949     -2042.10949        50.000  
  22657303.23449 119064931.76649      4331.60249        49.000  
  22862445.13349 120142957.83249    -10122.09049        49.000  
 16 04 02 13 46 36.3000000  0  9G14G08G28G32G17G27G11G22G01                     
  25430414.96949 133637730.91449    -13857.32849        50.000  
  24098965.60949 126640919.49649     24488.12949        50.000  
  25981516.53149 136533790.67649    -17019.21549        49.000  
  24892258.40649 130809700.21949    -11893.93849        50.000  
  27728317.34449 145713289.80949    -27123.91849        48.000  
  26817664.21149 140927776.71149     31004.89149        48.000  
  22323224.32849 117309334.06249     -2046.35949        50.000  
  22657220.86749 119064498.91449      4325.95749        49.000  
  22862637.78949 120143970.27049    -10126.27049        49.000  
 16 04 02 13 46 36.4000000  0  9G14G08G28G32G17G27G11G22G01                     
  25430678.68849 133639116.77749    -13860.32849        49.000  
  24098499.62549 126638470.72349     24486.83249        50.000  
  25981840.39149 136535492.57449    -17019.15249        49.000  
  24892484.76649 130810889.73849    -11897.03549        50.000  
  27728833.48449 145716002.14149    -27123.12149        48.000  
  26817074.18049 140924676.16449     31005.54349        48.000  
  22323263.29749 117309538.83249     -2049.68049        50.000  
  22657138.58649 119064066.53149      4321.06649        49.000  
  22862830.50849 120144983.02349    -10129.57049        49.000  
 16 04 02 13 46 36.5000000  0  9G14G08G28G32G17G27G11G22G01                     
  25430942.47749 133640502.96149    -13863.44149        50.000  
  24098033.64849 126636022.09849     24485.48449        50.000  
  25982164.25849 136537194.50049    -17019.32849        49.000  
  24892711.18849 130812079.63349    -11900.60549        50.000  
  27729349.59449 145718714.40649    -27122.35249        48.000  
  26816484.16449 140921575.59449     31005.89849        48.000  
  22323302.32849 117309743.96549     -2053.12149        50.000  
  22657056.41449 119063634.67249      4316.03149        49.000  
  22863023.29749 120145996.14549    -10133.01249        49.000  
 16 04 02 13 46 36.6000000  0  9G14G08G28G32G17G27G11G22G01                     
  25431206.31249 133641889.44149    -13866.56249        50.000  
  24097567.71949 126633573.61749     24483.98049        50.000  
  25982488.16449 136538896.43449    -17019.54749        49.000  
  24892937.68049 130813269.85249    -11904.09449        50.000  
  27729865.70349 145721426.57449    -27121.41049        48.000  
  26815894.09449 140918474.96149     31006.23849        48.000  
  22323341.43049 117309949.44949     -2056.75849        50.000  
  22656974.32849 119063203.29749      4311.01249        49.000  
  22863216.15649 120147009.61349    -10136.74249        49.000  
 16 04 02 13 46 36.7000000  0  9G14G08G28G32G17G27G11G22G01                     
  25431470.22749 133643276.27049    -13870.00049        50.000  
  24097101.83649 126631125.32049     24482.18049        50.000  
  25982812.03149 136540598.40249    -17019.94149        49.000  
  24893164.23449 130814460.46549    -11907.97349        50.000  
  27730381.85949 145724138.70749    -27121.07849        48.000  
  26815304.06249 140915374.33649     31006.46549        48.000  
  22323380.60949 117310155.33649     -2060.72749        50.000  
  22656892.34449 119062772.48849      4305.41049        49.000  
  22863409.08649 120148023.47349    -10140.55949        49.000  
 16 04 02 13 46 36.8000000  0  9G14G08G28G32G17G27G11G22G01                     
  25431734.18849 133644663.41449    -13873.22349        50.000  
  24096635.96949 126628677.16849     24480.67649        50.000  
  25983135.89849 136542300.39549    -17020.11349        49.000  
  24893390.86749 130815651.43049    -11911.47749        50.000  
  27730897.94549 145726850.75849    -27120.36349        48.000  
  26814714.02349 140912273.67249     31006.63749        48.000  
  22323419.85249 117310361.57849     -2064.41849        50.000  
  22656810.46149 119062342.16849      4300.31249        49.000  
  22863602.07849 120149037.68849    -10144.19949        49.000  
 16 04 02 13 46 36.9000000  0  9G14G08G28G32G17G27G11G22G01                     
  25431998.22749 133646050.93049    -13877.03549        50.000  
  24096170.12549 126626229.22749     24478.58649        50.000  
  25983459.78949 136544002.45749    -17020.89549        49.000  
  24893617.56249 130816842.78549    -11915.52049        50.000  
  27731414.03949 145729562.78949    -27120.13349        48.000  
  26814123.99249 140909173.02749     31006.48849        48.000  
  22323459.18049 117310568.22349     -2068.55549        50.000  
  22656728.68049 119061912.41849      4294.66049        49.000  
  22863795.15649 120150052.31649    -10148.37549        49.000  
 16 04 02 13 46 37.0000000  0  9G14G08G28G32G17G27G11G22G01                     
  25432262.32049 133647438.76249    -13879.87149        50.000  
  24095704.32049 126623781.43049     24477.28549        50.000  
  25983783.67249 136545704.54349    -17020.84449        49.000  
  24893844.33649 130818034.49649    -11918.75049        50.000  
  27731930.10249 145732274.74649    -27119.16849        48.000  
  26813533.94549 140906072.32849     31007.33249        48.000  
  22323498.57049 117310775.24649     -2071.94149        50.000  
  22656647.00049 119061483.17649      4289.84849        49.000  
  22863988.30549 120151067.30549    -10151.64549        49.000  
 16 04 02 13 46 37.1000000  0  9G14G08G28G32G17G27G11G22G01                     
  25432526.46949 133648826.85249    -13882.43049        49.000  
  24095238.53949 126621333.71949     24476.42249        50.000  
  25984107.56249 136547406.57849    -17020.48449        49.000  
  24894071.17249 130819226.50849    -11921.79749        50.000  
  27732446.14149 145734986.57849    -27117.89149        48.000  
  26812943.89149 140902971.55549     31008.03949        48.000  
  22323538.02349 117310982.55549     -2074.92649        50.000  
  22656565.40649 119061054.37949      4285.33249        49.000  
  22864181.50849 120152082.58649    -10154.61349        49.000  
 16 04 02 13 46 37.2000000  0  9G14G08G28G32G17G27G11G22G01                     
  25432790.67249 133650215.27749    -13885.71149        49.000  
  24094772.78949 126618886.18049     24474.85249        50.000  
  25984431.44549 136549108.65249    -17020.72749        49.000  
  24894298.07049 130820418.87149    -11925.32449        50.000  
  27732962.16449 145737698.32849    -27117.07449        48.000  
  26812353.83649 140899870.75449     31008.20749        48.000  
  22323577.54749 117311190.24649     -2078.69149        50.000  
  22656483.91449 119060626.11349      4280.16449        49.000  
  22864374.78149 120153098.24649    -10158.31649        49.000  
 16 04 02 13 46 37.3000000  0  9G14G08G28G32G17G27G11G22G01                     
  25433054.93849 133651603.98049    -13888.50449        50.000  
  24094307.05549 126616438.75849     24473.61749        50.000  
  25984755.33649 136550810.70349    -17020.48449        49.000  
  24894525.02349 130821611.56249    -11928.58649        50.000  
  27733478.18049 145740410.00049    -27116.15649        48.000  
  26811763.75849 140896769.87149     31009.08649        48.000  
  22323617.13349 117311398.27049     -2081.92249        50.000  
  22656402.50049 119060198.33249      4275.25449        49.000  
  22864568.11749 120154114.23049    -10161.59849        49.000  
 16 04 02 13 46 37.4000000  0 10G14G03G08G28G32G17G27G11G22G01                  
  25433319.26649 133652993.03549    -13892.15249        49.000  
  24485183.71949 128670507.58259     20318.38749        50.000  
  24093841.35949 126613991.53149     24471.56649        50.000  
  25985079.25049 136552512.81649    -17021.25449        49.000  
  24894752.06249 130822804.63749    -11932.45349        50.000  
  27733994.18049 145743121.62149    -27115.87949        48.000  
  26811173.67249 140893669.00849     31008.80549        48.000  
  22323656.78949 117311606.68449     -2086.05549        50.000  
  22656321.20349 119059771.08649      4269.85249        49.000  
  22864761.52349 120155130.62149    -10165.78949        49.000  
 16 04 02 13 46 37.5000000  0 10G14G03G08G28G32G17G27G11G22G01                  
  25433583.66449 133654382.42649    -13895.52349        50.000  
  24484797.10249 128668475.89149     20315.50449        50.000  
  24093375.71949 126611544.45349     24470.03549        50.000  
  25985403.15649 136554214.96549    -17021.60249        49.000  
  24894979.19549 130823998.07449    -11936.12549        50.000  
  27734510.17249 145745833.17649    -27115.24249        48.000  
  26810583.59449 140890568.11349     31009.01649        48.000  
  22323696.52349 117311815.47349     -2089.73449        50.000  
  22656240.00049 119059344.36749      4264.46549        49.000  
  22864955.00049 120156147.36749    -10169.43449        49.000  
 16 04 02 13 46 37.6000000  0 11G10G14G03G08G28G32G17G27G11G22G01               
  27674776.08649 145431928.74659    -24972.06249        48.000  
  25433848.12549 133655772.20749    -13899.62949        49.000  
  24484410.57049 128666444.55949     20311.79349        50.000  
  24092910.09449 126609097.60949     24467.55149        50.000  
  25985727.08649 136555917.20749    -17022.70349        49.000  
  24895206.37549 130825191.93849    -11940.52049        50.000  
  27735026.17249 145748544.74249    -27115.44149        48.000  
  26809993.51649 140887467.24249     31008.66049        48.000  
  22323736.33649 117312024.69949     -2094.27349        50.000  
  22656158.91449 119058918.23849      4258.48049        49.000  
  22865148.57049 120157164.55549    -10173.91049        49.000  
 16 04 02 13 46 37.7000000  0 11G10G14G03G08G28G32G17G27G11G22G01               
  27675251.29749 145434425.98449    -24972.66849        48.000  
  25434112.67249 133657162.35949    -13903.54349        50.000  
  24484024.09449 128664413.59049     20307.99249        50.000  
  24092444.47749 126606650.97349     24465.32049        50.000  
  25986051.02349 136557619.50449    -17023.58249        49.000  
  24895433.65649 130826386.22349    -11944.88749        50.000  
  27735542.16449 145751256.28949    -27115.50049        48.000  
  26809403.45349 140884366.42649     31007.98849        48.000  
  22323776.23449 117312234.35549     -2098.74649        50.000  
  22656077.93849 119058492.67249      4252.60249        49.000  
  22865342.21149 120158182.16449    -10178.34849        49.000  
 16 04 02 13 46 37.8000000  0 11G10G14G03G08G28G32G17G27G11G22G01               
  27675726.53149 145436923.34049    -24973.98849        48.000  
  25434377.29749 133658552.95349    -13907.98849        50.000  
  24483637.67249 128662383.01649     20303.90649        50.000  
  24091978.95349 126604204.60949     24462.55549        50.000  
  25986375.00849 136559321.96549    -17025.14849        49.000  
  24895661.00849 130827580.95349    -11949.46549        50.000  
  27736058.16449 145753967.87149    -27115.87149        48.000  
  26808813.36749 140881265.66849     31007.23049        48.000  
  22323816.21949 117312444.47749     -2103.52749        50.000  
  22655997.07049 119058067.73849      4246.34049        49.000  
  22865535.94549 120159200.25449    -10183.19549        49.000  
 16 04 02 13 46 37.9000000  0 11G10G14G03G08G28G32G17G27G11G22G01               
  27676201.76649 145439420.71149    -24974.07049        48.000  
  25434641.96949 133659943.87149    -13911.14549        50.000  
  24483251.32849 128660352.74249     20300.98449        50.000  
  24091513.43049 126601758.40649     24460.96949        50.000  
  25986698.97749 136561024.43449    -17025.21949        49.000  
  24895888.42249 130828776.07049    -11953.25449        50.000  
  27736574.15649 145756679.39849    -27115.29749        48.000  
  26808223.31249 140878164.89849     31007.44549        48.000  
  22323856.27349 117312654.98049     -2107.28549        50.000  
  22655916.30549 119057643.33249      4241.05149        49.000  
  22865729.75049 120160218.69949    -10186.74249        49.000  
 16 04 02 13 46 38.0000000  0 11G10G14G03G08G28G32G17G27G11G22G01               
  27676676.98449 145441918.13749    -24974.57049        48.000  
  25434906.72749 133661335.18849    -13915.25849        50.000  
  24482865.05549 128658322.84049     20297.24649        50.000  
  24091047.97749 126599312.43449     24458.70349        50.000  
  25987022.98449 136562727.01249    -17026.29749        49.000  
  24896115.93049 130829971.60949    -11957.51249        50.000  
  27737090.14849 145759390.93849    -27115.36749        48.000  
  26807633.27349 140875064.16049     31006.95749        48.000  
  22323896.41449 117312865.91849     -2111.58249        50.000  
  22655835.64849 119057219.50849      4235.13749        49.000  
  22865923.63349 120161237.58649    -10191.21149        49.000  
 16 04 02 13 46 38.1000000  0 11G10G14G03G08G28G32G17G27G11G22G01               
  27677152.25049 145444415.69949    -24975.96149        48.000  
  25435171.57049 133662726.93049    -13919.53949        50.000  
  24482478.85949 128656293.34049     20293.26649        50.000  
  24090582.57049 126596866.73449     24455.91849        50.000  
  25987347.00049 136564429.71949    -17027.68849        49.000  
  24896343.52349 130831167.61349    -11962.14849        50.000  
  27737606.13349 145762102.51249    -27115.80149        48.000  
  26807043.23449 140871963.50849     31006.18849        48.000  
  22323936.64849 117313077.34849     -2116.55549        50.000  
  22655755.10949 119056796.31649      4228.85249        49.000  
  22866117.61749 120162256.96949    -10196.07449        49.000  
 16 04 02 13 46 38.2000000  0 11G10G14G03G08G28G32G17G27G11G22G01               
  27677627.52349 145446913.34849    -24976.96549        48.000  
  25435436.49249 133664119.10249    -13923.80949        50.000  
  24482092.73449 128654264.22749     20289.33249        50.000  
  24090117.21949 126594421.28549     24453.34449        50.000  
  25987671.04749 136566132.55149    -17028.82849        49.000  
  24896571.20349 130832364.07849    -11966.81649        50.000  
  27738122.13349 145764814.12149    -27116.17249        48.000  
  26806453.22749 140868862.93049     31005.39549        48.000  
  22323976.96949 117313289.23449     -2121.12549        50.000  
  22655674.69549 119056373.73849      4222.71949        49.000  
  22866311.68049 120163276.79749    -10200.67649        49.000  
 16 04 02 13 46 38.3000000  0 11G10G14G03G08G28G32G17G27G11G22G01               
  27678102.81249 145449411.00049    -24976.71149        48.000  
  25435701.48449 133665511.60249    -13926.84849        50.000  
  24481706.66449 128652235.42249     20286.45749        50.000  
  24089651.90649 126591976.00449     24451.89149        50.000  
  25987995.09449 136567835.41449    -17028.90249        49.000  
  24896798.95349 130833560.90649    -11970.21149        50.000  
  27738638.14849 145767525.66449    -27115.34849        48.000  
  26805863.19549 140865762.32449     31006.12949        48.000  
  22324017.35949 117313501.49249     -2124.68849        50.000  
  22655594.38349 119055951.68449      4217.77349        49.000  
  22866505.81249 120164296.99649    -10204.07449        49.000  
 16 04 02 13 46 38.4000000  0 11G10G14G03G08G28G32G17G27G11G22G01               
  27678578.09449 145451908.71149    -24977.57849        48.000  
  25435966.53949 133666904.48449    -13930.82049        50.000  
  24481320.66449 128650206.97749     20282.73849        50.000  
  24089186.62549 126589530.94149     24449.60949        50.000  
  25988319.15649 136569538.37149    -17030.08649        49.000  
  24897026.78149 130834758.15249    -11974.62549        50.000  
  27739154.13349 145770237.21949    -27115.59449        48.000  
  26805273.15649 140862661.75849     31005.34449        48.000  
  22324057.82849 117313714.18049     -2129.12949        50.000  
  22655514.18049 119055530.21949      4211.64149        49.000  
  22866700.03949 120165317.63749    -10208.68849        49.000  
 16 04 02 13 46 38.5000000  0 11G10G14G03G08G28G32G17G27G11G22G01               
  27679053.42249 145454406.56649    -24978.92249        48.000  
  25436231.68049 133668297.83249    -13935.46949        50.000  
  24480934.74249 128648178.95349     20278.51649        50.000  
  24088721.39149 126587086.17649     24446.66849        50.000  
  25988643.25049 136571241.48049    -17031.57449        49.000  
  24897254.71149 130835955.88749    -11979.46149        50.000  
  27739670.14149 145772948.80949    -27115.91449        48.000  
  26804683.16449 140859561.29749     31004.35249        48.000  
  22324098.39849 117313927.38349     -2134.20349        50.000  
  22655434.10249 119055109.39549      4205.16049        49.000  
  22866894.35249 120166338.77049    -10213.66849        49.000  
 16 04 02 13 46 38.6000000  0 11G10G14G03G08G28G32G17G27G11G22G01               
  27679528.76649 145456904.49649    -24979.64149        48.000  
  25436496.89849 133669691.57449    -13939.48849        50.000  
  24480548.90649 128646151.30549     20274.73049        50.000  
  24088256.21149 126584641.64149     24444.25049        50.000  
  25988967.35249 136572944.68849    -17032.70749        49.000  
  24897482.71149 130837154.06649    -11983.98049        50.000  
  27740186.14149 145775660.43449    -27116.21149        48.000  
  26804093.14849 140856460.87949     31003.85949        48.000  
  22324139.05549 117314141.02349     -2138.73449        50.000  
  22655354.14149 119054689.16849      4199.11349        49.000  
  22867088.75849 120167360.34449    -10218.13749        49.000  
 16 04 02 13 46 38.7000000  0 11G10G14G03G08G28G32G17G27G11G22G01               
  27680004.12549 145459402.52749    -24980.70349        48.000  
  25436762.20349 133671085.73849    -13943.64849        50.000  
  24480163.13349 128644124.05149     20270.76249        50.000  
  24087791.09449 126582197.36349     24441.69549        50.000  
  25989291.48449 136574648.02349    -17033.86749        49.000  
  24897710.79749 130838352.69149    -11988.44549        50.000  
  27740702.14849 145778372.08649    -27116.60949        48.000  
  26803503.17249 140853360.53549     31003.11349        48.000  
  22324179.79749 117314355.12549     -2143.31249        50.000  
  22655274.28949 119054269.56649      4192.98049        49.000  
  22867283.25049 120168382.39149    -10222.79349        49.000  
 16 04 02 13 46 38.8000000  0 11G10G14G03G08G28G32G17G27G11G22G01               
  27680479.51649 145461900.62149    -24981.28549        48.000  
  25437027.57849 133672480.28549    -13947.59049        50.000  
  24479777.43049 128642097.14549     20267.21149        50.000  
  24087326.00849 126579753.30949     24439.46549        50.000  
  25989615.65649 136576351.43849    -17034.84049        49.000  
  24897938.96949 130839551.73849    -11992.61749        50.000  
  27741218.15649 145781083.72349    -27116.51249        48.000  
  26802913.18849 140850260.21949     31002.67249        48.000  
  22324220.62549 117314569.66049     -2147.71549        50.000  
  22655194.54749 119053850.52749      4187.18049        49.000  
  22867477.81249 120169404.84449    -10226.94949        49.000  
 16 04 02 13 46 38.9000000  0 11G10G14G03G08G28G32G17G27G11G22G01               
  27680954.90649 145464398.78949    -24982.08249        48.000  
  25437293.02349 133673875.23049    -13951.40649        50.000  
  24479391.79749 128640070.61349     20263.55949        50.000  
  24086860.96149 126577309.48849     24437.09849        50.000  
  25989939.82849 136578054.96149    -17035.66849        49.000  
  24898167.21949 130840751.21949    -11996.88349        50.000  
  27741734.14149 145783795.37549    -27116.58249        48.000  
  26802323.22749 140847159.94949     31002.52349        48.000  
  22324261.53149 117314784.64549     -2152.05149        50.000  
  22655114.93049 119053432.09049      4181.34449        49.000  
  22867672.46949 120170427.76649    -10231.43849        49.000  
 16 04 02 13 46 39.0000000  0 11G10G14G03G08G28G32G17G27G11G22G01               
  27681430.30549 145466897.06649    -24983.30549        48.000  
  25437558.55549 133675270.60549    -13955.81249        50.000  
  24479006.24249 128638044.48449     20259.51249        50.000  
  24086395.96949 126574865.92649     24434.44549        50.000  
  25990264.04749 136579758.60949    -17037.11349        49.000  
  24898395.56249 130841951.15649    -12001.47749        50.000  
  27742250.15649 145786507.06649    -27116.99249        48.000  
  26801733.25849 140844059.76649     31001.46949        48.000  
  22324302.53149 117315000.09049     -2156.78149        50.000  
  22655035.42249 119053014.27349      4175.07449        49.000  
  22867867.21949 120171451.14149    -10236.17249        49.000  
 16 04 02 13 46 39.1000000  0 11G10G14G03G08G28G32G17G27G11G22G01               
  27681905.71149 145469395.35549    -24983.17249        48.000  
  25437824.16449 133676666.34449    -13959.34449        50.000  
  24478620.74249 128636018.68849     20256.26649        50.000  
  24085931.02349 126572422.55549     24432.68849        50.000  
  25990588.25049 136581462.31249    -17037.56249        49.000  
  24898623.98449 130843151.49649    -12005.43449        50.000  
  27742766.18049 145789218.70749    -27116.42649        48.000  
  26801143.31249 140840959.57849     31001.62149        48.000  
  22324343.60949 117315215.95349     -2160.77349        50.000  
  22654956.02349 119052597.01649      4169.61749        49.000  
  22868062.03949 120172474.91449    -10239.98449        49.000  
 16 04 02 13 46 39.2000000  0 11G10G14G03G08G28G32G17G27G11G22G01               
  27682381.16449 145471893.73849    -24984.18449        48.000  
  25438089.83649 133678062.46149    -13963.26249        50.000  
  24478235.31249 128633993.24649     20252.61349        50.000  
  24085466.10949 126569979.41849     24430.26649        50.000  
  25990912.46949 136583166.11749    -17038.48849        49.000  
  24898852.48449 130844352.25449    -12009.70349        50.000  
  27743282.18849 145791930.36749    -27116.61349        48.000  
  26800553.37549 140837859.43449     31001.19549        48.000  
  22324384.76649 117315432.23849     -2165.10549        50.000  
  22654876.72749 119052180.33649      4163.71949        49.000  
  22868256.94549 120173499.12949    -10244.42649        49.000  
 16 04 02 13 46 39.3000000  0 11G10G14G03G08G28G32G17G27G11G22G01               
  27682856.61749 145474392.25049    -24985.60949        48.000  
  25438355.59449 133679459.05149    -13967.94949        50.000  
  24477849.96949 128631968.24249     20248.18449        50.000  
  24085001.24249 126567536.57049     24427.23849        50.000  
  25991236.72749 136584870.07449    -17040.25449        49.000  
  24899081.07049 130845553.51249    -12014.91049        50.000  
  27743798.19549 145794642.09449    -27117.35949        48.000  
  26799963.46149 140834759.40249     30999.90249        48.000  
  22324426.02349 117315649.03949     -2170.34849        50.000  
  22654797.56249 119051764.30949      4157.05549        49.000  
  22868451.93849 120174523.84449    -10249.61749        49.000  
 16 04 02 13 46 39.4000000  0 11G10G14G03G08G28G32G17G27G11G22G01               
  27683332.11749 145476890.80549    -24985.97749        48.000  
  25438621.42249 133680856.00049    -13971.64549        50.000  
  24477464.67249 128629943.57449     20244.85949        50.000  
  24084536.42249 126565093.93049     24425.24249        50.000  
  25991561.00049 136586574.10549    -17040.78149        49.000  
  24899309.73449 130846755.16049    -12018.67249        50.000  
  27744314.21949 145797353.80149    -27117.14849        48.000  
  26799373.56249 140831659.37149     30999.89849        48.000  
  22324467.35949 117315866.24249     -2174.37149        50.000  
  22654718.50849 119051348.85249      4151.44549        49.000  
  22868647.01649 120175548.96549    -10253.56649        49.000  
 16 04 02 13 46 39.5000000  0 11G10G14G03G08G28G32G17G27G11G22G01               
  27683807.59449 145479389.46949    -24987.03549        48.000  
  25438887.32849 133682253.37149    -13975.79349        50.000  
  24477079.46949 128627919.30149     20240.97749        50.000  
  24084071.64149 126562651.55149     24422.68849        50.000  
  25991885.28949 136588278.25849    -17042.09449        49.000  
  24899538.49249 130847957.27749    -12023.24249        50.000  
  27744830.24249 145800065.52349    -27117.32449        48.000  
  26798783.66449 140828559.42249     30999.09849        48.000  
  22324508.78949 117316083.92249     -2179.10249        50.000  
  22654639.56249 119050934.00849      4145.27749        49.000  
  22868842.18049 120176574.55949    -10258.19949        49.000  
 16 04 02 13 46 39.6000000  0 11G10G14G03G08G28G32G17G27G11G22G01               
  27684283.09449 145481888.16849    -24987.32449        48.000  
  25439153.31249 133683651.10949    -13979.38749        49.000  
  24476694.34449 128625895.37949     20237.44549        50.000  
  24083606.91449 126560209.37149     24420.76649        50.000  
  25992209.57049 136589982.48849    -17042.78949        49.000  
  24899767.32849 130849159.79749    -12027.34849        50.000  
  27745346.26649 145802777.24649    -27117.19549        48.000  
  26798193.75849 140825459.49649     30999.06649        48.000  
  22324550.28949 117316302.01649     -2183.21549        50.000  
  22654560.73449 119050519.73449      4139.77749        49.000  
  22869037.41449 120177600.56249    -10262.33649        49.000  
 16 04 02 13 46 39.7000000  0 11G10G14G03G08G28G32G17G27G11G22G01               
  27684758.60949 145484387.01649    -24988.97349        48.000  
  25439419.38349 133685049.31649    -13984.14549        49.000  
  24476309.28949 128623871.88349     20233.16849        50.000  
  24083142.24249 126557767.49249     24417.67249        50.000  
  25992533.90649 136591686.87549    -17044.38749        49.000  
  24899996.25049 130850362.80949    -12032.34849        50.000  
  27745862.30549 145805489.02749    -27117.89849        48.000  
  26797603.88349 140822359.68049     30997.73849        48.000  
  22324591.88349 117316520.61749     -2188.30149        50.000  
  22654482.03149 119050106.11349      4133.10249        49.000  
  22869232.75849 120178627.07049    -10267.44149        49.000  
 16 04 02 13 46 39.8000000  0 11G10G14G03G08G28G32G17G27G11G22G01               
  27685234.09449 145486885.91049    -24989.49249        48.000  
  25439685.52349 133686447.90249    -13987.93849        49.000  
  24475924.28149 128621848.74249     20229.55149        50.000  
  24082677.60949 126555325.83249     24415.48049        50.000  
  25992858.24249 136593391.34449    -17045.26649        49.000  
  24900225.25049 130851566.23849    -12036.52049        50.000  
  27746378.33649 145808200.79749    -27117.80149        48.000  
  26797014.00849 140819259.87949     30997.65649        48.000  
  22324633.56249 117316739.63749     -2192.54349        50.000  
  22654403.43049 119049693.06649      4127.34449        49.000  
  22869428.18049 120179654.00049    -10271.68049        49.000  
 16 04 02 13 46 39.9000000  0 11G10G14G03G08G28G32G17G27G11G22G01               
  27685709.64149 145489384.92249    -24990.62149        48.000  
  25439951.75849 133687846.93449    -13992.55149        49.000  
  24475539.36749 128619826.01649     20225.30949        50.000  
  24082213.02349 126552884.44149     24412.66849        50.000  
  25993182.61749 136595095.96549    -17047.00049        49.000  
  24900454.34449 130852770.14549    -12041.39149        50.000  
  27746894.39149 145810912.62549    -27118.41849        48.000  
  26796424.15649 140816160.18849     30996.49249        48.000  
  22324675.33649 117316959.15249     -2197.60249        50.000  
  22654324.94549 119049280.66049      4120.84049        49.000  
  22869623.68849 120180681.41849    -10276.66449        49.000  
 16 04 02 13 46 40.0000000  0 11G10G14G03G08G28G32G17G27G11G22G01               
  27686185.25049 145491884.05149    -24991.79749        48.000  
  25440218.06249 133689246.38349    -13996.76649        50.000  
  24475154.54749 128617803.69149     20221.28949        50.000  
  24081748.49249 126550443.32449     24409.91849        50.000  
  25993507.00049 136596800.69549    -17048.07049        49.000  
  24900683.52349 130853974.50449    -12045.93849        50.000  
  27747410.43849 145813624.48449    -27118.81249        48.000  
  26795834.32849 140813060.56249     30995.91449        48.000  
  22324717.19549 117317179.13749     -2202.36349        50.000  
  22654246.58649 119048868.87149      4114.57449        49.000  
  22869819.28149 120181709.29749    -10281.25449        49.000  
 16 04 02 13 46 40.1000000  0 11G10G14G03G08G28G32G17G27G11G22G01               
  27686660.82049 145494383.22349    -24992.05549        48.000  
  25440484.44549 133690646.20349    -14000.30149        50.000  
  24474769.77349 128615781.69549     20218.11349        50.000  
  24081284.00049 126548002.41049     24407.99649        50.000  
  25993831.41449 136598505.51649    -17048.74249        49.000  
  24900912.80549 130855179.27749    -12049.84049        50.000  
  27747926.46149 145816336.32849    -27118.53149        48.000  
  26795244.49249 140809960.96549     30995.73449        48.000  
  22324759.13349 117317399.53549     -2206.30149        50.000  
  22654168.33649 119048457.64849      4109.16049        49.000  
  22870014.96149 120182737.59849    -10285.36349        49.000  
 16 04 02 13 46 40.2000000  0 11G10G14G03G08G28G32G17G27G11G22G01               
  27687136.39149 145496882.50849    -24993.24649        48.000  
  25440750.90649 133692046.46549    -14004.72349        49.000  
  24474385.08649 128613760.12149     20213.91849        50.000  
  24080819.56249 126545561.76249     24405.27349        50.000  
  25994155.85249 136600210.45349    -17050.07049        49.000  
  24901142.15649 130856384.52049    -12054.68449        50.000  
  27748442.51649 145819048.20749    -27118.96149        48.000  
  26794654.66449 140806861.43849     30994.87549        48.000  
  22324801.16449 117317620.41049     -2211.09449        50.000  
  22654090.19549 119048047.05549      4102.73849        49.000  
  22870210.73449 120183766.37149    -10290.17649        49.000  
 16 04 02 13 46 40.3000000  0 11G10G14G03G08G28G32G17G27G11G22G01               
  27687612.01649 145499381.92649    -24994.69949        48.000  
  25441017.44549 133693447.16849    -14009.18449        49.000  
  24474000.46949 128611738.97349     20209.56649        50.000  
  24080355.16449 126543121.40649     24402.31649        50.000  
  25994480.32049 136601915.55949    -17051.61749        49.000  
  24901371.60249 130857590.23449    -12059.45349        50.000  
  27748958.58649 145821760.15249    -27119.58649        48.000  
  26794064.85949 140803762.01649     30993.81249        48.000  
  22324843.28949 117317841.78949     -2216.14549        50.000  
  22654012.18049 119047637.11349      4096.25049        49.000  
  22870406.60249 120184795.63749    -10295.07049        49.000  
 16 04 02 13 46 40.4000000  0 11G10G14G03G08G28G32G17G27G11G22G01               
  27688087.64149 145501881.37949    -24995.10949        48.000  
  25441284.06249 133694848.26249    -14013.08249        49.000  
  24473615.92249 128609718.17249     20206.11349        50.000  
  24079890.82049 126540681.25849     24400.30149        50.000  
  25994804.82049 136603620.75049    -17052.57849        49.000  
  24901601.11749 130858796.36749    -12063.46549        50.000  
  27749474.64849 145824472.07849    -27119.40249        48.000  
  26793475.05549 140800662.62149     30993.58249        48.000  
  22324885.50049 117318063.58649     -2220.34849        50.000  
  22653934.28149 119047227.73849      4090.66449        49.000  
  22870602.53949 120185825.32849    -10299.28949        49.000  
 16 04 02 13 46 40.5000000  0 11G10G14G03G08G28G32G17G27G11G22G01               
  27688563.29749 145504380.96549    -24996.40649        48.000  
  25441550.77349 133696249.77749    -14017.39149        49.000  
  24473231.46149 128607697.78549     20201.93849        50.000  
  24079426.53949 126538241.39549     24397.42249        50.000  
  25995129.32849 136605326.06249    -17053.96949        49.000  
  24901830.72749 130860002.98049    -12068.44549        50.000  
  27749990.75049 145827184.06649    -27120.02349        48.000  
  26792885.28149 140797563.32049     30992.42249        48.000  
  22324927.79749 117318285.87149     -2225.28949        50.000  
  22653856.51649 119046819.00449      4084.13349        49.000  
  22870798.57849 120186855.49249    -10304.19149        49.000  
 16 04 02 13 46 40.6000000  0 11G10G14G03G08G28G32G17G27G11G22G01               
  27689038.95349 145506880.67249    -24997.47749        48.000  
  25441817.55549 133697651.75449    -14021.81649        49.000  
  24472847.07849 128605677.80949     20197.98049        50.000  
  24078962.29749 126535801.80949     24394.76249        50.000  
  25995453.88349 136607031.53149    -17055.23449        49.000  
  24902060.43049 130861210.07049    -12073.07449        50.000  
  27750506.83649 145829896.10549    -27120.51649        48.000  
  26792295.49249 140794464.10949     30991.91449        48.000  
  22324970.19549 117318508.64549     -2230.00049        50.000  
  22653778.85949 119046410.91049      4077.78549        49.000  
  22870994.71149 120187886.16049    -10308.95749        49.000  
 16 04 02 13 46 40.7000000  0 11G10G14G03G08G28G32G17G27G11G22G01               
  27689514.64849 145509380.45749    -24998.32049        48.000  
  25442084.42249 133699054.13749    -14025.92249        50.000  
  24472462.76649 128603658.23049     20193.93449        50.000  
  24078498.10949 126533362.48049     24392.10949        50.000  
  25995778.44549 136608737.12549    -17056.56649        49.000  
  24902290.22749 130862417.61349    -12077.72349        50.000  
  27751022.96949 145832608.16449    -27120.75449        48.000  
  26791705.74249 140791364.96949     30991.02349        48.000  
  22325012.68049 117318731.88749     -2234.76649        50.000  
  22653701.31249 119046003.42649      4071.59849        49.000  
  22871190.92249 120188917.27749    -10313.61349        49.000  
 16 04 02 13 46 40.8000000  0 11G10G14G03G08G28G32G17G27G11G22G01               
  27689990.38349 145511880.39849    -24999.77349        48.000  
  25442351.37549 133700456.98049    -14030.60949        49.000  
  24472078.53949 128601639.08249     20189.56249        50.000  
  24078033.97749 126530923.43849     24389.17649        50.000  
  25996103.03949 136610442.86349    -17058.18049        49.000  
  24902520.10249 130863625.64149    -12082.62149        50.000  
  27751539.07049 145835320.28949    -27121.46549        48.000  
  26791116.00049 140788265.93049     30989.88749        48.000  
  22325055.25049 117318955.62549     -2239.82449        50.000  
  22653623.89149 119045596.59449      4065.08249        49.000  
  22871387.23449 120189948.89549    -10318.73049        49.000  
 16 04 02 13 46 40.9000000  0 11G10G14G03G08G28G32G17G27G11G22G01               
  27690466.11749 145514380.42249    -25000.69549        48.000  
  25442618.41449 133701860.24249    -14034.80149        49.000  
  24471694.38349 128599620.32049     20185.66049        50.000  
  24077569.89849 126528484.65649     24386.63749        50.000  
  25996427.65649 136612148.72749    -17059.27749        49.000  
  24902750.07849 130864834.12149    -12087.10249        50.000  
  27752055.18849 145838032.44549    -27121.65649        48.000  
  26790526.28949 140785166.96549     30989.33249        48.000  
  22325097.91449 117319179.82449     -2244.39549        50.000  
  22653546.58649 119045190.37549      4058.91049        49.000  
  22871583.62549 120190980.96949    -10323.16449        49.000  
 16 04 02 13 46 41.0000000  0 11G10G14G03G08G28G32G17G27G11G22G01               
  27690941.85949 145516880.58649    -25002.29349        48.000  
  25442885.53149 133703263.96149    -14039.50049        50.000  
  24471310.28149 128597601.99249     20181.29749        50.000  
  24077105.86749 126526046.17249     24383.53549        50.000  
  25996752.28149 136613854.75049    -17061.12549        49.000  
  24902980.13349 130866043.09849    -12092.16049        50.000  
  27752571.30549 145840744.66849    -27122.53549        48.000  
  26789936.57849 140782068.10549     30987.91049        48.000  
  22325140.68049 117319404.53149     -2249.60249        50.000  
  22653469.41449 119044784.81249      4052.20749        49.000  
  22871780.11749 120192013.55149    -10328.37949        49.000  
 16 04 02 13 46 41.1000000  0 11G10G14G03G08G28G32G17G27G11G22G01               
  27691417.63349 145519380.82449    -25003.02049        48.000  
  25443152.73449 133704668.08649    -14043.45349        49.000  
  24470926.28149 128595584.04349     20177.52749        50.000  
  24076641.89149 126523607.92249     24381.15249        50.000  
  25997076.94549 136615560.87549    -17061.96549        49.000  
  24903210.27349 130867252.51249    -12096.44949        50.000  
  27753087.43849 145843456.90649    -27122.65649        48.000  
  26789346.89149 140778969.28549     30987.55949        48.000  
  22325183.52349 117319629.69149     -2254.04349        50.000  
  22653392.35249 119044379.84449      4046.29749        49.000  
  22871976.69549 120193046.57049    -10332.71149        49.000  
 16 04 02 13 46 41.2000000  0 11G10G14G03G08G28G32G17G27G11G22G01               
  27691893.44549 145521881.18049    -25003.98049        48.000  
  25443420.00849 133706072.63749    -14047.71949        49.000  
  24470542.35249 128593566.51249     20173.37549        50.000  
  24076177.96149 126521169.94949     24378.52349        50.000  
  25997401.64149 136617267.14549    -17063.48049        49.000  
  24903440.50849 130868462.39549    -12101.03549        50.000  
  27753603.56249 145846169.18449    -27122.93049        48.000  
  26788757.21949 140775870.57049     30986.77349        48.000  
  22325226.45349 117319855.32849     -2258.78149        50.000  
  22653315.41449 119043975.50449      4040.27349        49.000  
  22872173.36749 120194080.07849    -10337.48049        49.000  
 16 04 02 13 46 41.3000000  0 11G10G14G03G08G28G32G17G27G11G22G01               
  27692369.26649 145524381.64849    -25005.14549        48.000  
  25443687.37549 133707477.64149    -14052.15249        49.000  
  24470158.50849 128591549.37549     20169.44949        50.000  
  24075714.08649 126518732.25049     24375.77749        50.000  
  25997726.35949 136618973.54349    -17064.79749        49.000  
  24903670.85249 130869672.75849    -12105.82449        50.000  
  27754119.69549 145848881.51649    -27123.46549        48.000  
  26788167.57049 140772771.93849     30985.95349        48.000  
  22325269.48449 117320081.44549     -2263.55949        50.000  
  22653238.58649 119043571.81649      4033.72749        49.000  
  22872370.13349 120195114.06649    -10342.26249        49.000  
 16 04 02 13 46 41.4000000  0 11G10G14G03G08G28G32G17G27G11G22G01               
  27692845.10249 145526882.26249    -25006.70749        48.000  
  25443954.82849 133708883.09449    -14056.76249        49.000  
  24469774.72749 128589532.68849     20164.91849        50.000  
  24075250.25849 126516294.85249     24372.68849        50.000  
  25998051.10949 136620680.10949    -17066.44149        49.000  
  24903901.26649 130870883.60249    -12110.75049        50.000  
  27754635.85249 145851593.91449    -27124.30949        48.000  
  26787577.93049 140769673.41049     30984.74249        48.000  
  22325312.60949 117320308.07849     -2268.69149        50.000  
  22653161.89149 119043168.76249      4027.19549        49.000  
  22872566.99249 120196148.54749    -10347.31249        49.000  
 16 04 02 13 46 41.5000000  0 11G10G14G03G08G28G32G17G27G11G22G01               
  27693320.96949 145529382.93049    -25007.24249        48.000  
  25444222.34449 133710288.94149    -14060.60949        49.000  
  24469391.03149 128587516.35549     20161.37549        50.000  
  24074786.48449 126513857.67649     24370.50049        50.000  
  25998375.87549 136622386.76649    -17067.23849        49.000  
  24904131.75049 130872094.87949    -12114.98849        50.000  
  27755152.01649 145854306.31249    -27124.19549        48.000  
  26786988.30549 140766574.93049     30984.49649        48.000  
  22325355.82049 117320535.14549     -2273.00049        50.000  
  22653085.31249 119042766.30949      4021.34849        49.000  
  22872763.93049 120197183.47349    -10351.69549        49.000  
 16 04 02 13 46 41.6000000  0 11G10G14G03G08G28G32G17G27G11G22G01               
  27693796.86749 145531883.71549    -25008.36749        48.000  
  25444489.95349 133711695.22349    -14065.12149        50.000  
  24469007.43049 128585500.43449     20157.27049        50.000  
  24074322.75849 126511420.77049     24367.81249        50.000  
  25998700.67249 136624093.56249    -17068.50449        49.000  
  24904362.34449 130873306.62149    -12119.73849        50.000  
  27755668.17249 145857018.74649    -27124.59049        48.000  
  26786398.69549 140763476.52749     30983.65649        48.000  
  22325399.11749 117320762.68849     -2277.85549        50.000  
  22653008.85249 119042364.48049      4014.94149        49.000  
  22872960.96149 120198218.87149    -10356.52749        49.000  
 16 04 02 13 46 41.7000000  0 11G10G14G03G08G28G32G17G27G11G22G01               
  27694272.78149 145534384.66049    -25010.02749        48.000  
  25444757.64849 133713101.97749    -14069.68049        49.000  
  24468623.89849 128583484.96149     20152.79749        50.000  
  24073859.09449 126508984.18449     24364.61749        50.000  
  25999025.50049 136625800.53549    -17070.53949        49.000  
  24904593.00049 130874518.87949    -12124.84849        50.000  
  27756184.35249 145859731.28149    -27125.47749        48.000  
  26785809.10949 140760378.26649     30982.19949        48.000  
  22325442.51649 117320990.75049     -2283.04349        50.000  
  22652932.51649 119041963.32449      4008.33249        49.000  
  22873158.09449 120199254.78149    -10361.53949        49.000  
 16 04 02 13 46 41.8000000  0 11G10G14G03G08G28G32G17G27G11G22G01               
  27694748.73449 145536885.71149    -25011.24649        48.000  
  25445025.43049 133714509.18049    -14074.40649        49.000  
  24468240.43849 128581469.91449     20148.33249        50.000  
  24073395.47749 126506547.87549     24361.66449        50.000  
  25999350.36749 136627507.65649    -17072.18049        49.000  
  24904823.78149 130875731.60949    -12129.84449        50.000  
  27756700.53949 145862443.87149    -27126.37549        48.000  
  26785219.55549 140757280.08249     30981.00049        49.000  
  22325486.01649 117321219.30949     -2288.26249        50.000  
  22652856.29749 119041562.80949      4001.67249        49.000  
  22873355.31249 120200291.19549    -10366.84449        49.000  
 16 04 02 13 46 41.9000000  0 11G10G14G03G08G28G32G17G27G11G22G01               
  27695224.69549 145539386.88749    -25012.27749        48.000  
  25445293.29749 133715916.82049    -14078.69949        49.000  
  24467857.07049 128579455.28149     20144.38749        50.000  
  24072931.91449 126504111.85249     24358.92649        50.000  
  25999675.24249 136629214.92249    -17073.44949        49.000  
  24905054.64149 130876944.81649    -12134.37549        50.000  
  27757216.75849 145865156.48849    -27126.52749        48.000  
  26784630.01649 140754181.99649     30980.37149        48.000  
  22325529.60249 117321448.35249     -2292.92649        50.000  
  22652780.19549 119041162.93449      3995.49249        49.000  
  22873552.62549 120201328.08649    -10371.51649        49.000  
 16 04 02 13 46 42.0000000  0 11G10G14G03G08G28G32G17G27G11G22G01               
  27695700.69549 145541888.14849    -25012.97349        48.000  
  25445561.24249 133717324.86749    -14082.57049        49.000  
  24467473.76649 128577441.02049     20140.78949        50.000  
  24072468.39849 126501676.05949     24356.80149        50.000  
  26000000.14849 136630922.28149    -17074.16049        49.000  
  24905285.59449 130878158.46149    -12138.64149        50.000  
  27757732.95349 145867869.13349    -27126.40249        48.000  
  26784040.47749 140751083.96149     30979.93449        48.000  
  22325573.27349 117321677.84049     -2297.14849        50.000  
  22652704.21949 119040763.64849      3989.72349        49.000  
  22873750.02349 120202365.41449    -10375.65249        49.000  
 16 04 02 13 46 42.1000000  0 11G10G14G03G08G28G32G17G27G11G22G01               
  27696176.68049 145544389.48449    -25013.74649        48.000  
  25445829.25849 133718733.30549    -14086.48449        49.000  
  24467090.53949 128575427.14549     20136.90249        50.000  
  24072004.93849 126499240.52049     24354.23849        50.000  
  26000325.07049 136632629.75449    -17075.43849        49.000  
  24905516.62549 130879372.53949    -12142.99249        50.000  
  27758249.17249 145870581.80149    -27126.82449        48.000  
  26783450.94549 140747985.97349     30979.42249        48.000  
  22325617.03149 117321907.78149     -2301.79749        50.000  
  22652628.35249 119040364.98049      3983.53149        49.000  
  22873947.50849 120203403.19549    -10380.26249        49.000  
 16 04 02 13 46 42.2000000  0 11G10G14G03G08G28G32G17G27G11G22G01               
  27696652.73449 145546891.00449    -25015.71549        48.000  
  25446097.37549 133720142.26649    -14091.85949        49.000  
  24466707.40649 128573413.75049     20131.98049        50.000  
  24071541.53949 126496805.31649     24350.78149        50.000  
  26000650.02349 136634337.43049    -17077.58249        49.000  
  24905747.75849 130880587.17249    -12148.59449        50.000  
  27758765.39149 145873294.57449    -27128.06649        48.000  
  26782861.43849 140744888.16049     30977.64849        48.000  
  22325660.89149 117322138.28549     -2307.52049        50.000  
  22652552.61749 119039967.00449      3976.36349        49.000  
  22874145.08649 120204441.53149    -10385.80549        49.000  
 16 04 02 13 46 42.3000000  0 11G10G14G03G08G28G32G17G27G11G22G01               
  27697128.78949 145549392.67649    -25017.32049        48.000  
  25446365.57849 133721551.69949    -14096.58249        49.000  
  24466324.35249 128571400.80549     20127.47349        50.000  
  24071078.20349 126494370.43049     24347.57449        50.000  
  26000975.01649 136636045.29349    -17079.40649        49.000  
  24905979.00049 130881802.30549    -12153.66849        50.000  
  27759281.64149 145876007.42649    -27128.71149        48.000  
  26782271.96949 140741790.47749     30976.32449        48.000  
  22325704.85249 117322369.29749     -2312.58249        50.000  
  22652477.00849 119039569.69949      3969.87549        49.000  
  22874342.77349 120205480.37949    -10391.02749        49.000  
 16 04 02 13 46 42.4000000  0 11G10G14G03G08G28G32G17G27G11G22G01               
  27697604.88349 145551894.49649    -25018.93049        48.000  
  25446633.87549 133722961.58249    -14101.24649        49.000  
  24465941.38349 128569388.28949     20123.00449        50.000  
  24070614.92249 126491935.84849     24344.36749        50.000  
  26001300.03149 136637753.30149    -17080.95749        49.000  
  24906210.32849 130883017.93449    -12158.73049        50.000  
  27759797.89849 145878720.35949    -27129.73449        48.000  
  26781682.50049 140738692.88349     30975.26249        48.000  
  22325748.91449 117322600.82849     -2317.90649        50.000  
  22652401.53149 119039173.05149      3963.07049        49.000  
  22874540.55549 120206519.73449    -10396.17249        49.000  
 16 04 02 13 46 42.5000000  0 11G10G14G03G08G28G32G17G27G11G22G01               
  27698080.96949 145554396.37949    -25019.46149        48.000  
  25446902.24249 133724371.86749    -14105.07449        50.000  
  24465558.49249 128567376.15249     20119.37549        50.000  
  24070151.67249 126489501.49249     24342.19949        50.000  
  26001625.07849 136639461.42649    -17082.00049        49.000  
  24906441.72749 130884233.99249    -12162.87949        50.000  
  27760314.15649 145881433.30149    -27129.73049        48.000  
  26781093.06249 140735595.34849     30974.79749        48.000  
  22325793.04749 117322832.78549     -2322.07849        50.000  
  22652326.16449 119038776.99249      3957.33649        49.000  
  22874738.42249 120207559.52349    -10400.48449        49.000  
 16 04 02 13 46 42.6000000  0 11G10G14G03G08G28G32G17G27G11G22G01               
  27698557.08649 145556898.39849    -25020.80949        48.000  
  25447170.69549 133725782.61749    -14109.73049        49.000  
  24465175.68049 128565364.44549     20115.10249        50.000  
  24069688.48449 126487067.44149     24339.23049        50.000  
  26001950.16449 136641169.70349    -17083.59049        49.000  
  24906673.22749 130885450.55149    -12167.89149        50.000  
  27760830.42249 145884146.30549    -27130.29349        48.000  
  26780503.65649 140732497.93449     30973.67649        48.000  
  22325837.28949 117323065.25849     -2327.09849        50.000  
  22652250.92249 119038381.60249      3950.70749        49.000  
  22874936.39149 120208599.82849    -10405.50849        49.000  
 16 04 02 13 46 42.7000000  0 11G10G14G03G08G28G32G17G27G11G22G01               
  27699033.21949 145559400.52049    -25021.78149        48.000  
  25447439.23449 133727193.79349    -14113.98449        49.000  
  24464792.94549 128563353.14549     20111.05149        50.000  
  24069225.34449 126484633.64549     24336.65249        50.000  
  26002275.25849 136642878.10549    -17084.79349        49.000  
  24906904.82049 130886667.56249    -12172.40249        50.000  
  27761346.67249 145886859.34849    -27130.75049        48.000  
  26779914.25049 140729400.56649     30973.07849        48.000  
  22325881.61749 117323298.21149     -2331.96949        50.000  
  22652175.79749 119037986.82849      3944.40649        49.000  
  22875134.43849 120209640.59049    -10410.25849        49.000  
 16 04 02 13 46 42.8000000  0 11G10G14G03G08G28G32G17G27G11G22G01               
  27699509.39849 145561902.84849    -25023.94149        48.000  
  25447707.87549 133728605.48049    -14119.19949        49.000  
  24464410.27349 128561342.34049     20105.95349        50.000  
  24068762.27349 126482200.21549     24332.94149        50.000  
  26002600.39849 136644586.73049    -17087.10249        49.000  
  24907136.51649 130887885.13749    -12178.07849        50.000  
  27761862.96949 145889572.50849    -27131.90249        48.000  
  26779324.86749 140726303.40649     30971.13749        48.000  
  22325926.05549 117323531.71549     -2337.66849        50.000  
  22652100.81249 119037592.77049      3937.16449        49.000  
  22875332.59449 120210681.91049    -10415.83649        49.000  
 16 04 02 13 46 42.9000000  0 11G10G14G03G08G28G32G17G27G11G22G01               
  27699985.58649 145564405.22349    -25024.39549        48.000  
  25447976.59449 133730017.55149    -14123.02749        49.000  
  24464027.70349 128559331.89149     20102.34049        50.000  
  24068299.25049 126479767.00849     24330.65249        50.000  
  26002925.55549 136646295.44549    -17087.81249        49.000  
  24907368.28149 130889103.11349    -12182.19949        50.000  
  27762379.28949 145892285.68049    -27132.01649        48.000  
  26778735.50049 140723206.26249     30970.90649        48.000  
  22325970.57049 117323765.65649     -2341.96549        50.000  
  22652025.93049 119037199.28949      3931.33249        49.000  
  22875530.82849 120211723.66449    -10420.13349        49.000  
 16 04 02 13 46 43.0000000  0 11G10G14G03G08G28G32G17G27G11G22G01               
  27700461.78149 145566907.77049    -25026.04349        48.000  
  25448245.39849 133731430.12549    -14127.91849        50.000  
  24463645.22749 128557321.90649     20097.83649        50.000  
  24067836.28949 126477334.12949     24327.46949        50.000  
  26003250.74249 136648004.35249    -17089.77749        49.000  
  24907600.15649 130890321.63349    -12187.46949        50.000  
  27762895.60949 145894998.94949    -27133.03949        48.000  
  26778146.14849 140720109.26249     30969.32849        48.000  
  22326015.18849 117324000.12949     -2347.14549        49.000  
  22651951.18849 119036806.49649      3924.67649        49.000  
  22875729.16449 120212765.95749    -10425.46149        49.000  
 16 04 02 13 46 43.1000000  0 11G10G14G03G08G28G32G17G27G11G22G01               
  27700938.03149 145569410.46549    -25027.62549        48.000  
  25448514.28949 133732843.15249    -14132.64849        49.000  
  24463262.82049 128555312.36749     20093.35949        50.000  
  24067373.39149 126474901.55549     24324.27349        50.000  
  26003575.96949 136649713.43049    -17091.73049        49.000  
  24907832.12549 130891540.64549    -12192.59449        50.000  
  27763411.93849 145897712.28949    -27133.76649        48.000  
  26777556.83649 140717012.37949     30968.25849        48.000  
  22326059.90649 117324235.12949     -2352.57449        49.000  
  22651876.57049 119036414.37149      3917.82049        49.000  
  22875927.60949 120213808.75449    -10430.68049        49.000  
 16 04 02 13 46 43.2000000  0 11G10G14G03G08G28G32G17G27G11G22G01               
  27701414.30549 145571913.31649    -25029.34049        48.000  
  25448783.27349 133734256.67249    -14137.69549        49.000  
  24462880.50849 128553303.29349     20088.56649        50.000  
  24066910.54749 126472469.29749     24321.10549        50.000  
  26003901.23449 136651422.68449    -17093.59849        49.000  
  24908064.19549 130892760.18049    -12197.88749        50.000  
  27763928.28149 145900425.71549    -27134.72349        48.000  
  26776967.52349 140713915.62949     30966.75049        48.000  
  22326104.71949 117324470.64149     -2357.85549        49.000  
  22651802.07849 119036022.92649      3910.91849        49.000  
  22876126.13349 120214852.07849    -10436.03949        49.000  
 16 04 02 13 46 43.3000000  0 11G10G14G03G08G28G32G17G27G11G22G01               
  27701890.61749 145574416.32849    -25030.79349        48.000  
  25449052.34449 133735670.67649    -14142.46149        49.000  
  24462498.28149 128551294.68449     20083.97349        50.000  
  24066447.77349 126470037.38749     24317.68049        50.000  
  26004226.53149 136653132.14549    -17095.33649        49.000  
  24908296.35249 130893980.24249    -12203.07049        50.000  
  27764444.66449 145903139.25849    -27135.73049        48.000  
  26776378.25849 140710819.03949     30965.28949        48.000  
  22326149.64849 117324706.71549     -2363.25449        50.000  
  22651727.72749 119035632.17649      3904.17649        49.000  
  22876324.78149 120215895.94549    -10441.28149        49.000  
 16 04 02 13 46 43.4000000  0 11G10G14G03G08G28G32G17G27G11G22G01               
  27702366.94549 145576919.36749    -25030.99649        48.000  
  25449321.48449 133737085.02349    -14145.77349        49.000  
  24462116.10249 128549286.38749     20080.94149        50.000  
  24065985.02349 126467605.63749     24316.03949        50.000  
  26004551.85249 136654841.63349    -17095.78149        49.000  
  24908528.59449 130895200.66849    -12206.68049        50.000  
  27764961.02349 145905852.75049    -27135.21949        48.000  
  26775788.96949 140707722.43049     30965.63349        48.000  
  22326194.64149 117324943.16049     -2367.03949        50.000  
  22651653.46949 119035241.95749      3898.82049        49.000  
  22876523.49249 120216940.18849    -10444.98049        49.000  
 16 04 02 13 46 43.5000000  0 11G10G14G03G08G28G32G17G27G11G22G01               
  27702843.29749 145579422.62549    -25033.10949        48.000  
  25449590.72749 133738499.90649    -14151.02749        49.000  
  24461734.03149 128547278.60549     20075.85249        50.000  
  24065522.35249 126465174.27349     24312.38349        50.000  
  26004877.20349 136656551.36749    -17097.98049        49.000  
  24908760.93849 130896421.67249    -12212.30949        50.000  
  27765477.42249 145908566.38349    -27136.62949        48.000  
  26775199.74249 140704626.00449     30963.70349        48.000  
  22326239.75049 117325180.18449     -2372.71949        50.000  
  22651579.35949 119034852.46149      3891.68449        49.000  
  22876722.32049 120217985.00449    -10450.67649        49.000  
 16 04 02 13 46 43.9000000  0 11G10G14G03G08G28G32G17G27G11G22G01               
  24870541.08649 130695574.09849    -25039.14549        48.000  
  22616441.14849 118850198.39549    -14170.31249        49.000  
  21625917.56249 113644962.60249     20057.55949        50.000  
  21229375.59449 111561122.46149     24299.57849        50.000  
  23171956.77349 121769454.01649    -17105.23849        49.000  
  22075460.35249 116007326.66449    -12233.03549        50.000  
  24933339.00849 131025578.58649    -27139.91449        48.000  
  23938534.43049 125797849.14149     30958.57449        48.000  
  19492172.51649 102432056.38749     -2393.98049        50.000  
  19817024.28149 104139164.94549      3864.09449        49.000  
  20043284.49249 105328168.72349    -10471.92649        49.000  
 16 04 02 13 46 44.0000000  0 11G10G14G03G08G28G32G17G27G11G22G01               
  24871017.57849 130698077.99249    -25039.57849        48.000  
  22616710.82849 118851615.57849    -14174.20349        49.000  
  21625535.90649 113642957.00049     20054.02049        50.000  
  21228913.19549 111558692.56649     24297.52049        50.000  
  23172282.28949 121771164.53549    -17105.96949        49.000  
  22075693.18049 116008550.14549    -12237.17249        50.000  
  24933855.45349 131028292.52049    -27139.64549        48.000  
  23937945.28949 125794753.24249     30958.44549        48.000  
  19492218.10249 102432295.94949     -2398.10949        50.000  
  19816950.78949 104138778.75449      3858.55949        49.000  
  20043483.78949 105329216.05949    -10475.97349        49.000  
 16 04 02 13 46 44.1000000  0 11G10G14G03G08G28G32G17G27G11G22G01               
  24871494.08649 130700582.04749    -25041.22749        48.000  
  22616980.59449 118853033.22749    -14178.99649        49.000  
  21625154.33649 113640951.85249     20049.33249        50.000  
  21228450.88349 111556263.00049     24294.26249        50.000  
  23172607.82049 121772875.22349    -17107.76649        49.000  
  22075926.09449 116009774.12949    -12242.39149        50.000  
  24934371.93849 131031006.55549    -27140.76249        48.000  
  23937356.18849 125791657.47749     30956.83249        48.000  
  19492263.79749 102432536.04349     -2403.54349        50.000  
  19816877.43049 104138393.25049      3851.55549        49.000  
  20043683.19549 105330263.92649    -10481.44949        49.000  
 16 04 02 13 46 44.2000000  0 11G10G14G03G08G28G32G17G27G11G22G01               
  24871970.62549 130703086.29349    -25042.96549        48.000  
  22617250.46149 118854451.39849    -14183.96149        49.000  
  21624772.86749 113638947.19149     20044.54349        50.000  
  21227988.61749 111553833.78149     24290.86749        50.000  
  23172933.39849 121774586.13749    -17109.92649        49.000  
  22076159.12549 116010998.66449    -12247.74649        50.000  
  24934888.42249 131033720.70349    -27141.68849        48.000  
  23936767.10949 125788561.85949     30955.63349        48.000  
  19492309.58649 102432776.68849     -2408.95749        50.000  
  19816804.20349 104138008.44149      3844.62549        49.000  
  20043882.70349 105331312.33649    -10486.73049        49.000  
 16 04 02 13 46 44.3000000  0 11G10G14G03G08G28G32G17G27G11G22G01               
  24872447.18049 130705590.63749    -25044.09449        48.000  
  22617520.41449 118855869.99249    -14188.40649        49.000  
  21624391.46949 113636942.93049     20040.48049        50.000  
  21227526.39849 111551404.82449     24288.13349        50.000  
  23173259.00049 121776297.16849    -17111.24649        49.000  
  22076392.23449 116012223.66049    -12252.44549        50.000  
  24935404.91449 131036434.89149    -27142.14149        48.000  
  23936178.05549 125785466.34449     30954.57449        48.000  
  19492355.46949 102433017.81249     -2413.87949        50.000  
  19816731.10249 104137624.27049      3838.24649        49.000  
  20044082.29749 105332361.22749    -10491.57049        49.000  
 16 04 02 13 46 44.4000000  0 11G10G14G03G08G28G32G17G27G11G22G01               
  24872923.77349 130708095.17249    -25046.23449        48.000  
  22617790.46149 118857289.09449    -14193.67249        49.000  
  21624010.17249 113634939.16449     20035.32849        50.000  
  21227064.25849 111548976.22749     24284.42249        50.000  
  23173584.64149 121778008.40649    -17113.57049        49.000  
  22076625.43849 116013449.19149    -12257.96949        50.000  
  24935921.43049 131039149.20749    -27143.74249        48.000  
  23935589.03149 125782370.98049     30952.64149        48.000  
  19492401.46149 102433259.48049     -2419.57049        50.000  
  19816658.12549 104137240.79349      3831.10549        49.000  
  20044282.00049 105333410.66449    -10497.30549        49.000  
 16 04 02 13 46 44.5000000  0 11G10G14G03G08G28G32G17G27G11G22G01               
  24873400.40649 130710599.90649    -25048.21549        48.000  
  22618060.60949 118858708.72749    -14198.82449        49.000  
  21623628.96149 113632935.89549     20030.40249        50.000  
  21226602.18849 111546547.98849     24280.80949        50.000  
  23173910.32049 121779719.89149    -17115.83649        49.000  
  22076858.75849 116014675.30149    -12263.65249        50.000  
  24936437.97749 131041863.64849    -27144.96949        48.000  
  23935000.03949 125779275.80149     30950.90649        48.000  
  19492447.55549 102433501.74249     -2425.31249        50.000  
  19816585.28149 104136858.05149      3823.81649        49.000  
  20044481.80549 105334460.67649    -10502.97749        49.000  
 16 04 02 13 46 44.6000000  0 11G10G14G03G08G28G32G17G27G11G22G01               
  24873877.07049 130713104.73049    -25048.84449        48.000  
  22618330.83649 118860128.77349    -14202.79749        49.000  
  21623247.81249 113630933.01649     20026.68049        50.000  
  21226140.15649 111544120.00049     24278.50849        50.000  
  23174236.00849 121781431.46949    -17116.67249        49.000  
  22077092.14849 116015901.84049    -12267.87949        50.000  
  24936954.52349 131044578.10949    -27145.00449        48.000  
  23934411.05549 125776180.66849     30950.69549        48.000  
  19492493.74249 102433744.44549     -2429.64149        49.000  
  19816512.56249 104136475.91449      3817.93049        49.000  
  20044681.70349 105335511.14149    -10507.28149        49.000  
 16 04 02 13 46 44.7000000  0 11G10G14G03G08G28G32G17G27G11G22G01               
  24874353.74249 130715609.63349    -25049.47349        48.000  
  22618601.14149 118861549.21949    -14206.64549        49.000  
  21622866.75849 113628930.52349     20023.00049        50.000  
  21225678.17249 111541692.26649     24276.12549        50.000  
  23174561.73449 121783143.16449    -17117.52749        49.000  
  22077325.63349 116017128.82849    -12272.15649        50.000  
  24937471.10249 131047292.59849    -27145.07449        48.000  
  23933822.08649 125773085.61349     30950.13349        48.000  
  19492540.01649 102433987.60949     -2434.04749        50.000  
  19816439.95349 104136094.39149      3811.97749        49.000  
  20044881.68049 105336562.05149    -10511.60249        49.000  
 16 04 02 13 46 44.8000000  0 11G10G14G03G08G28G32G17G27G11G22G01               
  24874830.45349 130718114.67649    -25051.02749        48.000  
  22618871.53149 118862970.14149    -14211.52749        49.000  
  21622485.78149 113626928.48449     20018.38349        50.000  
  21225216.25049 111539264.83649     24273.00449        50.000  
  23174887.47749 121784855.03549    -17119.37949        49.000  
  22077559.21149 116018356.32049    -12277.25049        50.000  
  24937987.66449 131050007.15649    -27145.82849        48.000  
  23933233.14149 125769990.67649     30948.88349        48.000  
  19492586.39149 102434231.28949     -2439.35249        49.000  
  19816367.47749 104135713.52349      3805.32849        49.000  
  20045081.77349 105337613.48049    -10516.88349        49.000  
 16 04 02 13 46 44.9000000  0 11G10G14G03G08G28G32G17G27G11G22G01               
  24875307.18049 130720619.89549    -25052.79749        48.000  
  22619142.02349 118864391.53949    -14216.40249        49.000  
  21622104.88349 113624926.88749     20013.80949        50.000  
  21224754.38349 111536837.72749     24269.63749        50.000  
  23175213.26649 121786567.08649    -17121.43449        49.000  
  22077792.89849 116019584.32449    -12282.51649        50.000  
  24938504.25849 131052721.80549    -27146.89849        48.000  
  23932644.21949 125766895.87149     30947.39849        48.000  
  19492632.85949 102434475.49249     -2444.65649        49.000  
  19816295.13349 104135333.33249      3798.50449        49.000  
  20045281.95349 105338665.43849    -10522.15649        49.000  
 16 04 02 13 46 45.0000000  0 11G10G14G03G08G28G32G17G27G11G22G01               
  24875783.91449 130723125.25449    -25054.39549        48.000  
  22619412.60249 118865813.41849    -14221.35949        49.000  
  21621724.09449 113622925.76249     20008.99649        50.000  
  21224292.57849 111534410.93849     24266.27349        50.000  
  23175539.09449 121788279.32449    -17123.44549        49.000  
  22078026.67249 116020812.84049    -12287.76249        50.000  
  24939020.85249 131055436.54349    -27147.85949        48.000  
  23932055.31249 125763801.20349     30945.75849        48.000  
  19492679.43049 102434720.23449     -2450.14549        50.000  
  19816222.91449 104134953.82849      3791.38349        49.000  
  20045482.23449 105339717.91049    -10527.66049        49.000  
 16 04 02 13 46 45.1000000  0 11G10G14G03G08G28G32G17G27G11G22G01               
  24876260.70349 130725630.80949    -25056.32449        48.000  
  22619683.27349 118867235.79749    -14226.31649        49.000  
  21621343.38349 113620925.11349     20004.16449        50.000  
  21223830.85249 111531984.50849     24262.83249        50.000  
  23175864.95349 121789991.76649    -17125.56649        49.000  
  22078260.55549 116022041.91049    -12293.25449        50.000  
  24939537.48449 131058151.41049    -27149.08649        48.000  
  23931466.45349 125760706.69549     30944.23849        48.000  
  19492726.10949 102434965.52349     -2455.66449        49.000  
  19816150.83649 104134575.02349      3784.48449        49.000  
  20045682.61749 105340770.93849    -10533.12149        49.000  
 16 04 02 13 46 45.2000000  0 11G10G14G03G08G28G32G17G27G11G22G01               
  24876737.52349 130728136.47749    -25057.48449        48.000  
  22619954.03149 118868658.63749    -14230.78549        49.000  
  21620962.75049 113618924.89149     20000.09849        50.000  
  21223369.17249 111529558.35549     24260.01249        50.000  
  23176190.83649 121791704.34449    -17126.73449        49.000  
  22078494.52349 116023271.45349    -12297.96149        50.000  
  24940054.11749 131060866.33249    -27149.70349        48.000  
  23930877.60949 125757612.27749     30943.32849        48.000  
  19492772.88349 102435211.30149     -2460.48049        50.000  
  19816078.87549 104134196.86749      3778.02049        49.000  
  20045883.09449 105341824.44949    -10537.82849        49.000  
 16 04 02 13 46 45.3000000  0 11G10G14G03G08G28G32G17G27G11G22G01               
  24877214.35949 130730642.28949    -25058.77049        48.000  
  22620224.87549 118870081.92249    -14235.19949        49.000  
  21620582.21149 113616925.10949     19995.72749        50.000  
  21222907.53949 111527132.50049     24257.16449        50.000  
  23176516.76649 121793417.10249    -17128.32849        49.000  
  22078728.59449 116024501.48049    -12302.71549        50.000  
  24940570.75849 131063581.30549    -27150.07449        48.000  
  23930288.78949 125754517.98449     30942.34849        48.000  
  19492819.75049 102435457.59449     -2465.52049        49.000  
  19816007.03949 104133819.36349      3771.64149        49.000  
  20046083.66449 105342878.46549    -10542.78149        49.000  
 16 04 02 13 46 45.4000000  0 11G10G14G03G08G28G32G17G27G11G22G01               
  24877691.27349 130733148.27049    -25060.45749        48.000  
  22620495.81249 118871505.71949    -14240.28549        49.000  
  21620201.75049 113614925.80949     19990.86349        50.000  
  21222445.97749 111524706.99249     24253.61349        50.000  
  23176842.73449 121795130.05149    -17130.41449        49.000  
  22078962.76649 116025732.06249    -12308.28949        50.000  
  24941087.42249 131066296.40649    -27151.27349        48.000  
  23929699.98449 125751423.84049     30940.70749        48.000  
  19492866.72749 102435704.42649     -2470.96949        49.000  
  19815935.33649 104133442.56649      3764.60549        49.000  
  20046284.34449 105343933.03149    -10548.30949        49.000  
 16 04 02 13 46 45.5000000  0 11G10G14G03G08G28G32G17G27G11G22G01               
  24878168.17249 130735654.39849    -25062.18049        48.000  
  22620766.84449 118872929.98449    -14245.20349        49.000  
  21619821.38349 113612926.95749     19986.19149        50.000  
  21221984.47749 111522281.79749     24250.35549        50.000  
  23177168.73449 121796843.18849    -17132.32849        49.000  
  22079197.03149 116026963.14149    -12313.36749        50.000  
  24941604.10249 131069011.58249    -27152.28949        48.000  
  23929111.21149 125748329.82049     30939.31649        48.000  
  19492913.79749 102435951.78549     -2476.35549        49.000  
  19815863.76649 104133066.43849      3757.68049        49.000  
  20046485.11749 105344988.11749    -10553.65649        49.000  
 16 04 02 13 46 45.6000000  0 11G10G14G03G08G28G32G17G27G11G22G01               
  24878645.10249 130738160.69549    -25063.53149        48.000  
  22621037.96149 118874354.72349    -14249.60949        50.000  
  21619441.10949 113610928.55549     19981.95749        50.000  
  21221523.03949 111519856.91449     24247.47749        50.000  
  23177494.75849 121798556.49249    -17133.88749        49.000  
  22079431.39849 116028194.73049    -12318.30949        50.000  
  24942120.79749 131071726.84849    -27152.93849        48.000  
  23928522.46149 125745235.92649     30938.30149        48.000  
  19492960.96949 102436199.66849     -2481.35949        50.000  
  19815792.31249 104132690.97349      3751.17649        49.000  
  20046685.99249 105346043.71149    -10558.57849        49.000  
 16 04 02 13 46 45.7000000  0 11G10G14G03G08G28G32G17G27G11G22G01               
  24879122.05549 130740667.07449    -25064.46149        48.000  
  22621309.15649 118875779.88349    -14253.91049        49.000  
  21619060.89849 113608930.55549     19977.90649        50.000  
  21221061.64849 111517432.29349     24244.76649        50.000  
  23177820.81249 121800269.91449    -17135.08249        49.000  
  22079665.85249 116029426.77049    -12322.86749        50.000  
  24942637.51649 131074442.14549    -27153.28549        48.000  
  23927933.72749 125742142.10949     30937.53149        48.000  
  19493008.23449 102436448.01649     -2486.07849        49.000  
  19815720.97749 104132316.13349      3744.91449        49.000  
  20046886.95349 105347099.77349    -10563.30549        49.000  
 16 04 02 13 46 45.8000000  0 11G10G14G03G08G28G32G17G27G11G22G01               
  24879599.03949 130743173.59449    -25065.71549        48.000  
  22621580.44549 118877205.50449    -14258.49649        50.000  
  21618680.75849 113606932.98049     19973.71149        50.000  
  21220600.31249 111515007.96549     24241.97749        50.000  
  23178146.89149 121801983.50849    -17136.66849        49.000  
  22079900.39849 116030659.30549    -12327.67249        50.000  
  24943154.22749 131077157.50849    -27153.85249        48.000  
  23927345.00849 125739048.40649     30936.51649        48.000  
  19493055.58649 102436696.86349     -2490.99649        50.000  
  19815649.77349 104131941.94549      3738.54749        49.000  
  20047088.00849 105348156.33649    -10568.19149        49.000  
 16 04 02 13 46 45.9000000  0 11G10G14G03G08G28G32G17G27G11G22G01               
  24880076.03149 130745680.23449    -25067.13749        48.000  
  22621851.82049 118878631.56249    -14262.91049        50.000  
  21618300.71149 113604935.84449     19969.39849        50.000  
  21220139.03149 111512583.93849     24239.00449        50.000  
  23178473.00849 121803697.24249    -17138.19549        49.000  
  22080135.03149 116031892.32049    -12332.54749        50.000  
  24943670.96149 131079872.92649    -27154.45349        48.000  
  23926756.31249 125735954.79749     30935.60249        48.000  
  19493103.03149 102436946.20749     -2495.96949        50.000  
  19815578.68849 104131568.41049      3731.95349        49.000  
  20047289.15649 105349213.38349    -10573.07449        49.000  
 16 04 02 13 46 46.0000000  0 11G10G14G03G08G28G32G17G27G11G22G01               
  24880553.06249 130748187.07449    -25069.15649        48.000  
  22622123.28949 118880058.15249    -14268.29749        49.000  
  21617920.76649 113602939.20349     19964.25849        50.000  
  21219677.82049 111510160.27349     24235.19149        50.000  
  23178799.15649 121805411.21149    -17140.60249        49.000  
  22080369.78149 116033125.89849    -12338.20749        50.000  
  24944187.71949 131082588.48849    -27155.99249        48.000  
  23926167.65649 125732861.37549     30933.45749        48.000  
  19493150.58649 102437196.13349     -2501.91049        50.000  
  19815507.74249 104131195.59049      3724.68449        49.000  
  20047490.42249 105350271.00849    -10578.91049        49.000  
 16 04 02 13 46 46.1000000  0 11G10G14G03G08G28G32G17G27G11G22G01               
  24881030.13349 130750694.08649    -25071.13749        48.000  
  22622394.85249 118881485.23849    -14273.47349        49.000  
  21617540.90649 113600943.05549     19959.23049        50.000  
  21219216.68049 111507736.94549     24231.68449        50.000  
  23179125.35249 121807125.37149    -17142.64149        49.000  
  22080604.62549 116034360.00449    -12343.67249        50.000  
  24944704.46949 131085304.15249    -27157.22749        48.000  
  23925579.03149 125729768.10949     30931.88749        48.000  
  19493198.25049 102437446.59449     -2507.40249        50.000  
  19815436.93049 104130823.47749      3717.51649        49.000  
  20047691.78149 105351329.17649    -10584.46549        49.000  
 16 04 02 13 46 46.2000000  0 11G10G14G03G08G28G32G17G27G11G22G01               
  24881507.23449 130753201.26649    -25072.46149        48.000  
  22622666.50849 118882912.80149    -14278.02749        50.000  
  21617161.14149 113598947.34849     19954.88349        50.000  
  21218755.60249 111505313.94549     24228.53549        50.000  
  23179451.56249 121808839.72349    -17144.32049        49.000  
  22080839.57049 116035594.63349    -12348.76249        50.000  
  24945221.25849 131088019.90249    -27157.91449        48.000  
  23924990.42249 125726674.96149     30930.74249        48.000  
  19493246.01649 102437697.58649     -2512.52349        50.000  
  19815366.25049 104130452.03949      3710.87949        49.000  
  20047893.24249 105352387.86349    -10589.57049        49.000  
 16 04 02 13 46 46.3000000  0 11G10G14G03G08G28G32G17G27G11G22G01               
  24881984.35949 130755708.58249    -25074.02749        48.000  
  22622938.25049 118884340.84449    -14282.87949        50.000  
  21616781.45349 113596952.10249     19950.19549        50.000  
  21218294.57049 111502891.25449     24225.33249        50.000  
  23179777.82849 121810554.25049    -17146.15649        49.000  
  22081074.60949 116036829.76249    -12353.86349        50.000  
  24945738.06249 131090735.73449    -27158.77749        48.000  
  23924401.84449 125723581.95749     30929.52749        48.000  
  19493293.87549 102437949.10249     -2517.89149        50.000  
  19815295.70349 104130081.27049      3704.21549        49.000  
  20048094.79749 105353447.07049    -10594.82049        49.000  
 16 04 02 13 46 46.4000000  0 11G10G14G03G08G28G32G17G27G11G22G01               
  24882461.50849 130758215.96949    -25074.68449        48.000  
  22623210.07049 118885769.28549    -14286.95749        50.000  
  21616401.85949 113594957.23449     19946.45349        50.000  
  21217833.59449 111500468.79349     24223.05149        50.000  
  23180104.09449 121812268.86749    -17147.28949        49.000  
  22081309.74249 116038065.32449    -12358.19549        50.000  
  24946254.86749 131093451.58249    -27158.94149        48.000  
  23923813.26649 125720488.98849     30928.84049        48.000  
  19493341.82849 102438201.05949     -2522.34449        50.000  
  19815225.25849 104129711.09849      3698.16049        49.000  
  20048296.43849 105354506.71949    -10599.30949        49.000  
 16 04 02 13 46 46.5000000  0 11G10G14G03G08G28G32G17G27G11G22G01               
  24882938.68049 130760723.53949    -25076.10949        48.000  
  22623481.99249 118887198.21549    -14291.43449        50.000  
  21616022.33649 113592962.84449     19942.04749        50.000  
  21217372.68049 111498046.68049     24219.95749        50.000  
  23180430.41449 121813983.68449    -17148.80549        49.000  
  22081544.96149 116039301.42249    -12363.16849        50.000  
  24946771.71949 131096167.53549    -27159.75049        48.000  
  23923224.72749 125717396.17249     30927.54349        48.000  
  19493389.87549 102438453.55949     -2527.42649        50.000  
  19815154.94549 104129341.61749      3691.48449        49.000  
  20048498.18849 105355566.89549    -10604.28949        49.000  
 16 04 02 13 46 46.6000000  0 11G10G14G03G08G28G32G17G27G11G22G01               
  24883415.89849 130763231.20749    -25077.28549        48.000  
  22623753.98449 118888627.57449    -14296.08249        50.000  
  21615642.89149 113590968.84849     19937.86749        50.000  
  21216911.82049 111495624.84449     24216.99649        50.000  
  23180756.75849 121815698.64549    -17150.55149        49.000  
  22081780.26649 116040537.97349    -12367.95349        50.000  
  24947288.54749 131098883.52049    -27160.30949        48.000  
  23922636.20349 125714303.43849     30926.57449        48.000  
  19493438.01649 102438706.54349     -2532.50449        50.000  
  19815084.75849 104128972.76249      3685.16449        49.000  
  20048700.02349 105356627.55549    -10609.28549        49.000  
 16 04 02 13 46 46.7000000  0 11G10G14G03G08G28G32G17G27G11G22G01               
  24883893.13349 130765739.08249    -25079.44149        48.000  
  22624026.08649 118890057.44949    -14301.14149        49.000  
  21615263.53949 113588975.35949     19932.89549        50.000  
  21216451.02349 111493203.35549     24213.52049        50.000  
  23181083.14149 121817413.80949    -17152.47349        49.000  
  22082015.68849 116041775.08649    -12373.56649        50.000  
  24947805.41449 131101599.63749    -27161.50449        48.000  
  23922047.71149 125711210.88749     30924.90249        48.000  
  19493486.26649 102438960.07849     -2537.97349        50.000  
  19815014.70349 104128604.62949      3677.94149        49.000  
  20048901.96949 105357688.77349    -10614.86349        49.000  
 16 04 02 13 46 46.8000000  0 11G10G14G03G08G28G32G17G27G11G22G01               
  24884370.38349 130768247.05949    -25080.54349        48.000  
  22624298.26649 118891487.76249    -14305.46549        49.000  
  21614884.25049 113586982.28149     19928.61349        50.000  
  21215990.28149 111490782.14549     24210.64149        50.000  
  23181409.55549 121819129.11749    -17153.93049        49.000  
  22082251.18849 116043012.65649    -12378.25049        50.000  
  24948322.28149 131104315.78949    -27161.93049        48.000  
  23921459.23449 125708118.41449     30923.98849        48.000  
  19493534.60949 102439214.10549     -2542.84049        50.000  
  19814944.76649 104128237.13349      3671.53949        49.000  
  20049103.99249 105358750.46549    -10619.64849        49.000  
 16 04 02 13 46 46.9000000  0 11G10G14G03G08G28G32G17G27G11G22G01               
  24884847.66449 130770755.16049    -25081.78149        48.000  
  22624570.53949 118892918.53149    -14310.05949        49.000  
  21614505.06249 113584989.64149     19924.32049        50.000  
  21215529.60249 111488361.23449     24207.70349        50.000  
  23181736.00049 121820844.58649    -17155.50849        49.000  
  22082486.78149 116044250.72349    -12383.10949        50.000  
  24948839.15649 131107032.02349    -27162.65649        48.000  
  23920870.78149 125705026.05949     30922.93849        48.000  
  19493583.04749 102439468.62949     -2547.91849        50.000  
  19814874.95349 104127870.28149      3665.12149        49.000  
  20049306.12549 105359812.66049    -10624.59049        49.000  
 16 04 02 13 46 47.0000000  0 11G10G14G03G08G28G32G17G27G11G22G01               
  24885324.96949 130773263.44549    -25083.65649        48.000  
  22624842.89849 118894349.80549    -14315.23849        49.000  
  21614125.95349 113582997.48049     19919.28149        50.000  
  21215068.98449 111485940.66849     24204.07449        50.000  
  23182062.50049 121822560.26249    -17157.80549        49.000  
  22082722.49249 116045489.34049    -12388.79349        50.000  
  24949356.06249 131109748.36349    -27163.89549        48.000  
  23920282.35249 125701933.87549     30921.03549        48.000  
  19493631.58649 102439723.71149     -2553.54749        50.000  
  19814805.28149 104127504.14149      3657.73849        49.000  
  20049508.37549 105360875.40649    -10630.28149        49.000  
 16 04 02 13 46 47.1000000  0 11G10G14G03G08G28G32G17G27G11G22G01               
  24885802.28949 130775771.81649    -25084.34849        48.000  
  22625115.33649 118895781.48049    -14319.23449        49.000  
  21613746.93049 113581005.71549     19915.45349        50.000  
  21214608.40649 111483520.35249     24201.72349        50.000  
  23182389.00049 121824276.03949    -17158.69149        49.000  
  22082958.28149 116046728.38349    -12393.02349        50.000  
  24949872.97749 131112464.72349    -27164.02749        48.000  
  23919693.93849 125698841.73049     30920.55549        48.000  
  19493680.21149 102439979.24249     -2557.96549        50.000  
  19814735.71949 104127138.60249      3651.80549        49.000  
  20049710.69549 105361938.60249    -10634.67249        49.000  
 16 04 02 13 46 47.2000000  0 11G10G14G03G08G28G32G17G27G11G22G01               
  24886279.67249 130778280.39849    -25086.68049        48.000  
  22625387.87549 118897213.68449    -14324.57849        49.000  
  21613368.01649 113579014.45349     19910.30149        50.000  
  21214147.90649 111481100.41049     24197.87149        50.000  
  23182715.54749 121825992.05949    -17161.24249        49.000  
  22083194.16449 116047967.99649    -12398.80549        50.000  
  24950389.90649 131115181.21549    -27165.39149        48.000  
  23919105.53949 125695749.77049     30918.73849        48.000  
  19493728.95349 102440235.35949     -2563.89549        50.000  
  19814666.29749 104126773.79749      3644.45749        49.000  
  20049913.12549 105363002.37149    -10640.56649        49.000  
 16 04 02 13 46 47.3000000  0 11G10G14G03G08G28G32G17G27G11G22G01               
  24886757.07049 130780789.12949    -25088.07449        48.000  
  22625660.50849 118898646.36749    -14329.19149        49.000  
  21612989.18049 113577023.64849     19905.76249        50.000  
  21213687.46949 111478680.78549     24194.72749        50.000  
  23183042.12549 121827708.24649    -17162.82849        49.000  
  22083430.15649 116049208.11749    -12403.89149        50.000  
  24950906.88349 131117897.82449    -27166.53549        48.000  
  23918517.18049 125692657.94949     30917.50049        48.000  
  19493777.78949 102440492.00049     -2569.08249        50.000  
  19814597.00849 104126409.66449      3637.73849        49.000  
  20050115.65649 105364066.66049    -10645.66449        49.000  
 16 04 02 13 46 47.4000000  0 11G10G14G03G08G28G32G17G27G11G22G01               
  24887234.49249 130783297.99249    -25089.39149        48.000  
  22625933.22749 118900079.51249    -14333.70749        49.000  
  21612610.41449 113575033.27049     19901.71549        50.000  
  21213227.08649 111476261.46549     24191.81249        50.000  
  23183368.73449 121829424.60249    -17164.44949        49.000  
  22083666.22749 116050448.73049    -12408.64849        50.000  
  24951423.84449 131120614.45749    -27166.80549        48.000  
  23917928.83649 125689566.23449     30916.53549        48.000  
  19493826.71949 102440749.14149     -2573.97749        50.000  
  19814527.83649 104126046.18049      3631.45349        49.000  
  20050318.27349 105365131.44549    -10650.53149        49.000  
 16 04 02 13 46 47.5000000  0 11G10G14G03G08G28G32G17G27G11G22G01               
  24887711.92249 130785806.91449    -25089.84849        48.000  
  22626206.02349 118901513.03949    -14337.66849        50.000  
  21612231.72749 113573043.27349     19897.87149        50.000  
  21212766.74249 111473842.36349     24189.61749        50.000  
  23183695.35949 121831141.04749    -17165.36349        49.000  
  22083902.38349 116051689.76649    -12412.84449        50.000  
  24951940.78949 131123331.10549    -27166.76649        48.000  
  23917340.50849 125686474.56649     30916.00049        48.000  
  19493875.73449 102441006.71949     -2578.39849        50.000  
  19814458.79749 104125683.28949      3625.54349        49.000  
  20050520.97749 105366196.66449    -10654.85249        49.000  
 16 04 02 13 46 47.6000000  0 11G10G14G03G08G28G32G17G27G11G22G01               
  24888189.39849 130788316.03149    -25091.66849        48.000  
  22626478.90649 118902947.07049    -14342.53949        49.000  
  21611853.13349 113571053.75449     19893.22749        50.000  
  21212306.46949 111471423.61749     24186.17249        50.000  
  23184022.02349 121832857.68849    -17167.10249        49.000  
  22084138.65649 116052931.33649    -12418.03949        50.000  
  24952457.77349 131126047.87149    -27167.92649        48.000  
  23916752.22749 125683383.05549     30914.55149        48.000  
  19493924.85249 102441264.84849     -2583.70749        50.000  
  19814389.87549 104125321.10549      3618.48449        49.000  
  20050723.78149 105367262.43849    -10660.17649        49.000  
 16 04 02 13 46 47.7000000  0 11G10G14G03G08G28G32G17G27G11G22G01               
  24888666.88349 130790825.25449    -25092.98049        48.000  
  22626751.89149 118904381.56249    -14347.34849        49.000  
  21611474.62549 113569064.68049     19888.67249        50.000  
  21211846.25049 111469005.16449     24183.06649        50.000  
  23184348.72749 121834574.49249    -17169.08649        49.000  
  22084375.00849 116054173.39849    -12423.14149        50.000  
  24952974.76649 131128764.70749    -27168.78549        48.000  
  23916163.95349 125680291.65649     30913.19549        48.000  
  19493974.07049 102441523.48049     -2588.99249        50.000  
  19814321.07049 104124959.57449      3611.78149        49.000  
  20050926.68849 105368328.70349    -10665.45749        49.000  
 16 04 02 13 46 47.8000000  0 11G10G14G03G08G28G32G17G27G11G22G01               
  24889144.39849 130793334.65249    -25094.59049        48.000  
  22627024.95349 118905816.53149    -14352.03149        49.000  
  21611096.19549 113567076.06249     19884.14849        50.000  
  21211386.10249 111466587.03949     24179.84849        50.000  
  23184675.45349 121836291.48049    -17170.66049        49.000  
  22084611.46149 116055415.98449    -12428.28149        50.000  
  24953491.78149 131131481.61749    -27169.43849        48.000  
  23915575.70349 125677200.39549     30911.97349        48.000  
  19494023.38349 102441782.63749     -2594.15649        50.000  
  19814252.40649 104124598.72349      3605.07849        49.000  
  20051129.69549 105369395.49649    -10670.54349        49.000  
 16 04 02 13 46 47.9000000  0 11G10G14G03G08G28G32G17G27G11G22G01               
  24889621.96149 130795844.23049    -25096.49249        48.000  
  22627298.12549 118907252.01249    -14357.29749        49.000  
  21610717.86749 113565087.93849     19879.00849        50.000  
  21210926.01649 111464169.27049     24176.13349        50.000  
  23185002.22749 121838008.68849    -17173.11349        49.000  
  22084848.02349 116056659.10949    -12433.84449        50.000  
  24954008.80549 131134198.67649    -27171.02749        48.000  
  23914987.49249 125674109.30149     30910.15249        48.000  
  19494072.81249 102442042.36749     -2600.00849        50.000  
  19814183.87549 104124238.57849      3597.87149        49.000  
  20051332.80549 105370462.84449    -10676.30949        49.000  
 16 04 02 13 46 48.0000000  0 11G10G14G03G08G28G32G17G27G11G22G01               
  24890099.54749 130798353.97349    -25098.07049        48.000  
  22627571.37549 118908687.96149    -14361.95749        49.000  
  21610339.62549 113563100.26649     19874.51649        50.000  
  21210465.98449 111461751.80949     24173.10949        50.000  
  23185329.03149 121839726.06649    -17174.68449        49.000  
  22085084.68849 116057902.74249    -12438.87549        50.000  
  24954525.85949 131136915.79749    -27171.68849        48.000  
  23914399.28949 125671018.33649     30908.87149        48.000  
  19494122.33649 102442302.60549     -2605.10249        50.000  
  19814115.46949 104123879.10549      3591.17249        49.000  
  20051536.00849 105371530.71149    -10681.34449        49.000  
 16 04 02 13 46 48.1000000  0 11G10G14G03G08G28G32G17G27G11G22G01               
  24890577.14149 130800863.75449    -25098.39149        48.000  
  22627844.70349 118910124.30149    -14365.75049        49.000  
  21609961.45349 113561112.96149     19870.93449        50.000  
  21210006.00049 111459334.58649     24170.83249        50.000  
  23185655.85949 121841443.52749    -17175.37949        49.000  
  22085321.42249 116059146.79749    -12442.96549        50.000  
  24955042.92249 131139632.91849    -27171.49249        48.000  
  23913811.10949 125667927.41449     30908.61349        48.000  
  19494171.93849 102442563.28149     -2609.25049        50.000  
  19814047.17249 104123520.21949      3585.52749        49.000  
  20051739.29749 105372599.00849    -10685.53949        49.000  
 16 04 02 13 46 48.2000000  0 11G10G14G03G08G28G32G17G27G11G22G01               
  24891054.77349 130803373.74249    -25100.43449        48.000  
  22628118.12549 118911561.14149    -14370.70749        49.000  
  21609583.37549 113559126.13749     19866.19949        50.000  
  21209546.07849 111456917.69949     24167.50049        50.000  
  23185982.71149 121843161.20349    -17177.63749        49.000  
  22085558.25849 116060391.38749    -12448.30549        50.000  
  24955559.99249 131142350.16049    -27172.72349        48.000  
  23913222.93849 125664836.62949     30907.11749        48.000  
  19494221.64849 102442824.50449     -2614.69549        50.000  
  19813979.01649 104123162.04749      3578.36349        49.000  
  20051942.69549 105373667.84449    -10691.05549        49.000  
 16 04 02 13 46 48.3000000  0 11G10G14G03G08G28G32G17G27G11G22G01               
  24891532.43049 130805883.86749    -25102.04749        48.000  
  22628391.63349 118912998.45749    -14375.58649        49.000  
  21609205.38349 113557139.78149     19861.32449        50.000  
  21209086.23449 111454501.14549     24164.07049        50.000  
  23186309.60949 121844879.05949    -17179.38749        49.000  
  22085795.19549 116061636.49249    -12453.63749        50.000  
  24956077.08649 131145067.48449    -27173.68049        48.000  
  23912634.81249 125661746.00049     30905.61349        48.000  
  19494271.46149 102443086.27049     -2620.29749        50.000  
  19813910.98449 104122804.53549      3571.65649        49.000  
  20052146.19549 105374737.20749    -10696.29749        49.000  
 16 04 02 13 46 48.4000000  0 11G10G14G03G08G28G32G17G27G11G22G01               
  24892010.10249 130808394.12949    -25103.32049        48.000  
  22628665.23449 118914436.23849    -14380.11749        49.000  
  21608827.48449 113555153.85249     19857.16449        50.000  
  21208626.43849 111452084.88349     24161.16449        50.000  
  23186636.52349 121846597.07849    -17181.05549        49.000  
  22086032.21949 116062882.09049    -12458.32849        50.000  
  24956594.19549 131147784.87549    -27174.26649        48.000  
  23912046.69549 125658655.48049     30904.69949        48.000  
  19494321.36749 102443348.52349     -2625.15249        50.000  
  19813843.08649 104122447.70349      3564.98449        49.000  
  20052349.77349 105375807.07449    -10701.25049        49.000  
 16 04 02 13 46 48.5000000  0 11G10G14G03G08G28G32G17G27G11G22G01               
  24892487.81249 130810904.50849    -25104.57449        48.000  
  22628938.92249 118915874.45749    -14384.66049        50.000  
  21608449.65649 113553168.35549     19852.77349        50.000  
  21208166.70349 111449668.90649     24158.24249        50.000  
  23186963.47749 121848315.23449    -17182.61749        49.000  
  22086269.33649 116064128.16049    -12463.25449        50.000  
  24957111.29749 131150502.32049    -27174.91449        48.000  
  23911458.60949 125655565.06249     30903.29749        48.000  
  19494371.36749 102443611.27349     -2630.21149        50.000  
  19813775.30549 104122091.48849      3558.50449        49.000  
  20052553.46149 105376877.42649    -10706.32449        49.000  
 16 04 02 13 46 48.6000000  0 11G10G14G03G08G28G32G17G27G11G22G01               
  24892965.56249 130813415.06249    -25106.16849        48.000  
  22629212.70349 118917313.18449    -14389.60549        50.000  
  21608071.91449 113551183.34449     19847.97349        50.000  
  21207707.02349 111447253.28549     24154.82449        50.000  
  23187290.46949 121850033.59849    -17184.52349        49.000  
  22086506.57049 116065374.78149    -12468.62549        50.000  
  24957628.43049 131153219.88349    -27175.79349        48.000  
  23910870.55549 125652474.80549     30901.96949        48.000  
  19494421.46949 102443874.58649     -2635.60949        50.000  
  19813707.65649 104121735.99649      3551.57049        49.000  
  20052757.24249 105377948.33249    -10711.64549        49.000  
 16 04 02 13 46 48.7000000  0 11G10G14G03G08G28G32G17G27G11G22G01               
  24893443.33649 130815925.75849    -25107.68449        48.000  
  22629486.57049 118918752.35949    -14394.21149        49.000  
  21607694.26649 113549198.76649     19843.60249        50.000  
  21207247.39849 111444837.95349     24151.87549        50.000  
  23187617.49249 121851752.12549    -17186.27749        49.000  
  22086743.88349 116066621.87549    -12473.55949        50.000  
  24958145.57849 131155937.52349    -27176.89549        48.000  
  23910282.51649 125649384.64149     30900.73449        48.000  
  19494471.67249 102444138.38349     -2640.67649        50.000  
  19813640.11749 104121381.14549      3545.09449        49.000  
  20052961.12549 105379019.72749    -10716.68849        49.000  
 16 04 02 13 46 48.8000000  0 11G10G14G03G08G28G32G17G27G11G22G01               
  24893921.12549 130818436.61349    -25109.38349        48.000  
  22629760.53149 118920192.02349    -14399.05149        49.000  
  21607316.70349 113547214.65249     19838.95749        50.000  
  21206787.84449 111442422.96149     24148.49249        50.000  
  23187944.54749 121853470.83649    -17188.12549        49.000  
  22086981.28949 116067869.50049    -12478.68849        50.000  
  24958662.74249 131158655.22349    -27177.44549        48.000  
  23909694.49249 125646294.63349     30899.50049        48.000  
  19494521.96949 102444402.73849     -2646.12549        50.000  
  19813572.72749 104121026.99249      3538.07849        49.000  
  20053165.10949 105380091.66049    -10722.04349        49.000  
 16 04 02 13 46 48.9000000  0 11G10G14G03G08G28G32G17G27G11G22G01               
  24894398.94549 130820947.59049    -25110.66049        48.000  
  22630034.57049 118921632.15249    -14403.82049        49.000  
  21606939.22749 113545230.99249     19834.41849        50.000  
  21206328.34449 111440008.26649     24145.42249        50.000  
  23188271.64149 121855189.71549    -17189.82049        49.000  
  22087218.80549 116069117.62149    -12483.77749        50.000  
  24959179.92249 131161373.02049    -27178.36349        48.000  
  23909106.50849 125643204.75049     30898.08249        48.000  
  19494572.36749 102444667.58249     -2651.24249        50.000  
  19813505.46949 104120673.49649      3531.38749        49.000  
  20053369.18849 105381164.09449    -10727.11749        49.000  
 16 04 02 13 46 49.0000000  0 11G10G14G03G08G28G32G17G27G11G22G01               
  24894876.79749 130823458.73049    -25111.95349        48.000  
  22630308.71149 118923072.73849    -14408.13749        49.000  
  21606561.82849 113543247.76649     19830.19549        50.000  
  21205868.89849 111437593.87949     24142.55949        50.000  
  23188598.76649 121856908.76249    -17191.23449        49.000  
  22087456.39849 116070366.24249    -12488.52049        50.000  
  24959697.11749 131164090.90249    -27178.96949        48.000  
  23908518.54749 125640114.97349     30897.39849        48.000  
  19494622.85949 102444932.94549     -2656.05949        50.000  
  19813438.32849 104120320.66049      3525.06649        49.000  
  20053573.35949 105382237.04349    -10732.03149        49.000  
 16 04 02 13 46 49.1000000  0 11G10G14G03G08G28G32G17G27G11G22G01               
  24895354.65649 130825969.93449    -25112.70749        48.000  
  22630582.92249 118924513.72749    -14412.21549        49.000  
  21606184.50849 113541264.93449     19826.17249        50.000  
  21205409.51649 111435179.74649     24139.91449        50.000  
  23188925.90649 121858627.90249    -17192.40249        49.000  
  22087694.07849 116071615.29349    -12493.01649        50.000  
  24960214.31249 131166808.78149    -27179.21149        48.000  
  23907930.59449 125637025.26249     30896.40249        48.000  
  19494673.44549 102445198.76249     -2660.76249        50.000  
  19813371.29749 104119968.43449      3518.72749        49.000  
  20053777.61749 105383310.43049    -10736.62549        49.000  
 16 04 02 13 46 49.2000000  0 11G10G14G03G08G28G32G17G27G11G22G01               
  24895832.55549 130828481.28549    -25113.98849        48.000  
  22630857.22749 118925955.19149    -14416.78949        49.000  
  21605807.26649 113539282.55949     19821.82449        50.000  
  21204950.18049 111432765.92649     24136.89849        50.000  
  23189253.08649 121860347.23049    -17194.01249        49.000  
  22087931.85949 116072864.86349    -12498.03149        50.000  
  24960731.52349 131169526.75049    -27179.85249        48.000  
  23907342.66449 125633935.68449     30895.31249        48.000  
  19494724.13349 102445465.10549     -2665.93049        49.000  
  19813304.39849 104119616.87949      3512.27049        49.000  
  20053981.96949 105384384.34049    -10741.59449        49.000  
 16 04 02 13 46 49.3000000  0 11G10G14G03G08G28G32G17G27G11G22G01               
  24896310.47749 130830992.78949    -25115.52049        48.000  
  22631131.61749 118927397.12949    -14421.74649        49.000  
  21605430.11749 113537300.62149     19817.25049        50.000  
  21204490.90649 111430352.41849     24133.69149        50.000  
  23189580.29749 121862066.72349    -17195.76649        49.000  
  22088169.74249 116074114.91849    -12502.98049        50.000  
  24961248.75849 131172244.80549    -27180.81649        48.000  
  23906754.75849 125630846.22349     30894.02749        48.000  
  19494774.91449 102445731.95749     -2671.03549        50.000  
  19813237.62549 104119265.98449      3505.51249        49.000  
  20054186.42249 105385458.75849    -10746.75449        49.000  
 16 04 02 13 46 49.4000000  0 11G10G14G03G08G28G32G17G27G11G22G01               
  24896788.41449 130833504.41049    -25116.62149        48.000  
  22631406.09449 118928839.50049    -14426.01249        49.000  
  21605053.04749 113535319.12549     19812.88749        50.000  
  21204031.68849 111427939.19549     24130.87949        50.000  
  23189907.53149 121863786.35949    -17197.19549        49.000  
  22088407.70349 116075365.46149    -12507.83249        50.000  
  24961765.98449 131174962.88349    -27181.03149        48.000  
  23906166.87549 125627756.85949     30892.95749        48.000  
  19494825.78149 102445999.30149     -2675.99249        50.000  
  19813170.97749 104118915.73449      3499.12949        49.000  
  20054390.96949 105386533.66049    -10751.65249        49.000  
 16 04 02 13 46 49.5000000  0 11G10G14G03G08G28G32G17G27G11G22G01               
  24897266.39149 130836016.18849    -25118.56249        48.000  
  22631680.65649 118930282.35249    -14431.03949        49.000  
  21604676.06249 113533338.06649     19808.32849        50.000  
  21203572.52349 111425526.28949     24127.55949        50.000  
  23190234.80549 121865506.18449    -17199.35949        49.000  
  22088645.76649 116076616.51249    -12513.06649        50.000  
  24962283.25049 131177681.08249    -27182.38749        48.000  
  23905579.01649 125624667.62949     30891.42249        48.000  
  19494876.75849 102446267.16849     -2681.37149        50.000  
  19813104.45349 104118566.16849      3492.10549        49.000  
  20054595.61749 105387609.09049    -10757.14849        49.000  
 16 04 02 13 46 49.6000000  0 11G10G14G03G08G28G32G17G27G11G22G01               
  24897744.42249 130838528.10249    -25119.71549        48.000  
  22631955.31249 118931725.67649    -14435.48849        49.000  
  21604299.17249 113531357.47349     19803.94549        50.000  
  21203113.43049 111423113.70749     24124.55549        50.000  
  23190562.10249 121867226.16849    -17200.62549        49.000  
  22088883.93849 116077868.07849    -12517.99649        50.000  
  24962800.52349 131180399.34449    -27182.87149        48.000  
  23904991.17249 125621578.52049     30890.54749        48.000  
  19494927.82849 102446535.55549     -2686.32849        50.000  
  19813038.06249 104118217.26649      3485.78949        49.000  
  20054800.36749 105388685.02749    -10761.89849        49.000  
 16 04 02 13 46 49.7000000  0 11G10G14G03G08G28G32G17G27G11G22G01               
  24898222.46149 130841040.18849    -25121.57449        48.000  
  22632230.06249 118933169.47749    -14440.48449        49.000  
  21603922.36749 113529377.34049     19799.15649        50.000  
  21202654.39149 111420701.45349     24121.02349        50.000  
  23190889.43849 121868946.34849    -17202.73849        49.000  
  22089122.20349 116079120.14549    -12523.23049        50.000  
  24963317.82049 131183117.70749    -27183.98449        48.000  
  23904403.35949 125618489.56649     30888.87149        48.000  
  19494979.00849 102446804.48449     -2691.96949        50.000  
  19812971.79749 104117869.06249      3478.60249        49.000  
  20055005.21149 105389761.49649    -10767.45749        49.000  
 16 04 02 13 46 49.8000000  0 11G10G14G03G08G28G32G17G27G11G22G01               
  24898700.53149 130843552.38349    -25122.69949        48.000  
  22632504.89849 118934613.72349    -14444.97349        49.000  
  21603545.63349 113527397.64149     19794.82049        50.000  
  21202195.40649 111418289.48049     24118.14549        50.000  
  23191216.82049 121870666.68049    -17204.35549        49.000  
  22089360.54749 116080372.69949    -12528.03149        50.000  
  24963835.11749 131185836.12549    -27184.74649        48.000  
  23903815.57049 125615400.70349     30887.84049        48.000  
  19495030.27349 102447073.89849     -2696.79749        50.000  
  19812905.65649 104117521.49249      3472.10949        49.000  
  20055210.14849 105390838.46149    -10772.41849        49.000  
 16 04 02 13 46 49.9000000  0 11G10G14G03G08G28G32G17G27G11G22G01               
  24899178.62549 130846064.79349    -25124.88749        48.000  
  22632779.82849 118936058.50449    -14450.31649        49.000  
  21603169.00049 113525418.45349     19789.64549        50.000  
  21201736.50049 111415877.88349     24114.46549        50.000  
  23191544.22749 121872387.23449    -17206.55149        49.000  
  22089599.00849 116081625.81649    -12533.72749        50.000  
  24964352.44549 131188554.68049    -27186.01249        48.000  
  23903227.82049 125612312.03949     30885.94549        48.000  
  19495081.65649 102447343.89149     -2702.62949        50.000  
  19812839.64849 104117174.65249      3464.81249        49.000  
  20055415.19549 105391915.98849    -10778.02349        49.000  
 16 04 02 13 46 50.0000000  0 11G10G14G03G08G28G32G17G27G11G22G01               
  24899656.72749 130848577.27349    -25125.60249        48.000  
  22633054.83649 118937503.68849    -14454.28149        49.000  
  21602792.45349 113523439.65649     19785.78149        50.000  
  21201277.64149 111413466.54749     24111.87549        50.000  
  23191871.66449 121874107.90649    -17207.72349        49.000  
  22089837.55549 116082879.39549    -12538.32049        50.000  
  24964869.77349 131191273.25449    -27186.21149        48.000  
  23902640.06249 125609223.43049     30885.36349        48.000  
  19495133.11749 102447614.34449     -2707.23849        50.000  
  19812773.75849 104116828.41449      3458.85249        49.000  
  20055620.32849 105392993.97349    -10782.54349        49.000  
 16 04 02 13 46 50.1000000  0 11G10G14G03G08G28G32G17G27G11G22G01               
  24900134.85949 130851089.89549    -25126.71549        48.000  
  22633329.93049 118938949.32849    -14458.55549        49.000  
  21602415.98449 113521461.28549     19781.81649        50.000  
  21200818.83649 111411055.48849     24109.28949        50.000  
  23192199.11749 121875828.71549    -17208.74649        49.000  
  22090076.18849 116084133.41849    -12542.52749        50.000  
  24965387.11749 131193991.88749    -27186.53149        48.000  
  23902052.33649 125606134.92249     30884.65649        48.000  
  19495184.68049 102447885.28949     -2711.83249        49.000  
  19812708.00049 104116482.84449      3452.53149        49.000  
  20055825.56249 105394072.45349    -10787.23049        49.000  
 16 04 02 13 46 50.2000000  0 11G10G14G03G08G28G32G17G27G11G22G01               
  24900613.03949 130853602.61749    -25127.85549        48.000  
  22633605.10949 118940395.40649    -14463.16449        49.000  
  21602039.59449 113519483.35249     19777.28949        50.000  
  21200360.07849 111408644.73449     24106.22349        50.000  
  23192526.61749 121877549.68849    -17210.50449        49.000  
  22090314.93849 116085387.95749    -12547.68049        50.000  
  24965904.46949 131196710.58249    -27187.32849        48.000  
  23901464.63349 125603046.52349     30883.33649        48.000  
  19495236.32849 102448156.73049     -2716.98449        50.000  
  19812642.35949 104116137.89849      3445.97749        49.000  
  20056030.88349 105395151.42249    -10792.37549        49.000  
 16 04 02 13 46 50.3000000  0 11G10G14G03G08G28G32G17G27G11G22G01               
  24901091.22749 130856115.51249    -25129.43849        48.000  
  22633880.37549 118941841.97349    -14467.81649        49.000  
  21601663.29749 113517505.87949     19772.76649        50.000  
  21199901.39149 111406234.30549     24103.02349        50.000  
  23192854.14149 121879270.84449    -17212.19949        49.000  
  22090553.76649 116086643.00449    -12552.85949        50.000  
  24966421.84449 131199429.36749    -27188.13749        48.000  
  23900876.95349 125599958.27049     30882.21149        48.000  
  19495288.08649 102448428.70749     -2722.20749        50.000  
  19812576.85949 104115793.65649      3439.24649        49.000  
  20056236.30549 105396230.91849    -10797.54349        49.000  
 16 04 02 13 46 50.4000000  0 11G10G14G03G08G28G32G17G27G11G22G01               
  24901569.43849 130858628.54749    -25131.06249        48.000  
  22634155.73449 118943289.00449    -14472.85249        49.000  
  21601287.08649 113515528.86349     19767.86349        50.000  
  21199442.75849 111403824.18849     24099.58249        50.000  
  23193181.69549 121880992.16849    -17214.25849        49.000  
  22090792.68849 116087898.54749    -12558.06649        50.000  
  24966939.22749 131202148.23049    -27189.18449        48.000  
  23900289.31249 125596870.14149     30880.40249        48.000  
  19495339.93849 102448701.19549     -2727.60549        50.000  
  19812511.47749 104115450.06649      3432.24249        49.000  
  20056441.82849 105397310.91849    -10802.87149        49.000  
 16 04 02 13 46 50.5000000  0 11G10G14G03G08G28G32G17G27G11G22G01               
  24902047.68049 130861141.71549    -25132.26649        48.000  
  22634431.18049 118944736.48449    -14477.17649        49.000  
  21600910.95349 113513552.27049     19763.77049        50.000  
  21198984.17249 111401414.36349     24096.77749        50.000  
  23193509.28149 121882713.64549    -17215.57449        49.000  
  22091031.69549 116089154.57049    -12562.63349        50.000  
  24967456.61749 131204867.14549    -27189.51249        48.000  
  23899701.68049 125593782.11349     30879.64149        48.000  
  19495391.88349 102448974.18849     -2732.40249        50.000  
  19812446.21949 104115107.13349      3425.98449        49.000  
  20056647.43849 105398391.42249    -10807.64849        49.000  
 16 04 02 13 46 50.6000000  0 11G10G14G03G08G28G32G17G27G11G22G01               
  24902525.94549 130863655.01249    -25133.84849        48.000  
  22634706.71149 118946184.42249    -14482.01649        49.000  
  21600534.90649 113511576.12949     19759.10249        50.000  
  21198525.65649 111399004.84449     24093.59049        50.000  
  23193836.89149 121884435.29349    -17217.62949        49.000  
  22091270.81249 116090411.10249    -12567.96149        50.000  
  24967974.02349 131207586.13749    -27190.36349        48.000  
  23899114.07849 125590694.19549     30878.19949        48.000  
  19495443.93049 102449247.69149     -2737.83249        50.000  
  19812381.08649 104114764.86349      3419.07449        49.000  
  20056853.14849 105399472.43049    -10813.02349        49.000  
 16 04 02 13 46 50.7000000  0 11G10G14G03G08G28G32G17G27G11G22G01               
  24903004.25049 130866168.52349    -25135.72349        48.000  
  22634982.35249 118947632.89849    -14487.14549        49.000  
  21600158.96149 113509600.50449     19754.11349        50.000  
  21198067.20349 111396595.71149     24089.86749        50.000  
  23194164.55549 121886157.16449    -17219.60949        49.000  
  22091510.03149 116091668.19549    -12573.43049        50.000  
  24968491.46149 131210305.28549    -27191.84049        48.000  
  23898526.50849 125587606.47749     30876.52049        48.000  
  19495496.08649 102449521.77749     -2743.48049        50.000  
  19812316.10249 104114423.32449      3412.04349        49.000  
  20057058.96949 105400554.01249    -10818.48849        49.000  
 16 04 02 13 46 50.8000000  0 11G10G14G03G08G28G32G17G27G11G22G01               
  24903482.56249 130868682.06649    -25136.09449        48.000  
  22635258.05549 118949081.73049    -14490.54349        49.000  
  21599783.07849 113507625.21949     19750.81649        50.000  
  21197608.80549 111394186.77749     24087.94149        50.000  
  23194492.24249 121887879.11349    -17220.19949        49.000  
  22091749.31249 116092925.68849    -12577.23449        50.000  
  24969008.89149 131213024.39549    -27191.42649        48.000  
  23897938.92249 125584518.78549     30876.42249        48.000  
  19495548.32049 102449796.27049     -2747.40249        50.000  
  19812251.21949 104114082.35949      3406.33649        49.000  
  20057264.86749 105401636.00449    -10822.46149        49.000  
 16 04 02 13 46 50.9000000  0 11G10G14G03G08G28G32G17G27G11G22G01               
  24903960.91449 130871195.78549    -25137.89149        48.000  
  22635533.85249 118950531.07049    -14495.72749        49.000  
  21599407.28949 113505650.42649     19745.79749        50.000  
  21197150.46949 111391778.18849     24084.46149        50.000  
  23194819.95349 121889601.25849    -17222.35549        49.000  
  22091988.71149 116094183.70749    -12582.64549        50.000  
  24969526.33649 131215743.61749    -27192.59849        48.000  
  23897351.38349 125581431.24649     30874.55149        48.000  
  19495600.65649 102450071.30949     -2753.00449        50.000  
  19812186.46949 104113742.08249      3399.21149        49.000  
  20057470.86749 105402718.54349    -10828.11349        49.000  
 16 04 02 13 46 51.0000000  0 11G10G14G03G08G28G32G17G27G11G22G01               
  24904439.31249 130873709.73049    -25140.22749        48.000  
  22635809.75849 118951980.94949    -14501.36349        49.000  
  21599031.60249 113503676.15649     19740.39849        50.000  
  21196692.20349 111389369.98849     24080.49649        50.000  
  23195147.71149 121891323.64549    -17225.00449        49.000  
  22092228.21149 116095442.31649    -12588.71549        50.000  
  24970043.81249 131218462.99649    -27194.27749        48.000  
  23896763.87549 125578343.89849     30872.51649        48.000  
  19495653.10949 102450346.94949     -2759.18049        50.000  
  19812121.85949 104113402.55949      3391.59849        49.000  
  20057676.97749 105403801.66049    -10834.01249        49.000  
 16 04 02 13 46 51.1000000  0 11G10G14G03G08G28G32G17G27G11G22G01               
  24904917.71149 130876223.73449    -25140.74649        48.000  
  22636085.73449 118953431.22349    -14505.10249        49.000  
  21598655.98449 113501702.26649     19736.75849        50.000  
  21196233.97749 111386962.03149     24078.21549        50.000  
  23195475.49249 121893046.13749    -17225.79349        49.000  
  22092467.79749 116096701.34449    -12592.73449        50.000  
  24970561.29749 131221182.37549    -27194.20349        48.000  
  23896176.38349 125575256.61349     30872.14149        48.000  
  19495705.64149 102450623.02349     -2763.36749        50.000  
  19812057.35949 104113063.62549      3385.89849        49.000  
  20057883.17249 105404885.21949    -10838.25449        49.000  
 16 04 02 13 46 51.2000000  0 11G10G14G03G08G28G32G17G27G11G22G01               
  24905396.16449 130878737.95349    -25143.02049        48.000  
  22636361.81249 118954882.03149    -14510.64549        49.000  
  21598280.46949 113499728.88349     19731.44949        50.000  
  21195775.82849 111384554.45749     24074.20749        50.000  
  23195803.31249 121894768.85549    -17228.34049        49.000  
  22092707.49249 116097960.94149    -12598.57049        50.000  
  24971078.80549 131223901.89849    -27195.74249        48.000  
  23895588.92249 125572169.51649     30870.04749        48.000  
  19495758.28949 102450899.68849     -2769.46149        49.000  
  19811993.00049 104112725.42649      3378.26249        49.000  
  20058089.47749 105405969.35949    -10844.25849        49.000  
 16 04 02 13 46 51.3000000  0 11G10G14G03G08G28G32G17G27G11G22G01               
  24905874.62549 130881252.29749    -25144.08649        48.000  
  22636637.97749 118956333.27749    -14514.73049        49.000  
  21597905.02349 113497755.93849     19727.45349        50.000  
  21195317.74249 111382147.16849     24071.44149        50.000  
  23196131.17249 121896491.73449    -17229.50049        49.000  
  22092947.28149 116099221.02049    -12603.14149        50.000  
  24971596.32849 131226621.48049    -27196.12149        48.000  
  23895001.49249 125569082.51649     30869.44149        48.000  
  19495811.02349 102451176.83649     -2773.98449        49.000  
  19811928.76649 104112387.87149      3372.14149        49.000  
  20058295.87549 105407053.98849    -10848.84049        49.000  
 16 04 02 13 46 51.4000000  0 11G10G14G03G08G28G32G17G27G11G22G01               
  24906353.10949 130883766.71949    -25144.96549        48.000  
  22636914.21949 118957784.95349    -14519.20349        49.000  
  21597529.65649 113495783.39849     19723.22349        50.000  
  21194859.70349 111379740.15249     24068.61349        50.000  
  23196459.06249 121898214.73049    -17230.82049        49.000  
  22093187.14149 116100481.55549    -12607.87949        50.000  
  24972113.85249 131229341.09449    -27196.47349        48.000  
  23894414.05549 125565995.60949     30868.50449        48.000  
  19495863.85949 102451454.46949     -2778.89849        50.000  
  19811864.64849 104112050.94149      3365.93049        49.000  
  20058502.35949 105408139.08249    -10853.61749        49.000  
 16 04 02 13 46 51.5000000  0 11G10G14G03G08G28G32G17G27G11G22G01               
  24906831.61749 130886281.32449    -25146.73449        48.000  
  22637190.55549 118959237.09849    -14523.97349        49.000  
  21597154.38349 113493811.31649     19718.60949        50.000  
  21194401.72749 111377333.44949     24065.48449        50.000  
  23196786.96949 121899937.89849    -17232.66449        49.000  
  22093427.10949 116101742.60249    -12613.02749        50.000  
  24972631.41449 131232060.79749    -27197.46149        48.000  
  23893826.65649 125562908.82449     30866.98449        48.000  
  19495916.78949 102451732.61749     -2784.19949        49.000  
  19811800.66449 104111714.68849      3359.00449        49.000  
  20058708.94549 105409224.69949    -10859.02049        49.000  
 16 04 02 13 46 51.6000000  0 11G10G14G03G08G28G32G17G27G11G22G01               
  24907310.18849 130888796.12949    -25148.93449        48.000  
  22637466.99249 118960689.79749    -14529.56249        49.000  
  21596779.21949 113491839.77349     19713.09049        50.000  
  21193943.82049 111374927.14849     24061.34849        50.000  
  23197114.93049 121901661.34049    -17235.49649        49.000  
  22093667.20349 116103004.23449    -12619.07849        50.000  
  24973148.98449 131234780.65649    -27199.25449        48.000  
  23893239.30549 125559822.25049     30864.78149        48.000  
  19495969.82849 102452011.37149     -2790.36749        49.000  
  19811736.82049 104111379.18849      3351.33249        49.000  
  20058915.64849 105410310.90649    -10865.05949        49.000  
 16 04 02 13 46 51.7000000  0 11G10G14G03G08G28G32G17G27G11G22G01               
  24907788.77349 130891311.08649    -25150.32049        48.000  
  22637743.51649 118962142.96949    -14534.16449        49.000  
  21596404.13349 113489868.68449     19708.62149        50.000  
  21193485.97749 111372521.16049     24058.28549        50.000  
  23197442.92249 121903384.93849    -17236.90649        49.000  
  22093907.37549 116104266.35949    -12623.79749        50.000  
  24973666.58649 131237500.59449    -27199.77049        48.000  
  23892651.96949 125556735.80149     30863.73049        48.000  
  19496022.96949 102452290.64149     -2795.36349        50.000  
  19811673.11749 104111044.36349      3344.73049        49.000  
  20059122.44549 105411397.63349    -10870.02349        49.000  
 16 04 02 13 46 51.8000000  0 11G10G14G03G08G28G32G17G27G11G22G01               
  24908267.35249 130893826.10949    -25150.92649        48.000  
  22638020.11749 118963596.52049    -14537.88749        49.000  
  21596029.13349 113487897.96549     19705.01649        50.000  
  21193028.18049 111370115.41049     24056.05549        50.000  
  23197770.93849 121905108.62949    -17237.76649        49.000  
  22094147.63349 116105528.92249    -12628.00449        50.000  
  24974184.17249 131240220.53949    -27199.72349        48.000  
  23892064.64849 125553649.40649     30863.35949        48.000  
  19496076.19549 102452570.35549     -2799.72349        50.000  
  19811609.50849 104110710.12149      3339.03149        49.000  
  20059329.32049 105412484.77749    -10874.13349        49.000  
 16 04 02 13 46 51.9000000  0 11G10G14G03G08G28G32G17G27G11G22G01               
  24908745.96949 130896341.27349    -25152.14549        48.000  
  22638296.81249 118965050.53549    -14542.40249        49.000  
  21595654.19549 113485927.68449     19700.81249        50.000  
  21192570.44549 111367709.95749     24053.27349        50.000  
  23198098.97749 121906832.48449    -17239.28149        49.000  
  22094387.98449 116106791.97749    -12632.84849        50.000  
  24974701.78949 131242940.54749    -27200.30549        48.000  
  23891477.34449 125550563.12549     30862.29749        48.000  
  19496129.51649 102452850.56249     -2804.54349        50.000  
  19811546.03149 104110376.53949      3332.45749        49.000  
  20059536.29749 105413572.44549    -10879.19149        49.000  
 16 04 02 13 46 52.0000000  0 11G10G14G03G08G28G32G17G27G11G22G01               
  24909224.61749 130898856.64849    -25154.53549        48.000  
  22638573.60949 118966505.09849    -14548.07849        49.000  
  21595279.37549 113483957.94149     19695.27349        50.000  
  21192112.78149 111365304.90649     24049.01249        50.000  
  23198427.06249 121908556.59449    -17241.99249        49.000  
  22094628.45349 116108055.60549    -12638.82849        50.000  
  24975219.42249 131245660.71549    -27202.11749        48.000  
  23890890.07849 125547477.05149     30859.91049        48.000  
  19496182.95349 102453131.37149     -2810.75449        50.000  
  19811482.69549 104110043.71149      3324.85549        49.000  
  20059743.38349 105414660.69149    -10885.29349        49.000  
 16 04 02 13 46 52.1000000  0 11G10G14G03G08G28G32G17G27G11G22G01               
  24909703.31249 130901372.18849    -25156.19549        48.000  
  22638850.48449 118967960.14549    -14553.02349        49.000  
  21594904.63349 113481988.67649     19690.39849        50.000  
  21191655.18849 111362900.18849     24045.57049        50.000  
  23198755.18049 121910280.89149    -17243.98849        49.000  
  22094869.00849 116109319.76249    -12644.19949        50.000  
  24975737.07849 131248380.98049    -27203.17649        48.000  
  23890302.84449 125544391.12949     30858.39849        48.000  
  19496236.50049 102453412.73449     -2816.28949        50.000  
  19811419.48449 104109711.57049      3317.78949        49.000  
  20059950.57049 105415749.48049    -10890.66049        49.000  
 16 04 02 13 46 52.2000000  0 11G10G14G03G08G28G32G17G27G11G22G01               
  24910182.03149 130903887.82449    -25157.18849        48.000  
  22639127.45349 118969415.60949    -14557.22349        49.000  
  21594529.96149 113480019.80149     19686.44949        50.000  
  21191197.63349 111360495.73049     24042.95349        50.000  
  23199083.33649 121912005.30949    -17245.28549        49.000  
  22095109.66449 116110584.36749    -12648.67649        50.000  
  24976254.73449 131251101.27349    -27203.48049        48.000  
  23889715.61749 125541305.27049     30857.53949        48.000  
  19496290.12549 102453694.54749     -2820.98449        50.000  
  19811356.39849 104109380.05149      3311.55549        49.000  
  20060157.85249 105416838.71949    -10895.32849        49.000  
 16 04 02 13 46 52.3000000  0 11G10G14G03G08G28G32G17G27G11G22G01               
  24910660.77349 130906403.63749    -25158.72349        48.000  
  22639404.51649 118970871.57049    -14561.98449        49.000  
  21594155.39149 113478051.42249     19681.64549        50.000  
  21190740.14149 111358091.61749     24039.70349        50.000  
  23199411.51649 121913729.92249    -17247.02049        49.000  
  22095350.41449 116111849.50849    -12653.87949        50.000  
  24976772.42249 131253821.68449    -27204.45349        48.000  
  23889128.43049 125538219.57849     30856.22749        48.000  
  19496343.85949 102453976.91049     -2826.22349        50.000  
  19811293.44549 104109049.22749      3304.75449        49.000  
  20060365.23449 105417928.51249    -10900.51649        49.000  
 16 04 02 13 46 52.4000000  0 11G10G14G03G08G28G32G17G27G11G22G01               
  24911139.57049 130908919.57449    -25160.04749        48.000  
  22639681.66449 118972327.99249    -14566.48849        50.000  
  21593780.89849 113476083.47749     19677.30149        50.000  
  21190282.71149 111355687.81649     24036.56649        50.000  
  23199739.74249 121915454.69549    -17248.60549        49.000  
  22095591.25849 116113115.14149    -12658.73849        50.000  
  24977290.10249 131256542.15249    -27204.98849        48.000  
  23888541.26649 125535133.99249     30855.23049        48.000  
  19496397.68849 102454259.78549     -2831.32449        50.000  
  19811230.61749 104108719.05949      3298.28949        49.000  
  20060572.71149 105419018.80149    -10905.57449        49.000  
 16 04 02 13 46 52.5000000  0 11G10G14G03G08G28G32G17G27G11G22G01               
  24911618.35249 130911435.60249    -25160.84849        48.000  
  22639958.89149 118973784.82049    -14570.65649        50.000  
  21593406.48449 113474115.92249     19673.43849        50.000  
  21189825.32049 111353284.25449     24034.22749        50.000  
  23200067.97749 121917179.58249    -17249.68049        49.000  
  22095832.18049 116114381.21149    -12663.11749        50.000  
  24977807.81249 131259262.64549    -27205.19149        48.000  
  23887954.10949 125532048.47349     30854.46549        48.000  
  19496451.60249 102454543.10249     -2835.74649        50.000  
  19811167.89849 104108389.50449      3292.14549        49.000  
  20060780.27349 105420109.53549    -10910.04349        49.000  
 16 04 02 13 46 52.6000000  0 11G10G14G03G08G28G32G17G27G11G22G01               
  24912097.18049 130913951.80949    -25162.64549        48.000  
  22640236.21949 118975242.15649    -14575.70749        49.000  
  21593032.16449 113472148.85949     19668.57849        50.000  
  21189368.00849 111350881.05549     24030.63349        50.000  
  23200396.25049 121918904.68449    -17251.87549        49.000  
  22096073.21149 116115647.83249    -12668.64849        50.000  
  24978325.52349 131261983.24649    -27206.30149        48.000  
  23887366.98449 125528963.12949     30852.79349        48.000  
  19496505.62549 102454826.99649     -2841.46949        50.000  
  19811105.32049 104108060.66849      3284.90649        49.000  
  20060987.93049 105421200.83249    -10915.61349        49.000  
 16 04 02 13 46 52.7000000  0 11G10G14G03G08G28G32G17G27G11G22G01               
  24912576.03149 130916468.15649    -25164.07849        48.000  
  22640513.62549 118976699.94949    -14580.19949        49.000  
  21592657.93049 113470182.25449     19664.00049        50.000  
  21188910.75849 111348478.16449     24027.56649        50.000  
  23200724.55549 121920629.94549    -17253.34049        49.000  
  22096314.33649 116116914.93849    -12673.44949        50.000  
  24978843.25849 131264703.93449    -27207.10549        48.000  
  23886779.88349 125525877.89849     30851.72749        48.000  
  19496559.74249 102455111.39849     -2846.58249        50.000  
  19811042.87549 104107732.48849      3278.37149        49.000  
  20061195.69549 105422292.63749    -10920.61349        49.000  
 16 04 02 13 46 52.8000000  0 11G10G14G03G08G28G32G17G27G11G22G01               
  24913054.88349 130918984.57449    -25164.78149        48.000  
  22640791.10949 118978158.14849    -14584.18849        49.000  
  21592283.77349 113468216.02349     19660.34449        50.000  
  21188453.54749 111346075.52349     24025.14849        50.000  
  23201052.88349 121922355.31249    -17254.32049        49.000  
  22096555.53949 116118182.48049    -12677.73449        50.000  
  24979360.98449 131267424.62549    -27207.11749        48.000  
  23886192.78949 125522792.73049     30851.32849        48.000  
  19496613.94549 102455396.23849     -2850.84049        50.000  
  19810980.53949 104107404.89549      3272.60949        49.000  
  20061403.53149 105423384.87549    -10924.89549        49.000  
 16 04 02 13 46 52.9000000  0 11G10G14G03G08G28G32G17G27G11G22G01               
  24913533.76649 130921501.12949    -25166.09049        48.000  
  22641068.68849 118979616.80549    -14588.89549        49.000  
  21591909.69549 113466250.25449     19655.64849        50.000  
  21187996.38349 111343673.18049     24022.05149        50.000  
  23201381.24249 121924080.84449    -17256.14849        49.000  
  22096796.84449 116119450.53149    -12682.90649        50.000  
  24979878.72749 131270145.38749    -27207.91049        48.000  
  23885605.72749 125519707.68049     30849.91849        48.000  
  19496668.24249 102455681.59849     -2856.15649        49.000  
  19810918.32849 104107077.98049      3265.79749        49.000  
  20061611.47749 105424477.62949    -10930.18449        49.000  
 16 04 02 13 46 53.0000000  0 11G10G14G03G08G28G32G17G27G11G22G01               
  24914012.68049 130924017.81249    -25167.41449        48.000  
  22641346.34449 118981075.90649    -14593.41049        49.000  
  21591535.69549 113464284.91049     19651.29749        50.000  
  21187539.28949 111341271.15249     24018.87949        50.000  
  23201709.64149 121925806.52749    -17257.63749        49.000  
  22097038.22749 116120719.05149    -12687.62949        50.000  
  24980396.48449 131272866.21549    -27208.63749        48.000  
  23885018.68849 125516622.74249     30848.71149        48.000  
  19496722.64149 102455967.45349     -2861.16449        50.000  
  19810856.24249 104106751.72349      3259.17249        49.000  
  20061819.52349 105425570.87549    -10935.03949        49.000  
 16 04 02 13 46 53.1000000  0 11G10G14G03G08G28G32G17G27G11G22G01               
  24914491.61749 130926534.64849    -25168.95349        48.000  
  22641624.09449 118982535.49649    -14598.09849        49.000  
  21591161.79749 113462320.02749     19646.72349        50.000  
  21187082.25049 111338869.43049     24015.86349        50.000  
  23202038.06249 121927532.39549    -17259.37949        49.000  
  22097279.71149 116121988.09449    -12692.78149        50.000  
  24980914.25049 131275587.12949    -27209.43049        48.000  
  23884431.66449 125513537.93449     30847.53549        48.000  
  19496777.13349 102456253.84049     -2866.35249        50.000  
  19810794.28149 104106426.13749      3252.50049        49.000  
  20062027.65649 105426664.63349    -10940.24649        49.000  
 16 04 02 13 46 53.2000000  0 11G10G14G03G08G28G32G17G27G11G22G01               
  24914970.58649 130929051.59049    -25169.98849        48.000  
  22641901.92249 118983995.50849    -14602.43049        49.000  
  21590787.96949 113460355.56649     19642.47749        50.000  
  21186625.27349 111336467.99649     24012.97749        50.000  
  23202366.50849 121929258.38749    -17260.71949        49.000  
  22097521.28949 116123257.59449    -12697.47749        50.000  
  24981432.03149 131278308.09049    -27209.90249        48.000  
  23883844.67249 125510453.22749     30846.46949        48.000  
  19496831.71949 102456540.70749     -2871.21149        50.000  
  19810732.44549 104106101.18449      3246.17249        49.000  
  20062235.89149 105427758.88349    -10945.04349        49.000  
 16 04 02 13 46 53.3000000  0 11G10G14G03G08G28G32G17G27G11G22G01               
  24915449.57849 130931568.68049    -25171.65249        48.000  
  22642179.84449 118985455.99249    -14607.42649        49.000  
  21590414.23449 113458391.55549     19637.82449        50.000  
  21186168.35249 111334066.87549     24009.62949        50.000  
  23202694.98449 121930984.56249    -17262.82449        49.000  
  22097762.96149 116124527.59849    -12702.63349        50.000  
  24981949.82849 131281029.11749    -27210.84849        48.000  
  23883257.68849 125507368.64149     30844.96149        48.000  
  19496886.40649 102456828.09049     -2876.69549        50.000  
  19810670.73449 104105776.89849      3239.23049        49.000  
  20062444.21949 105428853.63749    -10950.38749        49.000  
 16 04 02 13 46 53.4000000  0 11G10G14G03G08G28G32G17G27G11G22G01               
  24915928.59449 130934085.97349    -25173.68449        48.000  
  22642457.86749 118986917.00849    -14612.55549        49.000  
  21590040.59449 113456428.07049     19632.61749        50.000  
  21185711.50849 111331666.14149     24005.89149        50.000  
  23203023.51649 121932710.97349    -17264.97349        49.000  
  22098004.75849 116125798.18449    -12708.27349        50.000  
  24982467.65649 131283750.30149    -27212.21549        48.000  
  23882670.75849 125504284.26249     30843.14849        48.000  
  19496941.21949 102457116.06249     -2882.38349        50.000  
  19810609.16449 104105453.35949      3231.92249        49.000  
  20062652.64849 105429948.97749    -10956.08249        49.000  
 16 04 02 13 46 53.5000000  0 11G10G14G03G08G28G32G17G27G11G22G01               
  24916407.63349 130936603.34449    -25174.42249        48.000  
  22642735.96949 118988378.42249    -14616.56249        49.000  
  21589667.02349 113454464.97349     19628.76249        50.000  
  21185254.71149 111329265.65249     24003.40649        50.000  
  23203352.05549 121934437.48849    -17266.02349        49.000  
  22098246.61749 116127069.19149    -12712.62549        50.000  
  24982985.47749 131286471.49649    -27212.35549        48.000  
  23882083.82849 125501199.91849     30842.66449        48.000  
  19496996.10249 102457404.48449     -2886.83649        50.000  
  19810547.71149 104105130.41449      3225.98849        49.000  
  20062861.16449 105431044.75849    -10960.50049        49.000  
 16 04 02 13 46 53.6000000  0 11G10G14G03G08G28G32G17G27G11G22G01               
  24916886.70349 130939120.87549    -25176.06649        48.000  
  22643014.16449 118989840.32849    -14621.46549        49.000  
  21589293.53949 113452502.34049     19624.10249        50.000  
  21184797.97749 111326865.50049     23999.99249        50.000  
  23203680.64149 121936164.18849    -17267.96549        49.000  
  22098488.59449 116128340.72749    -12717.93449        50.000  
  24983503.32049 131289192.78549    -27213.30949        48.000  
  23881496.92249 125498115.74649     30840.94549        48.000  
  19497051.08649 102457693.43449     -2892.22349        50.000  
  19810486.39149 104104808.16449      3219.01249        49.000  
  20063069.78949 105432141.07049    -10965.88749        49.000  
 16 04 02 13 46 53.7000000  0 11G10G14G03G08G28G32G17G27G11G22G01               
  24917365.81249 130941638.60949    -25178.06249        48.000  
  22643292.44549 118991302.75849    -14626.64549        49.000  
  21588920.16449 113450540.21949     19619.07849        50.000  
  21184341.31249 111324465.71149     23996.39149        50.000  
  23204009.26649 121937891.10949    -17270.16849        49.000  
  22098730.66449 116129612.81249    -12723.36349        50.000  
  24984021.21149 131291914.20749    -27214.62149        48.000  
  23880910.04749 125495031.73049     30839.39149        48.000  
  19497106.18849 102457982.96149     -2897.90649        49.000  
  19810425.21149 104104486.64149      3211.73049        49.000  
  20063278.51649 105433237.94549    -10971.50049        49.000  
 16 04 02 13 46 53.8000000  0 11G10G14G03G08G28G32G17G27G11G22G01               
  24917844.95349 130944156.46549    -25179.38749        48.000  
  22643570.82049 118992765.62949    -14631.29349        49.000  
  21588546.86749 113448578.54349     19614.50449        50.000  
  21183884.70349 111322066.21949     23993.37949        50.000  
  23204337.91449 121939618.19149    -17271.79749        49.000  
  22098972.82049 116130885.38349    -12728.29749        50.000  
  24984539.09449 131294635.69149    -27215.36749        48.000  
  23880323.20349 125491947.84449     30838.13349        48.000  
  19497161.37549 102458272.99249     -2903.10949        49.000  
  19810364.14849 104104165.76249      3205.15649        49.000  
  20063487.32849 105434335.31649    -10976.56249        49.000  
 16 04 02 13 46 53.9000000  0 11G10G14G03G08G28G32G17G27G11G22G01               
  24918324.10249 130946674.42649    -25180.15249        48.000  
  22643849.28149 118994228.94549    -14635.42249        49.000  
  21588173.65649 113446617.28549     19610.48049        50.000  
  21183428.14849 111319667.02049     23990.64849        50.000  
  23204666.59449 121941345.41049    -17272.98849        49.000  
  22099215.07049 116132158.43449    -12732.83649        50.000  
  24985056.97749 131297357.23049    -27215.64849        48.000  
  23879736.38349 125488864.05149     30837.42649        48.000  
  19497216.66449 102458563.50849     -2907.64849        49.000  
  19810303.20349 104103845.52749      3198.93449        49.000  
  20063696.24249 105435433.17249    -10981.14849        49.000  
 16 04 02 13 46 54.0000000  0 11G10G14G03G08G28G32G17G27G11G22G01               
  24918803.29749 130949192.52349    -25181.64549        48.000  
  22644127.82049 118995692.69949    -14639.96149        49.000  
  21587800.52349 113444656.45749     19606.06249        50.000  
  21182971.65649 111317268.11349     23987.60249        50.000  
  23204995.29749 121943072.78149    -17274.55149        49.000  
  22099457.42249 116133431.96149    -12737.73049        50.000  
  24985574.88349 131300078.81649    -27216.34049        48.000  
  23879149.57049 125485780.36749     30836.18049        48.000  
  19497272.03149 102458854.52049     -2912.69149        50.000  
  19810242.39149 104103525.93449      3192.50049        49.000  
  20063905.25049 105436531.51649    -10986.18049        49.000  
 16 04 02 13 46 54.1000000  0 11G10G14G03G08G28G32G17G27G11G22G01               
  24919282.50049 130951710.77349    -25183.34449        48.000  
  22644406.46149 118997156.94149    -14644.80149        49.000  
  21587427.47749 113442696.09849     19601.45749        50.000  
  21182515.21949 111314869.53549     23984.33649        50.000  
  23205324.03949 121944800.33649    -17276.43849        49.000  
  22099699.86749 116134706.00049    -12742.91849        50.000  
  24986092.81249 131302800.50049    -27217.23449        48.000  
  23878562.78949 125482696.82049     30834.75049        48.000  
  19497327.51649 102459146.06249     -2918.06249        49.000  
  19810181.71149 104103207.04749      3185.46149        49.000  
  20064114.35949 105437630.38749    -10991.37549        49.000  
 16 04 02 13 46 54.2000000  0 11G10G14G03G08G28G32G17G27G11G22G01               
  24919761.75049 130954229.14549    -25184.48449        48.000  
  22644685.18049 118998621.64149    -14649.38749        49.000  
  21587054.53949 113440736.18849     19596.86749        50.000  
  21182058.84449 111312471.26249     23981.17649        50.000  
  23205652.81249 121946528.05549    -17278.21549        49.000  
  22099942.39849 116135980.53949    -12747.89149        50.000  
  24986610.75049 131305522.25849    -27217.98849        48.000  
  23877976.02349 125479613.38349     30833.56649        48.000  
  19497383.08649 102459438.11349     -2923.14149        49.000  
  19810121.15649 104102888.80149      3178.82849        49.000  
  20064323.56249 105438729.77049    -10996.50449        49.000  
 16 04 02 13 46 54.3000000  0 11G10G14G03G08G28G32G17G27G11G22G01               
  24920241.01649 130956747.71149    -25186.38749        48.000  
  22644964.00049 119000086.84449    -14654.46549        49.000  
  21586681.67249 113438776.76249     19592.04349        50.000  
  21181602.53149 111310073.34449     23977.61749        50.000  
  23205981.63349 121948255.98049    -17280.18449        49.000  
  22100185.03949 116137255.61749    -12753.33649        50.000  
  24987128.71949 131308244.11349    -27218.99649        48.000  
  23877389.29749 125476530.12149     30831.78549        48.000  
  19497438.76649 102459730.72749     -2928.75049        49.000  
  19810060.72749 104102571.25849      3171.92649        49.000  
  20064532.86749 105439829.69949    -11002.00049        49.000  
 16 04 02 13 46 54.4000000  0 11G10G14G03G08G28G32G17G27G11G22G01               
  24920720.31249 130959266.39849    -25187.73049        48.000  
  22645242.89849 119001552.49249    -14658.98449        49.000  
  21586308.89149 113436817.78149     19587.60949        50.000  
  21181146.28149 111307675.72349     23974.63749        50.000  
  23206310.47749 121949984.06249    -17281.82049        49.000  
  22100427.78149 116138531.18049    -12758.18049        50.000  
  24987646.68049 131310966.05149    -27219.68049        48.000  
  23876802.58649 125473446.96949     30830.83649        48.000  
  19497494.54749 102460023.83249     -2933.68449        49.000  
  19810000.43049 104102254.38749      3165.18449        49.000  
  20064742.27349 105440930.11349    -11006.85949        49.000  
 16 04 02 13 46 54.5000000  0 11G10G14G03G08G28G32G17G27G11G22G01               
  24921199.64149 130961785.24649    -25189.17249        48.000  
  22645521.90649 119003018.64549    -14663.87949        49.000  
  21585936.20349 113434859.28549     19582.75849        50.000  
  21180690.10249 111305278.44149     23971.28549        50.000  
  23206639.35249 121951712.33649    -17283.64849        49.000  
  22100670.60949 116139807.26249    -12763.32049        50.000  
  24988164.66449 131313688.09449    -27220.78149        48.000  
  23876215.91449 125470363.96549     30829.36749        48.000  
  19497550.43049 102460317.48849     -2939.25049        49.000  
  19809940.25849 104101938.20349      3158.39549        49.000  
  20064951.78149 105442031.07049    -11012.18049        49.000  
 16 04 02 13 46 54.6000000  0 11G10G14G03G08G28G32G17G27G11G22G01               
  24921678.99249 130964304.23449    -25190.65649        48.000  
  22645800.99249 119004485.24649    -14668.52049        49.000  
  21585563.58649 113432901.22349     19578.38749        50.000  
  21180233.96949 111302881.47349     23968.03149        50.000  
  23206968.25849 121953440.77349    -17285.41449        49.000  
  22100913.53949 116141083.84849    -12768.41849        50.000  
  24988682.66449 131316410.18849    -27221.48449        48.000  
  23875629.25049 125467281.08649     30827.99649        48.000  
  19497606.40649 102460611.64849     -2944.29349        49.000  
  19809880.21149 104101622.68049      3151.68849        49.000  
  20065161.38349 105443132.53149    -11017.31249        49.000  
 16 04 02 13 46 54.7000000  0 11G10G14G03G08G28G32G17G27G11G22G01               
  24922158.37549 130966823.39849    -25192.46549        48.000  
  22646080.17249 119005952.34049    -14673.44149        49.000  
  21585191.07849 113430943.65249     19573.42649        50.000  
  21179777.90649 111300484.83649     23964.79349        50.000  
  23207297.21149 121955169.41849    -17287.44949        49.000  
  22101156.57049 116142360.96549    -12773.76649        50.000  
  24989200.68849 131319132.40249    -27222.60249        48.000  
  23875042.63349 125464198.37149     30826.38349        48.000  
  19497662.48449 102460906.35249     -2949.71549        49.000  
  19809820.30549 104101307.85549      3144.63749        49.000  
  20065371.08649 105444234.54749    -11022.86749        49.000  
 16 04 02 13 46 54.8000000  0 11G10G14G03G08G28G32G17G27G11G22G01               
  24922637.77349 130969342.69549    -25193.69149        48.000  
  22646359.43849 119007419.90649    -14677.99249        49.000  
  21584818.64149 113428986.52749     19569.05949        50.000  
  21179321.90649 111298088.52749     23961.65249        50.000  
  23207626.19549 121956898.21549    -17288.89149        49.000  
  22101399.68849 116143638.57049    -12778.59849        50.000  
  24989718.71949 131321854.68849    -27223.25849        48.000  
  23874456.02349 125461115.75849     30825.53149        48.000  
  19497718.67249 102461201.57449     -2954.84449        49.000  
  19809760.52349 104100993.69549      3138.19549        49.000  
  20065580.89149 105445337.05549    -11027.78549        49.000  
 16 04 02 13 46 54.9000000  0 11G10G14G03G08G28G32G17G27G11G22G01               
  24923117.19549 130971862.05149    -25194.25849        48.000  
  22646638.78949 119008887.85249    -14681.84449        49.000  
  21584446.28149 113427029.78149     19565.24649        50.000  
  21178865.94549 111295692.44549     23959.30149        50.000  
  23207955.18849 121958627.09849    -17289.80549        49.000  
  22101642.89149 116144916.60249    -12782.87149        50.000  
  24990236.76649 131324576.97349    -27223.29749        48.000  
  23873869.43849 125458033.21149     30824.72349        48.000  
  19497774.93049 102461497.23049     -2959.21149        50.000  
  19809700.85249 104100680.12549      3132.12949        49.000  
  20065790.77349 105446439.98849    -11032.10249        49.000  
 16 04 02 13 46 55.0000000  0 11G10G14G03G08G28G32G17G27G11G22G01               
  24923596.67249 130974381.62549    -25196.13349        48.000  
  22646918.22749 119010356.34049    -14686.96149        49.000  
  21584074.01649 113425073.55549     19560.28549        50.000  
  21178410.06249 111293296.75849     23955.62149        50.000  
  23208284.24249 121960356.24249    -17292.04749        49.000  
  22101886.19549 116146195.20349    -12788.29349        50.000  
  24990754.82849 131327299.39849    -27224.45349        48.000  
  23873282.86749 125454950.85549     30823.14849        48.000  
  19497831.30549 102461793.47749     -2964.89149        49.000  
  19809641.32849 104100367.30549      3125.00449        49.000  
  20066000.76649 105447543.52349    -11037.73049        49.000  
 16 04 02 13 46 55.1000000  0 11G10G14G03G08G28G32G17G27G11G22G01               
  24924076.14849 130976901.29749    -25197.52049        48.000  
  22647197.75049 119011825.24249    -14691.47349        49.000  
  21583701.83649 113423117.74249     19555.98049        50.000  
  21177954.21949 111290901.32049     23952.82449        50.000  
  23208613.30549 121962085.49249    -17293.46149        49.000  
  22102129.59449 116147474.26649    -12793.11749        50.000  
  24991272.91449 131330021.85949    -27224.92249        48.000  
  23872696.33649 125451868.58249     30821.99649        48.000  
  19497887.76649 102462090.19549     -2969.82049        49.000  
  19809581.91449 104100055.09449      3118.57849        49.000  
  20066210.85249 105448647.51649    -11042.68449        49.000  
 16 04 02 13 46 55.2000000  0 11G10G14G03G08G28G32G17G27G11G22G01               
  24924555.65649 130979421.10549    -25198.85949        48.000  
  22647477.36749 119013294.62549    -14696.18849        49.000  
  21583329.74249 113421162.38349     19551.43449        50.000  
  21177498.44549 111288506.21949     23949.63349        50.000  
  23208942.42249 121963814.93849    -17295.30949        49.000  
  22102373.08649 116148753.82449    -12798.08249        50.000  
  24991791.00049 131332744.41849    -27226.00449        48.000  
  23872109.82849 125448786.43849     30820.72749        48.000  
  19497944.32849 102462387.43449     -2975.01649        49.000  
  19809522.63349 104099743.57049      3111.75849        49.000  
  20066421.03949 105449752.02049    -11047.85549        49.000  
 16 04 02 13 46 55.3000000  0 11G10G14G03G08G28G32G17G27G11G22G01               
  24925035.19549 130981941.08249    -25200.60549        48.000  
  22647757.07049 119014764.47349    -14700.93449        49.000  
  21582957.74249 113419207.50049     19546.66049        50.000  
  21177042.75049 111286111.44949     23946.20349        50.000  
  23209271.55549 121965544.54749    -17297.07449        49.000  
  22102616.68049 116150033.90649    -12803.41049        50.000  
  24992309.10949 131335467.04349    -27226.74649        48.000  
  23871523.34449 125445704.43849     30819.33249        48.000  
  19498000.99249 102462685.20749     -2980.41049        49.000  
  19809463.48449 104099432.71949      3105.03149        49.000  
  20066631.31249 105450857.04349    -11052.92249        49.000  
 16 04 02 13 46 55.4000000  0 11G10G14G03G08G28G32G17G27G11G22G01               
  24925514.75049 130984461.14149    -25201.27349        48.000  
  22648036.85249 119016234.76649    -14705.13749        49.000  
  21582585.80549 113417253.02749     19542.62549        50.000  
  21176587.08649 111283716.94549     23943.68449        50.000  
  23209600.71149 121967274.29749    -17298.25849        49.000  
  22102860.35949 116151314.44149    -12807.71949        50.000  
  24992827.21949 131338189.71949    -27226.99249        48.000  
  23870936.86749 125442622.52749     30818.54349        48.000  
  19498057.74249 102462983.44949     -2984.88749        49.000  
  19809404.45349 104099122.50449      3098.82849        49.000  
  20066841.68849 105451962.56249    -11057.77749        49.000  
 16 04 02 13 46 55.5000000  0 11G10G14G03G08G28G32G17G27G11G22G01               
  24925994.33649 130986981.36349    -25202.89549        48.000  
  22648316.72749 119017705.51649    -14710.01649        49.000  
  21582213.96949 113415299.01249     19537.91849        50.000  
  21176131.49249 111281322.76649     23940.31649        50.000  
  23209929.89849 121969004.21549    -17300.23049        49.000  
  22103104.14149 116152595.49649    -12813.07049        50.000  
  24993345.34449 131340912.48449    -27228.10949        48.000  
  23870350.42249 125439540.74649     30816.94949        48.000  
  19498114.59449 102463282.22349     -2990.43849        49.000  
  19809345.54749 104098812.96949      3091.79749        49.000  
  20067052.15649 105453068.58649    -11063.05149        49.000  
 16 04 02 13 46 55.6000000  0 11G10G14G03G08G28G32G17G27G11G22G01               
  24926473.96149 130989501.75849    -25204.64149        48.000  
  22648596.69549 119019176.77049    -14714.95349        49.000  
  21581842.23449 113413345.48849     19533.06249        50.000  
  21175675.96149 111278928.94149     23936.73049        50.000  
  23210259.13349 121970734.34449    -17302.21949        49.000  
  22103348.00849 116153877.08249    -12818.37949        50.000  
  24993863.49249 131343635.35249    -27229.03549        48.000  
  23869764.00049 125436459.13349     30815.53149        48.000  
  19498171.55549 102463581.54349     -2995.86749        50.000  
  19809286.78149 104098504.12949      3084.89549        49.000  
  20067262.72749 105454175.14549    -11068.28149        49.000  
 16 04 02 13 46 55.7000000  0 11G10G14G03G08G28G32G17G27G11G22G01               
  24926953.60249 130992022.27749    -25205.93449        48.000  
  22648876.75849 119020648.48049    -14719.52049        49.000  
  21581470.57849 113411392.41449     19528.48049        50.000  
  21175220.49249 111276535.41049     23933.71949        50.000  
  23210588.39849 121972464.62549    -17303.75449        49.000  
  22103591.97749 116155159.14549    -12823.19549        50.000  
  24994381.64149 131346358.28549    -27229.79349        48.000  
  23869177.60949 125433377.62949     30814.36349        48.000  
  19498228.60949 102463881.37149     -3000.96949        49.000  
  19809228.13349 104098195.94949      3078.33249        49.000  
  20067473.39849 105455282.21149    -11073.41449        49.000  
 16 04 02 13 46 55.8000000  0 11G10G14G03G08G28G32G17G27G11G22G01               
  24927433.26649 130994542.88349    -25206.84849        48.000  
  22649156.89149 119022120.60249    -14723.57449        49.000  
  21581098.98449 113409439.72749     19524.66049        50.000  
  21174765.07049 111274142.14549     23931.23449        50.000  
  23210917.67249 121974195.02049    -17304.82449        49.000  
  22103836.03949 116156441.66049    -12827.65649        50.000  
  24994899.80549 131349081.23449    -27229.84049        48.000  
  23868591.23449 125430296.19149     30813.68849        48.000  
  19498285.75849 102464181.64849     -3005.43049        49.000  
  19809169.60249 104097888.37549      3072.24649        49.000  
  20067684.15649 105456389.73449    -11077.96549        49.000  
 16 04 02 13 46 55.9000000  0 11G10G14G03G08G28G32G17G27G11G22G01               
  24927912.95349 130997063.66849    -25208.66049        48.000  
  22649437.11749 119023593.22349    -14728.71949        49.000  
  21580727.49249 113407487.53149     19519.64849        50.000  
  21174309.71949 111271749.23849     23927.57449        50.000  
  23211246.99249 121975925.62149    -17307.07449        49.000  
  22104080.20349 116157724.71949    -12833.22349        50.000  
  24995417.98449 131351804.32049    -27231.29749        48.000  
  23868004.89149 125427214.93049     30811.80149        48.000  
  19498343.00049 102464482.49249     -3011.16449        49.000  
  19809111.21149 104097581.52749      3064.97749        49.000  
  20067895.01649 105457497.80549    -11083.51249        49.000  
 16 04 02 13 46 56.0000000  0 11G10G14G03G08G28G32G17G27G11G22G01               
  24928392.68849 130999584.60949    -25210.10249        48.000  
  22649717.43849 119025066.31249    -14733.31249        49.000  
  21580356.08649 113405535.80949     19515.06649        50.000  
  21173854.42249 111269356.64849     23924.38349        50.000  
  23211576.35949 121977656.41049    -17308.75049        49.000  
  22104324.44549 116159008.27749    -12838.06649        50.000  
  24995936.18849 131354527.47749    -27232.00049        48.000  
  23867418.57049 125424133.80949     30810.51649        48.000  
  19498400.34449 102464783.85549     -3016.28549        50.000  
  19809052.94549 104097275.34449      3058.38349        49.000  
  20068105.96949 105458606.39149    -11088.54749        49.000  
 16 04 02 13 46 56.1000000  0 11G10G14G03G08G28G32G17G27G11G22G01               
  24928872.43049 131002105.68849    -25211.73449        48.000  
  22649997.85949 119026539.90249    -14738.48449        49.000  
  21579984.77349 113403584.54749     19510.20349        50.000  
  21173399.19549 111266964.38749     23920.94149        50.000  
  23211905.75049 121979387.37549    -17310.78949        49.000  
  22104568.79749 116160292.35549    -12843.41849        49.000  
  24996454.40649 131357250.71949    -27232.96149        48.000  
  23866832.27349 125421052.80549     30809.04749        48.000  
  19498457.79749 102465085.75449     -3021.79349        50.000  
  19808994.81249 104096969.84849      3051.23449        49.000  
  20068317.02349 105459715.50449    -11094.07449        49.000  
 16 04 02 13 46 56.2000000  0 11G10G14G03G08G28G32G17G27G11G22G01               
  24929352.20349 131004626.91849    -25212.88749        48.000  
  22650278.35949 119028013.93049    -14742.62549        49.000  
  21579613.55549 113401633.73449     19506.02749        50.000  
  21172944.02349 111264572.44549     23918.00049        50.000  
  23212235.18049 121981118.50049    -17312.00849        49.000  
  22104813.25049 116161576.93049    -12848.17249        50.000  
  24996972.64149 131359974.04749    -27233.60949        48.000  
  23866246.00849 125417971.94549     30808.19149        48.000  
  19498515.34449 102465388.16449     -3026.62549        49.000  
  19808936.80549 104096665.01249      3044.94949        49.000  
  20068528.18849 105460825.12149    -11098.78949        49.000  
 16 04 02 13 46 56.3000000  0 11G10G14G03G08G28G32G17G27G11G22G01               
  24929832.00049 131007148.24249    -25214.04749        48.000  
  22650558.94549 119029488.38749    -14747.03949        49.000  
  21579242.40649 113399683.33649     19501.79349        50.000  
  21172488.89149 111262180.75849     23915.23849        50.000  
  23212564.62549 121982849.75849    -17313.62949        49.000  
  22105057.78149 116162861.95349    -12852.84049        50.000  
  24997490.88349 131362697.39549    -27233.93049        48.000  
  23865659.75049 125414891.16049     30806.98049        48.000  
  19498572.97749 102465691.04749     -3031.54749        49.000  
  19808878.91449 104096360.80549      3038.45749        49.000  
  20068739.43049 105461935.20749    -11103.64549        49.000  
 16 04 02 13 46 56.4000000  0 11G10G14G03G08G28G32G17G27G11G22G01               
  24930311.84448 131009669.76648    -25216.12548        47.000  
  22650839.62549 119030963.36349    -14752.37149        49.000  
  21578871.35249 113397733.44549     19496.59049        50.000  
  21172033.83649 111259789.45349     23911.43449        50.000  
  23212894.11749 121984581.23849    -17315.91449        49.000  
  22105302.42249 116164147.53949    -12858.48849        50.000  
  24998009.14849 131365420.88749    -27235.38749        48.000  
  23865073.53149 125411810.55949     30805.17249        48.000  
  19498630.72749 102465994.50049     -3037.32449        49.000  
  19808821.16449 104096057.32449      3031.18449        49.000  
  20068950.78149 105463045.85949    -11109.32849        49.000  
 16 04 02 13 46 56.5000000  0 11G10G14G03G08G28G32G17G27G11G22G01               
  24930791.70348 131012191.44948    -25217.67648        47.000  
  22651120.39849 119032438.83649    -14757.29349        49.000  
  21578500.39149 113395784.04349     19491.78949        50.000  
  21171578.84449 111257398.48849     23908.06649        50.000  
  23213223.64149 121986312.91049    -17317.75449        49.000  
  22105547.15649 116165433.65249    -12863.70349        50.000  
  24998527.43049 131368144.47749    -27236.41049        48.000  
  23864487.34449 125408730.11749     30803.59449        48.000  
  19498688.57049 102466298.49249     -3042.65249        49.000  
  19808763.54749 104095754.53549      3024.30949        49.000  
  20069162.23449 105464157.05949    -11114.73049        49.000  
 16 04 02 13 46 56.6000000  0 11G10G14G03G08G28G32G17G27G11G22G01               
  24931271.57048 131014713.22348    -25218.53948        47.000  
  22651401.25049 119033914.72349    -14761.27349        49.000  
  21578129.51649 113393835.04749     19487.71149        50.000  
  21171123.90649 111255007.80149     23905.30549        50.000  
  23213553.19549 121988044.70749    -17318.96149        49.000  
  22105791.98449 116166720.21949    -12868.18449        50.000  
  24999045.71149 131370868.09449    -27236.62549        48.000  
  23863901.18049 125405649.75449     30802.75049        48.000  
  19498746.50849 102466602.96149     -3047.35549        49.000  
  19808706.04749 104095452.37949      3018.08649        49.000  
  20069373.77349 105465268.70349    -11119.28949        49.000  
 16 04 02 13 46 56.7000000  0 11G10G14G03G08G28G32G17G27G11G22G01               
  24931751.47749 131017235.15649    -25219.91049        48.000  
  22651682.19549 119035391.07449    -14765.77749        49.000  
  21577758.71949 113391886.49649     19483.41849        50.000  
  21170669.03949 111252617.41449     23902.55149        50.000  
  23213882.77349 121989776.67649    -17320.50849        49.000  
  22106036.89849 116168007.28149    -12872.98049        50.000  
  24999564.03149 131373591.79349    -27237.24249        48.000  
  23863315.02349 125402569.50849     30801.82449        48.000  
  19498804.54749 102466907.94149     -3052.28949        49.000  
  19808648.68049 104095150.87949      3011.60249        49.000  
  20069585.41449 105466380.86749    -11124.15649        49.000  
 16 04 02 13 46 56.8000000  0 11G10G14G03G08G28G32G17G27G11G22G01               
  24932231.40648 131019757.19548    -25221.10548        47.000  
  22651963.22749 119036867.89149    -14770.48849        49.000  
  21577388.00849 113389938.40249     19478.90649        50.000  
  21170214.21949 111250227.34449     23899.35949        50.000  
  23214212.39849 121991508.80149    -17322.07449        49.000  
  22106281.93049 116169294.84049    -12877.91849        50.000  
  25000082.35249 131376315.56649    -27238.02349        48.000  
  23862728.90649 125399489.39849     30800.56249        48.000  
  19498862.68049 102467213.43049     -3057.38749        49.000  
  19808591.43049 104094850.05149      3004.92249        49.000  
  20069797.15649 105467493.54349    -11129.25449        49.000  
 16 04 02 13 46 56.9000000  0 11G10G14G03G08G28G32G17G27G11G22G01               
  24932711.35949 131022279.35949    -25222.22749        48.000  
  22652244.33649 119038345.13749    -14774.81649        49.000  
  21577017.37549 113387990.73449     19474.48449        50.000  
  21169759.46149 111247837.56649     23896.32849        50.000  
  23214542.03949 121993241.07449    -17323.57849        49.000  
  22106527.03149 116170582.86749    -12882.64849        50.000  
  25000600.68849 131379039.37949    -27238.50049        48.000  
  23862142.79749 125396409.37949     30799.53149        48.000  
  19498920.90649 102467519.41049     -3062.34049        49.000  
  19808534.30549 104094549.85949      2998.50049        49.000  
  20070008.97749 105468606.68849    -11134.07049        49.000  
 16 04 02 13 46 57.0000000  0 11G10G14G03G08G28G32G17G27G11G22G01               
  24933191.33649 131024801.65249    -25223.47349        48.000  
  22652525.53149 119039822.83649    -14779.21949        49.000  
  21576646.82849 113386043.50049     19470.28549        50.000  
  21169304.75049 111245448.07449     23893.58249        50.000  
  23214871.71149 121994973.48849    -17324.89549        49.000  
  22106772.22749 116171871.39149    -12887.52349        50.000  
  25001119.02349 131381763.25049    -27238.94949        48.000  
  23861556.70349 125393329.47349     30798.50849        48.000  
  19498979.22749 102467825.89549     -3067.31249        49.000  
  19808477.30549 104094250.32449      2991.98049        49.000  
  20070220.89849 105469720.33649    -11138.96549        49.000  
 16 04 02 13 46 57.1000000  0 11G10G14G03G08G28G32G17G27G11G22G01               
  24933671.34449 131027324.10549    -25225.28549        48.000  
  22652806.81249 119041301.01649    -14784.32049        49.000  
  21576276.37549 113384096.75049     19465.23049        50.000  
  21168850.11749 111243058.93849     23889.83249        50.000  
  23215201.42249 121996706.11749    -17327.30949        49.000  
  22107017.52349 116173160.42649    -12892.97749        50.000  
  25001637.39149 131384487.23449    -27240.30149        48.000  
  23860970.64849 125390249.71149     30796.71949        48.000  
  19499037.65649 102468132.91449     -3072.94549        49.000  
  19808420.43049 104093951.48049      2984.78949        49.000  
  20070432.92249 105470834.52049    -11144.64849        49.000  
 16 04 02 13 46 57.2000000  0 11G10G14G03G08G28G32G17G27G11G22G01               
  24934151.40648 131029846.75448    -25227.28148        47.000  
  22653088.20349 119042779.73449    -14789.59449        49.000  
  21575906.01649 113382150.51249     19460.09049        50.000  
  21168395.55549 111240670.17249     23886.11349        50.000  
  23215531.16449 121998438.95349    -17329.34449        49.000  
  22107262.92249 116174450.02049    -12898.46549        50.000  
  25002155.77349 131387211.34449    -27241.56249        48.000  
  23860384.64149 125387170.15649     30794.94949        48.000  
  19499096.18849 102468440.51249     -3078.61349        49.000  
  19808363.70349 104093653.36349      2977.62149        49.000  
  20070645.05549 105471949.26649    -11150.29749        49.000  
 16 04 02 13 46 57.3000000  0 11G10G14G03G08G28G32G17G27G11G22G01               
  24934631.46149 131032369.49649    -25228.09849        48.000  
  22653369.68049 119044258.85949    -14793.68849        49.000  
  21575535.73449 113380204.67649     19456.21949        50.000  
  21167941.03149 111238281.66449     23883.64549        50.000  
  23215860.93849 122000171.91849    -17330.46949        49.000  
  22107508.41449 116175740.07049    -12902.99249        50.000  
  25002674.16449 131389935.48049    -27241.77049        48.000  
  23859798.63349 125384090.66449     30794.09449        48.000  
  19499154.81249 102468748.58249     -3083.25449        49.000  
  19808307.09449 104093355.86749      2971.58649        49.000  
  20070857.27349 105473064.48049    -11154.75849        49.000  
 16 04 02 13 46 57.4000000  0 11G10G14G03G08G28G32G17G27G11G22G01               
  24935111.57849 131034892.43449    -25230.09049        48.000  
  22653651.24249 119045738.48849    -14798.68449        49.000  
  21575165.54749 113378259.34449     19451.17249        50.000  
  21167486.58649 111235893.52349     23879.89849        50.000  
  23216190.75049 122001905.08649    -17332.68449        49.000  
  22107754.00049 116177030.65249    -12908.41049        50.000  
  25003192.57849 131392659.74249    -27243.01649        48.000  
  23859212.64849 125381011.33649     30792.55149        48.000  
  19499213.53949 102469057.18849     -3088.75849        49.000  
  19808250.61749 104093059.08249      2964.34449        49.000  
  20071069.59449 105474180.23449    -11160.29349        49.000  
 16 04 02 13 46 57.5000000  0 11G10G14G03G08G28G32G17G27G11G22G01               
  24935591.69549 131037415.43449    -25230.85249        48.000  
  22653932.88349 119047218.52749    -14802.88349        49.000  
  21574795.43849 113376314.40649     19447.04749        50.000  
  21167032.18849 111233505.63749     23877.30149        50.000  
  23216520.58649 122003638.37549    -17333.92649        49.000  
  22107999.67249 116178321.68449    -12912.89849        50.000  
  25003711.00049 131395384.02349    -27243.33649        48.000  
  23858626.68849 125377932.09849     30791.53949        48.000  
  19499272.35949 102469366.27749     -3093.74649        49.000  
  19808194.25849 104092762.91049      2958.10549        49.000  
  20071282.00049 105475296.45349    -11164.94949        49.000  
 16 04 02 13 46 57.6000000  0 11G10G14G03G08G28G32G17G27G11G22G01               
  24936071.83649 131039938.60949    -25232.58649        48.000  
  22654214.61749 119048699.05949    -14807.71149        49.000  
  21574425.42249 113374369.94549     19442.46949        50.000  
  21166577.85249 111231118.09049     23873.97349        50.000  
  23216850.45349 122005371.85549    -17335.73849        49.000  
  22108245.45349 116179613.24649    -12918.16849        50.000  
  25004229.43049 131398108.39549    -27244.10549        48.000  
  23858040.75049 125374852.99649     30790.19949        48.000  
  19499331.27349 102469675.90249     -3098.92649        49.000  
  19808138.03149 104092467.43849      2951.25849        49.000  
  20071494.51649 105476413.20349    -11170.17649        49.000  
 16 04 02 13 46 57.7000000  0 11G10G14G03G08G28G32G17G27G11G22G01               
  24936552.01649 131042461.97349    -25234.40649        48.000  
  22654496.45349 119050180.11349    -14813.07049        49.000  
  21574055.50849 113372426.01249     19437.03949        50.000  
  21166123.57849 111228730.92649     23870.12549        50.000  
  23217180.36749 122007105.56249    -17338.05549        49.000  
  22108491.32849 116180905.35549    -12923.66849        50.000  
  25004747.89849 131400832.91049    -27245.69149        48.000  
  23857454.85249 125371774.08649     30788.27749        48.000  
  19499390.30549 102469986.09449     -3104.68849        50.000  
  19808081.93849 104092172.69149      2943.84849        49.000  
  20071707.13349 105477530.52749    -11176.02349        49.000  
 16 04 02 13 46 57.8000000  0 11G10G14G03G08G28G32G17G27G11G22G01               
  24937032.23449 131044985.44549    -25235.28549        48.000  
  22654778.37549 119051661.59849    -14817.15249        49.000  
  21573685.67249 113370482.48849     19433.03949        50.000  
  21165669.36749 111226344.03149     23867.44549        50.000  
  23217510.31249 122008839.40649    -17339.28549        49.000  
  22108737.30549 116182197.94149    -12928.26249        50.000  
  25005266.36749 131403557.47749    -27246.02749        48.000  
  23856868.96949 125368695.27349     30787.41049        48.000  
  19499449.43049 102470296.77349     -3109.43449        49.000  
  19808025.96949 104091878.57849      2937.66449        49.000  
  20071919.84449 105478648.32049    -11180.59049        49.000  
 16 04 02 13 46 57.9000000  0 11G10G14G03G08G28G32G17G27G11G22G01               
  24937512.46149 131047509.07449    -25236.95349        48.000  
  22655060.38349 119053143.55549    -14821.91849        49.000  
  21573315.92249 113368539.43849     19428.35949        50.000  
  21165215.21949 111223957.47749     23864.09449        50.000  
  23217840.28949 122010573.42649    -17341.10249        49.000  
  22108983.37549 116183491.02749    -12933.42649        50.000  
  25005784.85249 131406282.11749    -27246.95749        48.000  
  23856283.11749 125365616.59449     30785.97349        48.000  
  19499508.64849 102470607.98449     -3114.65649        49.000  
  19807970.12549 104091585.14149      2930.86749        49.000  
  20072132.64849 105479766.63749    -11185.80149        49.000  
 16 04 02 13 46 58.0000000  0 11G10G14G03G08G28G32G17G27G11G22G01               
  24937992.73449 131050032.81649    -25238.03149        48.000  
  22655342.47749 119054625.96149    -14826.37549        49.000  
  21572946.25849 113366596.81249     19424.08249        50.000  
  21164761.12549 111221571.20749     23861.22749        50.000  
  23218170.28149 122012307.59849    -17342.53549        49.000  
  22109229.53149 116184784.60549    -12938.26649        50.000  
  25006303.34449 131409006.81249    -27247.31249        48.000  
  23855697.26649 125362538.02349     30785.16049        48.000  
  19499567.96149 102470919.68849     -3119.53949        49.000  
  19807914.41449 104091292.35549      2924.41449        49.000  
  20072345.55549 105480885.44949    -11190.75449        49.000  
 16 04 02 13 46 58.1000000  0 11G10G14G03G08G28G32G17G27G11G22G01               
  24938473.00849 131052556.67249    -25239.23449        48.000  
  22655624.64849 119056108.78549    -14830.75849        49.000  
  21572576.66449 113364654.61349     19419.72349        50.000  
  21164307.08649 111219185.22349     23858.32849        50.000  
  23218500.31249 122014041.89849    -17343.98049        49.000  
  22109475.77349 116186078.62949    -12942.78549        50.000  
  25006821.85249 131411731.55949    -27247.82049        48.000  
  23855111.45349 125359459.53949     30784.02049        48.000  
  19499627.36749 102471231.86749     -3124.52349        50.000  
  19807858.82049 104091000.20749      2917.94949        49.000  
  20072558.54749 105482004.73849    -11195.70749        49.000  
 16 04 02 13 46 58.2000000  0 11G10G14G03G08G28G32G17G27G11G22G01               
  24938953.34449 131055080.73049    -25241.26249        48.000  
  22655906.93049 119057592.16049    -14836.03149        49.000  
  21572207.18049 113362712.94549     19414.43049        50.000  
  21163853.12549 111216799.62949     23854.49649        50.000  
  23218830.38349 122015776.44549    -17346.38749        49.000  
  22109722.13349 116187373.23449    -12948.45749        50.000  
  25007340.38349 131414456.44949    -27249.25449        48.000  
  23854525.67249 125356381.27349     30781.98049        48.000  
  19499686.89149 102471544.64149     -3130.37549        50.000  
  19807803.36749 104090708.80549      2910.49249        49.000  
  20072771.64849 105483124.59449    -11201.24649        49.000  
 16 04 02 13 46 58.3000000  0 11G10G14G03G08G28G32G17G27G11G22G01               
  24939433.68849 131057604.96149    -25242.98049        48.000  
  22656189.29749 119059076.01649    -14841.01649        49.000  
  21571837.78149 113360771.75049     19409.76249        50.000  
  21163399.21949 111214414.37149     23851.04349        50.000  
  23219160.49249 122017511.16849    -17348.26249        49.000  
  22109968.58649 116188668.36749    -12953.87149        50.000  
  25007858.93049 131417181.43449    -27250.21149        48.000  
  23853939.92249 125353303.14149     30780.52049        48.000  
  19499746.50849 102471857.95349     -3135.77049        50.000  
  19807748.04749 104090418.09049      2903.60249        49.000  
  20072984.85249 105484244.98849    -11206.70349        49.000  
 16 04 02 13 46 58.4000000  0 11G10G14G03G08G28G32G17G27G11G22G01               
  24939914.05549 131060129.27749    -25243.91449        48.000  
  22656471.74249 119060560.28949    -14845.16049        49.000  
  21571468.45349 113358830.96949     19405.60249        50.000  
  21162945.36749 111212029.39549     23848.26249        50.000  
  23219490.62549 122019246.03549    -17349.56249        49.000  
  22110215.12549 116189963.94949    -12958.30149        50.000  
  25008377.48449 131419906.45749    -27250.64549        48.000  
  23853354.18849 125350225.10249     30779.65249        48.000  
  19499806.21949 102472171.73449     -3140.44949        50.000  
  19807692.84449 104090127.98849      2897.53949        49.000  
  20073198.14849 105485365.85549    -11211.30149        49.000  
 16 04 02 13 46 58.5000000  0 11G10G14G03G08G28G32G17G27G11G22G01               
  24940394.44549 131062653.74649    -25245.18049        48.000  
  22656754.28149 119062045.04749    -14849.80549        49.000  
  21571099.21949 113356890.65649     19401.07849        50.000  
  21162491.57849 111209644.72749     23845.27049        50.000  
  23219820.78949 122020981.08249    -17351.22749        49.000  
  22110461.76649 116191260.04349    -12963.33649        50.000  
  25008896.05549 131422631.57049    -27251.39149        48.000  
  23852768.48449 125347147.20349     30778.51649        48.000  
  19499866.03949 102472486.05549     -3145.61749        49.000  
  19807637.77349 104089838.58649      2890.77349        49.000  
  20073411.53949 105486487.24649    -11216.48449        49.000  
 16 04 02 13 46 58.6000000  0 11G10G14G03G08G28G32G17G27G11G22G01               
  24940874.86749 131065178.34049    -25246.68849        48.000  
  22657036.90649 119063530.25049    -14854.44549        49.000  
  21570730.07849 113354950.78149     19396.56649        50.000  
  21162037.85249 111207260.38349     23842.00449        50.000  
  23220150.99249 122022716.27049    -17352.86749        49.000  
  22110708.49249 116192556.62549    -12968.29349        50.000  
  25009414.63349 131425356.73849    -27252.11349        48.000  
  23852182.78949 125344069.41049     30777.05149        48.000  
  19499925.93849 102472800.85949     -3150.82449        49.000  
  19807582.82849 104089549.83649      2884.11749        49.000  
  20073625.03149 105487609.12949    -11221.53149        49.000  
 16 04 02 13 46 58.7000000  0 11G10G14G03G08G28G32G17G27G11G22G01               
  24941355.32049 131067703.12949    -25248.44949        48.000  
  22657319.63349 119065015.96949    -14859.63349        49.000  
  21570361.03149 113353011.42249     19391.41049        50.000  
  21161584.18849 111204876.39149     23838.46949        50.000  
  23220481.23449 122024451.68449    -17355.07849        49.000  
  22110955.32849 116193853.75449    -12973.81249        50.000  
  25009933.24249 131428082.04749    -27253.47349        48.000  
  23851597.14149 125340991.81249     30775.29349        48.000  
  19499985.95349 102473116.24649     -3156.50449        49.000  
  19807528.00849 104089261.80149      2876.82049        49.000  
  20073838.62549 105488731.55949    -11227.06649        49.000  
 16 04 02 13 46 58.8000000  0 11G10G14G03G08G28G32G17G27G11G22G01               
  24941835.80549 131070228.07449    -25250.12549        48.000  
  22657602.44549 119066502.17249    -14864.46549        49.000  
  21569992.07849 113351072.52749     19386.67649        50.000  
  21161130.59449 111202492.75049     23834.88749        50.000  
  23220811.50849 122026187.28949    -17356.92649        49.000  
  22111202.27349 116195151.39849    -12978.96549        50.000  
  25010451.86749 131430807.42649    -27254.16049        48.000  
  23851011.51649 125337914.34449     30773.83649        48.000  
  19500046.07049 102473432.16049     -3161.79749        49.000  
  19807473.32849 104088974.46149      2869.87149        49.000  
  20074052.32049 105489854.55149    -11232.64849        49.000  
 16 04 02 13 46 58.9000000  0 11G10G14G03G08G28G32G17G27G11G22G01               
  24942316.30549 131072753.12549    -25251.44549        48.000  
  22657885.34449 119067988.80949    -14868.98449        49.000  
  21569623.20349 113349134.07049     19382.18449        50.000  
  21160677.05549 111200109.38349     23831.98849        50.000  
  23221141.81249 122027923.02749    -17358.57049        49.000  
  22111449.29749 116196449.52049    -12983.94149        50.000  
  25010970.50849 131433532.87549    -27254.98049        48.000  
  23850425.91449 125334836.98449     30772.70749        48.000  
  19500106.28149 102473748.56649     -3166.87949        50.000  
  19807418.77349 104088687.76249      2863.26249        49.000  
  20074266.10949 105490977.99649    -11237.49649        49.000  
 16 04 02 13 46 59.0000000  0 11G10G14G03G08G28G32G17G27G11G22G01               
  24942796.85249 131075278.38749    -25253.34849        48.000  
  22658168.34449 119069475.97349    -14874.12949        49.000  
  21569254.42249 113347196.11749     19377.34049        50.000  
  21160223.59449 111197726.40249     23828.26249        50.000  
  23221472.16449 122029659.00849    -17360.71149        49.000  
  22111696.43049 116197748.20349    -12989.36749        50.000  
  25011489.17249 131436258.44949    -27256.10249        48.000  
  23849840.35249 125331759.80949     30771.00049        48.000  
  19500166.60249 102474065.55149     -3172.55949        50.000  
  19807364.35249 104088401.78949      2856.16449        49.000  
  20074480.00049 105492102.02749    -11243.14849        49.000  
 16 04 02 13 46 59.1000000  0 11G10G14G03G08G28G32G17G27G11G22G01               
  24943277.42249 131077803.77049    -25254.78949        48.000  
  22658451.42249 119070963.57449    -14878.71949        49.000  
  21568885.72749 113345258.62149     19372.52349        50.000  
  21159770.18849 111195343.71149     23825.26649        50.000  
  23221802.53949 122031395.11749    -17362.39849        49.000  
  22111943.65649 116199047.35949    -12994.27749        50.000  
  25012007.84449 131438984.09449    -27257.03149        48.000  
  23849254.80549 125328682.75049     30769.57049        48.000  
  19500227.01649 102474383.02749     -3177.66449        50.000  
  19807310.06249 104088116.45749      2849.49249        49.000  
  20074693.99249 105493226.54349    -11248.16849        49.000  
 16 04 02 13 46 59.2000000  0 11G10G14G03G08G28G32G17G27G11G22G01               
  24943758.02348 131080329.32048    -25256.38348        47.000  
  22658734.60249 119072451.69949    -14883.65249        49.000  
  21568517.11749 113343321.60549     19367.93449        50.000  
  21159316.84449 111192961.38749     23821.72749        50.000  
  23222132.96149 122033131.45749    -17364.33649        49.000  
  22112190.98449 116200347.06249    -12999.55549        50.000  
  25012526.53149 131441709.84849    -27257.97749        48.000  
  23848669.28149 125325605.85549     30768.20349        48.000  
  19500287.53949 102474701.07849     -3183.07049        50.000  
  19807255.90649 104087831.85949      2842.48049        49.000  
  20074908.08649 105494351.60949    -11253.39549        49.000  
 16 04 02 13 46 59.3000000  0 11G10G14G03G08G28G32G17G27G11G22G01               
  24944238.63348 131082854.91848    -25256.56648        47.000  
  22659017.85249 119073940.18049    -14887.19149        49.000  
  21568148.58649 113341384.96549     19364.28949        50.000  
  21158863.55549 111190579.28149     23819.64149        50.000  
  23222463.38349 122034867.85249    -17364.75849        49.000  
  22112438.39149 116201647.16849    -13003.46549        50.000  
  25013045.23449 131444435.60249    -27257.88349        48.000  
  23848083.77349 125322528.99249     30768.08649        48.000  
  19500348.14149 102475019.53549     -3187.19549        49.000  
  19807201.85249 104087547.82049      2836.99649        49.000  
  20075122.25849 105495477.09049    -11257.50049        49.000  
 16 04 02 13 46 59.4000000  0 11G10G14G03G08G28G32G17G27G11G22G01               
  24944719.27349 131085380.68449    -25258.20749        48.000  
  22659301.19549 119075429.15249    -14891.89549        49.000  
  21567780.13349 113339448.79749     19359.69949        50.000  
  21158410.32049 111188197.52049     23816.38749        50.000  
  23222793.85949 122036604.45749    -17366.76249        49.000  
  22112685.87549 116202947.80149    -13008.66449        50.000  
  25013563.94549 131447161.43849    -27258.65249        48.000  
  23847498.28949 125319452.29749     30766.48049        48.000  
  19500408.85249 102475338.53149     -3192.41849        49.000  
  19807147.93049 104087264.48849      2829.97349        49.000  
  20075336.53149 105496603.10949    -11262.76249        49.000  
 16 04 02 13 46 59.5000000  0 11G10G14G03G08G28G32G17G27G11G22G01               
  24945199.94549 131087906.62149    -25260.04349        48.000  
  22659584.63349 119076918.62149    -14897.19549        49.000  
  21567411.78949 113337513.12549     19354.47749        50.000  
  21157957.14849 111185816.10949     23812.64549        50.000  
  23223124.35949 122038341.25449    -17368.94149        49.000  
  22112933.48449 116204248.96149    -13014.17249        50.000  
  25014082.68049 131449887.36749    -27259.73449        48.000  
  23846912.84449 125316375.75849     30764.48849        48.000  
  19500469.66449 102475658.09449     -3198.39849        50.000  
  19807094.14149 104086981.84049      2822.81649        49.000  
  20075550.91449 105497729.67649    -11268.48449        49.000  
 16 04 02 13 46 59.6000000  0 11G10G14G03G08G28G32G17G27G11G22G01               
  24945680.66449 131090432.72349    -25261.79749        48.000  
  22659868.15649 119078408.57449    -14901.96549        49.000  
  21567043.53949 113335577.92249     19349.77349        50.000  
  21157504.04749 111183435.01249     23809.48049        50.000  
  23223454.89849 122040078.24249    -17370.78549        49.000  
  22113181.18049 116205550.64149    -13019.32849        50.000  
  25014601.43049 131452613.42649    -27260.98449        48.000  
  23846327.42249 125313299.36349     30763.25449        48.000  
  19500530.57049 102475978.18449     -3203.72349        49.000  
  19807040.49249 104086699.91049      2815.85549        49.000  
  20075765.38349 105498856.76649    -11273.62949        49.000  
 16 04 02 13 46 59.7000000  0 11G10G14G03G08G28G32G17G27G11G22G01               
  24946161.39149 131092958.95349    -25263.19149        48.000  
  22660151.77349 119079898.99649    -14906.70349        49.000  
  21566675.36749 113333643.18049     19345.16449        50.000  
  21157051.00049 111181054.27349     23805.91049        50.000  
  23223785.46949 122041815.40649    -17372.65249        49.000  
  22113428.97749 116206852.82449    -13024.45349        50.000  
  25015120.18849 131455339.54749    -27261.65649        48.000  
  23845742.02349 125310223.10249     30761.64149        48.000  
  19500591.57849 102476298.78149     -3208.82449        50.000  
  19806986.96149 104086418.62149      2809.19549        49.000  
  20075979.96149 105499984.36349    -11278.81249        49.000  
 16 04 02 13 46 59.8000000  0 11G10G14G03G08G28G32G17G27G11G22G01               
  24946642.14849 131095485.35949    -25264.80149        48.000  
  22660435.48449 119081389.90249    -14911.48849        49.000  
  21566307.28949 113331708.91849     19340.35549        50.000  
  21156598.01649 111178673.84449     23802.81249        50.000  
  23224116.08649 122043552.75049    -17374.39149        49.000  
  22113676.88349 116208155.52749    -13029.57049        50.000  
  25015638.97749 131458065.76649    -27262.60549        48.000  
  23845156.65649 125307146.98849     30760.46149        48.000  
  19500652.68849 102476619.92249     -3214.18449        50.000  
  19806933.57049 104086138.05949      2802.24649        49.000  
  20076194.63349 105501112.50849    -11284.18449        49.000  
 16 04 02 13 46 59.9000000  0 11G10G14G03G08G28G32G17G27G11G22G01               
  24947122.93049 131098011.89149    -25266.20349        48.000  
  22660719.28949 119082881.27749    -14916.32049        50.000  
  21565939.29749 113329775.11749     19335.69949        50.000  
  21156145.09449 111176293.75849     23799.31249        50.000  
  23224446.72749 122045290.27349    -17376.20349        49.000  
  22113924.87549 116209458.73049    -13034.72349        50.000  
  25016157.76649 131460792.07449    -27263.66449        48.000  
  23844571.31249 125304071.00849     30758.90249        49.000  
  19500713.89849 102476941.58649     -3219.34049        50.000  
  19806880.30549 104085858.12949      2795.59449        49.000  
  20076409.41449 105502241.15249    -11289.28949        49.000  
 16 04 02 13 47  0.0000000  0 11G10G14G03G08G28G32G17G27G11G22G01               
  24947603.76649 131100538.60949    -25267.99649        48.000  
  22661003.18049 119084373.15649    -14921.33649        50.000  
  21565571.40649 113327841.81249     19330.75449        50.000  
  21155692.24249 111173914.02049     23795.68049        50.000  
  23224777.40649 122047028.00449    -17378.32449        49.000  
  22114172.97749 116210762.47749    -13040.12549        50.000  
  25016676.58649 131463518.47349    -27264.66449        48.000  
  23843985.99249 125300995.19149     30757.25849        48.000  
  19500775.21149 102477263.80949     -3224.92249        50.000  
  19806827.17249 104085578.93449      2788.34849        49.000  
  20076624.28149 105503370.35549    -11294.86349        49.000  
 16 04 02 13 47  0.1000000  0 11G10G14G03G08G28G32G17G27G11G22G01               
  24948084.60249 131103065.39849    -25268.63349        48.000  
  22661287.15649 119085865.42649    -14925.16049        50.000  
  21565203.57849 113325908.89549     19326.96549        50.000  
  21155239.43849 111171534.51249     23793.51649        50.000  
  23225108.10249 122048765.83249    -17379.25049        49.000  
  22114421.14849 116212066.64549    -13044.28549        50.000  
  25017195.43049 131466244.89849    -27264.65649        48.000  
  23843400.69549 125297919.44549     30756.58649        48.000  
  19500836.61749 102477586.47349     -3229.41049        50.000  
  19806774.16449 104085300.34049      2782.46549        49.000  
  20076839.24249 105504499.99649    -11299.30949        49.000  
 16 04 02 13 47  0.2000000  0 11G10G14G03G08G28G32G17G27G11G22G01               
  24948565.47749 131105592.39549    -25270.64849        48.000  
  22661571.22749 119087358.22749    -14930.37149        50.000  
  21564835.85949 113323976.50049     19321.87549        50.000  
  21154786.71149 111169155.41049     23789.76249        50.000  
  23225438.84449 122050503.89849    -17381.46549        49.000  
  22114669.43849 116213371.38749    -13049.74249        50.000  
  25017714.27349 131468971.46149    -27265.87549        48.000  
  23842815.43849 125294843.88749     30755.02049        48.000  
  19500898.12549 102477909.72349     -3235.03149        50.000  
  19806721.28949 104085022.48049      2775.17249        49.000  
  20077054.32049 105505630.20749    -11304.66849        49.000  
 16 04 02 13 47  0.3000000  0 11G10G14G03G08G28G32G17G27G11G22G01               
  24949046.35949 131108119.48849    -25271.66849        48.000  
  22661855.37549 119088851.46149    -14934.77749        49.000  
  21564468.21949 113322044.53949     19317.34449        50.000  
  21154334.03949 111166776.59449     23786.58649        50.000  
  23225769.60949 122052242.09449    -17382.91849        49.000  
  22114917.80549 116214676.59449    -13054.66849        50.000  
  25018233.14149 131471698.07849    -27266.65249        48.000  
  23842230.19549 125291768.43849     30753.87949        48.000  
  19500959.72749 102478233.45749     -3239.85949        50.000  
  19806668.53149 104084745.25049      2768.65249        49.000  
  20077269.47749 105506760.89149    -11309.61349        49.000  
 16 04 02 13 47  0.4000000  0 11G10G14G03G08G28G32G17G27G11G22G01               
  24949527.28949 131110646.69949    -25272.73449        48.000  
  22662139.60949 119090345.11749    -14938.89849        49.000  
  21564100.64849 113320112.98449     19313.39149        50.000  
  21153881.42249 111164398.04749     23783.96949        50.000  
  23226100.41449 122053980.42249    -17384.10949        49.000  
  22115166.27349 116215982.25849    -13059.02749        50.000  
  25018752.00049 131474424.72749    -27266.81649        48.000  
  23841644.96149 125288693.06649     30753.08649        48.000  
  19501021.43049 102478557.68049     -3244.77749        50.000  
  19806615.89849 104084468.65649      2762.60949        49.000  
  20077484.73449 105507892.06249    -11314.30549        49.000  
 16 04 02 13 47  0.5000000  0 11G10G14G03G08G28G32G17G27G11G22G01               
  24950008.24249 131113174.10949    -25274.75849        48.000  
  22662423.95349 119091839.32049    -14944.35549        49.000  
  21563733.19549 113318181.97349     19307.95349        50.000  
  21153428.87549 111162019.89549     23780.07849        50.000  
  23226431.25049 122055719.00049    -17386.57849        49.000  
  22115414.84449 116217288.50849    -13064.92649        50.000  
  25019270.88349 131477151.51649    -27268.23449        48.000  
  23841059.78149 125285617.91049     30750.94149        48.000  
  19501083.23449 102478882.48049     -3250.61749        49.000  
  19806563.41449 104084192.81649      2755.10949        49.000  
  20077700.10249 105509023.82049    -11320.30949        49.000  
 16 04 02 13 47  0.6000000  0 11G10G14G03G08G28G32G17G27G11G22G01               
  24950489.20349 131115701.61349    -25275.70349        48.000  
  22662708.36749 119093333.94149    -14948.59849        49.000  
  21563365.81249 113316251.36349     19303.86349        50.000  
  21152976.38349 111159642.02049     23777.28949        50.000  
  23226762.12549 122057457.69949    -17387.85549        49.000  
  22115663.50049 116218595.19549    -13069.37549        50.000  
  25019789.78149 131479878.34449    -27268.50849        48.000  
  23840474.59449 125282542.83249     30750.11349        48.000  
  19501145.13349 102479207.76249     -3255.35249        50.000  
  19806511.03949 104083917.59449      2748.62549        49.000  
  20077915.55549 105510156.03549    -11324.80549        49.000  
 16 04 02 13 47  0.7000000  0 11G10G14G03G08G28G32G17G27G11G22G01               
  24950970.19549 131118229.23449    -25276.80549        48.000  
  22662992.86749 119094828.99649    -14952.96549        50.000  
  21562998.50849 113314321.19149     19299.55549        50.000  
  21152523.94549 111157264.43049     23774.40649        50.000  
  23227093.01649 122059196.53549    -17389.31249        49.000  
  22115912.25049 116219902.36749    -13074.15649        50.000  
  25020308.70349 131482605.23449    -27269.29349        48.000  
  23839889.44549 125279467.85249     30748.97749        48.000  
  19501207.12549 102479533.52749     -3260.39149        49.000  
  19806458.78949 104083643.01649      2742.14849        49.000  
  20078131.10249 105511288.73449    -11329.65649        49.000  
