     2.10           OBSERVATION DATA    G (GPS)             RINEX VERSION / TYPE
Convert v1.8.0                          07-Jun-2016 18:41   PGM / RUN BY / DATE 
Signal Strength values S1,S2 are in dBHz                    COMMENT             
                                                            MARKER NAME         
                                                            MARKER NUMBER       
                                                            OBSERVER / AGENCY   
                    NovAtel GPSCard                         REC # / TYPE / VERS 
                                                            ANT # / TYPE        
0.0000        0.0000        0.0000                          APPROX POSITION XYZ 
        0.0000        0.0000        0.0000                  ANTENNA: DELTA H/E/N
     1     1                                                WAVELENGTH FACT L1/2
     1     1     6   G01   G08   G11   G18   G21   G24      WAVELENGTH FACT L1/2
                                                            COMMENT             
                                                            COMMENT             
                                                            COMMENT             
                                                            COMMENT             
                                                            COMMENT             
                                                            COMMENT             
     8    C1    L1    D1    S1    P2    L2    D2    S2      # / TYPES OF OBSERV 
     0.100                                                  INTERVAL            
  2016    04    02    12    00    36.6000000    GPS         TIME OF FIRST OBS   
  2016    04    02    12    04    27.9000000    GPS         TIME OF LAST OBS    
Leap Seconds Unknown                                        COMMENT             
                                                            END OF HEADER       
 16 04 02 12 00 36.6000000  0  2G01G18                                          
  22044466.67249 115844453.94549      4028.27049        48.000  

  20438412.82049 107404583.39549     10429.81649        50.000  

 16 04 02 12 00 36.7000000  0  2G01G18                                          
  22044390.03949 115844051.21149      4026.46549        48.000  

  20438214.39849 107403540.65249     10424.66049        50.000  

 16 04 02 12 00 36.8000000  0  2G01G18                                          
  22044313.43049 115843648.66049      4024.98049        48.000  

  20438016.07049 107402498.41049     10420.12949        50.000  

 16 04 02 12 00 36.9000000  0  3G01G24G18                                       
  22044236.84449 115843246.17649      4023.96549        48.000  

  22539128.91449 118443921.66459     -1459.24649        48.000  

  20437817.81249 107401456.55949     10415.73849        50.000  

 16 04 02 12 00 37.0000000  0  4G01G24G18G11                                    
  22044160.28949 115842843.98849      4021.05549        48.000  

  22539156.73449 118444067.85249     -1463.37949        48.000  

  20437619.67249 107400415.34449     10409.53149        50.000  

  20303596.07849 106696116.50459      3584.56249        50.000  

 16 04 02 12 00 37.1000000  0  4G01G24G18G11                                    
  22044083.79749 115842441.98449      4019.18049        48.000  

  22539184.63349 118444214.34449     -1466.52749        48.000  

  20437421.63349 107399374.61749     10404.59449        50.000  

  20303527.89149 106695758.18849      3581.68849        50.000  

 16 04 02 12 00 37.2000000  0  4G01G24G18G11                                    
  22044007.32849 115842040.14549      4017.51649        48.000  

  22539212.56249 118444361.13749     -1469.46949        48.000  

  20437223.68049 107398334.38749     10399.68449        50.000  

  20303459.75049 106695400.12949      3579.09449        50.000  

 16 04 02 12 00 37.3000000  0  4G01G24G18G11                                    
  22043930.87549 115841638.37949      4016.83249        48.000  

  22539240.54749 118444508.12549     -1471.43049        48.000  

  20437025.80549 107397294.55549     10395.68049        50.000  

  20303391.65649 106695042.25849      3577.33649        50.000  

 16 04 02 12 00 37.4000000  0  4G01G24G18G11                                    
  22043854.46149 115841236.78149      4015.43049        48.000  

  22539268.57849 118444655.41049     -1474.13349        48.000  

  20436828.03949 107396255.20749     10391.09449        50.000  

  20303323.61749 106694684.64849      3574.89849        50.000  

 16 04 02 12 00 37.5000000  0  4G01G24G18G11                                    
  22043778.07849 115840835.37149      4013.36749        48.000  

  22539296.67249 118444803.01649     -1477.57049        48.000  

  20436630.35249 107395216.37149     10385.76649        50.000  

  20303255.61749 106694327.33649      3571.73849        50.000  

 16 04 02 12 00 37.6000000  0  4G01G24G18G11                                    
  22043701.72749 115840434.16449      4011.14549        48.000  

  22539324.82849 118444950.94149     -1480.87549        48.000  

  20436432.77349 107394178.06649     10380.38349        50.000  

  20303187.68849 106693970.33249      3568.61349        50.000  

 16 04 02 12 00 37.7000000  0  4G01G24G18G11                                    
  22043625.39849 115840033.07449      4009.99249        48.000  

  22539353.02349 118445099.12149     -1483.30949        48.000  

  20436235.27349 107393140.21949     10375.80549        50.000  

  20303119.78949 106693613.54749      3566.35949        50.000  

 16 04 02 12 00 37.8000000  0  4G01G24G18G11                                    
  22043549.09449 115839632.17249      4008.15649        48.000  

  22539381.28149 118445247.61349     -1486.43849        48.000  

  20436037.88349 107392102.86349     10370.72749        50.000  

  20303051.97749 106693257.04749      3563.55949        50.000  

 16 04 02 12 00 37.9000000  0  4G01G24G18G11                                    
  22043472.83649 115839231.46149      4006.37149        48.000  

  22539409.60949 118445396.42249     -1489.50849        48.000  

  20435840.57849 107391066.02749     10365.72349        50.000  

  20302984.18849 106692900.84449      3560.63349        50.000  

 16 04 02 12 00 38.0000000  0  4G01G24G18G11                                    
  22043396.62549 115838830.94949      4004.18449        48.000  

  22539437.99249 118445545.56649     -1493.02749        48.000  

  20435643.38349 107390029.71149     10360.48449        50.000  

  20302916.49249 106692544.94949      3557.45749        50.000  

 16 04 02 12 00 38.1000000  0  4G01G24G18G11                                    
  22043320.42249 115838430.52749      4003.48049        48.000  

  22539466.40649 118445694.92249     -1494.99649        48.000  

  20435446.25049 107388993.80549     10356.60249        50.000  

  20302848.79749 106692189.23849      3555.78949        50.000  

 16 04 02 12 00 38.2000000  0  4G01G24G18G11                                    
  22043244.25049 115838030.32049      4001.16049        48.000  

  22539494.89149 118445844.61749     -1498.57849        48.000  

  20435249.22749 107387958.44949     10350.76249        50.000  

  20302781.18049 106691833.85249      3552.30149        50.000  

 16 04 02 12 00 38.3000000  0  4G01G24G18G11                                    
  22043168.12549 115837630.26649      3999.75449        48.000  

  22539523.45349 118445994.59849     -1501.25849        48.000  

  20435052.29749 107386923.55949     10346.32049        50.000  

  20302713.60249 106691478.71549      3549.89549        50.000  

 16 04 02 12 00 38.4000000  0  4G01G24G18G11                                    
  22043092.02349 115837230.33649      3998.61749        48.000  

  22539552.03949 118446144.82849     -1503.69549        48.000  

  20434855.46149 107385889.12949     10341.69949        50.000  

  20302646.06249 106691123.81249      3547.68049        50.000  

 16 04 02 12 00 38.5000000  0  4G01G24G18G11                                    
  22043015.95349 115836830.57449      3996.89149        48.000  

  22539580.68049 118446295.36349     -1506.87949        48.000  

  20434658.71149 107384855.18449     10336.86749        50.000  

  20302578.57849 106690769.17249      3545.05949        50.000  

 16 04 02 12 00 38.6000000  0  4G01G24G18G11                                    
  22042939.93049 115836431.06649      3994.19549        48.000  

  22539609.39849 118446446.25849     -1510.61749        48.000  

  20434462.06249 107383821.80549     10331.09849        50.000  

  20302511.15649 106690414.89549      3541.25449        50.000  

 16 04 02 12 00 38.7000000  0  4G01G24G18G11                                    
  22042863.92249 115836031.66849      3993.12949        48.000  

  22539638.15649 118446597.40649     -1513.05149        48.000  

  20434265.50849 107382788.88749     10326.48049        50.000  

  20302443.78149 106690060.83649      3539.01249        50.000  

 16 04 02 12 00 38.8000000  0  4G01G24G18G11                                    
  22042787.94549 115835632.42249      3991.56649        48.000  

  22539666.96949 118446748.84049     -1515.83649        48.000  

  20434069.03149 107381756.42649     10321.85949        50.000  

  20302376.45349 106689707.02049      3536.55949        50.000  

 16 04 02 12 00 38.9000000  0  4G01G24G18G11                                    
  22042712.01649 115835233.38349      3989.77749        48.000  

  22539695.85949 118446900.59449     -1518.80949        48.000  

  20433872.66449 107380724.49249     10316.78549        50.000  

  20302309.18049 106689353.52049      3533.69549        50.000  

 16 04 02 12 00 39.0000000  0  4G01G24G18G11                                    
  22042636.08649 115834834.41849      3988.91849        48.000  

  22539724.77349 118447052.55949     -1521.02049        48.000  

  20433676.37549 107379692.96949     10312.64149        50.000  

  20302241.94549 106689000.19149      3531.88349        50.000  

 16 04 02 12 00 39.1000000  0  4G01G24G18G11                                    
  22042560.20349 115834435.66049      3987.00049        48.000  

  22539753.75849 118447204.85549     -1524.42649        48.000  

  20433480.18849 107378661.96549     10307.50849        50.000  

  20302174.77349 106688647.17249      3528.87149        50.000  

 16 04 02 12 00 39.2000000  0  4G01G24G18G11                                    
  22042484.35949 115834037.10249      3984.62949        48.000  

  22539782.79749 118447357.47349     -1527.87549        48.000  

  20433284.08649 107377631.48849     10301.96949        50.000  

  20302107.63349 106688294.46949      3525.52349        50.000  

 16 04 02 12 00 39.3000000  0  4G01G24G18G11                                    
  22042408.55549 115833638.76649      3982.51649        48.000  

  22539811.92249 118447510.45749     -1531.27349        48.000  

  20433088.10249 107376601.57049     10296.57849        50.000  

  20302040.57849 106687942.09049      3522.32049        50.000  

 16 04 02 12 00 39.4000000  0  4G01G24G18G11                                    
  22042332.78949 115833240.56649      3981.03549        48.000  

  22539841.07849 118447663.68449     -1533.88749        48.000  

  20432892.19549 107375572.07849     10292.22349        50.000  

  20301973.58649 106687589.93049      3519.97349        50.000  

 16 04 02 12 00 39.5000000  0  4G01G24G18G11                                    
  22042257.04749 115832842.53549      3979.55149        48.000  

  22539870.28949 118447817.21549     -1536.81249        48.000  

  20432696.39149 107374543.12149     10286.85949        50.000  

  20301906.62549 106687238.06249      3517.16849        50.000  

 16 04 02 12 00 39.6000000  0  4G01G24G18G11                                    
  22042181.34449 115832444.69149      3977.82049        48.000  

  22539899.57049 118447971.07449     -1539.87949        48.000  

  20432500.67249 107373514.65249     10282.08649        50.000  

  20301839.74249 106686886.48049      3514.50449        50.000  

 16 04 02 12 00 39.7000000  0  4G01G24G18G11                                    
  22042105.67249 115832047.04349      3975.73849        48.000  

  22539928.91449 118448125.23849     -1543.03549        48.000  

  20432305.06249 107372486.69549     10277.05149        50.000  

  20301772.89149 106686535.18449      3511.60949        50.000  

 16 04 02 12 00 39.8000000  0  4G01G24G18G11                                    
  22042030.01649 115831649.48449      3974.71149        48.000  

  22539958.28949 118448279.62549     -1545.34449        48.000  

  20432109.52349 107371459.18049     10272.57049        50.000  

  20301706.09449 106686184.09849      3509.30949        50.000  

 16 04 02 12 00 39.9000000  0  4G01G24G18G11                                    
  22041954.40649 115831252.15249      3972.36749        48.000  

  22539987.72749 118448434.37149     -1549.00449        48.000  

  20431914.09449 107370432.18449     10267.20749        50.000  

  20301639.34449 106685833.32449      3506.23049        50.000  

 16 04 02 12 00 40.0000000  0  4G01G24G18G11                                    
  22041878.82049 115830854.96549      3971.08649        48.000  

  22540017.22749 118448589.37949     -1551.52049        48.000  

  20431718.75849 107369405.67649     10262.44949        50.000  

  20301572.64149 106685482.80949      3503.65249        50.000  

 16 04 02 12 00 40.1000000  0  4G01G24G18G11                                    
  22041803.25849 115830457.90249      3969.94149        48.000  

  22540046.77349 118448744.65649     -1553.99249        48.000  

  20431523.50849 107368379.62149     10258.05549        50.000  

  20301505.98449 106685132.53149      3501.58249        50.000  

 16 04 02 12 00 40.2000000  0  4G01G24G18G11                                    
  22041727.74249 115830060.97749      3968.62949        48.000  

  22540076.36749 118448900.17249     -1556.38349        48.000  

  20431328.33649 107367354.01249     10253.55149        50.000  

  20301439.37549 106684782.46949      3499.30149        50.000  

 16 04 02 12 00 40.3000000  0  4G01G24G18G11                                    
  22041652.25049 115829664.23849      3966.69549        48.000  

  22540106.04749 118449056.03549     -1559.91049        48.000  

  20431133.26649 107366328.92249     10248.27749        50.000  

  20301372.82049 106684432.71949      3496.23449        50.000  

 16 04 02 12 00 40.4000000  0  4G01G24G18G11                                    
  22041576.79749 115829267.71149      3964.27749        48.000  

  22540135.76649 118449212.20749     -1563.29349        48.000  

  20430938.29749 107365304.35549     10242.88349        50.000  

  20301306.31249 106684083.26249      3492.96149        50.000  

 16 04 02 12 00 40.5000000  0  4G01G24G18G11                                    
  22041501.36749 115828871.32049      3962.95349        48.000  

  22540165.53949 118449368.65649     -1566.14149        48.000  

  20430743.41449 107364280.26249     10238.16849        50.000  

  20301239.85949 106683734.06649      3490.37549        50.000  

 16 04 02 12 00 40.6000000  0  4G01G24G18G11                                    
  22041425.99249 115828475.14849      3960.82049        48.000  

  22540195.37549 118449525.46149     -1569.50849        48.000  

  20430548.64149 107363256.72349     10232.65249        50.000  

  20301173.47749 106683385.18049      3487.29749        50.000  

 16 04 02 12 00 40.7000000  0  4G01G24G18G11                                    
  22041350.64149 115828079.17249      3958.91449        48.000  

  22540225.28149 118449682.57849     -1572.74249        48.000  

  20430353.96149 107362233.68049     10227.67649        50.000  

  20301107.14149 106683036.59849      3484.34049        50.000  

 16 04 02 12 00 40.8000000  0  4G01G24G18G11                                    
  22041275.31249 115827683.35549      3957.29749        48.000  

  22540255.23449 118449839.98449     -1575.60549        48.000  

  20430159.37549 107361211.12549     10222.81649        50.000  

  20301040.85249 106682688.27049      3481.69949        50.000  

 16 04 02 12 00 40.9000000  0  4G01G24G18G11                                    
  22041200.02349 115827287.68049      3956.00449        48.000  

  22540285.23449 118449997.65249     -1578.25849        48.000  

  20429964.87549 107360189.03149     10218.24649        50.000  

  20300974.60949 106682340.18449      3479.40249        50.000  

 16 04 02 12 00 41.0000000  0  4G01G24G18G11                                    
  22041124.75049 115826892.11749      3955.10549        48.000  

  22540315.28149 118450155.57849     -1580.42249        48.000  

  20429770.46149 107359167.39149     10214.04749        50.000  

  20300908.43849 106681992.33249      3477.45349        50.000  

 16 04 02 12 00 41.1000000  0  4G01G24G18G11                                    
  22041049.50849 115826496.72349      3953.04349        48.000  

  22540345.36749 118450313.77349     -1583.58649        48.000  

  20429576.14149 107358146.23049     10208.77349        50.000  

  20300842.28949 106681644.73849      3474.28149        50.000  

 16 04 02 12 00 41.2000000  0  4G01G24G18G11                                    
  22040974.32849 115826101.57849      3950.55549        48.000  

  22540375.54749 118450472.36349     -1587.53549        48.000  

  20429381.93049 107357125.64849     10203.09049        50.000  

  20300776.19549 106681297.49649      3470.84049        50.000  

 16 04 02 12 00 41.3000000  0  4G01G24G18G11                                    
  22040899.16449 115825706.60249      3948.89849        48.000  

  22540405.78949 118450631.24649     -1590.37949        48.000  

  20429187.81249 107356105.55149     10198.30149        50.000  

  20300710.17249 106680950.52749      3468.28949        50.000  

 16 04 02 12 00 41.4000000  0  4G01G24G18G11                                    
  22040824.02349 115825311.71549      3948.01649        48.000  

  22540436.06249 118450790.33649     -1592.49649        48.000  

  20428993.76649 107355085.87949     10194.12149        50.000  

  20300644.17249 106680603.75449      3466.27349        50.000  

 16 04 02 12 00 41.5000000  0  4G01G24G18G11                                    
  22040748.91449 115824917.04749      3945.98049        48.000  

  22540466.39149 118450949.79349     -1595.88349        48.000  

  20428799.82849 107354066.74249     10188.86349        50.000  

  20300578.24249 106680257.29349      3463.22349        50.000  

 16 04 02 12 00 41.6000000  0  4G01G24G18G11                                    
  22040673.84449 115824522.55549      3944.05549        48.000  

  22540496.78949 118451109.53949     -1599.05149        48.000  

  20428605.98449 107353048.09849     10183.68449        50.000  

  20300512.35249 106679911.11749      3460.30149        50.000  

 16 04 02 12 00 41.7000000  0  4G01G24G18G11                                    
  22040598.79749 115824128.15649      3943.08249        48.000  

  22540527.23449 118451269.50049     -1601.19149        48.000  

  20428412.22749 107352029.88749     10179.38349        50.000  

  20300446.51649 106679565.13749      3458.22749        50.000  

 16 04 02 12 00 41.8000000  0  4G01G24G18G11                                    
  22040523.77349 115823733.94949      3941.28149        48.000  

  22540557.74249 118451429.79349     -1604.39549        48.000  

  20428218.56249 107351012.18049     10174.48849        50.000  

  20300380.74249 106679219.44949      3455.53149        50.000  

 16 04 02 12 00 41.9000000  0  4G01G24G18G11                                    
  22040448.79749 115823339.94949      3939.07049        48.000  

  22540588.31249 118451590.41849     -1607.91049        48.000  

  20428025.00849 107349995.01249     10168.90249        50.000  

  20300315.02349 106678874.08249      3452.14549        50.000  

 16 04 02 12 00 42.0000000  0  4G01G24G18G11                                    
  22040373.85949 115822946.11749      3937.43849        48.000  

  22540618.93049 118451751.32449     -1610.68849        48.000  

  20427831.52349 107348978.33249     10164.14549        50.000  

  20300249.35949 106678528.97349      3449.61349        50.000  

 16 04 02 12 00 42.1000000  0  4G01G24G18G11                                    
  22040298.93049 115822552.37949      3936.44149        48.000  

  22540649.60949 118451912.46549     -1612.98849        48.000  

  20427638.14149 107347962.07049     10159.84849        50.000  

  20300183.72749 106678184.07049      3447.41449        50.000  

 16 04 02 12 00 42.2000000  0  4G01G24G18G11                                    
  22040224.05549 115822158.87149      3934.46549        48.000  

  22540680.34449 118452073.96549     -1616.37549        48.000  

  20427444.85949 107346946.37149     10154.49649        50.000  

  20300118.15649 106677839.50049      3444.41849        50.000  

 16 04 02 12 00 42.3000000  0  4G01G24G18G11                                    
  22040149.19549 115821765.47749      3933.33249        48.000  

  22540711.10249 118452235.69949     -1618.72349        48.000  

  20427251.66449 107345931.10549     10150.09849        50.000  

  20300052.63349 106677495.14549      3442.22349        50.000  

 16 04 02 12 00 42.4000000  0  4G01G24G18G11                                    
  22040074.37549 115821372.27049      3931.21149        48.000  

  22540741.93849 118452397.74649     -1621.89549        48.000  

  20427058.55549 107344916.33649     10144.93049        50.000  

  20299987.16449 106677151.06649      3439.21949        50.000  

 16 04 02 12 00 42.5000000  0  4G01G24G18G11                                    
  22039999.58649 115820979.25049      3929.44949        48.000  

  22540772.83649 118452560.11749     -1625.16049        48.000  

  20426865.54749 107343902.09049     10139.82849        50.000  

  20299921.74249 106676807.28549      3436.43849        50.000  

 16 04 02 12 00 42.6000000  0  4G01G24G18G11                                    
  22039924.82849 115820586.38349      3927.85949        48.000  

  22540803.78949 118452722.76249     -1627.98849        48.000  

  20426672.63349 107342888.31649     10134.99249        50.000  

  20299856.36749 106676463.76649      3433.80149        50.000  

 16 04 02 12 00 42.7000000  0  4G01G24G18G11                                    
  22039850.10249 115820193.67249      3926.48849        48.000  

  22540834.78949 118452885.69549     -1630.63349        48.000  

  20426479.81249 107341875.02049     10130.56249        50.000  

  20299791.04749 106676120.50849      3431.42249        50.000  

 16 04 02 12 00 42.8000000  0  4G01G24G18G11                                    
  22039775.39849 115819801.10949      3924.80149        48.000  

  22540865.85249 118453048.89849     -1633.59449        48.000  

  20426287.08649 107340862.20749     10125.51249        50.000  

  20299725.77349 106675777.48849      3428.73049        50.000  

 16 04 02 12 00 42.9000000  0  4G01G24G18G11                                    
  22039700.73449 115819408.74249      3922.80949        48.000  

  22540896.96149 118453212.41849     -1636.78549        48.000  

  20426094.45349 107339849.91049     10120.28549        50.000  

  20299660.56249 106675434.78149      3425.63349        50.000  

 16 04 02 12 00 43.0000000  0  4G01G24G18G11                                    
  22039626.10249 115819016.53549      3921.18849        48.000  

  22540928.13349 118453376.23849     -1639.67649        48.000  

  20425901.91449 107338838.09849     10115.45349        50.000  

  20299595.36749 106675092.32849      3423.08249        50.000  

 16 04 02 12 00 43.1000000  0  4G01G24G18G11                                    
  22039551.50049 115818624.51249      3919.36349        48.000  

  22540959.37549 118453540.36349     -1642.80949        48.000  

  20425709.46949 107337826.79349     10110.41849        50.000  

  20299530.25849 106674750.16849      3420.14149        50.000  

 16 04 02 12 00 43.2000000  0  4G01G24G18G11                                    
  22039476.93049 115818232.61349      3918.32449        48.000  

  22540990.64849 118453704.73449     -1645.14549        48.000  

  20425517.10249 107336815.93049     10106.05549        50.000  

  20299465.18849 106674408.23049      3417.98449        50.000  

 16 04 02 12 00 43.3000000  0  4G01G24G18G11                                    
  22039402.39149 115817840.91049      3916.29749        48.000  

  22541021.99249 118453869.44949     -1648.50849        48.000  

  20425324.84449 107335805.59849     10100.74649        50.000  

  20299400.18049 106674066.59849      3414.91449        50.000  

 16 04 02 12 00 43.4000000  0  4G01G24G18G11                                    
  22039327.89149 115817449.37949      3914.44549        48.000  

  22541053.39149 118454034.44149     -1651.63749        48.000  

  20425132.67249 107334795.75049     10095.73849        50.000  

  20299335.20349 106673725.22749      3412.18049        50.000  

 16 04 02 12 00 43.5000000  0  4G01G24G18G11                                    
  22039253.42249 115817058.02349      3912.64149        48.000  

  22541084.86749 118454199.73849     -1654.61349        48.000  

  20424940.60249 107333786.40649     10090.64149        50.000  

  20299270.29749 106673384.14549      3409.25849        50.000  

 16 04 02 12 00 43.6000000  0  4G01G24G18G11                                    
  22039178.99249 115816666.88749      3910.42249        48.000  

  22541116.38349 118454365.37549     -1658.06249        48.000  

  20424748.63349 107332777.60549     10085.15649        50.000  

  20299205.46149 106673043.37949      3406.04749        50.000  

 16 04 02 12 00 43.7000000  0  4G01G24G18G11                                    
  22039104.58649 115816275.86349      3909.52049        48.000  

  22541147.95349 118454531.27349     -1660.24249        48.000  

  20424556.75049 107331769.24649     10080.97349        50.000  

  20299140.65649 106672702.83249      3404.07849        50.000  

 16 04 02 12 00 43.8000000  0  4G01G24G18G11                                    
  22039030.20349 115815885.01249      3907.65249        48.000  

  22541179.57849 118454697.44949     -1663.28549        48.000  

  20424364.95349 107330761.36749     10076.01249        50.000  

  20299075.89849 106672362.55149      3401.30949        50.000  

 16 04 02 12 00 43.9000000  0  4G01G24G18G11                                    
  22038955.86749 115815494.39149      3905.41049        48.000  

  22541211.26649 118454863.99649     -1666.88349        48.000  

  20424173.26649 107329754.05949     10070.48849        50.000  

  20299011.21149 106672022.61349      3397.98449        50.000  

 16 04 02 12 00 44.0000000  0  4G01G24G18G11                                    
  22038881.56249 115815103.90249      3903.87549        48.000  

  22541243.00849 118455030.80149     -1669.60549        48.000  

  20423981.67249 107328747.20749     10065.68049        50.000  

  20298946.57049 106671682.90649      3395.48849        50.000  

 16 04 02 12 00 44.1000000  0  4G01G24G18G11                                    
  22038807.28949 115814713.60949      3902.05149        48.000  

  22541274.80549 118455197.93449     -1672.84449        48.000  

  20423790.17249 107327740.86749     10060.77749        50.000  

  20298881.98449 106671343.50449      3392.68849        50.000  

 16 04 02 12 00 44.2000000  0  4G01G24G18G11                                    
  22038733.04749 115814323.44149      3900.78949        48.000  

  22541306.65649 118455365.31249     -1675.46549        48.000  

  20423598.76649 107326734.98449     10056.04349        50.000  

  20298817.44549 106671004.33249      3390.22349        50.000  

 16 04 02 12 00 44.3000000  0  4G01G24G18G11                                    
  22038658.83649 115813933.45749      3899.14849        48.000  

  22541338.57049 118455532.99649     -1678.19149        48.000  

  20423407.44549 107325729.60249     10051.26649        50.000  

  20298752.95349 106670665.42649      3387.68049        50.000  

 16 04 02 12 00 44.4000000  0  4G01G24G18G11                                    
  22038584.64849 115813543.63349      3897.46549        48.000  

  22541370.53949 118455700.97349     -1681.32849        48.000  

  20423216.21949 107324724.71149     10046.28149        50.000  

  20298688.51649 106670326.80949      3384.80949        50.000  

 16 04 02 12 00 44.5000000  0  4G01G24G18G11                                    
  22038510.50049 115813153.98049      3895.77749        48.000  

  22541402.55549 118455869.24649     -1684.17649        48.000  

  20423025.08649 107323720.29749     10041.59049        50.000  

  20298624.12549 106669988.44549      3382.26649        50.000  

 16 04 02 12 00 44.6000000  0  4G01G24G18G11                                    
  22038436.38349 115812764.48449      3893.98449        48.000  

  22541434.63349 118456037.80949     -1687.21549        48.000  

  20422834.04749 107322716.39149     10036.40649        50.000  

  20298559.78949 106669650.35549      3379.44149        50.000  

 16 04 02 12 00 44.7000000  0  4G01G24G18G11                                    
  22038362.29749 115812375.15649      3892.32449        48.000  

  22541466.76649 118456206.66049     -1690.27349        48.000  

  20422643.10249 107321712.96549     10031.38349        50.000  

  20298495.50849 106669312.53149      3376.58649        50.000  

 16 04 02 12 00 44.8000000  0  4G01G24G18G11                                    
  22038288.23449 115811985.94149      3891.43849        48.000  

  22541498.94549 118456375.75849     -1692.34449        48.000  

  20422452.24249 107320709.97349     10027.34849        50.000  

  20298431.25849 106668974.93049      3374.68849        50.000  

 16 04 02 12 00 44.9000000  0  4G01G24G18G11                                    
  22038214.21949 115811596.97749      3888.67649        48.000  

  22541531.18849 118456545.22349     -1696.35249        48.000  

  20422261.48449 107319707.55149     10021.46949        50.000  

  20298367.07849 106668637.67249      3370.96949        50.000  

 16 04 02 12 00 45.0000000  0  4G01G24G18G11                                    
  22038140.23449 115811208.20349      3886.82449        48.000  

  22541563.49249 118456715.00449     -1699.39149        48.000  

  20422070.83649 107318705.64849     10016.43049        50.000  

  20298302.94549 106668300.69549      3368.24649        50.000  

 16 04 02 12 00 45.1000000  0  4G01G24G18G11                                    
  22038066.28149 115810819.55949      3885.43449        48.000  

  22541595.84449 118456885.04749     -1702.09449        48.000  

  20421880.26649 107317704.20749     10011.64549        50.000  

  20298238.86749 106667963.97349      3365.67249        50.000  

 16 04 02 12 00 45.2000000  0  4G01G24G18G11                                    
  22037992.36749 115810431.10549      3883.66049        48.000  

  22541628.25849 118457055.41849     -1705.19549        48.000  

  20421689.80549 107316703.28149     10006.58649        50.000  

  20298174.83649 106667627.54349      3362.84049        50.000  

 16 04 02 12 00 45.3000000  0  4G01G24G18G11                                    
  22037918.47749 115810042.81249      3882.19949        48.000  

  22541660.73449 118457226.06249     -1707.94949        48.000  

  20421499.42249 107315702.82449     10001.81649        50.000  

  20298110.86749 106667291.36349      3360.27049        50.000  

 16 04 02 12 00 45.4000000  0  4G01G24G18G11                                    
  22037844.61749 115809654.69949      3880.40649        48.000  

  22541693.26649 118457397.02049     -1711.02049        48.000  

  20421309.14149 107314702.89149      9996.75049        50.000  

  20298046.94549 106666955.48049      3357.43849        50.000  

 16 04 02 12 00 45.5000000  0  4G01G24G18G11                                    
  22037770.80549 115809266.80149      3877.94149        48.000  

  22541725.86749 118457568.31249     -1714.59049        48.000  

  20421118.96149 107313703.46949      9991.20749        50.000  

  20297983.08649 106666619.89549      3354.08649        50.000  

 16 04 02 12 00 45.6000000  0  4G01G24G18G11                                    
  22037697.01649 115808879.02349      3877.05949        48.000  

  22541758.51649 118457739.86749     -1716.85249        48.000  

  20420928.86749 107312704.52049      9987.00049        50.000  

  20297919.28149 106666284.55949      3352.08249        50.000  

 16 04 02 12 00 45.7000000  0  4G01G24G18G11                                    
  22037623.25049 115808491.40649      3875.47349        48.000  

  22541791.21149 118457911.70349     -1719.86749        48.000  

  20420738.85949 107311706.03949      9982.27749        50.000  

  20297855.51649 106665949.46949      3349.48049        50.000  

 16 04 02 12 00 45.8000000  0  4G01G24G18G11                                    
  22037549.52349 115808103.93849      3873.84449        48.000  

  22541823.96149 118458083.80549     -1722.55549        48.000  

  20420548.95349 107310708.02749      9977.54349        50.000  

  20297791.78949 106665614.62949      3346.96949        50.000  

 16 04 02 12 00 45.9000000  0  4G01G24G18G11                                    
  22037475.82049 115807716.60549      3872.50049        48.000  

  22541856.75849 118458256.18049     -1725.27049        48.000  

  20420359.12549 107309710.50049      9972.73449        50.000  

  20297728.11749 106665280.04349      3344.44949        50.000  

 16 04 02 12 00 46.0000000  0  4G01G24G18G11                                    
  22037402.14849 115807329.45749      3870.84849        48.000  

  22541889.61749 118458428.85949     -1728.09849        48.000  

  20420169.39149 107308713.46949      9967.83649        50.000  

  20297664.49249 106664945.72349      3341.86749        50.000  

 16 04 02 12 00 46.1000000  0  4G01G24G18G11                                    
  22037328.51649 115806942.49649      3868.55149        48.000  

  22541922.53149 118458601.84449     -1731.53149        48.000  

  20419979.75849 107307716.94149      9962.36749        50.000  

  20297600.93049 106664611.70349      3338.53949        50.000  

 16 04 02 12 00 46.2000000  0  4G01G24G18G11                                    
  22037254.92249 115806555.73449      3866.80949        48.000  

  22541955.51649 118458775.18049     -1734.83249        48.000  

  20419790.22749 107306720.94149      9957.26649        50.000  

  20297537.43049 106664277.98849      3335.68049        50.000  

 16 04 02 12 00 46.3000000  0  4G01G24G18G11                                    
  22037181.35249 115806169.12149      3865.33249        48.000  

  22541988.55549 118458948.78149     -1737.53149        48.000  

  20419600.78949 107305725.43449      9952.55149        50.000  

  20297473.97749 106663944.53149      3333.24249        50.000  

 16 04 02 12 00 46.4000000  0  4G01G24G18G11                                    
  22037107.81249 115805782.65649      3863.79349        48.000  

  22542021.64149 118459122.65649     -1740.45349        48.000  

  20419411.43049 107304730.36349      9947.78949        50.000  

  20297410.56249 106663611.30949      3330.64549        50.000  

 16 04 02 12 00 46.5000000  0  4G01G24G18G11                                    
  22037034.30549 115805396.37149      3862.17649        48.000  

  22542054.78149 118459296.82449     -1743.13749        48.000  

  20419222.17249 107303735.81249      9942.96549        50.000  

  20297347.21149 106663278.37949      3328.00449        50.000  

 16 04 02 12 00 46.6000000  0  4G01G24G18G11                                    
  22036960.82849 115805010.24249      3860.38749        48.000  

  22542087.97749 118459471.28149     -1746.04349        48.000  

  20419033.00049 107302741.73049      9938.00849        50.000  

  20297283.91449 106662945.69149      3325.27349        50.000  

 16 04 02 12 00 46.7000000  0  4G01G24G18G11                                    
  22036887.38349 115804624.30149      3858.47749        48.000  

  22542121.24249 118459646.07849     -1749.47349        48.000  

  20418843.93049 107301748.19549      9932.73049        50.000  

  20297220.66449 106662613.32449      3322.21949        50.000  

 16 04 02 12 00 46.8000000  0  4G01G24G18G11                                    
  22036813.96149 115804238.49249      3857.30149        48.000  

  22542154.54749 118459821.09849     -1751.68449        48.000  

  20418654.94549 107300755.08249      9928.38749        50.000  

  20297157.44549 106662281.16849      3320.05549        50.000  

 16 04 02 12 00 46.9000000  0  4G01G24G18G11                                    
  22036740.59449 115803852.92249      3855.03549        48.000  

  22542187.92249 118459996.49649     -1755.36749        48.000  

  20418466.07849 107299762.54749      9922.86349        50.000  

  20297094.30549 106661949.36349      3316.70349        50.000  

 16 04 02 12 00 47.0000000  0  4G01G24G18G11                                    
  22036667.24249 115803467.49649      3853.43849        48.000  

  22542221.35249 118460172.18049     -1758.22349        48.000  

  20418277.29749 107298770.47349      9918.10249        50.000  

  20297031.21949 106661617.80549      3314.15649        50.000  

 16 04 02 12 00 47.1000000  0  4G01G24G18G11                                    
  22036593.93049 115803082.22749      3851.80149        48.000  

  22542254.83649 118460348.11749     -1760.98449        48.000  

  20418088.60249 107297778.87949      9913.22749        50.000  

  20296968.17249 106661286.50049      3311.50049        50.000  

 16 04 02 12 00 47.2000000  0  4G01G24G18G11                                    
  22036520.64849 115802697.12949      3850.26249        48.000  

  22542288.37549 118460524.38349     -1763.98849        48.000  

  20417900.00849 107296787.79749      9908.31249        50.000  

  20296905.17249 106660955.47749      3308.91049        50.000  

 16 04 02 12 00 47.3000000  0  4G01G24G18G11                                    
  22036447.39149 115802312.14549      3849.12149        48.000  

  22542321.96149 118460700.87949     -1766.32449        48.000  

  20417711.49249 107295797.14149      9903.91049        50.000  

  20296842.22749 106660624.66849      3306.69949        50.000  

 16 04 02 12 00 47.4000000  0  4G01G24G18G11                                    
  22036374.16449 115801927.34849      3847.26249        48.000  

  22542355.60249 118460877.67649     -1769.35949        48.000  

  20417523.08649 107294806.98049      9899.03949        50.000  

  20296779.32849 106660294.13749      3303.97749        50.000  

 16 04 02 12 00 47.5000000  0  4G01G24G18G11                                    
  22036300.97749 115801542.74649      3845.15249        48.000  

  22542389.31249 118461054.80949     -1772.77749        48.000  

  20417334.76649 107293817.36349      9893.53149        50.000  

  20296716.49249 106659963.92649      3300.68449        50.000    20296714.68841
  83111652.42651      2571.96141        20.000  
 16 04 02 12 00 47.6000000  0  4G01G24G18G11                                    
  22036227.82049 115801158.31249      3843.51249        48.000  

  22542423.07849 118461232.24649     -1775.93849        48.000  

  20417146.54749 107292828.23449      9888.57449        50.000  

  20296653.71149 106659633.97349      3297.99649        50.000    20296651.89841
  83111395.32041      2569.86741        20.000  
 16 04 02 12 00 47.7000000  0  4G01G24G18G11                                    
  22036154.69549 115800774.03149      3842.01649        48.000  

  22542456.89849 118461409.94149     -1778.57449        48.000  

  20416958.41449 107291839.57849      9883.91849        50.000  

  20296590.96949 106659304.27749      3295.49249        50.000    20296593.06241
  83111138.41841      2567.91441        20.000  
 16 04 02 12 00 47.8000000  0  4G01G24G18G11                                    
  22036081.59449 115800389.87149      3840.78949        48.000  

  22542490.76649 118461587.89549     -1781.12949        48.000  

  20416770.35249 107290851.35949      9879.39149        50.000  

  20296528.25849 106658974.79749      3293.25449        50.000    20296530.36741
  83110881.68441      2566.17241        20.000  
 16 04 02 12 00 47.9000000  0  4G01G24G18G11                                    
  22036008.53949 115800005.96549      3838.19549        48.000  

  22542524.70349 118461766.21949     -1784.71549        48.000  

  20416582.41449 107289863.73449      9873.62949        50.000  

  20296465.63349 106658645.68849      3289.64149        50.000    20296463.84441
  83110625.24641      2563.35541        20.000  
 16 04 02 12 00 48.0000000  0  4G01G24G18G11                                    
  22035935.52349 115799622.18849      3836.87549        48.000  

  22542558.68849 118461944.81649     -1787.45749        48.000  

  20416394.55549 107288876.55949      9869.08249        50.000  

  20296403.05549 106658316.80149      3287.38349        50.000    20296401.25841
  83110368.98041      2561.59841        20.000  
 16 04 02 12 00 48.1000000  0  4G01G24G18G11                                    
  22035862.51649 115799238.53149      3835.87149        48.000  

  22542592.71949 118462123.64149     -1789.57849        48.000  

  20416206.78149 107287889.80549      9865.01649        50.000  

  20296340.50849 106657988.12949      3285.46949        50.000    20296334.81241
  83110112.88341      2560.10541        20.000  
 16 04 02 12 00 48.2000000  0  4G01G24G18G11                                    
  22035789.53949 115798855.05149      3834.04349        48.000  

  22542626.80549 118462302.78549     -1792.78949        48.000  

  20416019.11749 107286903.59049      9859.70749        50.000  

  20296278.01649 106657659.76249      3282.39849        50.000    20296272.32841
  83109857.02341      2557.71141        20.000  
 16 04 02 12 00 48.3000000  0  4G01G24G18G11                                    
  22035716.60249 115798471.76249      3832.06249        48.000  

  22542660.96149 118462482.23849     -1796.00049        48.000  

  20415831.53949 107285917.86749      9854.52349        50.000  

  20296215.57849 106657331.66849      3279.51249        50.000  

 16 04 02 12 00 48.4000000  0  4G01G24G18G11                                    
  22035643.69549 115798088.63349      3830.13749        48.000  

  22542695.16449 118462661.97749     -1799.23049        48.000  

  20415644.06249 107284932.62549      9849.42649        50.000  

  20296153.20349 106657003.84449      3276.60249        50.000  

 16 04 02 12 00 48.5000000  0  4G01G24G18G11                                    
  22035570.81249 115797705.65249      3828.98449        48.000  

  22542729.43049 118462841.99649     -1801.62149        48.000  

  20415456.67249 107283947.87149      9845.00849        50.000  

  20296090.86749 106656676.27049      3274.31649        50.000  

 16 04 02 12 00 48.6000000  0  4G01G24G18G11                                    
  22035497.95349 115797322.81649      3827.50049        48.000  

  22542763.73449 118463022.27349     -1804.30149        48.000  

  20415269.36749 107282963.57049      9840.25849        50.000  

  20296028.57849 106656348.93849      3271.81649        50.000  

 16 04 02 12 00 48.7000000  0  4G01G24G18G11                                    
  22035425.14149 115796940.18049      3825.56649        48.000  

  22542798.10249 118463202.89149     -1807.58249        48.000  

  20415082.15649 107281979.80149      9835.21149        50.000  

  20295966.35249 106656021.91449      3268.84849        50.000  

 16 04 02 12 00 48.8000000  0  4G01G24G18G11                                    
  22035352.35949 115796557.73049      3823.50049        48.000  

  22542832.53949 118463383.82449     -1810.96149        48.000  

  20414895.05549 107280996.54749      9829.82049        50.000  

  20295904.17249 106655695.18049      3265.77749        50.000  

 16 04 02 12 00 48.9000000  0  4G01G24G18G11                                    
  22035279.61749 115796175.43849      3822.22749        48.000  

  22542867.02349 118463565.03549     -1813.57049        48.000  

  20414708.03949 107280013.77749      9825.13749        50.000  

  20295842.04749 106655368.70749      3263.40649        50.000  

 16 04 02 12 00 49.0000000  0  4G01G24G18G11                                    
  22035206.89149 115795793.28549      3820.62149        48.000  

  22542901.56249 118463746.52749     -1816.31249        48.000  

  20414521.10949 107279031.46949      9820.42249        50.000  

  20295779.94549 106655042.48449      3260.78549        50.000  

 16 04 02 12 00 49.1000000  0  4G01G24G18G11                                    
  22035134.21149 115795411.37149      3818.21149        48.000  

  22542936.15649 118463928.35249     -1819.93449        48.000  

  20414334.28949 107278049.71149      9814.72749        50.000  

  20295717.93049 106654716.57449      3257.35949        50.000  

 16 04 02 12 00 49.2000000  0  4G01G24G18G11                                    
  22035061.55549 115795029.58649      3816.90249        48.000  

  22542970.81249 118464110.44549     -1822.40649        48.000  

  20414147.53949 107277068.40649      9810.40649        50.000  

  20295655.96949 106654390.91849      3255.12949        50.000  

 16 04 02 12 00 49.3000000  0  4G01G24G18G11                                    
  22034988.93849 115794647.96149      3815.53149        48.000  

  22543005.51649 118464292.84449     -1825.48849        48.000  

  20413960.89849 107276087.60249      9805.42649        50.000  

  20295594.04749 106654065.52349      3252.49649        50.000  

 16 04 02 12 00 49.4000000  0  4G01G24G18G11                                    
  22034916.35249 115794266.52349      3813.55149        48.000  

  22543040.28149 118464475.52749     -1828.42249        48.000  

  20413774.35249 107275107.30149      9800.30149        50.000  

  20295532.18849 106653740.41049      3249.59049        50.000  

 16 04 02 12 00 49.5000000  0  4G01G24G18G11                                    
  22034843.79749 115793885.25049      3811.86349        48.000  

  22543075.10249 118464658.52049     -1831.38349        48.000  

  20413587.89849 107274127.48049      9795.46149        50.000  

  20295470.36749 106653415.55949      3247.03949        50.000  

 16 04 02 12 00 49.6000000  0  4G01G24G18G11                                    
  22034771.27349 115793504.12549      3810.51649        48.000  

  22543109.98449 118464841.79749     -1834.30949        48.000  

  20413401.53149 107273148.14849      9790.71949        50.000  

  20295408.60249 106653090.97749      3244.50449        50.000  

 16 04 02 12 00 49.7000000  0  4G01G24G18G11                                    
  22034698.77349 115793123.12949      3809.42249        48.000  

  22543144.92249 118465025.30949     -1836.42649        48.000  

  20413215.25849 107272169.26249      9786.49649        50.000  

  20295346.87549 106652766.62949      3242.29349        50.000  

 16 04 02 12 00 49.8000000  0  4G01G24G18G11                                    
  22034626.29749 115792742.30149      3807.48049        48.000  

  22543179.89849 118465209.11349     -1839.53949        48.000  

  20413029.07049 107271190.86749      9781.21549        50.000  

  20295285.21149 106652442.53149      3239.48849        50.000  

 16 04 02 12 00 49.9000000  0  4G01G24G18G11                                    
  22034553.87549 115792361.72749      3804.85249        48.000  

  22543214.94549 118465393.31249     -1843.55949        48.000  

  20412843.00049 107270213.04749      9775.47349        50.000  

  20295223.60249 106652118.80149      3235.77049        50.000  

 16 04 02 12 00 50.0000000  0  4G01G24G18G11                                    
  22034481.47749 115791981.24249      3804.01249        48.000  

  22543250.03149 118465577.71949     -1845.70749        48.000  

  20412657.00049 107269235.64849      9771.40649        50.000  

  20295162.03149 106651795.26249      3233.88349        50.000  

 16 04 02 12 00 50.1000000  0  4G01G24G18G11                                    
  22034409.10249 115791600.92649      3802.29349        48.000  

  22543285.18049 118465762.42649     -1848.60249        48.000  

  20412471.10249 107268258.73049      9766.42249        50.000  

  20295100.50849 106651471.98049      3231.22749        50.000  

 16 04 02 12 00 50.2000000  0  4G01G24G18G11                                    
  22034336.76649 115791220.81249      3800.43849        48.000  

  22543320.39149 118465947.45749     -1851.62949        48.000  

  20412285.30549 107267282.35549      9761.21949        50.000  

  20295039.05549 106651149.02349      3228.33649        50.000  

 16 04 02 12 00 50.3000000  0  4G01G24G18G11                                    
  22034264.46149 115790840.86349      3798.40649        48.000  

  22543355.65649 118466132.77749     -1854.98849        48.000  

  20412099.59449 107266306.45349      9756.01249        50.000  

  20294977.64849 106650826.32849      3225.18849        50.000  

 16 04 02 12 00 50.4000000  0  4G01G24G18G11                                    
  22034192.18849 115790461.04749      3797.39149        48.000  

  22543390.96949 118466318.37549     -1857.44549        48.000  

  20411913.98449 107265331.03149      9751.66849        50.000  

  20294916.28949 106650503.87549      3223.14549        50.000  

 16 04 02 12 00 50.5000000  0  4G01G24G18G11                                    
  22034119.94549 115790081.43449      3795.24649        48.000  

  22543426.34449 118466504.27049     -1860.60249        48.000  

  20411728.46949 107264356.11749      9746.30149        50.000  

  20294854.98449 106650181.71549      3220.04349        50.000  

 16 04 02 12 00 50.6000000  0  4G01G24G18G11                                    
  22034047.74249 115789701.98049      3793.79749        48.000  

  22543461.78149 118466690.46949     -1863.41849        48.000  

  20411543.04749 107263381.68449      9741.76649        50.000  

  20294793.71149 106649859.81249      3217.68449        50.000  

 16 04 02 12 00 50.7000000  0  4G01G24G18G11                                    
  22033975.57049 115789322.72749      3791.65649        48.000  

  22543497.27349 118466876.98449     -1866.62149        48.000  

  20411357.71149 107262407.77049      9736.61749        50.000  

  20294732.51649 106649538.22349      3214.53149        50.000  

 16 04 02 12 00 50.8000000  0  4G01G24G18G11                                    
  22033903.43049 115788943.60249      3790.35549        48.000  

  22543532.82049 118467063.78549     -1869.44149        48.000  

  20411172.48449 107261434.34049      9731.68449        50.000  

  20294671.35949 106649216.87549      3212.00449        50.000  

 16 04 02 12 00 50.9000000  0  4G01G24G18G11                                    
  22033831.31249 115788564.63749      3788.91049        48.000  

  22543568.41449 118467250.84049     -1872.06249        48.000  

  20410987.32849 107260461.37149      9727.06249        50.000  

  20294610.25849 106648895.76649      3209.62149        50.000  

 16 04 02 12 00 51.0000000  0  4G01G24G18G11                                    
  22033759.22749 115788185.87149      3786.79749        48.000  

  22543604.07049 118467438.23049     -1875.39549        48.000  

  20410802.28149 107259488.93449      9721.77749        50.000  

  20294549.21149 106648574.98049      3206.53949        50.000  

 16 04 02 12 00 51.1000000  0  4G01G24G18G11                                    
  22033687.18049 115787807.24249      3785.20749        48.000  

  22543639.78949 118467625.88749     -1878.30549        48.000  

  20410617.32049 107258516.95349      9716.93849        50.000  

  20294488.21149 106648254.41849      3203.91849        50.000  

 16 04 02 12 00 51.2000000  0  4G01G24G18G11                                    
  22033615.17249 115787428.85949      3782.97749        48.000  

  22543675.56249 118467813.91049     -1881.71549        48.000  

  20410432.46149 107257545.54749      9711.46149        50.000  

  20294427.27349 106647934.21549      3200.55149        50.000  

 16 04 02 12 00 51.3000000  0  4G01G24G18G11                                    
  22033543.20349 115787050.66849      3780.90649        48.000  

  22543711.40649 118468002.25849     -1885.13749        48.000  

  20410247.71149 107256574.64849      9706.23849        50.000  

  20294366.39849 106647614.30149      3197.46549        50.000  

 16 04 02 12 00 51.4000000  0  4G01G24G18G11                                    
  22033471.27349 115786672.65249      3778.95349        48.000  

  22543747.30549 118468190.90649     -1888.37949        48.000  

  20410063.04749 107255604.26649      9700.82049        50.000  

  20294305.56249 106647294.66449      3194.54749        50.000  

 16 04 02 12 00 51.5000000  0  4G01G24G18G11                                    
  22033399.37549 115786294.83649      3777.39149        48.000  

  22543783.25849 118468379.87949     -1891.24249        48.000  

  20409878.48449 107254634.39149      9696.09449        50.000  

  20294244.79749 106646975.32849      3191.98049        50.000  

 16 04 02 12 00 51.6000000  0  4G01G24G18G11                                    
  22033327.52349 115785917.21549      3775.28149        48.000  

  22543819.28149 118468569.16849     -1894.54349        48.000  

  20409694.02349 107253665.03949      9690.77749        50.000  

  20294184.07849 106646656.28549      3188.93049        50.000  

 16 04 02 12 00 51.7000000  0  4G01G24G18G11                                    
  22033255.68049 115785539.68049      3774.50049        48.000  

  22543855.34449 118468758.67649     -1896.57049        48.000  

  20409509.64149 107252696.10549      9686.68449        50.000  

  20294123.40649 106646337.45749      3186.91449        50.000  

 16 04 02 12 00 51.8000000  0  4G01G24G18G11                                    
  22033183.86749 115785162.32449      3772.96549        48.000  

  22543891.46149 118468948.48449     -1899.43049        48.000  

  20409325.35249 107251727.67249      9681.87149        50.000  

  20294062.77349 106646018.89149      3184.33649        50.000  

 16 04 02 12 00 51.9000000  0  4G01G24G18G11                                    
  22033112.09449 115784785.16449      3770.69549        48.000  

  22543927.65649 118469138.62549     -1902.92249        48.000  

  20409141.16449 107250759.75449      9676.36749        50.000  

  20294002.21149 106645700.62149      3181.05949        50.000  

 16 04 02 12 00 52.0000000  0  4G01G24G18G11                                    
  22033040.35949 115784408.15649      3769.26249        48.000  

  22543963.89149 118469329.02749     -1905.49249        48.000  

  20408957.06249 107249792.32049      9671.73049        50.000  

  20293941.68849 106645382.60949      3178.70749        50.000  

 16 04 02 12 00 52.1000000  0  4G01G24G18G11                                    
  22032968.64149 115784031.28949      3767.75049        48.000  

  22544000.17249 118469519.70749     -1908.39849        48.000  

  20408773.04749 107248825.33649      9667.08249        50.000  

  20293881.21949 106645064.84049      3176.22349        50.000  

 16 04 02 12 00 52.2000000  0  4G01G24G18G11                                    
  22032896.95349 115783654.55949      3766.53549        48.000  

  22544036.50849 118469710.65249     -1910.97349        48.000  

  20408589.12549 107247858.82449      9662.47349        50.000  

  20293820.78949 106644747.30549      3173.79749        50.000  

 16 04 02 12 00 52.3000000  0  4G01G24G18G11                                    
  22032825.30549 115783278.02349      3764.57449        48.000  

  22544072.90649 118469901.90649     -1914.07849        48.000  

  20408405.30549 107246892.83249      9657.35549        50.000  

  20293760.42249 106644430.07049      3170.95749        50.000  

 16 04 02 12 00 52.4000000  0  4G01G24G18G11                                    
  22032753.68049 115782901.64549      3762.87549        48.000  

  22544109.35949 118470093.46149     -1917.11749        48.000  

  20408221.57049 107245927.32049      9652.38749        50.000  

  20293700.10949 106644113.10549      3168.16849        50.000  

 16 04 02 12 00 52.5000000  0  4G01G24G18G11                                    
  22032682.08649 115782525.42249      3761.28149        48.000  

  22544145.85949 118470285.28149     -1919.85549        48.000  

  20408037.93049 107244962.28549      9647.62549        50.000  

  20293639.84449 106643796.39549      3165.53949        50.000  

 16 04 02 12 00 52.6000000  0  4G01G24G18G11                                    
  22032610.53149 115782149.41049      3759.37549        48.000  

  22544182.43049 118470477.44949     -1923.13349        48.000  

  20407854.39849 107243997.79349      9642.35549        50.000  

  20293579.63349 106643479.99249      3162.60949        50.000  

 16 04 02 12 00 52.7000000  0  4G01G24G18G11                                    
  22032539.01649 115781773.58649      3757.41049        48.000  

  22544219.04749 118470669.93449     -1926.35549        48.000  

  20407670.95349 107243033.81249      9637.10949        50.000  

  20293519.47749 106643163.88349      3159.62149        50.000  

 16 04 02 12 00 52.8000000  0  4G01G24G18G11                                    
  22032467.51649 115781397.91849      3755.97349        48.000  

  22544255.72749 118470862.67649     -1928.85249        48.000  

  20407487.60949 107242070.30149      9632.52349        50.000  

  20293459.38349 106642848.02349      3157.21949        50.000  

 16 04 02 12 00 52.9000000  0  4G01G24G18G11                                    
  22032396.06249 115781022.40649      3754.30549        48.000  

  22544292.46949 118471055.72349     -1931.92649        48.000  

  20407304.35249 107241107.27349      9627.59849        50.000  

  20293399.32849 106642532.43049      3154.49249        50.000  

 16 04 02 12 00 53.0000000  0  4G01G24G18G11                                    
  22032324.64149 115780647.06649      3752.49649        48.000  

  22544329.25849 118471249.06249     -1935.00449        48.000  

  20407121.18049 107240144.74649      9622.56649        50.000  

  20293339.32049 106642217.10949      3151.65249        50.000  

 16 04 02 12 00 53.1000000  0  4G01G24G18G11                                    
  22032253.25049 115780271.90249      3750.98849        48.000  

  22544366.11749 118471442.70349     -1937.73849        48.000  

  20406938.11749 107239182.72349      9617.77049        50.000  

  20293279.36749 106641902.07049      3149.11749        50.000  

 16 04 02 12 00 53.2000000  0  4G01G24G18G11                                    
  22032181.89149 115779896.87549      3749.37149        48.000  

  22544403.01649 118471636.60249     -1940.48449        48.000  

  20406755.14849 107238221.15249      9613.07849        50.000  

  20293219.46149 106641587.26649      3146.53149        50.000  

 16 04 02 12 00 53.3000000  0  4G01G24G18G11                                    
  22032110.55549 115779522.00449      3747.77349        48.000  

  22544439.97749 118471830.78149     -1943.34849        48.000  

  20406572.25849 107237260.06249      9608.19549        50.000  

  20293159.60249 106641272.72349      3143.89549        50.000  

 16 04 02 12 00 53.4000000  0  4G01G24G18G11                                    
  22032039.25849 115779147.35249      3745.60949        48.000  

  22544476.99249 118472025.32849     -1946.99249        48.000  

  20406389.47749 107236299.53149      9602.66449        50.000  

  20293099.81249 106640958.51249      3140.65249        50.000  

 16 04 02 12 00 53.5000000  0  4G01G24G18G11                                    
  22031967.99249 115778772.87149      3743.91449        48.000  

  22544514.07049 118472220.15649     -1949.83649        48.000  

  20406206.78949 107235339.48049      9597.67649        50.000  

  20293040.07049 106640644.55949      3137.98849        50.000  

 16 04 02 12 00 53.6000000  0  4G01G24G18G11                                    
  22031896.75849 115778398.52349      3742.71949        48.000  

  22544551.19549 118472415.24649     -1952.37549        48.000  

  20406024.18849 107234379.89549      9593.25849        50.000  

  20292980.39149 106640330.85549      3135.65649        50.000  

 16 04 02 12 00 53.7000000  0  4G01G24G18G11                                    
  22031825.56249 115778024.37549      3740.60549        48.000  

  22544588.39149 118472610.65649     -1955.62949        48.000  

  20405841.68049 107233420.83249      9587.97349        50.000  

  20292920.75049 106640017.44149      3132.57849        50.000  

 16 04 02 12 00 53.8000000  0  4G01G24G18G11                                    
  22031754.39149 115777650.41449      3738.69149        48.000  

  22544625.63349 118472806.38349     -1958.87549        48.000  

  20405659.26649 107232462.27049      9582.91049        50.000  

  20292861.16449 106639704.31649      3129.71149        50.000  

 16 04 02 12 00 53.9000000  0  4G01G24G18G11                                    
  22031683.25849 115777276.57449      3737.55149        48.000  

  22544662.93049 118473002.36349     -1961.38749        48.000  

  20405476.95349 107231504.17649      9578.27349        50.000  

  20292801.61749 106639391.42649      3127.38749        50.000  

 16 04 02 12 00 54.0000000  0  4G01G24G18G11                                    
  22031612.14849 115776902.91449      3736.00449        48.000  

  22544700.27349 118473198.63749     -1964.09849        48.000  

  20405294.71949 107230546.56649      9573.60249        50.000  

  20292742.13349 106639078.81249      3124.93049        50.000  

 16 04 02 12 00 54.1000000  0  4G01G24G18G11                                    
  22031541.06249 115776529.35549      3734.81649        48.000  

  22544737.66449 118473395.13749     -1966.46949        48.000  

  20405112.57049 107229589.38349      9569.15649        50.000  

  20292682.68049 106638766.39549      3122.68049        50.000  

 16 04 02 12 00 54.2000000  0  4G01G24G18G11                                    
  22031470.00849 115776155.96949      3733.15649        48.000  

  22544775.11749 118473591.93849     -1969.40649        48.000  

  20404930.51649 107228632.69549      9564.34449        50.000  

  20292623.28149 106638454.25049      3120.07049        50.000  

 16 04 02 12 00 54.3000000  0  4G01G24G18G11                                    
  22031398.99249 115775782.77349      3730.99249        48.000  

  22544812.61749 118473789.05549     -1972.74249        48.000  

  20404748.56249 107227676.53549      9558.95349        50.000  

  20292563.93849 106638142.41049      3116.91849        50.000  

 16 04 02 12 00 54.4000000  0  4G01G24G18G11                                    
  22031328.00049 115775409.71149      3729.60249        48.000  

  22544850.18049 118473986.45349     -1975.49249        48.000  

  20404566.69549 107226720.83649      9554.30549        50.000  

  20292504.64849 106637830.81249      3114.58249        50.000  

 16 04 02 12 00 54.5000000  0  4G01G24G18G11                                    
  22031257.03949 115775036.83649      3727.89849        48.000  

  22544887.80549 118474184.12949     -1978.30549        48.000  

  20404384.93049 107225765.62549      9549.44949        50.000  

  20292445.40649 106637519.48449      3111.80149        50.000  

 16 04 02 12 00 54.6000000  0  4G01G24G18G11                                    
  22031186.10949 115774664.11349      3726.38749        48.000  

  22544925.48449 118474382.11749     -1981.39549        48.000  

  20404203.25049 107224810.91449      9544.47749        50.000  

  20292386.21149 106637208.43049      3109.07449        50.000  

 16 04 02 12 00 54.7000000  0  4G01G24G18G11                                    
  22031115.21149 115774291.55549      3724.66449        48.000  

  22544963.21149 118474580.36749     -1984.02349        48.000  

  20404021.66449 107223856.68049      9539.72349        50.000  

  20292327.07049 106636897.62949      3106.50849        50.000  

 16 04 02 12 00 54.8000000  0  4G01G24G18G11                                    
  22031044.33649 115773919.14549      3723.14149        48.000  

  22545000.99249 118474778.91449     -1987.00049        48.000  

  20403840.16449 107222902.92249      9534.80149        50.000  

  20292267.96949 106636587.08649      3103.91449        50.000  

 16 04 02 12 00 54.9000000  0  4G01G24G18G11                                    
  22030973.51649 115773546.96549      3720.92249        48.000  

  22545038.83649 118474977.80149     -1990.53549        48.000  

  20403658.77349 107221949.71949      9529.34049        50.000  

  20292208.93849 106636276.87149      3100.57449        50.000  

 16 04 02 12 00 55.0000000  0  4G01G24G18G11                                    
  22030902.71949 115773174.95349      3719.21549        48.000  

  22545076.73449 118475176.98849     -1993.45749        48.000  

  20403477.48449 107220997.01649      9524.30549        50.000  

  20292149.95349 106635966.93849      3097.77749        50.000  

 16 04 02 12 00 55.1000000  0  4G01G24G18G11                                    
  22030831.96149 115772803.10949      3717.58649        48.000  

  22545114.70349 118475376.46949     -1996.23849        48.000  

  20403296.28149 107220044.79749      9519.49649        50.000  

  20292091.02349 106635657.26249      3095.27749        50.000  

 16 04 02 12 00 55.2000000  0  4G01G24G18G11                                    
  22030761.23449 115772431.40649      3716.21549        48.000  

  22545152.71149 118475576.21149     -1998.96949        48.000  

  20403115.17249 107219093.04749      9514.77049        50.000  

  20292032.14149 106635347.83649      3092.71949        50.000  

 16 04 02 12 00 55.3000000  0  4G01G24G18G11                                    
  22030690.53949 115772059.89149      3714.47349        48.000  

  22545190.78949 118475776.27049     -2001.98449        48.000  

  20402934.15649 107218141.79749      9509.97749        50.000  

  20291973.31249 106635038.69149      3090.12149        50.000  

 16 04 02 12 00 55.4000000  0  4G01G24G18G11                                    
  22030619.86749 115771688.53549      3712.69149        48.000  

  22545228.91449 118475976.61349     -2004.98049        48.000  

  20402753.22749 107217191.03549      9505.01249        50.000  

  20291914.54749 106634729.80549      3087.46949        50.000  

 16 04 02 12 00 55.5000000  0  4G01G24G18G11                                    
  22030549.22749 115771317.30949      3711.28949        48.000  

  22545267.08649 118476177.21549     -2007.64549        48.000  

  20402572.39149 107216240.74249      9500.18049        50.000  

  20291855.81249 106634421.16849      3084.87149        50.000  

 16 04 02 12 00 55.6000000  0  4G01G24G18G11                                    
  22030478.60949 115770946.25449      3709.69949        48.000  

  22545305.32049 118476378.11749     -2010.56649        48.000  

  20402391.64849 107215290.93049      9495.38349        50.000  

  20291797.13349 106634112.80549      3082.21149        50.000  

 16 04 02 12 00 55.7000000  0  4G01G24G18G11                                    
  22030408.03949 115770575.39849      3707.45749        48.000  

  22545343.60249 118476579.34049     -2014.00849        48.000  

  20402211.00849 107214341.64849      9489.87949        50.000  

  20291738.50849 106633804.73449      3078.96549        50.000  

 16 04 02 12 00 55.8000000  0  4G01G24G18G11                                    
  22030337.50049 115770204.71549      3706.09049        48.000  

  22545381.95349 118476780.85249     -2016.60249        48.000  

  20402030.45349 107213392.85249      9485.41449        50.000  

  20291679.94549 106633496.93449      3076.69149        50.000  

 16 04 02 12 00 55.9000000  0  4G01G24G18G11                                    
  22030266.98449 115769834.15249      3704.86349        48.000  

  22545420.35249 118476982.63749     -2019.35549        48.000  

  20401849.99249 107212444.52749      9480.61749        50.000  

  20291621.41449 106633189.37949      3074.12549        50.000  

 16 04 02 12 00 56.0000000  0  4G01G24G18G11                                    
  22030196.50849 115769463.80949      3702.73049        48.000  

  22545458.80549 118477184.73849     -2022.46949        48.000  

  20401669.63349 107211496.71549      9475.48449        50.000  

  20291562.95349 106632882.10949      3071.29749        50.000  

 16 04 02 12 00 56.1000000  0  4G01G24G18G11                                    
  22030126.05549 115769093.57449      3701.60249        48.000  

  22545497.30549 118477387.08249     -2024.94949        48.000  

  20401489.35249 107210549.35549      9471.02349        50.000  

  20291504.52349 106632575.08249      3068.97749        50.000  

 16 04 02 12 00 56.2000000  0  4G01G24G18G11                                    
  22030055.62549 115768723.44949      3700.42249        48.000  

  22545535.85949 118477589.66449     -2027.32449        48.000  

  20401309.16449 107209602.43049      9466.52049        50.000  

  20291446.14149 106632268.25849      3066.68049        50.000  

 16 04 02 12 00 56.3000000  0  4G01G24G18G11                                    
  22029985.23449 115768353.58249      3697.95749        48.000  

  22545574.48449 118477792.63349     -2031.02749        48.000  

  20401129.07849 107208656.07449      9460.94149        50.000  

  20291387.82049 106631961.78949      3063.35249        50.000  

 16 04 02 12 00 56.4000000  0  4G01G24G18G11                                    
  22029914.87549 115767983.82449      3696.61349        48.000  

  22545613.14849 118477995.82849     -2033.68049        48.000  

  20400949.07049 107207710.16049      9456.33649        50.000  

  20291329.54749 106631655.53149      3060.96949        50.000  

 16 04 02 12 00 56.5000000  0  4G01G24G18G11                                    
  22029844.53949 115767614.18449      3695.55149        48.000  

  22545651.86749 118478199.27049     -2035.97349        48.000  

  20400769.15649 107206764.68849      9452.03949        50.000  

  20291271.31249 106631349.49649      3058.76249        50.000  

 16 04 02 12 00 56.6000000  0  4G01G24G18G11                                    
  22029774.25049 115767244.80149      3693.04349        48.000  

  22545690.64849 118478403.09849     -2039.80949        48.000  

  20400589.34449 107205819.80149      9446.21149        50.000  

  20291213.14149 106631043.82049      3055.28149        50.000  

 16 04 02 12 00 56.7000000  0  4G01G24G18G11                                    
  22029703.97749 115766875.54349      3691.64149        48.000  

  22545729.48449 118478607.16849     -2042.30149        48.000  

  20400409.62549 107204875.35549      9441.74249        50.000  

  20291155.01649 106630738.37149      3052.92249        50.000  

 16 04 02 12 00 56.8000000  0  4G01G24G18G11                                    
  22029633.74249 115766506.43849      3690.17249        48.000  

  22545768.37549 118478811.53149     -2045.16849        48.000  

  20400230.00049 107203931.39149      9436.91849        50.000  

  20291096.94549 106630433.17649      3050.43049        50.000  

 16 04 02 12 00 56.9000000  0  4G01G24G18G11                                    
  22029563.54749 115766137.52349      3688.29749        48.000  

  22545807.32049 118479016.20349     -2048.21149        48.000  

  20400050.46949 107202987.94949      9431.71949        50.000  

  20291038.92249 106630128.28549      3047.54349        50.000  

 16 04 02 12 00 57.0000000  0  4G01G24G18G11                                    
  22029493.36749 115765768.76649      3686.74249        48.000  

  22545846.32049 118479221.14549     -2050.93449        48.000  

  20399871.02349 107202044.97749      9426.97749        50.000  

  20290980.94549 106629823.64149      3044.93049        50.000  

 16 04 02 12 00 57.1000000  0  4G01G24G18G11                                    
  22029423.22749 115765400.16849      3685.17649        48.000  

  22545885.37549 118479426.39149     -2053.87949        48.000  

  20399691.67249 107201102.49249      9422.09049        50.000  

  20290923.02349 106629519.26249      3042.31249        50.000  

 16 04 02 12 00 57.2000000  0  4G01G24G18G11                                    
  22029353.13349 115765031.85549      3682.33649        48.000  

  22545924.50849 118479632.02749     -2057.80949        48.000  

  20399512.43849 107200160.61349      9416.16849        50.000  

  20290865.18049 106629215.26249      3038.60949        50.000  

 16 04 02 12 00 57.3000000  0  4G01G24G18G11                                    
  22029283.05549 115764663.59449      3681.59049        48.000  

  22545963.68049 118479837.86749     -2059.95349        48.000  

  20399333.28149 107199219.12549      9412.12949        50.000  

  20290807.35949 106628911.43049      3036.86349        50.000  

 16 04 02 12 00 57.4000000  0  4G01G24G18G11                                    
  22029213.00849 115764295.53149      3679.78149        48.000  

  22546002.90649 118480044.01249     -2062.93049        48.000  

  20399154.21149 107198278.14149      9407.27749        50.000  

  20290749.60249 106628607.89849      3033.86349        50.000  

 16 04 02 12 00 57.5000000  0  4G01G24G18G11                                    
  22029143.00049 115763927.61749      3678.27049        48.000  

  22546042.18849 118480250.44949     -2065.89849        48.000  

  20398975.24249 107197337.65649      9402.27349        50.000  

  20290691.89149 106628304.61349      3031.35949        50.000  

 16 04 02 12 00 57.6000000  0  4G01G24G18G11                                    
  22029073.01649 115763559.89549      3676.38349        48.000  

  22546081.53149 118480457.18049     -2068.89149        48.000  

  20398796.35949 107196397.65649      9397.27349        50.000  

  20290634.22749 106628001.61749      3028.52349        50.000  

 16 04 02 12 00 57.7000000  0  4G01G24G18G11                                    
  22029003.07049 115763192.30949      3675.09449        48.000  

  22546120.92249 118480664.18449     -2071.42649        48.000  

  20398617.57849 107195458.14149      9392.69149        50.000  

  20290576.61749 106627698.87149      3026.18849        50.000  

 16 04 02 12 00 57.8000000  0  4G01G24G18G11                                    
  22028933.14149 115762824.80549      3674.33249        48.000  

  22546160.35949 118480871.40249     -2073.53949        48.000  

  20398438.87549 107194519.02049      9388.65249        50.000  

  20290519.03949 106627396.29749      3024.41049        50.000  

 16 04 02 12 00 57.9000000  0  4G01G24G18G11                                    
  22028863.25049 115762457.54749      3671.84449        48.000  

  22546199.85949 118481078.98849     -2077.37149        48.000  

  20398260.27349 107193580.47749      9382.80549        50.000  

  20290461.53149 106627094.09049      3020.61749        50.000  

 16 04 02 12 00 58.0000000  0  4G01G24G18G11                                    
  22028793.40649 115762090.50049      3669.60249        48.000  

  22546239.43049 118481286.89849     -2080.78149        48.000  

  20398081.77349 107192642.46149      9377.40649        50.000  

  20290404.07849 106626792.17249      3017.55549        50.000  

 16 04 02 12 00 58.1000000  0  4G01G24G18G11                                    
  22028723.57849 115761723.57049      3668.42649        48.000  

  22546279.04749 118481495.07049     -2083.30549        48.000  

  20397903.36749 107191704.90649      9372.81249        50.000  

  20290346.67249 106626490.50049      3015.25449        50.000  

 16 04 02 12 00 58.2000000  0  4G01G24G18G11                                    
  22028653.78149 115761356.78949      3667.12949        48.000  

  22546318.71149 118481703.50049     -2085.57449        48.000  

  20397725.03949 107190767.79749      9368.57449        50.000  

  20290289.30549 106626189.05949      3013.07849        50.000  

 16 04 02 12 00 58.3000000  0  4G01G24G18G11                                    
  22028584.01649 115760990.15649      3665.57849        48.000  

  22546358.41449 118481912.20349     -2088.44149        48.000  

  20397546.80549 107189831.16849      9363.79349        50.000  

  20290231.98449 106625887.85949      3010.52049        50.000  

 16 04 02 12 00 58.4000000  0  4G01G24G18G11                                    
  22028514.27349 115760623.68849      3663.82449        48.000  

  22546398.18849 118482121.19549     -2091.39849        48.000  

  20397368.66449 107188895.03949      9358.65649        50.000  

  20290174.72749 106625586.94949      3007.69949        50.000  

 16 04 02 12 00 58.5000000  0  4G01G24G18G11                                    
  22028444.57049 115760257.40249      3661.90249        48.000  

  22546438.01649 118482330.52049     -2094.69549        48.000  

  20397190.61749 107187959.41049      9353.55949        50.000  

  20290117.51649 106625286.31249      3004.83249        50.000  

 16 04 02 12 00 58.6000000  0  4G01G24G18G11                                    
  22028374.89849 115759891.31249      3659.97749        48.000  

  22546477.90649 118482540.13349     -2097.59449        48.000  

  20397012.67249 107187024.29749      9348.40249        50.000  

  20290060.35949 106624985.97349      3002.02749        50.000  

 16 04 02 12 00 58.7000000  0  4G01G24G18G11                                    
  22028305.26649 115759525.37149      3658.53149        48.000  

  22546517.85249 118482750.05549     -2100.80549        48.000  

  20396834.82049 107186089.67649      9343.41449        50.000  

  20290003.26649 106624685.90649      2999.16449        50.000  

 16 04 02 12 00 58.8000000  0  4G01G24G18G11                                    
  22028235.65649 115759159.62549      3656.68049        48.000  

  22546557.85949 118482960.27349     -2103.72749        48.000  

  20396657.06249 107185155.55549      9338.56649        50.000  

  20289946.21149 106624386.10549      2996.52749        50.000  

 16 04 02 12 00 58.9000000  0  4G01G24G18G11                                    
  22028166.09449 115758794.05949      3654.81649        48.000  

  22546597.91449 118483170.80149     -2106.70349        48.000  

  20396479.39849 107184221.93849      9333.52749        50.000  

  20289889.21149 106624086.60249      2993.64149        50.000  

 16 04 02 12 00 59.0000000  0  4G01G24G18G11                                    
  22028096.56249 115758428.65249      3653.23849        48.000  

  22546638.03149 118483381.60549     -2109.62549        48.000  

  20396301.82849 107183288.80949      9328.60549        50.000  

  20289832.26649 106623787.35249      2991.05149        50.000  

 16 04 02 12 00 59.1000000  0  4G01G24G18G11                                    
  22028027.05549 115758063.37549      3652.17649        48.000  

  22546678.19549 118483592.69549     -2112.17249        48.000  

  20396124.35249 107182356.16049      9324.15249        50.000  

  20289775.36749 106623488.35949      2988.74249        50.000  

 16 04 02 12 00 59.2000000  0  4G01G24G18G11                                    
  22027957.57049 115757698.22749      3650.93849        48.000  

  22546718.40649 118483804.00449     -2114.51649        48.000  

  20395946.95349 107181423.92649      9319.85949        50.000  

  20289718.51649 106623189.57449      2986.60549        50.000  

 16 04 02 12 00 59.3000000  0  4G01G24G18G11                                    
  22027888.11749 115757333.25049      3649.12149        48.000  

  22546758.67249 118484015.62149     -2117.52349        48.000  

  20395769.64849 107180492.20349      9314.80549        50.000  

  20289661.71149 106622891.05949      2983.80149        50.000  

 16 04 02 12 00 59.4000000  0  4G01G24G18G11                                    
  22027818.68849 115756968.43449      3647.48049        48.000  

  22546798.99249 118484227.52349     -2120.43449        48.000  

  20395592.43849 107179560.96949      9309.76649        50.000  

  20289604.94549 106622592.81249      2981.06649        50.000  

 16 04 02 12 00 59.5000000  0  4G01G24G18G11                                    
  22027749.29749 115756603.77749      3645.64149        48.000  

  22546839.36749 118484439.72349     -2123.57849        48.000  

  20395415.32049 107178630.21949      9304.74249        50.000  

  20289548.25049 106622294.83649      2978.34049        50.000  

 16 04 02 12 00 59.6000000  0  4G01G24G18G11                                    
  22027679.94549 115756239.33649      3643.38349        48.000  

  22546879.81249 118484652.24649     -2126.95749        48.000  

  20395238.30549 107177700.00449      9299.31649        50.000  

  20289491.60249 106621997.17249      2974.98449        50.000  

 16 04 02 12 00 59.7000000  0  4G01G24G18G11                                    
  22027610.62549 115755875.05549      3642.01649        48.000  

  22546920.30549 118484865.06249     -2129.60549        48.000  

  20395061.38349 107176770.28149      9294.65249        50.000  

  20289435.00849 106621699.77049      2972.65249        50.000  

 16 04 02 12 00 59.8000000  0  4G01G24G18G11                                    
  22027541.32049 115755510.89549      3640.77349        48.000  

  22546960.85249 118485078.12549     -2132.11349        48.000  

  20394884.53949 107175840.99649      9290.14549        50.000  

  20289378.45349 106621402.59449      2970.23449        50.000  

 16 04 02 12 00 59.9000000  0  4G01G24G18G11                                    
  22027472.05549 115755146.89549      3639.33649        48.000  

  22547001.44549 118485291.47749     -2134.94549        48.000  

  20394707.79749 107174912.19549      9285.45349        50.000  

  20289321.95349 106621105.66849      2967.96949        50.000  

 16 04 02 12 01  0.0000000  0  4G01G24G18G11                                    
  22027402.82049 115754783.07049      3637.44949        48.000  

  22547042.10249 118485505.11349     -2137.89849        48.000  

  20394531.14849 107173983.89549      9280.39549        50.000  

  20289265.50049 106620809.02749      2965.06249        50.000  

 16 04 02 12 01  0.1000000  0  4G01G24G18G11                                    
  22027333.61749 115754419.40649      3635.90649        48.000  

  22547082.82049 118485719.05549     -2140.87149        48.000  

  20394354.59449 107173056.08649      9275.40249        50.000  

  20289209.10949 106620512.66449      2962.23849        50.000  

 16 04 02 12 01  0.2000000  0  4G01G24G18G11                                    
  22027264.45349 115754055.94549      3633.69149        48.000  

  22547123.59449 118485933.31649     -2144.12949        48.000  

  20394178.14149 107172128.80549      9270.07449        50.000  

  20289152.76649 106620216.59049      2959.19949        50.000  

 16 04 02 12 01  0.3000000  0  4G01G24G18G11                                    
  22027195.32049 115753692.63749      3632.14549        48.000  

  22547164.41449 118486147.85949     -2146.95349        48.000  

  20394001.77349 107171201.99649      9265.35249        50.000  

  20289096.46949 106619920.77349      2956.61349        50.000  

 16 04 02 12 01  0.4000000  0  4G01G24G18G11                                    
  22027126.20349 115753329.46949      3630.81649        48.000  

  22547205.28949 118486362.65649     -2149.50849        48.000  

  20393825.50049 107170275.64549      9260.84849        50.000  

  20289040.22749 106619625.20749      2954.19549        50.000  

 16 04 02 12 01  0.5000000  0  4G01G24G18G11                                    
  22027057.12549 115752966.46949      3629.27749        48.000  

  22547246.23449 118486577.75849     -2152.32449        48.000  

  20393649.31249 107169349.80149      9255.99249        50.000  

  20288984.03149 106619329.90249      2951.73449        50.000  

 16 04 02 12 01  0.6000000  0  4G01G24G18G11                                    
  22026988.08649 115752603.68449      3626.98449        48.000  

  22547287.23449 118486793.18849     -2155.80949        48.000  

  20393473.23449 107168424.48049      9250.60949        50.000  

  20288927.89149 106619034.90249      2948.50049        50.000  

 16 04 02 12 01  0.7000000  0  4G01G24G18G11                                    
  22026919.06249 115752240.96549      3626.05149        48.000  

  22547328.25849 118487008.81649     -2157.92649        48.000  

  20393297.22749 107167499.55549      9246.35949        50.000  

  20288871.78949 106618740.08649      2946.58249        50.000  

 16 04 02 12 01  0.8000000  0  4G01G24G18G11                                    
  22026850.08649 115751878.50049      3623.87949        48.000  

  22547369.36749 118487224.83649     -2161.55549        48.000  

  20393121.32849 107166575.22349      9240.75049        50.000  

  20288815.76649 106618445.63349      2943.19549        50.000  

 16 04 02 12 01  0.9000000  0  4G01G24G18G11                                    
  22026781.13349 115751516.14549      3622.62149        48.000  

  22547410.52349 118487441.07449     -2163.94949        48.000  

  20392945.51649 107165651.31249      9236.52049        50.000  

  20288759.76649 106618151.38749      2941.04749        50.000  

 16 04 02 12 01  1.0000000  0  4G01G24G18G11                                    
  22026712.19549 115751153.93849      3621.34449        48.000  

  22547451.72749 118487657.58649     -2166.49649        48.000  

  20392769.79749 107164727.88349      9231.80149        50.000  

  20288703.82049 106617857.38349      2938.71149        50.000  

 16 04 02 12 01  1.1000000  0  4G01G24G18G11                                    
  22026643.31249 115750791.93049      3619.27049        48.000  

  22547492.99249 118487874.44949     -2169.94949        48.000  

  20392594.17249 107163804.98049      9226.44149        50.000  

  20288647.93849 106617563.69149      2935.60949        50.000  

 16 04 02 12 01  1.2000000  0  4G01G24G18G11                                    
  22026574.44549 115750430.06249      3617.97749        48.000  

  22547534.30549 118488091.54349     -2172.45349        48.000  

  20392418.64149 107162882.52049      9222.00049        50.000  

  20288592.08649 106617270.21949      2933.32049        50.000  

 16 04 02 12 01  1.3000000  0  4G01G24G18G11                                    
  22026505.60949 115750068.30549      3616.72349        48.000  

  22547575.67249 118488308.88349     -2174.87949        48.000  

  20392243.18849 107161960.51249      9217.42649        50.000  

  20288536.28949 106616976.99249      2930.78949        50.000  

 16 04 02 12 01  1.4000000  0  5G01G24G18G21G11                                 
  22026436.80549 115749706.75849      3614.62549        48.000  

  22547617.09449 118488526.56249     -2178.37949        48.000  

  20392067.83649 107161039.04349      9211.96149        50.000  

  24010878.65649 126178018.58659     16356.34849        48.000  

  20288480.55549 106616684.05949      2927.87549        50.000  

 16 04 02 12 01  1.5000000  0  5G01G24G18G21G11                                 
  22026368.03149 115749345.36349      3613.25049        48.000  

  22547658.57049 118488744.52349     -2180.97749        48.000  

  20391892.57849 107160118.03949      9207.48049        50.000  

  24010567.41449 126176383.00849     16355.14849        48.000  

  20288424.85949 106616391.37949      2925.35549        50.000  

 16 04 02 12 01  1.6000000  0  5G01G24G18G21G11                                 
  22026299.29749 115748984.11349      3611.59849        48.000  

  22547700.09449 118488962.74249     -2183.71149        48.000  

  20391717.40649 107159197.51649      9202.59049        50.000  

  24010256.26649 126174747.55949     16353.88349        48.000  

  20288369.21949 106616098.95749      2922.82449        50.000  

 16 04 02 12 01  1.7000000  0  5G01G24G18G21G11                                 
  22026230.58649 115748623.03949      3609.90249        48.000  

  22547741.67249 118489181.26649     -2186.78949        48.000  

  20391542.32849 107158277.48849      9197.56649        50.000  

  24009945.07849 126173112.25849     16352.37549        48.000  

  20288313.62549 106615806.80549      2919.98849        50.000  

 16 04 02 12 01  1.8000000  0  5G01G24G18G21G11                                 
  22026161.91449 115748262.17249      3607.98449        48.000  

  22547783.32049 118489400.12949     -2190.02749        48.000  

  20391367.35949 107157357.98049      9192.50449        50.000  

  24009633.95349 126171477.16049     16350.34849        48.000  

  20288258.07849 106615514.96149      2917.09449        50.000  

 16 04 02 12 01  1.9000000  0  5G01G24G18G21G11                                 
  22026093.25849 115747901.41049      3606.62949        48.000  

  22547825.00849 118489619.21549     -2192.57849        48.000  

  20391192.46149 107156438.91449      9187.92249        50.000  

  24009322.82049 126169842.12949     16349.47349        48.000  

  20288202.57849 106615223.32449      2914.84449        50.000  

 16 04 02 12 01  2.0000000  0  5G01G24G18G21G11                                 
  22026024.64849 115747540.84449      3604.83649        48.000  

  22547866.76649 118489838.62149     -2195.54349        48.000  

  20391017.66449 107155520.37149      9182.86349        50.000  

  24009011.71949 126168207.27749     16347.94149        48.000  

  20288147.13349 106614931.98449      2911.97349        50.000  

 16 04 02 12 01  2.1000000  0  5G01G24G18G21G11                                 
  22025956.07049 115747180.45349      3603.12149        48.000  

  22547908.57049 118490058.32849     -2198.52349        48.000  

  20390842.96949 107154602.32049      9177.94549        50.000  

  24008700.64849 126166572.58649     16346.27349        48.000  

  20288091.75049 106614640.92649      2909.33249        50.000  

 16 04 02 12 01  2.2000000  0  5G01G24G18G21G11                                 
  22025887.50049 115746820.11349      3602.62549        48.000  

  22547950.41449 118490278.21549     -2200.19949        48.000  

  20390668.33649 107153684.65649      9174.09849        50.000  

  24008389.58649 126164937.93849     16345.86349        48.000  

  20288036.39849 106614350.03149      2907.61749        50.000  

 16 04 02 12 01  2.3000000  0  5G01G24G18G21G11                                 
  22025818.97749 115746460.02349      3600.09049        48.000  

  22547992.32849 118490498.47349     -2204.08649        48.000  

  20390493.81249 107152767.55549      9168.31249        50.000  

  24008078.56249 126163303.50049     16343.62149        48.000  

  20287981.10949 106614059.47349      2904.05949        50.000  

 16 04 02 12 01  2.4000000  0  5G01G24G18G21G11                                 
  22025750.49249 115746100.15649      3597.78149        48.000  

  22548034.30549 118490719.07849     -2207.67249        48.000  

  20390319.39849 107151851.00849      9162.71549        50.000  

  24007767.54749 126161669.27749     16341.48449        48.000  

  20287925.87549 106613769.24649      2900.79349        50.000  

 16 04 02 12 01  2.5000000  0  5G01G24G18G21G11                                 
  22025682.03949 115745740.41849      3596.48049        48.000  

  22548076.34449 118490939.93849     -2210.21549        48.000  

  20390145.07849 107150934.91049      9158.15649        50.000  

  24007456.57849 126160035.14849     16340.50849        48.000  

  20287870.68849 106613479.25049      2898.42249        50.000  

 16 04 02 12 01  2.6000000  0  5G01G24G18G21G11                                 
  22025613.60949 115745380.85549      3594.72749        48.000  

  22548118.43049 118491161.10249     -2213.25449        48.000  

  20389970.83649 107150019.31249      9153.19549        50.000  

  24007145.65649 126158401.19149     16338.86749        48.000  

  20287815.55549 106613189.52349      2895.67649        50.000  

 16 04 02 12 01  2.7000000  0  5G01G24G18G21G11                                 
  22025545.21949 115745021.43049      3593.52349        48.000  

  22548160.56249 118491382.51249     -2215.40249        48.000  

  20389796.68849 107149104.16449      9149.00449        50.000  

  24006834.74249 126156767.32849     16338.03549        48.000  

  20287760.46949 106612900.03549      2893.65649        50.000  

 16 04 02 12 01  2.8000000  0  5G01G24G18G21G11                                 
  22025476.82849 115744662.11749      3592.21549        48.000  

  22548202.75049 118491604.18049     -2218.12949        48.000  

  20389622.62549 107148189.47349      9144.28549        50.000  

  24006523.82049 126155133.57849     16336.92249        48.000  

  20287705.43049 106612610.77749      2891.13349        50.000  

 16 04 02 12 01  2.9000000  0  5G01G24G18G21G11                                 
  22025408.49249 115744303.00049      3590.41049        48.000  

  22548244.98449 118491826.16849     -2221.27049        48.000  

  20389448.66449 107147275.30149      9139.09049        50.000  

  24006212.96949 126153500.02349     16335.00049        48.000  

  20287650.43849 106612321.81649      2888.23849        50.000  

 16 04 02 12 01  3.0000000  0  5G01G24G18G21G11                                 
  22025340.18049 115743943.99249      3589.50049        48.000  

  22548287.26649 118492048.37149     -2223.30549        48.000  

  20389274.78149 107146361.55549      9135.12949        50.000  

  24005902.10949 126151866.50849     16334.57849        48.000  

  20287595.49249 106612033.04749      2886.45749        50.000  

 16 04 02 12 01  3.1000000  0  5G01G24G18G21G11                                 
  22025271.88349 115743585.07849      3588.32049        48.000  

  22548329.60249 118492270.81649     -2225.84049        48.000  

  20389100.98449 107145448.23449      9130.62549        50.000  

  24005591.28149 126150233.10549     16333.50849        48.000  

  20287540.57849 106611744.49249      2884.21149        50.000  

 16 04 02 12 01  3.2000000  0  5G01G24G18G21G11                                 
  22025203.62549 115743226.36749      3586.56649        48.000  

  22548371.99249 118492493.57849     -2228.89149        48.000  

  20388927.28949 107144535.44149      9125.62149        50.000  

  24005280.49249 126148599.87949     16331.77049        48.000  

  20287485.72749 106611456.24249      2881.40649        50.000  

 16 04 02 12 01  3.3000000  0  5G01G24G18G21G11                                 
  22025135.39149 115742867.81649      3584.60549        48.000  

  22548414.43049 118492716.62149     -2232.05949        48.000  

  20388753.68049 107143623.13349      9120.35549        50.000  

  24004969.71949 126146966.78949     16330.10249        48.000  

  20287430.92249 106611168.24649      2878.45749        50.000  

 16 04 02 12 01  3.4000000  0  5G01G24G18G21G11                                 
  22025067.18849 115742509.41849      3583.13349        48.000  

  22548456.93049 118492939.96149     -2234.74649        48.000  

  20388580.15649 107142711.29749      9115.75849        50.000  

  24004658.98449 126145333.82449     16328.99249        48.000  

  20287376.16449 106610880.52049      2875.93449        50.000  

 16 04 02 12 01  3.5000000  0  5G01G24G18G21G11                                 
  22024999.00849 115742151.14849      3581.96549        48.000  

  22548499.46949 118493163.52749     -2237.15249        48.000  

  20388406.72749 107141799.91849      9111.25849        50.000  

  24004348.26649 126143700.98449     16327.67249        48.000  

  20287321.45349 106610593.00049      2873.76649        50.000  

 16 04 02 12 01  3.6000000  0  5G01G24G18G21G11                                 
  22024930.85949 115741793.03549      3580.21149        48.000  

  22548542.06249 118493387.37549     -2239.96949        48.000  

  20388233.39149 107140889.00449      9106.42649        50.000  

  24004037.53949 126142068.25049     16326.64849        48.000  

  20287266.78149 106610305.74249      2871.20349        50.000  

 16 04 02 12 01  3.7000000  0  5G01G24G18G21G11                                 
  22024862.74249 115741435.09049      3578.61349        48.000  

  22548584.71949 118493611.54349     -2242.99649        48.000  

  20388060.14849 107139978.61349      9101.32849        50.000  

  24003726.87549 126140435.70749     16324.83249        48.000  

  20287212.17249 106610018.78149      2868.29349        50.000  

 16 04 02 12 01  3.8000000  0  5G01G24G18G21G11                                 
  22024794.67249 115741077.36349      3576.27049        48.000  

  22548627.43849 118493836.03149     -2246.57049        48.000  

  20387887.00049 107139068.73449      9095.93049        50.000  

  24003416.21949 126138803.32449     16322.94949        48.000  

  20287157.62549 106609732.10549      2865.03149        50.000  

 16 04 02 12 01  3.9000000  0  5G01G24G18G21G11                                 
  22024726.62549 115740719.79349      3574.84049        48.000  

  22548670.21149 118494060.80949     -2249.33249        48.000  

  20387713.95349 107138159.36349      9091.12949        50.000  

  24003105.60949 126137171.10249     16321.46149        48.000  

  20287103.12549 106609445.71549      2862.44549        50.000  

 16 04 02 12 01  4.0000000  0  5G01G24G18G21G11                                 
  22024658.61749 115740362.41049      3573.09049        48.000  

  22548713.04749 118494285.89849     -2252.39849        48.000  

  20387541.00049 107137250.49249      9086.06649        50.000  

  24002795.05549 126135539.04749     16319.80949        48.000  

  20287048.68049 106609159.61349      2859.60949        50.000  

 16 04 02 12 01  4.1000000  0  5G01G24G18G21G11                                 
  22024590.63349 115740005.14149      3571.89549        48.000  

  22548755.93049 118494511.21949     -2254.68049        48.000  

  20387368.13349 107136342.05149      9081.72349        50.000  

  24002484.50049 126133907.05949     16319.16049        48.000  

  20286994.27349 106608873.70749      2857.52349        50.000  

 16 04 02 12 01  4.2000000  0  5G01G24G18G21G11                                 
  22024522.68049 115739648.06649      3570.02349        48.000  

  22548798.86749 118494736.86349     -2257.77749        48.000  

  20387195.36749 107135434.13749      9076.60249        50.000  

  24002173.96149 126132275.27349     16317.33249        48.000  

  20286939.93049 106608588.10949      2854.62149        50.000  

 16 04 02 12 01  4.3000000  0  5G01G24G18G21G11                                 
  22024454.75849 115739291.09849      3568.76249        48.000  

  22548841.85249 118494962.73849     -2260.16449        48.000  

  20387022.68049 107134526.66049      9072.03149        50.000  

  24001863.46149 126130643.56649     16316.34049        48.000  

  20286885.62549 106608302.72349      2852.36749        50.000  

 16 04 02 12 01  4.4000000  0  5G01G24G18G21G11                                 
  22024386.85949 115738934.32849      3566.97349        48.000  

  22548884.89849 118495188.94549     -2263.41849        48.000  

  20386850.08649 107133619.69949      9066.98849        50.000  

  24001552.95349 126129012.03549     16314.73049        48.000  

  20286831.36749 106608017.62549      2849.57449        50.000  

 16 04 02 12 01  4.5000000  0  5G01G24G18G21G11                                 
  22024319.00049 115738577.71549      3565.30949        48.000  

  22548927.99249 118495415.43849     -2266.48449        48.000  

  20386677.58649 107132713.22349      9062.07049        50.000  

  24001242.50849 126127380.63749     16313.24649        48.000  

  20286777.16449 106607732.80549      2846.77349        50.000  

 16 04 02 12 01  4.6000000  0  5G01G24G18G21G11                                 
  22024251.16449 115738221.27749      3563.50049        48.000  

  22548971.14849 118495642.20749     -2269.37149        48.000  

  20386505.18849 107131807.25049      9056.90649        50.000  

  24000932.10249 126125749.41449     16311.49649        48.000  

  20286723.02349 106607448.25849      2843.91049        50.000  

 16 04 02 12 01  4.7000000  0  5G01G24G18G21G11                                 
  22024183.36749 115737865.00049      3561.93049        48.000  

  22549014.35949 118495869.28549     -2272.19949        48.000  

  20386332.87549 107130901.75449      9052.30549        50.000  

  24000621.71149 126124118.32049     16310.09849        48.000  

  20286668.93049 106607163.96149      2841.48449        50.000  

 16 04 02 12 01  4.8000000  0  5G01G24G18G21G11                                 
  22024115.59449 115737508.87149      3560.50849        48.000  

  22549057.62549 118496096.62949     -2274.97349        48.000  

  20386160.65649 107129996.73449      9047.47749        50.000  

  24000311.35249 126122487.34049     16308.96949        48.000  

  20286614.86749 106606879.92649      2838.90649        50.000  

 16 04 02 12 01  4.9000000  0  5G01G24G18G21G11                                 
  22024047.85249 115737152.90249      3559.03949        48.000  

  22549100.93849 118496324.24649     -2277.53549        48.000  

  20385988.53149 107129092.20349      9042.75849        50.000  

  24000001.01649 126120856.51249     16307.72349        48.000  

  20286560.86749 106606596.14849      2836.42249        50.000  

 16 04 02 12 01  5.0000000  0  5G01G24G18G21G11                                 
  22023980.14149 115736797.07449      3557.65649        48.000  

  22549144.29749 118496552.12549     -2280.13349        48.000  

  20385816.49249 107128188.12549      9038.18049        50.000  

  23999690.71949 126119225.79349     16306.59049        48.000  

  20286506.90649 106606312.60249      2834.07049        50.000  

 16 04 02 12 01  5.1000000  0  5G01G24G18G21G11                                 
  22023912.46949 115736441.42649      3555.81649        48.000  

  22549187.72749 118496780.31649     -2283.27349        48.000  

  20385644.54749 107127284.55549      9033.18449        50.000  

  23999380.43849 126117595.24249     16304.94949        48.000  

  20286453.00849 106606029.34849      2831.24649        50.000  

 16 04 02 12 01  5.2000000  0  5G01G24G18G21G11                                 
  22023844.80549 115736085.87149      3554.59449        48.000  

  22549231.19549 118497008.74649     -2285.89549        48.000  

  20385472.68849 107126381.42249      9028.56249        50.000  

  23999070.14849 126115964.78149     16303.90649        48.000  

  20286399.14149 106605746.30549      2828.87149        50.000  

 16 04 02 12 01  5.3000000  0  5G01G24G18G21G11                                 
  22023777.18049 115735730.49649      3553.22349        48.000  

  22549274.70349 118497237.45749     -2288.41849        48.000  

  20385300.91449 107125478.77349      9024.14149        50.000  

  23998759.90649 126114334.46949     16302.63749        48.000  

  20286345.33649 106605463.52349      2826.60549        50.000  

 16 04 02 12 01  5.4000000  0  5G01G24G18G21G11                                 
  22023709.59449 115735375.34449      3550.73049        48.000  

  22549318.29749 118497466.52049     -2292.05549        48.000  

  20385129.25049 107124576.68049      9018.31649        50.000  

  23998449.70349 126112704.34449     16300.55949        48.000  

  20286291.59449 106605181.06649      2823.13749        50.000  

 16 04 02 12 01  5.5000000  0  5G01G24G18G21G11                                 
  22023642.03949 115735020.33249      3549.28149        48.000  

  22549361.93849 118497695.85249     -2294.90249        48.000  

  20384957.68049 107123675.05949      9013.50049        50.000  

  23998139.52349 126111074.35549     16299.19149        48.000  

  20286237.89149 106604898.87149      2820.50449        50.000  

 16 04 02 12 01  5.6000000  0  5G01G24G18G21G11                                 
  22023574.51649 115734665.48049      3547.71549        48.000  

  22549405.63349 118497925.46549     -2297.55949        48.000  

  20384786.18849 107122773.90249      9008.97749        50.000  

  23997829.37549 126109444.50049     16297.96949        48.000  

  20286184.24249 106604616.91449      2818.17649        50.000  

 16 04 02 12 01  5.7000000  0  5G01G24G18G21G11                                 
  22023507.00849 115734310.74249      3546.44149        48.000  

  22549449.36749 118498155.31249     -2300.17249        48.000  

  20384614.79749 107121873.20349      9004.11749        50.000  

  23997519.25049 126107814.75049     16296.75449        48.000  

  20286130.63349 106604335.19149      2815.59449        50.000  

 16 04 02 12 01  5.8000000  0  5G01G24G18G21G11                                 
  22023439.55549 115733956.23049      3544.42649        48.000  

  22549493.17249 118498385.51249     -2303.34849        48.000  

  20384443.50049 107120973.03549      8999.18049        50.000  

  23997209.14149 126106185.19549     16294.96549        48.000  

  20286077.08649 106604053.77749      2812.71949        50.000  

 16 04 02 12 01  5.9000000  0  5G01G24G18G21G11                                 
  22023372.11749 115733601.85249      3542.99649        48.000  

  22549537.03149 118498615.98449     -2306.16849        48.000  

  20384272.29749 107120073.35249      8994.16049        50.000  

  23996899.07049 126104555.75849     16293.64149        48.000  

  20286023.57849 106603772.61749      2810.08649        50.000  

 16 04 02 12 01  6.0000000  0  5G01G24G18G21G11                                 
  22023304.71949 115733247.69149      3540.72749        48.000  

  22549580.94549 118498846.77749     -2309.48849        48.000  

  20384101.19549 107119174.19149      8988.85249        50.000  

  23996588.98449 126102926.51649     16291.62549        48.000  

  20285970.14149 106603491.76649      2807.11349        50.000  

 16 04 02 12 01  6.1000000  0  5G01G24G18G21G11                                 
  22023237.34449 115732893.64849      3539.45349        48.000  

  22549624.92249 118499077.82849     -2312.02049        48.000  

  20383930.18049 107118275.47749      8984.43049        50.000  

  23996278.96949 126101297.36749     16290.78949        48.000  

  20285916.73449 106603211.14149      2804.75049        50.000  

 16 04 02 12 01  6.2000000  0  5G01G24G18G21G11                                 
  22023170.00849 115732539.81249      3537.48849        48.000  

  22549668.95349 118499309.19949     -2315.25849        48.000  

  20383759.25849 107117377.29749      8979.19149        50.000  

  23995968.98449 126099668.41449     16288.86749        48.000  

  20285863.39849 106602930.82049      2801.78949        50.000  

 16 04 02 12 01  6.3000000  0  5G01G24G18G21G11                                 
  22023102.69549 115732186.07449      3536.71949        48.000  

  22549713.02349 118499540.80149     -2317.30549        48.000  

  20383588.42249 107116479.53949      8975.20749        50.000  

  23995659.02349 126098039.53549     16288.36349        48.000  

  20285810.09449 106602650.70349      2799.99249        50.000  

 16 04 02 12 01  6.4000000  0  5G01G24G18G21G11                                 
  22023035.40649 115731832.49649      3534.96549        48.000  

  22549757.14849 118499772.68049     -2320.37149        48.000  

  20383417.68049 107115582.26249      8970.04349        50.000  

  23995349.08649 126096410.79749     16286.80949        48.000  

  20285756.83649 106602370.84849      2797.05149        50.000  

 16 04 02 12 01  6.5000000  0  5G01G24G18G21G11                                 
  22022968.16449 115731479.12549      3533.02049        48.000  

  22549801.32849 118500004.90649     -2323.62149        48.000  

  20383247.03149 107114685.52749      8964.79349        50.000  

  23995039.18849 126094782.25449     16284.84849        48.000  

  20285703.64149 106602091.30549      2794.05949        50.000  

 16 04 02 12 01  6.6000000  0  5G01G24G18G21G11                                 
  22022900.94549 115731125.93449      3531.11349        48.000  

  22549845.57849 118500237.41049     -2326.62949        48.000  

  20383076.48449 107113789.27349      8959.85949        50.000  

  23994729.30549 126093153.84449     16283.41849        48.000  

  20285650.50049 106601812.02749      2791.35549        50.000  

 16 04 02 12 01  6.7000000  0  5G01G24G18G21G11                                 
  22022833.75849 115730772.85249      3529.99249        48.000  

  22549889.86749 118500470.16449     -2329.05549        48.000  

  20382906.01649 107112893.48449      8955.24249        50.000  

  23994419.45349 126091525.55949     16282.16449        48.000  

  20285597.39849 106601532.98049      2789.03149        50.000  

 16 04 02 12 01  6.8000000  0  5G01G24G18G21G11                                 
  22022766.61749 115730419.97749      3527.87949        48.000  

  22549934.21949 118500703.25049     -2332.32449        48.000  

  20382735.64849 107111998.21149      8949.99649        50.000  

  23994109.64149 126089897.43849     16280.53949        48.000  

  20285544.35249 106601254.23449      2785.91449        50.000  

 16 04 02 12 01  6.9000000  0  5G01G24G18G21G11                                 
  22022699.50049 115730067.28149      3526.25449        48.000  

  22549978.64149 118500936.63749     -2335.26649        48.000  

  20382565.38349 107111103.43849      8945.10249        50.000  

  23993799.85249 126088269.48449     16278.86749        48.000  

  20285491.35949 106600975.77049      2783.20749        50.000  

 16 04 02 12 01  7.0000000  0  5G01G24G18G21G11                                 
  22022632.40649 115729714.72349      3524.71549        48.000  

  22550023.10249 118501170.27749     -2337.96549        48.000  

  20382395.19549 107110209.14149      8940.26249        50.000  

  23993490.10949 126086641.64549     16277.64549        48.000  

  20285438.41449 106600697.53949      2780.71949        50.000  

 16 04 02 12 01  7.1000000  0  5G01G24G18G21G11                                 
  22022565.35249 115729362.33649      3523.12949        48.000  

  22550067.61749 118501404.24249     -2341.08249        48.000  

  20382225.10949 107109315.32449      8935.51249        50.000  

  23993180.36749 126085013.96149     16276.08249        48.000  

  20285385.52349 106600419.59449      2778.12149        50.000  

 16 04 02 12 01  7.2000000  0  5G01G24G18G21G11                                 
  22022498.31249 115729010.08649      3521.80149        48.000  

  22550112.18849 118501638.43849     -2343.32849        48.000  

  20382055.10949 107108421.98849      8930.88749        50.000  

  23992870.66449 126083386.38749     16275.19549        48.000  

  20285332.67249 106600141.88749      2775.84849        50.000  

 16 04 02 12 01  7.3000000  0  5G01G24G18G21G11                                 
  22022431.32049 115728658.03149      3519.85249        48.000  

  22550156.81249 118501872.96549     -2346.52349        48.000  

  20381885.20349 107107529.15249      8925.81649        50.000  

  23992560.97749 126081758.98849     16273.40649        48.000  

  20285279.88349 106599864.46949      2772.78949        50.000  

 16 04 02 12 01  7.4000000  0  5G01G24G18G21G11                                 
  22022364.35249 115728306.11349      3518.19949        48.000  

  22550201.49249 118502107.74249     -2349.38349        48.000  

  20381715.39849 107106636.78949      8920.81249        50.000  

  23992251.30549 126080131.70749     16272.03149        48.000  

  20285227.13349 106599587.28549      2770.19549        50.000  

 16 04 02 12 01  7.5000000  0  5G01G24G18G21G11                                 
  22022297.42249 115727954.42649      3516.16849        48.000  

  22550246.23449 118502342.89549     -2352.82849        48.000  

  20381545.68849 107105744.98049      8915.58649        50.000  

  23991941.68849 126078504.65249     16269.99649        48.000  

  20285174.45349 106599310.44949      2767.08649        50.000  

 16 04 02 12 01  7.6000000  0  5G01G24G18G21G11                                 
  22022230.53149 115727602.89149      3514.37549        48.000  

  22550291.03149 118502578.30549     -2355.89149        48.000  

  20381376.07849 107104853.63349      8910.55149        50.000  

  23991632.09449 126076877.69949     16268.64549        48.000  

  20285121.81249 106599033.84449      2764.38749        50.000  

 16 04 02 12 01  7.7000000  0  5G01G24G18G21G11                                 
  22022163.68049 115727251.57449      3512.34049        48.000  

  22550335.90649 118502814.08649     -2359.20349        48.000  

  20381206.57049 107103962.85549      8905.17649        50.000  

  23991322.53949 126075250.98049     16266.52749        48.000  

  20285069.24249 106598757.59449      2761.12549        50.000  

 16 04 02 12 01  7.8000000  0  5G01G24G18G21G11                                 
  22022096.85949 115726900.41449      3510.78949        48.000  

  22550380.82049 118503050.11749     -2361.85549        48.000  

  20381037.14849 107103072.55149      8900.34449        50.000  

  23991013.01649 126073624.37949     16265.20349        48.000  

  20285016.71949 106598481.57849      2758.72749        50.000  

 16 04 02 12 01  7.9000000  0  5G01G24G18G21G11                                 
  22022030.06249 115726549.41049      3509.18849        48.000  

  22550425.78949 118503286.43849     -2364.66449        48.000  

  20380867.82049 107102182.71549      8895.55549        50.000  

  23990703.50849 126071997.90249     16264.05949        48.000  

  20284964.25049 106598205.82049      2756.05949        50.000  

 16 04 02 12 01  8.0000000  0  5G01G24G18G21G11                                 
  22021963.29749 115726198.55549      3507.90649        48.000  

  22550470.81249 118503523.03549     -2367.30149        48.000  

  20380698.57049 107101293.35949      8891.10249        50.000  

  23990394.05549 126070371.57449     16262.75849        48.000  

  20284911.82049 106597930.32449      2753.73049        50.000  

 16 04 02 12 01  8.1000000  0  5G01G24G18G21G11                                 
  22021896.55549 115725847.83249      3506.53149        48.000  

  22550515.88349 118503759.89149     -2370.01249        48.000  

  20380529.42249 107100404.46949      8886.33249        50.000  

  23990084.59449 126068745.35249     16261.56649        48.000  

  20284859.44549 106597655.05949      2751.25449        50.000  

 16 04 02 12 01  8.2000000  0  5G01G24G18G21G11                                 
  22021829.84449 115725497.26649      3504.91449        48.000  

  22550561.00849 118503997.02349     -2372.84849        48.000  

  20380360.36749 107099516.04749      8881.33249        50.000  

  23989775.16449 126067119.27049     16260.12949        48.000  

  20284807.10249 106597380.04749      2748.60949        50.000  

 16 04 02 12 01  8.3000000  0  5G01G24G18G21G11                                 
  22021763.18049 115725146.96949      3502.25049        48.000  

  22550606.21149 118504234.55949     -2376.71549        48.000  

  20380191.42249 107098628.23049      8875.59449        50.000  

  23989465.77349 126065493.43049     16257.83649        48.000  

  20284754.84449 106597105.41049      2744.97349        50.000  

 16 04 02 12 01  8.4000000  0  5G01G24G18G21G11                                 
  22021696.53949 115724796.72349      3501.78549        48.000  

  22550651.43849 118504472.23449     -2378.13349        48.000  

  20380022.53949 107097740.77349      8872.11349        50.000  

  23989156.39849 126063867.61349     16257.60249        48.000  

  20284702.61749 106596830.91449      2743.70749        50.000  

 16 04 02 12 01  8.5000000  0  5G01G24G18G21G11                                 
  22021629.90649 115724446.57849      3500.83249        48.000  

  22550696.71949 118504710.17249     -2380.73049        48.000  

  20379853.74249 107096853.75849      8867.56649        50.000  

  23988847.03149 126062241.88749     16256.78549        48.000  

  20284650.42249 106596556.64149      2741.32449        50.000  

 16 04 02 12 01  8.6000000  0  5G01G24G18G21G11                                 
  22021563.32049 115724096.67649      3498.24249        48.000  

  22550742.06249 118504948.46149     -2384.26649        48.000  

  20379685.04749 107095967.29749      8862.07049        50.000  

  23988537.68849 126060616.38749     16254.46949        48.000  

  20284598.29749 106596282.69549      2738.10249        50.000  

 16 04 02 12 01  8.7000000  0  5G01G24G18G21G11                                 
  22021496.76649 115723746.93049      3496.59049        48.000  

  22550787.45349 118505187.05149     -2387.38349        48.000  

  20379516.45349 107095081.32849      8857.12949        50.000  

  23988228.39149 126058991.02049     16253.03149        48.000  

  20284546.21949 106596009.02049      2735.34049        50.000  

 16 04 02 12 01  8.8000000  0  5G01G24G18G21G11                                 
  22021430.23449 115723397.35249      3494.81649        48.000  

  22550832.90649 118505425.90249     -2390.19549        48.000  

  20379347.95349 107094195.85249      8851.96949        50.000  

  23987919.10949 126057365.80149     16251.28549        48.000  

  20284494.18849 106595735.61349      2732.45349        50.000  

 16 04 02 12 01  8.9000000  0  5G01G24G18G21G11                                 
  22021363.75049 115723047.94949      3493.23049        48.000  

  22550878.42249 118505665.07449     -2393.07849        48.000  

  20379179.54749 107093310.86349      8847.26249        50.000  

  23987609.86749 126055740.73849     16249.94949        48.000  

  20284442.21149 106595462.47349      2730.05949        50.000  

 16 04 02 12 01  9.0000000  0  5G01G24G18G21G11                                 
  22021297.28149 115722698.66049      3491.95349        48.000  

  22550923.97749 118505904.47749     -2395.66449        48.000  

  20379011.21949 107092426.32849      8842.65249        50.000  

  23987300.64848 126054115.77048     16248.89848        47.000  

  20284390.28149 106595189.56249      2727.55149        50.000  

 16 04 02 12 01  9.1000000  0  5G01G24G18G21G11                                 
  22021230.85949 115722349.62549      3489.34449        48.000  

  22550969.61749 118506144.25849     -2399.45349        48.000  

  20378843.00849 107091542.36349      8836.74649        50.000  

  23986991.46949 126052491.02749     16246.67649        48.000  

  20284338.41449 106594917.00049      2723.95349        50.000  

 16 04 02 12 01  9.2000000  0  5G01G24G18G21G11                                 
  22021164.47749 115722000.80149      3487.43449        48.000  

  22551015.31249 118506384.37149     -2402.61349        48.000  

  20378674.89849 107090658.93849      8831.64849        50.000  

  23986682.32049 126050866.48849     16244.78949        48.000  

  20284286.60249 106594644.75049      2721.11349        50.000  

 16 04 02 12 01  9.3000000  0  5G01G24G18G21G11                                 
  22021098.11749 115721652.07049      3486.37549        48.000  

  22551061.04749 118506624.69949     -2404.88349        48.000  

  20378506.86749 107089775.92249      8827.40649        50.000  

  23986373.19549 126049242.00449     16244.13749        48.000  

  20284234.83649 106594372.69549      2719.05149        50.000  

 16 04 02 12 01  9.4000000  0  5G01G24G18G21G11                                 
  22021031.78149 115721303.49249      3485.09049        48.000  

  22551106.83649 118506865.32449     -2407.56249        48.000  

  20378338.93049 107088893.39849      8822.73849        50.000  

  23986064.09449 126047617.68449     16242.71949        48.000  

  20284183.11749 106594100.90649      2716.57449        50.000  

 16 04 02 12 01  9.5000000  0  5G01G24G18G21G11                                 
  22020965.47749 115720955.07449      3483.56649        48.000  

  22551152.68049 118507106.21149     -2410.24649        48.000  

  20378171.07849 107088011.34449      8818.08249        50.000  

  23985755.01649 126045993.46949     16241.64149        48.000  

  20284131.44549 106593829.35949      2714.19949        50.000  

 16 04 02 12 01  9.6000000  0  5G01G24G18G21G11                                 
  22020899.20349 115720606.80949      3481.94149        48.000  

  22551198.57849 118507347.39149     -2413.06649        48.000  

  20378003.32049 107087129.78149      8813.21149        50.000  

  23985445.97749 126044369.41449     16240.14549        48.000  

  20284079.82849 106593558.08649      2711.44949        50.000  

 16 04 02 12 01  9.7000000  0  5G01G24G18G21G11                                 
  22020832.96949 115720258.71949      3480.18849        48.000  

  22551244.52349 118507588.85549     -2416.08249        48.000  

  20377835.65649 107086248.71149      8808.09049        50.000  

  23985136.96149 126042745.50849     16238.40249        48.000  

  20284028.25849 106593287.08249      2708.72749        50.000  

 16 04 02 12 01  9.8000000  0  5G01G24G18G21G11                                 
  22020766.75849 115719910.77349      3478.68849        48.000  

  22551290.52349 118507830.60249     -2418.87949        48.000  

  20377668.07849 107085368.11349      8803.43849        50.000  

  23984827.95349 126041121.71549     16237.22349        48.000  

  20283976.72749 106593016.32049      2706.25849        50.000  

 16 04 02 12 01  9.9000000  0  5G01G24G18G21G11                                 
  22020700.57849 115719562.98449      3476.81649        48.000  

  22551336.57849 118508072.62149     -2422.09049        48.000  

  20377500.59449 107084487.99649      8798.11349        50.000  

  23984518.98449 126039498.07049     16235.53949        48.000  

  20283925.25049 106592745.82049      2703.14849        50.000  

 16 04 02 12 01 10.0000000  0  5G01G24G18G21G11                                 
  22020634.44549 115719215.44549      3474.63349        48.000  

  22551382.70349 118508315.01249     -2425.34449        48.000  

  20377333.21949 107083608.44949      8792.93449        50.000  

  23984210.03949 126037874.64149     16233.64149        48.000  

  20283873.84449 106592475.67249      2700.18849        50.000  

 16 04 02 12 01 10.1000000  0  5G01G24G18G21G11                                 
  22020568.32849 115718868.00049      3473.52349        48.000  

  22551428.87549 118508557.62149     -2427.73449        48.000  

  20377165.93049 107082729.32449      8788.46149        50.000  

  23983901.12549 126036251.29749     16232.69549        48.000  

  20283822.47749 106592205.72349      2697.96149        50.000  

 16 04 02 12 01 10.2000000  0  5G01G24G18G21G11                                 
  22020502.25049 115718520.73049      3471.97749        48.000  

  22551475.10249 118508800.53549     -2430.50849        48.000  

  20376998.73449 107081850.70349      8783.66849        50.000  

  23983592.25049 126034628.10949     16231.27749        48.000  

  20283771.16449 106591936.04749      2695.36749        50.000  

 16 04 02 12 01 10.3000000  0  5G01G24G18G21G11                                 
  22020436.19549 115718173.63749      3470.23049        48.000  

  22551521.38349 118509043.73849     -2433.38349        48.000  

  20376831.63349 107080972.57449      8778.78549        50.000  

  23983283.39848 126033005.07448     16229.66048        47.000  

  20283719.89849 106591666.64549      2692.71149        50.000  

 16 04 02 12 01 10.4000000  0  5G01G24G18G21G11                                 
  22020370.18049 115717826.68049      3468.66849        48.000  

  22551567.71149 118509287.21949     -2436.28949        48.000  

  20376664.61749 107080094.91449      8773.87149        50.000  

  23982974.56249 126031382.16049     16228.21549        48.000  

  20283668.68049 106591397.49249      2690.02349        50.000  

 16 04 02 12 01 10.5000000  0  5G01G24G18G21G11                                 
  22020304.20349 115717479.97349      3466.25849        48.000  

  22551614.11749 118509531.06249     -2439.94149        48.000  

  20376497.71949 107079217.83249      8768.25449        50.000  

  23982665.77349 126029759.46549     16226.13349        48.000  

  20283617.53149 106591128.68449      2686.71549        50.000  

 16 04 02 12 01 10.6000000  0  5G01G24G18G21G11                                 
  22020238.25049 115717133.37549      3465.18449        48.000  

  22551660.56249 118509775.12549     -2442.13349        48.000  

  20376330.89149 107078341.16049      8763.96149        50.000  

  23982356.98449 126028136.85249     16225.23849        48.000  

  20283566.41449 106590860.07849      2684.52049        50.000  

 16 04 02 12 01 10.7000000  0  5G01G24G18G21G11                                 
  22020172.32849 115716786.94149      3463.54749        48.000  

  22551707.07849 118510019.51249     -2445.16449        48.000  

  20376164.17249 107077465.01249      8758.94549        50.000  

  23982048.24249 126026514.41449     16223.71949        48.000  

  20283515.35249 106590591.75849      2681.81249        50.000  

 16 04 02 12 01 10.8000000  0  5G01G24G18G21G11                                 
  22020106.43049 115716440.67249      3462.07449        48.000  

  22551753.63349 118510264.16449     -2447.90249        48.000  

  20375997.53149 107076589.33649      8754.20349        50.000  

  23981739.53149 126024892.10249     16222.44149        48.000  

  20283464.34449 106590323.69949      2679.29749        50.000  

 16 04 02 12 01 10.9000000  0  5G01G24G18G21G11                                 
  22020040.55549 115716094.51649      3460.88349        48.000  

  22551800.22749 118510509.05549     -2450.22749        48.000  

  20375830.97749 107075714.09049      8749.94149        50.000  

  23981430.82849 126023269.87949     16221.60249        48.000  

  20283413.36749 106590055.84849      2677.17649        50.000  

 16 04 02 12 01 11.0000000  0  5G01G24G18G21G11                                 
  22019974.71949 115715748.55949      3458.82049        48.000  

  22551846.89149 118510754.27349     -2453.57849        48.000  

  20375664.52349 107074839.38349      8744.44949        50.000  

  23981122.16449 126021647.84449     16219.72749        48.000  

  20283362.44549 106589788.29749      2674.11349        50.000  

 16 04 02 12 01 11.1000000  0  5G01G24G18G21G11                                 
  22019908.91449 115715402.75849      3457.08249        48.000  

  22551893.59449 118510999.75849     -2456.39849        48.000  

  20375498.16449 107073965.13749      8739.83649        50.000  

  23980813.52349 126020025.92249     16218.37149        48.000  

  20283311.57849 106589520.99649      2671.57849        50.000  

 16 04 02 12 01 11.2000000  0  5G01G24G18G21G11                                 
  22019843.14149 115715057.08249      3455.77749        48.000  

  22551940.35949 118511245.51249     -2459.11749        48.000  

  20375331.89149 107073091.36749      8734.92649        50.000  

  23980504.91449 126018404.14549     16216.82849        48.000  

  20283260.76649 106589253.95349      2668.87149        50.000  

 16 04 02 12 01 11.3000000  0  5G01G24G18G21G11                                 
  22019777.40649 115714711.60949      3453.96949        48.000  

  22551987.18849 118511491.59049     -2462.07449        48.000  

  20375165.71949 107072218.11349      8729.97749        50.000  

  23980196.33649 126016782.52749     16215.47749        48.000  

  20283210.00049 106588987.19549      2666.25849        50.000  

 16 04 02 12 01 11.4000000  0  5G01G24G18G21G11                                 
  22019711.71149 115714366.36749      3451.65249        48.000  

  22552034.08649 118511738.02049     -2465.75049        48.000  

  20374999.64849 107071345.41849      8724.30549        50.000  

  23979887.77349 126015161.13349     16213.12549        48.000  

  20283159.29749 106588720.77349      2662.80549        50.000  

 16 04 02 12 01 11.5000000  0  5G01G24G18G21G11                                 
  22019646.02349 115714021.18849      3450.90649        48.000  

  22552081.00849 118511984.61349     -2467.50049        48.000  

  20374833.64849 107070473.09049      8720.45749        50.000  

  23979579.24249 126013539.75449     16212.89149        48.000    23979578.55541
  98192365.22751     12633.42241        20.000  
  20283108.62549 106588454.50449      2661.15649        50.000  

 16 04 02 12 01 11.6000000  0  5G01G24G18G21G11                                 
  22019580.37549 115713676.21149      3448.93849        48.000  

  22552128.00049 118512231.56249     -2470.99649        48.000  

  20374667.75849 107069601.31649      8715.07449        50.000  

  23979270.71949 126011918.58649     16210.85549        48.000    23979270.06241
  98191101.98841     12631.83641        20.000  
  20283058.02349 106588188.54349      2658.16049        50.000  

 16 04 02 12 01 11.7000000  0  5G01G24G18G21G11                                 
  22019514.75849 115713331.37149      3447.70749        48.000  

  22552175.03949 118512478.75449     -2473.37549        48.000  

  20374501.94549 107068729.98849      8710.79749        50.000  

  23978962.24249 126010297.51249     16210.06649        48.000    23978961.15641
  98189838.82841     12631.21941        20.000  
  20283007.46149 106587922.82849      2655.96149        50.000  

 16 04 02 12 01 11.8000000  0  5G01G24G18G21G11                                 
  22019449.17249 115712986.71149      3445.72349        48.000  

  22552222.13349 118512726.25849     -2476.44149        48.000  

  20374336.23449 107067859.16849      8705.56249        50.000  

  23978653.80549 126008676.61349     16208.32849        48.000    23978652.71141
  98188575.80141     12629.86741        20.000  
  20282956.94549 106587657.38349      2653.08249        50.000  

 16 04 02 12 01 11.9000000  0  5G01G24G18G21G11                                 
  22019383.62549 115712642.23849      3443.77749        48.000  

  22552269.29749 118512974.07049     -2479.77049        48.000  

  20374170.61749 107066988.86349      8700.25849        50.000  

  23978345.38349 126007055.87149     16206.46149        48.000  

  20282906.49249 106587392.25049      2649.85949        50.000  

 16 04 02 12 01 12.0000000  0  5G01G24G18G21G11                                 
  22019318.09449 115712297.88349      3442.75449        48.000  

  22552316.50049 118513222.12949     -2482.20349        48.000  

  20374005.08649 107066119.00049      8695.95349        50.000  

  23978036.99249 126005435.25049     16205.36349        48.000  

  20282856.07849 106587127.32049      2647.78149        50.000  

 16 04 02 12 01 12.1000000  0  5G01G24G18G21G11                                 
  22019252.59449 115711953.67249      3441.49249        48.000  

  22552363.75849 118513470.46149     -2484.65249        48.000  

  20373839.64149 107065249.60949      8691.47749        50.000  

  23977728.62549 126003814.73849     16204.39149        48.000  

  20282805.71149 106586862.64149      2645.58649        50.000  

 16 04 02 12 01 12.2000000  0  5G01G24G18G21G11                                 
  22019187.12549 115711609.61749      3439.81249        48.000  

  22552411.07049 118513719.05549     -2487.42249        48.000  

  20373674.29749 107064380.69149      8686.51249        50.000  

  23977420.25849 126002194.35549     16202.98449        48.000  

  20282755.40649 106586598.21549      2642.79349        50.000  

 16 04 02 12 01 12.3000000  0  5G01G24G18G21G11                                 
  22019121.68849 115711265.75849      3437.80949        48.000  

  22552458.43849 118513967.97349     -2490.59449        48.000  

  20373509.04749 107063512.28949      8681.37149        50.000  

  23977111.94549 126000574.14849     16201.25049        48.000  

  20282705.14149 106586334.09049      2639.83249        50.000  

 16 04 02 12 01 12.4000000  0  5G01G24G18G21G11                                 
  22019056.28149 115710922.08249      3435.87149        48.000  

  22552505.85949 118514217.20749     -2493.87949        48.000  

  20373343.89849 107062644.41449      8676.19149        50.000  

  23976803.65649 125998954.10549     16199.68049        48.000  

  20282654.93049 106586070.25049      2636.96149        50.000  

 16 04 02 12 01 12.5000000  0  5G01G24G18G21G11                                 
  22018990.90649 115710578.53549      3434.68849        48.000  

  22552553.33649 118514466.69149     -2496.28549        48.000  

  20373178.83649 107061776.97749      8671.80549        50.000  

  23976495.39849 125997334.17649     16198.62149        48.000    23976493.40641
  98179732.36351     12622.30141        20.000  
  20282604.76649 106585806.64149      2634.73849        50.000  

 16 04 02 12 01 12.6000000  0  5G01G24G18G21G11                                 
  22018925.56249 115710235.13749      3433.14149        48.000  

  22552600.86749 118514716.44949     -2499.13349        48.000  

  20373013.85949 107060910.02049      8666.85949        50.000  

  23976187.15649 125995714.38349     16197.04749        48.000    23976185.16441
  98178470.18841     12621.07441        20.000  
  20282554.64849 106585543.27749      2632.07849        50.000  

 16 04 02 12 01 12.7000000  0  5G01G24G18G21G11                                 
  22018860.25849 115709891.94949      3431.21149        48.000  

  22552648.45349 118514966.53149     -2502.18449        48.000  

  20372848.98449 107060043.60249      8661.68849        50.000  

  23975878.95349 125994094.76649     16195.51649        48.000    23975880.86741
  98177208.15241     12619.88341        20.000  
  20282504.59449 106585280.23049      2629.17249        50.000  

 16 04 02 12 01 12.8000000  0  5G01G24G18G21G11                                 
  22018794.98449 115709548.93849      3429.13749        48.000  

  22552696.10249 118515216.91849     -2505.43449        48.000  

  20372684.20349 107059177.67249      8656.39549        50.000  

  23975570.78149 125992475.30549     16193.57449        48.000    23975572.69541
  98175946.23441     12618.36741        20.000  
  20282454.58649 106585017.46149      2626.05549        50.000  

 16 04 02 12 01 12.9000000  0  5G01G24G18G21G11                                 
  22018729.74249 115709206.08649      3427.80549        48.000  

  22552743.79749 118515467.59049     -2508.03549        48.000  

  20372519.51649 107058312.23449      8651.80949        50.000  

  23975262.64149 125990855.99649     16192.32449        48.000    23975260.65641
  98174684.45341     12617.39541        20.000  
  20282404.63349 106584754.95349      2623.72349        50.000  

 16 04 02 12 01 13.0000000  0  5G01G24G18G21G11                                 
  22018664.53149 115708863.37149      3426.42649        48.000  

  22552791.54749 118515718.53549     -2510.68049        48.000  

  20372354.92249 107057447.26649      8647.28949        50.000  

  23974954.51649 125989236.80549     16191.46149        48.000    23974952.53941
  98173422.76641     12616.72341        21.000  
  20282354.72749 106584492.69149      2621.37149        50.000  

 16 04 02 12 01 13.1000000  0  5G01G24G18G21G11                                 
  22018599.33649 115708520.77349      3425.34849        48.000  

  22552839.34449 118515969.69149     -2513.03549        48.000  

  20372190.40649 107056582.72749      8642.83249        50.000  

  23974646.40649 125987617.69549     16190.26249        48.000    23974644.19541
  98172161.14141     12615.78941        21.000  
  20282304.85949 106584230.62949      2619.30549        50.000  

 16 04 02 12 01 13.2000000  0  5G01G24G18G21G11                                 
  22018534.18049 115708178.37149      3423.43449        48.000  

  22552887.20349 118516221.19149     -2516.15249        48.000  

  20372025.99249 107055718.71549      8637.74249        50.000  

  23974338.32049 125985998.76649     16188.76649        48.000    23974336.13341
  98170899.65641     12614.62541        20.000  
  20282255.04749 106583968.87949      2616.34049        50.000  

 16 04 02 12 01 13.3000000  0  5G01G24G18G21G11                                 
  22018469.04749 115707836.09049      3421.82849        48.000  

  22552935.10949 118516472.93449     -2519.14849        48.000  

  20371861.65649 107054855.14849      8632.84849        50.000  

  23974030.26649 125984379.95349     16187.07849        48.000    23974031.99241
  98169638.26241     12613.30941        23.000  
  20282205.28149 106583707.35249      2613.59849        50.000  

 16 04 02 12 01 13.4000000  0  5G01G24G18G21G11                                 
  22018403.95349 115707494.01649      3420.12549        48.000  

  22552983.07049 118516725.00449     -2522.02349        48.000  

  20371697.43849 107053992.12549      8627.80949        50.000  

  23973722.22749 125982761.32049     16185.77349        48.000    23973723.97741
  98168377.00041     12612.29341        20.000  
  20282155.57849 106583446.13349      2610.94149        50.000  

 16 04 02 12 01 13.5000000  0  5G01G24G18G21G11                                 
  22018338.88349 115707152.08649      3418.44149        48.000  

  22553031.08649 118516977.32849     -2524.75849        48.000  

  20371533.28949 107053129.53949      8623.08249        50.000  

  23973414.23449 125981142.78949     16184.37949        48.000    23973412.07841
  98167115.82041     12611.20341        20.000  
  20282105.91449 106583185.14849      2608.33649        50.000  

 16 04 02 12 01 13.6000000  0  5G01G24G18G21G11                                 
  22018273.84449 115706810.32849      3416.72749        48.000  

  22553079.16449 118517229.96949     -2527.80149        48.000  

  20371369.24249 107052267.47349      8618.11749        50.000  

  23973106.26649 125979524.43449     16182.71949        48.000    23973104.11741
  98165854.77341     12609.91041        21.000  
  20282056.30549 106582924.45349      2605.52049        50.000  

 16 04 02 12 01 13.7000000  0  5G01G24G18G21G11                                 
  22018208.84449 115706468.74649      3414.97749        48.000  

  22553127.28949 118517482.89849     -2530.74649        48.000  

  20371205.28949 107051405.91049      8612.92649        50.000  

  23972798.32849 125977906.22749     16181.11749        48.000    23972799.85941
  98164593.84441     12608.66041        22.000  
  20282006.75049 106582664.02349      2602.78549        50.000  

 16 04 02 12 01 13.8000000  0  5G01G24G18G21G11                                 
  22018143.88349 115706127.37549      3412.94149        48.000  

  22553175.48449 118517736.16049     -2534.06249        48.000  

  20371041.43849 107050544.87149      8607.86749        50.000  

  23972490.43049 125976288.20749     16179.51649        48.000    23972491.96141
  98163333.06241     12607.41441        20.000  
  20281957.25049 106582403.90649      2599.79349        50.000  

 16 04 02 12 01 13.9000000  0  5G01G24G18G21G11                                 
  22018078.94549 115705786.13349      3411.50049        48.000  

  22553223.71949 118517989.68049     -2536.81649        48.000  

  20370877.68049 107049684.28949      8603.15249        50.000  

  23972182.55549 125974670.30549     16178.20349        48.000    23972182.76641
  98162072.34841     12606.39141        20.000  
  20281907.79749 106582144.03949      2597.27749        50.000  

 16 04 02 12 01 14.0000000  0  5G01G24G18G21G11                                 
  22018014.03949 115705445.00049      3410.55549        48.000  

  22553272.00849 118518243.42249     -2538.87149        48.000  

  20370713.99249 107048824.14849      8598.75049        50.000  

  23971874.71149 125973052.49249     16177.35949        48.000    23971874.89841
  98160811.69541     12605.73441        20.000  
  20281858.38349 106581884.35949      2595.32849        50.000  

 16 04 02 12 01 14.1000000  0  5G01G24G18G21G11                                 
  22017949.16449 115705104.11349      3408.13749        48.000  

  22553320.36749 118518497.54749     -2542.61749        48.000  

  20370550.42249 107047964.57049      8593.28149        50.000  

  23971566.89149 125971434.89149     16175.16849        48.000    23971570.74241
  98159551.21141     12604.02741        22.000  
  20281809.03149 106581625.04349      2591.82449        50.000  

 16 04 02 12 01 14.2000000  0  5G01G24G18G21G11                                 
  22017884.32049 115704763.34449      3406.70349        48.000  

  22553368.77349 118518751.90649     -2545.26249        48.000  

  20370386.93849 107047105.43049      8588.55549        50.000  

  23971259.08649 125969817.40649     16173.81249        48.000    23971262.93841
  98158290.81641     12602.97341        20.000  
  20281759.72749 106581365.93449      2589.42249        50.000  

 16 04 02 12 01 14.3000000  0  5G01G24G18G21G11                                 
  22017819.52349 115704422.83249      3404.25449        48.000  

  22553417.24249 118519006.63749     -2548.84449        48.000  

  20370223.56249 107046246.88349      8582.82449        50.000  

  23970951.32849 125968200.13749     16171.83649        48.000    23970956.70341
  98157030.58641     12601.43441        20.000  
  20281710.49249 106581107.19149      2585.93049        50.000  

 16 04 02 12 01 14.4000000  0  5G01G24G18G21G11                                 
  22017754.75049 115704082.41449      3403.14549        48.000  

  22553465.75849 118519261.59849     -2551.06249        48.000  

  20370060.26649 107045388.75049      8578.62949        50.000  

  23970643.57049 125966582.95749     16170.93849        48.000  

  20281661.28949 106580848.63749      2584.02049        50.000  

 16 04 02 12 01 14.5000000  0  5G01G24G18G21G11                                 
  22017689.99249 115703742.14549      3401.78949        48.000  

  22553514.33649 118519516.84049     -2553.94149        48.000  

  20369897.05549 107044531.09449      8573.90649        50.000  

  23970335.85249 125964965.89849     16169.62149        48.000  

  20281612.13349 106580590.34849      2581.36749        50.000  

 16 04 02 12 01 14.6000000  0  5G01G24G18G21G11                                 
  22017625.28949 115703402.10949      3399.62949        48.000  

  22553562.96949 118519772.43049     -2557.25049        48.000  

  20369733.95349 107043674.00449      8568.43849        50.000  

  23970028.17249 125963349.07049     16167.70749        48.000  

  20281563.04749 106580332.38749      2578.27349        50.000  

 16 04 02 12 01 14.7000000  0  5G01G24G18G21G11                                 
  22017560.60249 115703062.18449      3398.42649        48.000  

  22553611.65649 118520028.25049     -2559.55949        48.000  

  20369570.93849 107042817.32849      8564.13349        50.000  

  23969720.51649 125961732.31249     16166.89149        48.000  

  20281514.00049 106580074.62949      2576.25449        50.000  

 16 04 02 12 01 14.8000000  0  5G01G24G18G21G11                                 
  22017495.92249 115702722.32849      3397.99249        48.000  

  22553660.37549 118520284.27049     -2561.47749        48.000  

  20369407.99249 107041961.06249      8560.18849        50.000  

  23969412.88349 125960115.60949     16166.44949        48.000  

  20281464.98449 106579817.05949      2574.52349        50.000  

 16 04 02 12 01 14.9000000  0  5G01G24G18G21G11                                 
  22017431.29749 115702382.68449      3395.75849        48.000  

  22553709.15649 118520540.61749     -2564.80949        48.000  

  20369245.15649 107041105.33249      8554.83249        50.000  

  23969105.27349 125958499.10949     16164.45349        48.000  

  20281416.03149 106579559.78949      2571.41049        50.000  

 16 04 02 12 01 15.0000000  0  5G01G24G18G21G11                                 
  22017366.68849 115702043.19549      3394.00449        48.000  

  22553757.98449 118520797.24249     -2567.82849        48.000  

  20369082.40649 107040250.07449      8549.82049        50.000  

  23968797.68049 125956882.72349     16162.84049        48.000  

  20281367.12549 106579302.77749      2568.62149        50.000  

 16 04 02 12 01 15.1000000  0  5G01G24G18G21G11                                 
  22017302.10949 115701703.85949      3392.51649        48.000  

  22553806.87549 118521054.14849     -2570.55549        48.000  

  20368919.75049 107039395.30149      8545.14149        50.000  

  23968490.12549 125955266.48049     16161.68849        48.000  

  20281318.26649 106579046.01649      2566.11749        50.000  

 16 04 02 12 01 15.2000000  0  5G01G24G18G21G11                                 
  22017237.57049 115701364.70749      3390.59849        48.000  

  22553855.82049 118521311.36349     -2573.79349        48.000  

  20368757.18049 107038541.03949      8539.88349        50.000  

  23968182.56249 125953650.40649     16159.82449        48.000  

  20281269.46149 106578789.55549      2563.10249        50.000  

 16 04 02 12 01 15.3000000  0  5G01G24G18G21G11                                 
  22017173.06249 115701025.72349      3389.02349        48.000  

  22553904.82049 118521568.85949     -2576.42249        48.000  

  20368594.71149 107037687.25449      8535.15649        50.000  

  23967875.06248 125952034.48448     16158.40248        47.000  

  20281220.71149 106578533.35949      2560.53949        50.000  

 16 04 02 12 01 15.4000000  0  5G01G24G18G21G11                                 
  22017108.58649 115700686.89849      3387.27349        48.000  

  22553953.87549 118521826.64849     -2579.46149        48.000  

  20368432.33649 107036833.96949      8530.13349        50.000  

  23967567.59448 125950418.68448     16157.06648        47.000  

  20281172.00049 106578277.40649      2557.94549        50.000  

 16 04 02 12 01 15.5000000  0  5G01G24G18G21G11                                 
  22017044.14149 115700348.19949      3386.19949        48.000  

  22554002.97749 118522084.68049     -2581.77749        48.000  

  20368270.04749 107035981.12149      8525.86349        50.000  

  23967260.14148 125948803.00048     16156.06248        47.000  

  20281123.34449 106578021.71149      2555.53549        50.000  

 16 04 02 12 01 15.6000000  0  5G01G24G18G21G11                                 
  22016979.73449 115700009.73049      3383.89149        48.000  

  22554052.14849 118522343.07449     -2585.40649        48.000  

  20368107.85949 107035128.85249      8520.16849        50.000  

  23966952.72749 125947187.52749     16154.02349        48.000  

  20281074.74249 106577766.32849      2552.37149        50.000  

 16 04 02 12 01 15.7000000  0  5G01G24G18G21G11                                 
  22016915.35249 115699671.40649      3382.32049        48.000  

  22554101.36749 118522601.72749     -2588.19949        48.000  

  20367945.76649 107034277.02349      8515.37149        50.000  

  23966645.33649 125945572.17649     16152.38349        48.000  

  20281026.19549 106577511.18849      2549.73049        50.000  

 16 04 02 12 01 15.8000000  0  5G01G24G18G21G11                                 
  22016851.01649 115699333.30149      3380.21949        48.000  

  22554150.64849 118522860.72349     -2591.44149        48.000  

  20367783.77349 107033425.76249      8510.06249        50.000  

  23966337.96948 125943957.02048     16150.75448        47.000  

  20280977.70349 106577256.37949      2546.67249        50.000  

 16 04 02 12 01 15.9000000  0  5G01G24G18G21G11                                 
  22016786.69549 115698995.31249      3379.02349        48.000  

  22554199.98449 118523119.95349     -2593.76649        48.000  

  20367621.85949 107032574.91449      8505.79749        50.000  

  23966030.64149 125942341.96549     16149.83649        48.000  

  20280929.25049 106577001.77749      2544.59049        50.000  

 16 04 02 12 01 16.0000000  0  5G01G24G18G21G11                                 
  22016722.40649 115698657.45749      3377.74249        48.000  

  22554249.35949 118523379.45349     -2596.45349        48.000  

  20367460.04749 107031724.55549      8501.02349        50.000  

  23965723.32849 125940727.02049     16148.67249        48.000  

  20280880.85249 106576747.42649      2542.13749        50.000  

 16 04 02 12 01 16.1000000  0  5G01G24G18G21G11                                 
  22016658.14149 115698319.77749      3376.10249        48.000  

  22554298.79749 118523639.26249     -2599.44949        48.000  

  20367298.32849 107030874.69549      8496.10249        50.000  

  23965416.04749 125939112.24649     16147.07449        48.000  

  20280832.50849 106576493.35549      2539.50449        50.000  

 16 04 02 12 01 16.2000000  0  5G01G24G18G21G11                                 
  22016593.91449 115697982.25049      3374.41449        48.000  

  22554348.28949 118523899.32849     -2602.24249        48.000  

  20367136.69549 107030025.29349      8491.23849        50.000  

  23965108.78949 125937497.58249     16145.67649        48.000  

  20280784.20349 106576239.51649      2536.87949        50.000  

 16 04 02 12 01 16.3000000  0  5G01G24G18G21G11                                 
  22016529.72749 115697644.93049      3372.37549        48.000  

  22554397.83649 118524159.71549     -2605.33249        48.000  

  20366975.15649 107029176.42649      8486.00049        50.000  

  23964801.56249 125935883.10949     16143.86349        48.000  

  20280735.95349 106575985.99649      2533.77749        50.000  

 16 04 02 12 01 16.4000000  0  5G01G24G18G21G11                                 
  22016465.54749 115697307.70749      3371.60949        48.000  

  22554447.43849 118524420.34449     -2607.57049        48.000  

  20366813.70349 107028327.99249      8481.91849        50.000  

  23964494.35249 125934268.73049     16143.31649        48.000  

  20280687.75049 106575732.68449      2531.89149        50.000  

 16 04 02 12 01 16.5000000  0  5G01G24G18G21G11                                 
  22016401.41449 115696970.68849      3369.32049        48.000  

  22554497.08649 118524681.29349     -2611.03149        48.000  

  20366652.35249 107027480.07449      8476.41049        50.000  

  23964187.18049 125932654.52049     16141.23849        48.000  

  20280639.60249 106575479.66449      2528.59049        50.000  

 16 04 02 12 01 16.6000000  0  5G01G24G18G21G11                                 
  22016337.32049 115696633.84049      3367.57849        48.000  

  22554546.80549 118524942.53549     -2614.02349        48.000  

  20366491.09449 107026632.66449      8471.32449        50.000  

  23963880.01649 125931040.45749     16139.73049        48.000  

  20280591.50049 106575226.92249      2525.86749        50.000  

 16 04 02 12 01 16.7000000  0  5G01G24G18G21G11                                 
  22016273.25049 115696297.16449      3365.93449        48.000  

  22554596.57049 118525204.07849     -2616.89849        48.000  

  20366329.93049 107025785.75049      8466.45349        50.000  

  23963572.89849 125929426.56649     16138.11349        48.000  

  20280543.46149 106574974.46149      2523.16449        50.000  

 16 04 02 12 01 16.8000000  0  5G01G24G18G21G11                                 
  22016209.22749 115695960.68449      3364.11749        48.000  

  22554646.39849 118525465.93049     -2620.06649        48.000  

  20366168.86749 107024939.35249      8461.34049        50.000  

  23963265.82049 125927812.83249     16136.60549        48.000  

  20280495.46949 106574722.27749      2520.45749        50.000  

 16 04 02 12 01 16.9000000  0  5G01G24G18G21G11                                 
  22016145.21949 115695624.32849      3362.87949        48.000  

  22554696.27349 118525728.02749     -2622.40649        48.000  

  20366007.88349 107024093.39849      8457.03949        50.000  

  23962958.75849 125926199.21149     16135.59849        48.000  

  20280447.52349 106574470.33649      2518.18849        50.000  

 16 04 02 12 01 17.0000000  0  5G01G24G18G21G11                                 
  22016081.23449 115695288.12149      3361.16049        48.000  

  22554746.20349 118525990.40249     -2625.24649        48.000  

  20365847.00049 107023247.91849      8452.04349        50.000  

  23962651.72749 125924585.71149     16134.00449        48.000  

  20280399.61749 106574218.63349      2515.47749        50.000  

 16 04 02 12 01 17.1000000  0  5G01G24G18G21G11                                 
  22016017.29749 115694952.12949      3359.18449        48.000  

  22554796.19549 118526253.11349     -2628.52049        48.000  

  20365686.21149 107022402.98049      8446.80949        50.000  

  23962344.72749 125922972.40249     16132.37149        48.000    23962337.78141
  98121766.78151     12570.68041        20.000  
  20280351.78949 106573967.26249      2512.39549        50.000  

 16 04 02 12 01 17.2000000  0  5G01G24G18G21G11                                 
  22015953.39149 115694616.27349      3357.66849        48.000  

  22554846.24249 118526516.09049     -2631.22749        48.000  

  20365525.51649 107021558.51649      8442.01249        50.000  

  23962037.75048 125921359.22748     16130.98448        47.000    23962026.89841
  98120509.75441     12569.59841        20.000  
  20280304.00049 106573716.12549      2509.88349        50.000  

 16 04 02 12 01 17.3000000  0  5G01G24G18G21G11                                 
  22015889.50049 115694280.54749      3356.45749        48.000  

  22554896.32849 118526779.31649     -2633.68449        48.000  

  20365364.90649 107020714.49649      8437.53549        50.000  

  23961730.78949 125919746.14849     16129.89849        48.000    23961719.93041
  98119252.79741     12568.75041        20.000  
  20280256.25849 106573465.21549      2507.73849        50.000  

 16 04 02 12 01 17.4000000  0  5G01G24G18G21G11                                 
  22015825.64849 115693945.02049      3354.41449        48.000  

  22554946.48449 118527042.87149     -2637.09049        48.000  

  20365204.39149 107019871.00049      8432.17249        50.000  

  23961423.86748 125918133.25848     16127.99648        47.000    23961409.10241
  98117995.98841     12567.27041        20.000  
  20280208.57049 106573214.60949      2504.50849        50.000  

 16 04 02 12 01 17.5000000  0  5G01G24G18G21G11                                 
  22015761.83649 115693609.68049      3352.70349        48.000  

  22554996.68849 118527306.70349     -2639.69149        48.000  

  20365043.96949 107019028.00049      8427.41449        50.000  

  23961116.97748 125916520.51648     16126.68048        47.000  

  20280160.93049 106572964.27749      2501.96549        50.000  

 16 04 02 12 01 17.6000000  0  5G01G24G18G21G11                                 
  22015698.06249 115693274.50449      3350.69549        48.000  

  22555046.96149 118527570.86349     -2643.06249        48.000  

  20364883.64849 107018185.51649      8422.15249        50.000  

  23960810.10949 125914907.93049     16124.91049        48.000  

  20280113.35249 106572714.23049      2498.97349        50.000  

 16 04 02 12 01 17.7000000  0  5G01G24G18G21G11                                 
  22015634.31249 115692939.50849      3349.08249        48.000  

  22555097.28149 118527835.31249     -2645.98849        48.000  

  20364723.43049 107017343.52749      8417.21549        50.000  

  23960503.27349 125913295.50849     16123.46949        48.000  

  20280065.82049 106572464.46949      2496.16449        50.000  

 16 04 02 12 01 17.8000000  0  5G01G24G18G21G11                                 
  22015570.57849 115692604.59449      3348.25449        48.000  

  22555147.64849 118528099.96949     -2648.18049        48.000  

  20364563.28149 107016501.93849      8413.10949        50.000  

  23960196.43849 125911683.15249     16122.59049        48.000  

  20280018.31249 106572214.87149      2494.37949        50.000  

 16 04 02 12 01 17.9000000  0  5G01G24G18G21G11                                 
  22015506.89149 115692269.89149      3346.30549        48.000  

  22555198.07049 118528364.96149     -2651.36349        48.000  

  20364403.23449 107015660.89849      8407.89149        50.000  

  23959889.64849 125910070.97749     16121.11349        48.000  

  20279970.87549 106571965.59849      2491.44149        50.000  

 16 04 02 12 01 18.0000000  0  5G01G24G18G21G11                                 
  22015443.21949 115691935.32849      3344.99649        48.000  

  22555248.54749 118528630.20349     -2653.82449        48.000  

  20364243.28149 107014820.30949      8403.46549        50.000  

  23959582.88349 125908458.91849     16119.97749        48.000  

  20279923.49249 106571716.56649      2488.99649        50.000  

 16 04 02 12 01 18.1000000  0  5G01G24G18G21G11                                 
  22015379.58649 115691600.92649      3343.19549        48.000  

  22555299.07049 118528895.73049     -2656.80149        48.000  

  20364083.42249 107013980.21549      8398.20349        50.000  

  23959276.14149 125906847.00449     16118.31249        48.000  

  20279876.14849 106571467.78149      2486.28149        50.000  

 16 04 02 12 01 18.2000000  0  4G01G24G18G11                                    
  22015315.98449 115691266.69549      3341.30149        48.000  

  22555349.65649 118529161.56649     -2660.05949        48.000  

  20363923.64849 107013140.62149      8393.07849        50.000  

  20279828.85949 106571219.29349      2483.25049        50.000  

 16 04 02 12 01 18.3000000  0  4G01G24G18G11                                    
  22015252.42249 115690932.67249      3339.42649        48.000  

  22555400.30549 118529427.71949     -2663.02749        48.000  

  20363763.97749 107012301.54349      8388.12949        50.000  

  20279781.63349 106570971.09449      2480.57449        50.000  

 16 04 02 12 01 18.4000000  0  4G01G24G18G11                                    
  22015188.88349 115690598.77349      3338.09849        48.000  

  22555451.00049 118529694.12949     -2665.63749        48.000  

  20363604.39849 107011462.93449      8383.45749        50.000  

  20279734.44549 106570723.13749      2478.15649        50.000  

 16 04 02 12 01 18.5000000  0  4G01G24G18G11                                    
  22015125.36749 115690265.00049      3336.84849        48.000  

  22555501.74249 118529960.78949     -2668.13349        48.000  

  20363444.89149 107010624.75049      8379.02049        50.000  

  20279687.30549 106570475.39149      2475.97749        50.000  

 16 04 02 12 01 18.6000000  0  4G01G24G18G11                                    
  22015061.89849 115689931.43849      3334.93849        48.000  

  22555552.54749 118530227.76649     -2671.07849        48.000  

  20363285.49249 107009787.11749      8373.87149        50.000  

  20279640.21149 106570227.96149      2473.13749        50.000  

 16 04 02 12 01 18.7000000  0  4G01G24G18G11                                    
  22014998.44549 115689598.01649      3333.14549        48.000  

  22555603.41449 118530495.03149     -2674.38349        48.000  

  20363126.18849 107008949.96149      8368.70349        50.000  

  20279593.18049 106569980.79349      2470.02349        50.000  

 16 04 02 12 01 18.8000000  0  4G01G24G18G11                                    
  22014935.03949 115689264.82049      3331.21549        48.000  

  22555654.32849 118530762.60949     -2677.14849        48.000  

  20362966.98449 107008113.33249      8363.72749        50.000  

  20279546.20349 106569733.92649      2467.43449        50.000  

 16 04 02 12 01 18.9000000  0  4G01G24G18G11                                    
  22014871.64849 115688931.70349      3330.33249        48.000  

  22555705.28149 118531030.42249     -2679.45349        48.000  

  20362807.85949 107007277.12149      8359.59049        50.000  

  20279499.25849 106569487.25049      2465.50049        50.000  

 16 04 02 12 01 19.0000000  0  4G01G24G18G11                                    
  22014808.28949 115688598.73449      3328.79349        48.000  

  22555756.29749 118531298.49249     -2682.20749        48.000  

  20362648.82849 107006441.38749      8354.74249        50.000  

  20279452.37549 106569240.83649      2462.71149        50.000  

 16 04 02 12 01 19.1000000  0  4G01G24G18G11                                    
  22014744.95349 115688265.90249      3327.67249        48.000  

  22555807.36749 118531566.83249     -2684.61349        48.000  

  20362489.88349 107005606.10549      8350.39149        50.000  

  20279405.52349 106568994.64549      2460.68449        50.000  

 16 04 02 12 01 19.2000000  0  4G01G24G18G11                                    
  22014681.66449 115687933.26249      3325.55949        48.000  

  22555858.49249 118531835.47749     -2687.96549        48.000  

  20362331.02349 107004771.34849      8344.93449        50.000  

  20279358.73449 106568748.75449      2457.49249        50.000  

 16 04 02 12 01 19.3000000  0  4G01G24G18G11                                    
  22014618.40649 115687600.85249      3323.21549        48.000  

  22555909.68049 118532104.48849     -2691.71949        48.000  

  20362172.28149 107003937.14149      8339.35249        50.000  

  20279312.00849 106568503.18849      2454.14149        50.000  

 16 04 02 12 01 19.4000000  0  4G01G24G18G11                                    
  22014555.18049 115687268.62549      3321.38749        48.000  

  22555960.93049 118532373.78549     -2694.54349        48.000  

  20362013.63349 107003103.43849      8334.30149        50.000  

  20279265.33649 106568257.91049      2451.32449        50.000  

 16 04 02 12 01 19.5000000  0  4G01G24G18G11                                    
  22014491.98449 115686936.51649      3320.19549        48.000  

  22556012.21949 118532643.33649     -2697.19949        48.000  

  20361855.07049 107002270.19149      8329.70749        50.000  

  20279218.70349 106568012.85949      2449.04349        50.000  

 16 04 02 12 01 19.6000000  0  4G01G24G18G11                                    
  22014428.82049 115686604.61749      3318.21949        48.000  

  22556063.57849 118532913.21549     -2700.28149        48.000  

  20361696.60249 107001437.46949      8324.50049        50.000  

  20279172.13349 106567768.11349      2446.00049        50.000  

 16 04 02 12 01 19.7000000  0  4G01G24G18G11                                    
  22014365.70349 115686272.93049      3315.97749        48.000  

  22556114.99249 118533183.41449     -2703.32449        48.000  

  20361538.23449 107000605.25849      8319.44549        50.000  

  20279125.60949 106567523.66449      2443.07449        50.000  

 16 04 02 12 01 19.8000000  0  4G01G24G18G11                                    
  22014302.59449 115685941.32049      3315.23849        48.000  

  22556166.45349 118533453.85249     -2705.82849        48.000  

  20361379.96149 106999773.50449      8314.93849        50.000  

  20279079.13349 106567279.42649      2440.96149        50.000  

 16 04 02 12 01 19.9000000  0  4G01G24G18G11                                    
  22014239.53149 115685609.90249      3313.43449        48.000  

  22556217.96949 118533724.57449     -2708.58649        48.000  

  20361221.77349 106998942.22749      8310.19149        50.000  

  20279032.71149 106567035.45349      2438.35549        50.000  

 16 04 02 12 01 20.0000000  0  4G01G24G18G11                                    
  22014176.50049 115685278.71149      3311.01249        48.000  

  22556269.55549 118533995.65249     -2712.25849        48.000  

  20361063.69549 106998111.50849      8304.47349        50.000  

  20278986.35249 106566791.82449      2434.82049        50.000  

 16 04 02 12 01 20.1000000  0  4G01G24G18G11                                    
  22014113.49249 115684947.60549      3310.15249        48.000  

  22556321.18049 118534266.94949     -2714.51649        48.000  

  20360905.69549 106997281.21949      8300.07449        50.000  

  20278940.02349 106566548.38749      2432.78949        50.000  

 16 04 02 12 01 20.2000000  0  4G01G24G18G11                                    
  22014050.53149 115684616.72349      3308.24249        48.000  

  22556372.86749 118534538.57449     -2717.56249        48.000  

  20360747.78949 106996451.45749      8295.17249        50.000  

  20278893.75049 106566305.25849      2430.05549        50.000  

 16 04 02 12 01 20.3000000  0  4G01G24G18G11                                    
  22013987.59449 115684285.96549      3306.46549        48.000  

  22556424.60249 118534810.45349     -2720.51649        48.000  

  20360589.97749 106995622.14149      8290.28149        50.000  

  20278847.53149 106566062.35949      2427.29749        50.000  

 16 04 02 12 01 20.4000000  0  4G01G24G18G11                                    
  22013924.67249 115683955.36749      3305.22749        48.000  

  22556476.39849 118535082.62149     -2723.17649        48.000  

  20360432.25849 106994793.32849      8285.58249        50.000  

  20278801.36749 106565819.73049      2424.93449        50.000  

 16 04 02 12 01 20.5000000  0  4G01G24G18G11                                    
  22013861.79749 115683624.93849      3303.47349        48.000  

  22556528.24249 118535355.06649     -2725.94949        48.000  

  20360274.63349 106993965.00049      8280.56649        50.000  

  20278755.25049 106565577.36749      2422.11749        50.000  

 16 04 02 12 01 20.6000000  0  4G01G24G18G11                                    
  22013798.95349 115683294.65649      3302.15649        48.000  

  22556580.14149 118535627.78949     -2728.46149        48.000  

  20360117.09449 106993137.13749      8276.14549        50.000  

  20278709.17249 106565335.25049      2419.97749        50.000  

 16 04 02 12 01 20.7000000  0  4G01G24G18G11                                    
  22013736.12549 115682964.49649      3300.73049        48.000  

  22556632.08649 118535900.77049     -2731.31249        48.000  

  20359959.64849 106992309.74249      8271.21149        50.000  

  20278663.14149 106565093.36349      2417.34049        50.000  

 16 04 02 12 01 20.8000000  0  4G01G24G18G11                                    
  22013673.34449 115682634.56649      3298.55549        48.000  

  22556684.09449 118536174.08649     -2734.53949        48.000  

  20359802.30549 106991482.88349      8265.90249        50.000  

  20278617.16449 106564851.80149      2414.16449        50.000  

 16 04 02 12 01 20.9000000  0  4G01G24G18G11                                    
  22013610.59449 115682304.84849      3296.43849        48.000  

  22556736.17249 118536447.73849     -2737.93849        48.000  

  20359645.06249 106990656.55949      8260.75849        50.000  

  20278571.25849 106564610.54749      2411.21549        50.000  

 16 04 02 12 01 21.0000000  0  4G01G24G18G11                                    
  22013547.87549 115681975.27349      3294.86349        48.000  

  22556788.29749 118536721.66449     -2740.76249        48.000  

  20359487.90649 106989830.71549      8255.77749        50.000  

  20278525.40649 106564369.55549      2408.48849        50.000  

 16 04 02 12 01 21.1000000  0  4G01G24G18G11                                    
  22013485.18849 115681645.85949      3293.27049        48.000  

  22556840.47749 118536995.86749     -2743.45749        48.000  

  20359330.84449 106989005.34849      8251.05949        50.000  

  20278479.59449 106564128.80549      2406.08649        50.000  

 16 04 02 12 01 21.2000000  0  4G01G24G18G11                                    
  22013422.52349 115681316.56249      3292.27049        48.000  

  22556892.70349 118537270.31649     -2745.78549        48.000  

  20359173.86749 106988180.42649      8246.70349        50.000  

  20278433.81249 106563888.29749      2403.87549        50.000  

 16 04 02 12 01 21.3000000  0  4G01G24G18G11                                    
  22013359.89149 115680987.41849      3290.60949        48.000  

  22556944.98449 118537545.03949     -2748.79349        48.000  

  20359016.98449 106987355.98849      8241.73449        50.000  

  20278388.09449 106563648.02049      2401.23849        50.000  

 16 04 02 12 01 21.4000000  0  4G01G24G18G11                                    
  22013297.29749 115680658.47749      3288.61349        48.000  

  22556997.32049 118537820.07849     -2751.80549        48.000  

  20358860.19549 106986532.06249      8236.67249        50.000  

  20278342.43849 106563408.05949      2398.28149        50.000  

 16 04 02 12 01 21.5000000  0  4G01G24G18G11                                    
  22013234.72749 115680329.68449      3286.93449        48.000  

  22557049.71149 118538095.39849     -2754.84849        48.000  

  20358703.50049 106985708.62149      8231.72349        50.000  

  20278296.82049 106563168.34849      2395.55949        50.000  

 16 04 02 12 01 21.6000000  0  4G01G24G18G11                                    
  22013172.19549 115680001.06249      3285.38349        48.000  

  22557102.15649 118538371.00449     -2757.58249        48.000  

  20358546.89849 106984885.67249      8226.84049        50.000  

  20278251.25849 106562928.90649      2393.00449        50.000  

 16 04 02 12 01 21.7000000  0  4G01G24G18G11                                    
  22013109.68049 115679672.56649      3284.15249        48.000  

  22557154.64849 118538646.85949     -2759.91049        48.000  

  20358390.38349 106984063.17649      8222.38349        50.000  

  20278205.73449 106562689.68849      2390.74649        50.000  

 16 04 02 12 01 21.8000000  0  4G01G24G18G11                                    
  22013047.20349 115679344.26249      3282.18849        48.000  

  22557207.20349 118538923.03949     -2763.27049        48.000  

  20358233.96949 106983241.19149      8217.10949        50.000  

  20278160.27349 106562450.76649      2387.72349        50.000  

 16 04 02 12 01 21.9000000  0  4G01G24G18G11                                    
  22012984.75849 115679016.10549      3280.72749        48.000  

  22557259.81249 118539199.48849     -2765.97749        48.000  

  20358077.64149 106982419.69549      8212.32849        50.000  

  20278114.85949 106562212.11349      2385.08649        50.000  

 16 04 02 12 01 22.0000000  0  4G01G24G18G11                                    
  22012922.35249 115678688.15649      3278.80549        48.000  

  22557312.47749 118539476.25449     -2769.03149        48.000  

  20357921.41449 106981598.71549      8207.35949        50.000  

  20278069.49249 106561973.73849      2382.48449        50.000  

 16 04 02 12 01 22.1000000  0  4G01G24G18G11                                    
  22012859.96149 115678360.28549      3278.02749        48.000  

  22557365.18849 118539753.23849     -2771.28549        48.000  

  20357765.26649 106980778.14549      8203.08249        50.000  

  20278024.17249 106561735.55949      2380.39549        50.000  

 16 04 02 12 01 22.2000000  0  4G01G24G18G11                                    
  22012797.61749 115678032.69549      3275.09849        48.000  

  22557417.96949 118540030.60949     -2775.21149        48.000  

  20357609.23449 106979958.18049      8196.94149        50.000  

  20277978.91449 106561497.76649      2376.48449        50.000  

 16 04 02 12 01 22.3000000  0  4G01G24G18G11                                    
  22012735.30549 115677705.25449      3273.57449        48.000  

  22557470.79749 118540308.25449     -2777.98049        48.000  

  20357453.28949 106979138.67249      8192.46949        50.000  

  20277933.71149 106561260.20749      2374.05549        50.000  

 16 04 02 12 01 22.4000000  0  4G01G24G18G11                                    
  22012673.03149 115677377.99249      3271.80549        48.000  

  22557523.69549 118540586.20749     -2781.01249        48.000  

  20357297.43849 106978319.70349      8187.15649        50.000  

  20277888.55549 106561022.94149      2371.27749        50.000  

 16 04 02 12 01 22.5000000  0  4G01G24G18G11                                    
  22012610.78949 115677050.88749      3270.35949        48.000  

  22557576.64149 118540864.43849     -2783.61349        48.000  

  20357141.68049 106977501.18449      8182.60549        50.000  

  20277843.45349 106560785.92649      2368.82049        50.000  

 16 04 02 12 01 22.6000000  0  4G01G24G18G11                                    
  22012548.57049 115676723.93049      3268.68849        48.000  

  22557629.63349 118541142.93049     -2786.52349        48.000  

  20356986.01649 106976683.14849      8177.62549        50.000  

  20277798.40649 106560549.16849      2366.09049        50.000  

 16 04 02 12 01 22.7000000  0  4G01G24G18G11                                    
  22012486.39149 115676397.18849      3266.55149        48.000  

  22557682.69549 118541421.76249     -2789.74249        48.000  

  20356830.44549 106975865.64849      8172.31249        50.000  

  20277753.40649 106560312.71149      2363.05149        50.000  

 16 04 02 12 01 22.8000000  0  4G01G24G18G11                                    
  22012424.22749 115676070.55949      3265.48849        48.000  

  22557735.80549 118541700.85949     -2792.32449        48.000  

  20356674.96949 106975048.60549      8167.96549        50.000  

  20277708.45349 106560076.49649      2360.82049        50.000  

 16 04 02 12 01 22.9000000  0  4G01G24G18G11                                    
  22012362.10949 115675744.11349      3263.73849        48.000  

  22557788.96949 118541980.21949     -2795.09049        48.000  

  20356519.58649 106974232.05949      8162.84449        50.000  

  20277663.55549 106559840.54749      2358.09849        50.000  

 16 04 02 12 01 23.0000000  0  4G01G24G18G11                                    
  22012300.02349 115675417.85249      3261.82049        48.000  

  22557842.19549 118542259.92249     -2798.47349        48.000  

  20356364.28949 106973416.01649      8157.76249        50.000  

  20277618.71149 106559604.88749      2355.21949        50.000  

 16 04 02 12 01 23.1000000  0  4G01G24G18G11                                    
  22012237.96949 115675091.72349      3260.48049        48.000  

  22557895.46949 118542539.84449     -2800.77749        48.000  

  20356209.09449 106972600.42649      8153.25449        50.000  

  20277573.90649 106559369.44549      2353.02349        50.000  

 16 04 02 12 01 23.2000000  0  4G01G24G18G11                                    
  22012175.93049 115674765.72749      3259.16049        48.000  

  22557948.78949 118542820.04749     -2803.45349        48.000  

  20356053.97749 106971785.30949      8148.63749        50.000  

  20277529.14849 106559134.26649      2350.49649        50.000  

 16 04 02 12 01 23.3000000  0  4G01G24G18G11                                    
  22012113.92249 115674439.88749      3257.63349        48.000  

  22558002.16449 118543100.52049     -2806.09449        48.000  

  20355898.96149 106970970.66049      8143.91049        50.000  

  20277484.44549 106558899.32049      2348.12949        50.000  

 16 04 02 12 01 23.4000000  0  4G01G24G18G11                                    
  22012051.93849 115674114.17649      3256.30949        48.000  

  22558055.58649 118543381.24649     -2808.80549        48.000  

  20355744.02349 106970156.48049      8139.16449        50.000  

  20277439.78149 106558664.62149      2345.62149        50.000  

 16 04 02 12 01 23.5000000  0  4G01G24G18G11                                    
  22011990.00049 115673788.70749      3253.85249        48.000  

  22558109.07849 118543662.33249     -2812.35949        48.000  

  20355589.19549 106969342.84849      8133.59849        50.000  

  20277395.18049 106558430.25849      2342.20349        50.000  

 16 04 02 12 01 23.6000000  0  4G01G24G18G11                                    
  22011928.10249 115673463.41849      3251.76649        48.000  

  22558162.62549 118543943.72349     -2815.68849        48.000  

  20355434.46949 106968529.73449      8128.21949        50.000  

  20277350.64149 106558196.18049      2339.03949        50.000  

 16 04 02 12 01 23.7000000  0  4G01G24G18G11                                    
  22011866.23449 115673138.28149      3250.63749        48.000  

  22558216.22749 118544225.38749     -2818.14149        48.000  

  20355279.82849 106967717.09049      8123.94549        50.000  

  20277306.14149 106557962.35549      2336.98449        50.000  

 16 04 02 12 01 23.8000000  0  4G01G24G18G11                                    
  22011804.38349 115672813.28149      3249.24649        48.000  

  22558269.87549 118544507.30549     -2820.52749        48.000  

  20355125.27349 106966904.92249      8119.08249        50.000  

  20277261.68849 106557728.75849      2334.59049        50.000  

 16 04 02 12 01 23.9000000  0  4G01G24G18G11                                    
  22011742.57849 115672488.48049      3247.06649        48.000  

  22558323.58649 118544789.55949     -2823.99249        48.000  

  20354970.82049 106966093.25849      8113.89549        50.000  

  20277217.29749 106557495.47749      2331.39149        50.000  

 16 04 02 12 01 24.0000000  0  4G01G24G18G11                                    
  22011680.80549 115672163.89149      3245.05549        48.000  

  22558377.35949 118545072.13349     -2827.18849        48.000  

  20354816.47749 106965282.14149      8108.52749        50.000  

  20277172.96149 106557262.50449      2328.27749        50.000  

 16 04 02 12 01 24.1000000  0  4G01G24G18G11                                    
  22011619.05549 115671839.38349      3244.28549        48.000  

  22558431.17249 118545354.93449     -2829.48449        48.000  

  20354662.20349 106964471.43449      8104.38349        50.000  

  20277128.65649 106557029.71549      2326.52749        50.000  

 16 04 02 12 01 24.2000000  0  4G01G24G18G11                                    
  22011557.34449 115671515.07449      3242.33249        48.000  

  22558485.03949 118545638.03149     -2832.50849        48.000  

  20354508.02349 106963661.24249      8099.23849        50.000  

  20277084.41449 106556797.22349      2323.48449        50.000  

 16 04 02 12 01 24.3000000  0  4G01G24G18G11                                    
  22011495.65649 115671190.91049      3240.80149        48.000  

  22558538.96149 118545921.39549     -2835.13749        48.000  

  20354353.93849 106962851.51649      8094.57049        50.000  

  20277040.21949 106556564.97349      2320.97349        50.000  

 16 04 02 12 01 24.4000000  0  4G01G24G18G11                                    
  22011434.00849 115670866.94149      3238.69149        48.000  

  22558592.95349 118546205.09449     -2838.69949        48.000  

  20354199.96149 106962042.32849      8089.09849        50.000  

  20276996.07849 106556333.02349      2317.82849        50.000  

 16 04 02 12 01 24.5000000  0  4G01G24G18G11                                    
  22011372.38349 115670543.12549      3237.47349        48.000  

  22558646.98449 118546489.05149     -2840.94949        48.000  

  20354046.07049 106961233.60549      8084.62149        50.000  

  20276951.99249 106556101.32849      2315.60949        50.000  

 16 04 02 12 01 24.6000000  0  4G01G24G18G11                                    
  22011310.78949 115670219.45349      3235.76649        48.000  

  22558701.07049 118546773.28549     -2843.88349        48.000  

  20353892.25849 106960425.34849      8079.85949        50.000  

  20276907.93849 106555869.87549      2313.02049        50.000  

 16 04 02 12 01 24.7000000  0  4G01G24G18G11                                    
  22011249.21949 115669895.92649      3234.64549        48.000  

  22558755.21149 118547057.78549     -2846.34849        48.000  

  20353738.53949 106959617.57449      8075.37149        50.000  

  20276863.94549 106555638.67649      2310.79749        50.000  

 16 04 02 12 01 24.8000000  0  4G01G24G18G11                                    
  22011187.69549 115669572.57449      3232.70349        48.000  

  22558809.40649 118547342.58249     -2849.41049        48.000  

  20353584.92249 106958810.28949      8070.26249        50.000  

  20276820.00049 106555407.75049      2307.86349        50.000  

 16 04 02 12 01 24.9000000  0  4G01G24G18G11                                    
  22011126.19549 115669249.39149      3230.86349        48.000  

  22558863.65649 118547627.66449     -2852.43049        48.000  

  20353431.39149 106958003.49649      8065.07049        50.000  

  20276776.10949 106555177.09849      2304.86349        50.000  

 16 04 02 12 01 25.0000000  0  4G01G24G18G11                                    
  22011064.74249 115668926.42649      3228.86749        48.000  

  22558917.97749 118547913.10249     -2855.81249        48.000  

  20353277.96949 106957197.26249      8059.69949        50.000  

  20276732.27349 106554946.75449      2302.05149        50.000  

 16 04 02 12 01 25.1000000  0  4G01G24G18G11                                    
  22011003.31249 115668603.61749      3227.33249        48.000  

  22558972.34449 118548198.78949     -2858.31649        48.000  

  20353124.63349 106956391.47349      8055.19549        50.000  

  20276688.49249 106554716.67649      2299.31649        50.000  

 16 04 02 12 01 25.2000000  0  4G01G24G18G11                                    
  22010941.90649 115668280.93049      3226.19549        48.000  

  22559026.75849 118548484.74649     -2860.81249        48.000  

  20352971.39149 106955586.16849      8050.77749        50.000  

  20276644.75049 106554486.81249      2297.37949        50.000  

 16 04 02 12 01 25.3000000  0  4G01G24G18G11                                    
  22010880.53149 115667958.38349      3224.52049        48.000  

  22559081.21949 118548770.94549     -2863.68449        48.000  

  20352818.23449 106954781.30949      8045.80549        50.000  

  20276601.05549 106554257.18849      2294.73849        50.000  

 16 04 02 12 01 25.4000000  0  4G01G24G18G11                                    
  22010819.19549 115667636.05149      3222.42249        48.000  

  22559135.75049 118549057.49649     -2866.98849        48.000  

  20352665.17249 106953977.00049      8040.42649        50.000  

  20276557.42249 106554027.89849      2291.52349        50.000  

 16 04 02 12 01 25.5000000  0  4G01G24G18G11                                    
  22010757.88349 115667313.87549      3220.82849        48.000  

  22559190.32049 118549344.32049     -2869.89549        48.000  

  20352512.21149 106953173.17249      8035.47349        50.000  

  20276513.84449 106553798.85549      2288.70349        50.000  

 16 04 02 12 01 25.6000000  0  4G01G24G18G11                                    
  22010696.60949 115666991.88749      3219.20749        48.000  

  22559244.96149 118549631.45749     -2872.57449        48.000  

  20352359.34449 106952369.84049      8030.82049        50.000  

  20276470.30549 106553570.09849      2286.21949        50.000  

 16 04 02 12 01 25.7000000  0  4G01G24G18G11                                    
  22010635.35949 115666670.00849      3217.81249        48.000  

  22559299.64849 118549918.82849     -2875.28949        48.000  

  20352206.56249 106951566.96549      8026.01249        50.000  

  20276426.82049 106553341.55549      2283.82449        50.000  

 16 04 02 12 01 25.8000000  0  4G01G24G18G11                                    
  22010574.15649 115666348.36349      3215.69549        48.000  

  22559354.39849 118550206.54749     -2878.57049        48.000  

  20352053.88349 106950764.62949      8020.78949        50.000  

  20276383.39849 106553113.34849      2280.79749        50.000  

 16 04 02 12 01 25.9000000  0  4G01G24G18G11                                    
  22010512.96949 115666026.84449      3214.36749        48.000  

  22559409.19549 118550494.51249     -2881.18849        48.000  

  20351901.28949 106949962.75449      8016.16049        50.000  

  20276340.00849 106552885.37149      2278.34049        50.000  

 16 04 02 12 01 26.0000000  0  4G01G24G18G11                                    
  22010451.81249 115665705.44949      3213.07049        48.000  

  22559464.03949 118550782.73449     -2883.69949        48.000  

  20351748.78149 106949161.33249      8011.57049        50.000  

  20276296.66449 106552657.60949      2276.06249        50.000  

 16 04 02 12 01 26.1000000  0  4G01G24G18G11                                    
  22010390.69549 115665384.27349      3211.04349        48.000  

  22559518.94549 118551071.28949     -2886.99649        48.000  

  20351596.37549 106948360.44549      8006.21549        50.000  

  20276253.39149 106552430.18049      2272.92649        50.000  

 16 04 02 12 01 26.2000000  0  4G01G24G18G11                                    
  22010329.61749 115665063.30149      3208.78949        48.000  

  22559573.92249 118551360.17249     -2890.44149        48.000  

  20351444.07049 106947560.09449      8000.84449        50.000  

  20276210.16449 106552203.04749      2269.82049        50.000  

 16 04 02 12 01 26.3000000  0  4G01G24G18G11                                    
  22010268.55549 115664742.43049      3207.93049        48.000  

  22559628.93849 118551649.27749     -2892.34849        48.000  

  20351291.85249 106946760.16049      7996.73849        50.000  

  20276166.98449 106551976.11749      2267.97749        50.000  

 16 04 02 12 01 26.4000000  0  4G01G24G18G11                                    
  22010207.52349 115664421.68049      3206.74249        48.000  

  22559684.00049 118551938.62949     -2894.83249        48.000  

  20351139.71949 106945960.68049      7992.30949        50.000  

  20276123.84449 106551749.41849      2265.70349        50.000  

 16 04 02 12 01 26.5000000  0  4G01G24G18G11                                    
  22010146.52349 115664101.12149      3204.74249        48.000  

  22559739.11749 118552228.29349     -2898.15249        48.000  

  20350987.68049 106945161.71149      7987.03149        50.000  

  20276080.75849 106551523.00449      2262.52349        50.000  

 16 04 02 12 01 26.6000000  0  4G01G24G18G11                                    
  22010085.55549 115663780.70749      3203.39149        48.000  

  22559794.28949 118552518.22749     -2900.76649        48.000  

  20350835.73449 106944363.22349      7982.30149        50.000  

  20276037.71949 106551296.84049      2260.26649        50.000  

 16 04 02 12 01 26.7000000  0  4G01G24G18G11                                    
  22010024.62549 115663460.50049      3201.27749        48.000  

  22559849.52349 118552808.46949     -2903.80149        48.000  

  20350683.88349 106943565.24249      7977.10949        50.000  

  20275994.74249 106551070.97749      2257.21149        50.000  

 16 04 02 12 01 26.8000000  0  4G01G24G18G11                                    
  22009963.71949 115663140.44149      3199.57049        48.000  

  22559904.80549 118553099.00449     -2906.92649        48.000  

  20350532.12549 106942767.75449      7972.05549        50.000  

  20275951.80549 106550845.35949      2254.65249        50.000  

 16 04 02 12 01 26.9000000  0  4G01G24G18G11                                    
  22009902.84449 115662820.53949      3198.09449        48.000  

  22559960.14849 118553389.82049     -2909.81249        48.000  

  20350380.46149 106941970.75049      7967.42649        50.000  

  20275908.93049 106550620.02049      2251.96149        50.000  

 16 04 02 12 01 27.0000000  0  4G01G24G18G11                                    
  22009841.99249 115662500.78549      3196.60949        48.000  

  22560015.53949 118553680.88749     -2912.28549        48.000  

  20350228.88349 106941174.20349      7962.60249        50.000  

  20275866.08649 106550394.90249      2249.60249        50.000  

 16 04 02 12 01 27.1000000  0  4G01G24G18G11                                    
  22009781.18849 115662181.24249      3194.60549        48.000  

  22560070.99249 118553972.30149     -2915.60949        48.000  

  20350077.40649 106940378.19949      7957.53149        50.000  

  20275823.31249 106550170.12149      2246.57049        50.000  

 16 04 02 12 01 27.2000000  0  4G01G24G18G11                                    
  22009720.40649 115661861.85249      3193.06649        48.000  

  22560126.49249 118554263.97749     -2918.34449        48.000  

  20349926.03149 106939582.68049      7952.45349        50.000  

  20275780.57849 106549945.59049      2243.93049        50.000  

 16 04 02 12 01 27.3000000  0  4G01G24G18G11                                    
  22009659.64849 115661542.57849      3191.98049        48.000  

  22560182.04749 118554555.89849     -2920.64149        48.000  

  20349774.72749 106938787.58249      7948.44149        50.000  

  20275737.89149 106549721.26249      2241.92649        50.000  

 16 04 02 12 01 27.4000000  0  4G01G24G18G11                                    
  22009598.93849 115661223.52049      3189.68849        48.000  

  22560237.66449 118554848.15249     -2923.99649        48.000  

  20349623.53149 106937993.05149      7942.62149        50.000  

  20275695.25849 106549497.26649      2238.48849        50.000  

 16 04 02 12 01 27.5000000  0  4G01G24G18G11                                    
  22009538.24249 115660904.57849      3188.55949        48.000  

  22560293.32049 118555140.65249     -2926.41049        48.000  

  20349472.41449 106937198.94149      7938.44149        50.000  

  20275652.68049 106549273.48049      2236.40649        50.000  

 16 04 02 12 01 27.6000000  0  4G01G24G18G11                                    
  22009477.58649 115660585.84449      3186.34049        48.000  

  22560349.04749 118555433.48049     -2929.95349        48.000  

  20349321.40649 106936405.38349      7932.71549        50.000  

  20275610.14849 106549050.00849      2233.02749        50.000  

 16 04 02 12 01 27.7000000  0  4G01G24G18G11                                    
  22009416.96949 115660267.27749      3184.77349        48.000  

  22560404.82849 118555726.59849     -2932.69949        48.000  

  20349170.48449 106935612.30149      7928.10949        50.000  

  20275567.67249 106548826.79749      2230.65249        50.000  

 16 04 02 12 01 27.8000000  0  4G01G24G18G11                                    
  22009356.37549 115659948.86349      3183.43449        48.000  

  22560460.66449 118556019.99249     -2935.32449        48.000  

  20349019.65649 106934819.69549      7923.40649        50.000  

  20275525.25049 106548603.84849      2228.09849        50.000  

 16 04 02 12 01 27.9000000  0  4G01G24G18G11                                    
  22009295.81249 115659630.60949      3181.73049        48.000  

  22560516.54749 118556313.65649     -2938.10949        48.000  

  20348868.92249 106934027.57449      7918.64149        50.000  

  20275482.87549 106548381.16049      2225.58649        50.000  

 16 04 02 12 01 28.0000000  0  4G01G24G18G11                                    
  22009235.28149 115659312.51649      3180.05549        48.000  

  22560572.48449 118556607.60949     -2941.07449        48.000  

  20348718.28149 106933235.94149      7913.68449        50.000  

  20275440.53949 106548158.71949      2222.79749        50.000  

 16 04 02 12 01 28.1000000  0  4G01G24G18G11                                    
  22009174.79749 115658994.64149      3177.80549        48.000  

  22560628.47749 118556901.89549     -2944.35549        48.000  

  20348567.74249 106932444.87149      7908.06649        50.000  

  20275398.27349 106547936.60549      2219.61749        50.000  

 16 04 02 12 01 28.2000000  0  4G01G24G18G11                                    
  22009114.32049 115658676.85949      3177.05149        48.000  

  22560684.52349 118557196.41849     -2946.52049        48.000  

  20348417.28149 106931654.19149      7904.32849        50.000  

  20275356.04749 106547714.69149      2217.91449        50.000  

 16 04 02 12 01 28.3000000  0  4G01G24G18G11                                    
  22009053.88349 115658359.21949      3175.62949        48.000  

  22560740.61749 118557491.20349     -2949.22749        48.000  

  20348266.91449 106930864.00449      7899.42249        50.000  

  20275313.85949 106547493.02749      2215.34849        50.000  

 16 04 02 12 01 28.4000000  0  4G01G24G18G11                                    
  22008993.47749 115658041.82849      3173.15649        48.000  

  22560796.78149 118557786.33649     -2952.94149        48.000  

  20348116.64849 106930074.36749      7893.79749        50.000  

  20275271.75049 106547271.70749      2211.83649        50.000  

 16 04 02 12 01 28.5000000  0  4G01G24G18G11                                    
  22008933.09449 115657724.52049      3172.35549        48.000  

  22560852.97749 118558081.68449     -2954.91849        48.000  

  20347966.46949 106929285.14149      7889.73449        50.000  

  20275229.66449 106547050.55549      2210.14849        50.000  

 16 04 02 12 01 28.6000000  0  4G01G24G18G11                                    
  22008872.73449 115657407.37149      3170.58649        48.000  

  22560909.23449 118558377.31249     -2957.82049        48.000  

  20347816.37549 106928496.41849      7884.64149        50.000  

  20275187.63349 106546829.68449      2207.22349        50.000  

 16 04 02 12 01 28.7000000  0  4G01G24G18G11                                    
  22008812.43049 115657090.46549      3168.35549        48.000  

  22560965.56249 118558673.30549     -2961.30549        48.000  

  20347666.39149 106927708.24249      7879.24249        50.000  

  20275145.66449 106546609.14149      2204.09849        50.000  

 16 04 02 12 01 28.8000000  0  4G01G24G18G11                                    
  22008752.14849 115656773.67649      3166.94549        48.000  

  22561021.93049 118558969.53949     -2963.99649        48.000  

  20347516.49249 106926920.52349      7874.41849        50.000  

  20275103.73449 106546388.83649      2201.48049        50.000  

 16 04 02 12 01 28.9000000  0  4G01G24G18G11                                    
  22008691.91449 115656457.12549      3164.55949        48.000  

  22561078.36749 118559266.12549     -2967.32849        48.000  

  20347366.70349 106926133.35549      7868.87949        50.000  

  20275061.87549 106546168.85249      2198.29349        50.000  

 16 04 02 12 01 29.0000000  0  4G01G24G18G11                                    
  22008631.71149 115656140.75449      3162.74249        48.000  

  22561134.86749 118559563.02049     -2970.41849        48.000  

  20347217.00849 106925346.70349      7863.87149        50.000  

  20275020.07049 106545949.15649      2195.39149        50.000  

 16 04 02 12 01 29.1000000  0  4G01G24G18G11                                    
  22008571.53149 115655824.52049      3161.65249        48.000  

  22561191.41449 118559860.17249     -2972.86349        48.000  

  20347067.39849 106924560.50049      7859.53149        50.000  

  20274978.30549 106545729.69949      2193.30549        50.000  

 16 04 02 12 01 29.2000000  0  4G01G24G18G11                                    
  22008511.38349 115655508.42249      3160.10949        48.000  

  22561248.00849 118560157.57449     -2975.37549        48.000  

  20346917.87549 106923774.75849      7854.84449        50.000  

  20274936.58649 106545510.47349      2190.87549        50.000  

 16 04 02 12 01 29.3000000  0  4G01G24G18G11                                    
  22008451.26649 115655192.51649      3158.18049        48.000  

  22561304.66449 118560455.30549     -2978.76249        48.000  

  20346768.45349 106922989.53949      7849.50849        50.000  

  20274894.93049 106545291.54349      2187.77349        50.000  

 16 04 02 12 01 29.4000000  0  4G01G24G18G11                                    
  22008391.19549 115654876.82449      3155.87149        48.000  

  22561361.38349 118560753.36349     -2982.23449        48.000  

  20346619.13349 106922204.86749      7843.89549        50.000  

  20274853.32849 106545072.94149      2184.41049        50.000  

 16 04 02 12 01 29.5000000  0  4G01G24G18G11                                    
  22008331.14849 115654561.27049      3154.81249        48.000  

  22561418.14149 118561051.68049     -2984.60549        48.000  

  20346469.89849 106921420.64149      7839.66049        50.000  

  20274811.77349 106544854.56249      2182.43049        50.000  

 16 04 02 12 01 29.6000000  0  4G01G24G18G11                                    
  22008271.12549 115654245.85549      3153.32049        48.000  

  22561474.96149 118561350.26249     -2987.27749        48.000  

  20346320.75849 106920636.88749      7834.99249        50.000  

  20274770.26649 106544636.43049      2179.87949        50.000  

 16 04 02 12 01 29.7000000  0  4G01G24G18G11                                    
  22008211.14149 115653930.62549      3151.41049        48.000  

  22561531.83649 118561649.14849     -2990.38349        48.000  

  20346171.71149 106919853.65249      7829.65249        50.000  

  20274728.80549 106544418.57849      2177.04349        50.000  

 16 04 02 12 01 29.8000000  0  4G01G24G18G11                                    
  22008151.18049 115653615.53549      3150.04349        48.000  

  22561588.75849 118561948.27749     -2992.75849        48.000  

  20346022.75849 106919070.86349      7825.21549        50.000  

  20274687.39849 106544200.96949      2174.66849        50.000  

 16 04 02 12 01 29.9000000  0  4G01G24G18G11                                    
  22008091.25049 115653300.59849      3148.62949        48.000  

  22561645.73449 118562247.70349     -2995.58649        48.000  

  20345873.89149 106918288.56649      7820.38749        50.000  

  20274646.03949 106543983.61349      2172.19549        50.000  

 16 04 02 12 01 30.0000000  0  4G01G24G18G11                                    
  22008031.33649 115652985.78949      3147.45749        48.000  

  22561702.76649 118562547.37949     -2997.99649        48.000  

  20345725.10949 106917506.71549      7816.07049        50.000  

  20274604.71949 106543766.48849      2170.04749        50.000  

 16 04 02 12 01 30.1000000  0  4G01G24G18G11                                    
  22007971.46949 115652671.19549      3145.04749        48.000  

  22561759.85949 118562847.38349     -3001.48449        48.000  

  20345576.43049 106916725.40249      7810.60249        50.000  

  20274563.46149 106543549.68849      2166.68049        50.000  

 16 04 02 12 01 30.2000000  0  4G01G24G18G11                                    
  22007911.62549 115652356.73049      3143.67249        48.000  

  22561816.99249 118563147.64849     -3004.26249        48.000  

  20345427.83649 106915944.55149      7805.64149        50.000  

  20274522.25049 106543333.11749      2164.04749        50.000  

 16 04 02 12 01 30.3000000  0  4G01G24G18G11                                    
  22007851.82849 115652042.47749      3141.59849        48.000  

  22561874.20349 118563448.23049     -3007.44549        48.000  

  20345279.34449 106915164.23049      7800.46549        50.000  

  20274481.10249 106543116.84449      2161.09049        50.000  

 16 04 02 12 01 30.4000000  0  4G01G24G18G11                                    
  22007792.05549 115651728.39149      3140.01649        48.000  

  22561931.45349 118563749.10949     -3010.34849        48.000  

  20345130.94549 106914384.39549      7795.66049        50.000  

  20274439.99249 106542900.85249      2158.44949        50.000  

 16 04 02 12 01 30.5000000  0  4G01G24G18G11                                    
  22007732.31249 115651414.42249      3138.77349        48.000  

  22561988.75849 118564050.23049     -3012.87949        48.000  

  20344982.64149 106913605.01649      7791.18449        50.000  

  20274398.93049 106542685.07049      2156.25049        50.000  

 16 04 02 12 01 30.6000000  0  4G01G24G18G11                                    
  22007672.60949 115651100.67249      3136.57849        48.000  

  22562046.12549 118564351.68849     -3016.14849        48.000  

  20344834.43049 106912826.18849      7785.53949        50.000  

  20274357.93849 106542469.61349      2153.02049        50.000  

 16 04 02 12 01 30.7000000  0  4G01G24G18G11                                    
  22007612.93849 115650787.11749      3134.60249        48.000  

  22562103.55549 118564653.45349     -3019.30949        48.000  

  20344686.32049 106912047.85249      7780.50849        50.000  

  20274316.99249 106542254.44949      2150.00449        50.000  

 16 04 02 12 01 30.8000000  0  4G01G24G18G11                                    
  22007553.31249 115650473.79349      3132.35949        48.000  

  22562161.04749 118564955.59049     -3022.86349        48.000  

  20344538.31249 106911270.08649      7775.00049        50.000  

  20274276.10949 106542039.61349      2147.00849        50.000  

 16 04 02 12 01 30.9000000  0  4G01G24G18G11                                    
  22007493.70349 115650160.53949      3131.65649        48.000  

  22562218.57849 118565257.90249     -3024.68849        48.000  

  20344390.38349 106910492.72349      7770.98049        50.000  

  20274235.26649 106541824.96149      2145.04749        50.000  

 16 04 02 12 01 31.0000000  0  4G01G24G18G11                                    
  22007434.12549 115649847.44549      3130.24649        48.000  

  22562276.16449 118565560.50449     -3027.37549        48.000  

  20344242.54749 106909715.82849      7766.37549        50.000  

  20274194.46949 106541610.55949      2142.66049        50.000  

 16 04 02 12 01 31.1000000  0  4G01G24G18G11                                    
  22007374.57849 115649534.53949      3128.20349        48.000  

  22562333.79749 118565863.39549     -3030.31249        48.000  

  20344094.81249 106908939.45349      7761.15649        50.000  

  20274153.72749 106541396.44549      2139.77749        50.000  

 16 04 02 12 01 31.2000000  0  4G01G24G18G11                                    
  22007315.05549 115649221.75449      3126.97749        48.000  

  22562391.48449 118566166.55949     -3033.09049        48.000  

  20343947.15649 106908163.53149      7756.57049        50.000  

  20274113.02349 106541182.56649      2137.39149        50.000  

 16 04 02 12 01 31.3000000  0  4G01G24G18G11                                    
  22007255.57849 115648909.21149      3124.67649        48.000  

  22562449.24249 118566470.06249     -3036.36349        48.000  

  20343799.60949 106907388.16049      7751.10249        50.000  

  20274072.38349 106540969.01649      2134.14849        50.000  

 16 04 02 12 01 31.4000000  0  4G01G24G18G11                                    
  22007196.12549 115648596.78149      3123.24649        48.000  

  22562507.04749 118566773.82049     -3039.14849        48.000  

  20343652.14849 106906613.25449      7746.33649        50.000  

  20274031.78949 106540755.68849      2131.66849        50.000  

 16 04 02 12 01 31.5000000  0  4G01G24G18G11                                    
  22007136.71149 115648284.56249      3121.31249        48.000  

  22562564.90649 118567077.90249     -3042.39149        48.000  

  20343504.78149 106905838.85949      7741.19149        50.000  

  20273991.25049 106540542.67249      2128.65649        50.000  

 16 04 02 12 01 31.6000000  0  4G01G24G18G11                                    
  22007077.32049 115647972.46149      3120.23049        48.000  

  22562622.81249 118567382.21549     -3044.55149        48.000  

  20343357.50849 106905064.91849      7736.93449        50.000  

  20273950.75849 106540329.87949      2126.66449        50.000  

 16 04 02 12 01 31.7000000  0  4G01G24G18G11                                    
  22007017.96149 115647660.53149      3118.48049        48.000  

  22562680.78149 118567686.82449     -3047.59449        48.000  

  20343210.32849 106904291.46149      7731.85249        50.000  

  20273910.31249 106540117.34049      2123.79349        50.000  

 16 04 02 12 01 31.8000000  0  4G01G24G18G11                                    
  22006958.63349 115647348.74649      3117.06649        48.000  

  22562738.79749 118567991.70749     -3050.21549        48.000  

  20343063.23449 106903518.48849      7727.21949        50.000  

  20273869.92249 106539905.06649      2121.44549        50.000  

 16 04 02 12 01 31.9000000  0  4G01G24G18G11                                    
  22006899.34449 115647037.16449      3115.09049        48.000  

  22562796.87549 118568296.91049     -3053.41849        48.000  

  20342916.24249 106902746.04349      7721.85549        50.000  

  20273829.58649 106539693.08649      2118.39849        50.000  

 16 04 02 12 01 32.0000000  0  4G01G24G18G11                                    
  22006840.06249 115646725.66849      3114.14849        48.000  

  22562854.99249 118568602.30149     -3055.25049        48.000  

  20342769.32849 106901973.99249      7717.98849        50.000  

  20273789.28149 106539481.28949      2116.65249        50.000  

 16 04 02 12 01 32.1000000  0  4G01G24G18G11                                    
  22006780.82049 115646414.32849      3112.73049        48.000  

  22562913.16449 118568908.00849     -3058.29749        48.000  

  20342622.50849 106901202.44149      7713.07049        50.000  

  20273749.03149 106539269.75849      2114.11749        50.000  

 16 04 02 12 01 32.2000000  0  4G01G24G18G11                                    
  22006721.60949 115646103.17249      3110.86349        48.000  

  22562971.39149 118569214.00049     -3061.30949        48.000  

  20342475.78149 106900431.38749      7707.94149        50.000  

  20273708.83649 106539058.52049      2111.03549        50.000  

 16 04 02 12 01 32.3000000  0  4G01G24G18G11                                    
  22006662.43849 115645792.19949      3108.80149        48.000  

  22563029.67249 118569520.28949     -3064.46949        48.000  

  20342329.15649 106899660.84449      7702.62949        50.000  

  20273668.68849 106538847.54349      2108.10249        50.000  

 16 04 02 12 01 32.4000000  0  4G01G24G18G11                                    
  22006603.29749 115645481.43849      3106.65249        48.000  

  22563088.02349 118569826.91849     -3067.91049        48.000  

  20342182.62549 106898890.83649      7697.34849        50.000  

  20273628.59449 106538636.90649      2104.77349        50.000  

 16 04 02 12 01 32.5000000  0  4G01G24G18G11                                    
  22006544.19549 115645170.84449      3105.12149        48.000  

  22563146.43049 118570133.82849     -3070.52349        48.000  

  20342036.18849 106898121.31649      7692.55949        50.000  

  20273588.56249 106538426.50849      2102.54349        50.000  

 16 04 02 12 01 32.6000000  0  4G01G24G18G11                                    
  22006485.10949 115644860.34849      3104.14549        48.000  

  22563204.87549 118570440.97349     -3072.94149        48.000  

  20341889.83649 106897352.23049      7688.18049        50.000  

  20273548.56249 106538216.32849      2100.34049        50.000  

 16 04 02 12 01 32.7000000  0  4G01G24G18G11                                    
  22006426.05549 115644550.02749      3102.32849        48.000  

  22563263.38349 118570748.40649     -3075.89549        48.000  

  20341743.57849 106896583.64549      7683.16449        50.000  

  20273508.61749 106538006.42249      2097.61749        50.000  

 16 04 02 12 01 32.8000000  0  4G01G24G18G11                                    
  22006367.04749 115644239.93849      3099.99649        48.000  

  22563321.95349 118571056.18049     -3079.26649        48.000  

  20341597.42249 106895815.60249      7677.60949        50.000  

  20273468.74249 106537796.84449      2094.27349        50.000  

 16 04 02 12 01 32.9000000  0  4G01G24G18G11                                    
  22006308.06249 115643929.99649      3098.57049        48.000  

  22563380.57849 118571364.24249     -3082.07449        48.000  

  20341451.35949 106895048.03949      7673.02749        50.000  

  20273428.90649 106537587.52049      2091.90249        50.000  

 16 04 02 12 01 33.0000000  0  4G01G24G18G11                                    
  22006249.11749 115643620.21949      3097.00849        48.000  

  22563439.25049 118571672.57449     -3084.86749        48.000  

  20341305.39149 106894280.96549      7668.09849        50.000  

  20273389.11749 106537378.46149      2089.10549        50.000  

 16 04 02 12 01 33.1000000  0  4G01G24G18G11                                    
  22006190.21149 115643310.66049      3094.68849        48.000  

  22563497.99249 118571981.25049     -3088.32449        48.000  

  20341159.52349 106893514.43449      7662.60549        50.000  

  20273349.39849 106537169.71149      2085.93049        50.000  

 16 04 02 12 01 33.2000000  0  4G01G24G18G11                                    
  22006131.32049 115643001.20749      3093.61349        48.000  

  22563556.77349 118572290.14549     -3090.45749        48.000  

  20341013.74249 106892748.32849      7658.37149        50.000  

  20273309.71149 106536961.16849      2084.02749        50.000  

 16 04 02 12 01 33.3000000  0  4G01G24G18G11                                    
  22006072.47749 115642691.98849      3091.32049        48.000  

  22563615.62549 118572599.42249     -3094.18449        48.000  

  20340868.06249 106891982.79349      7652.68049        50.000  

  20273270.09449 106536752.96949      2080.52749        50.000  

 16 04 02 12 01 33.4000000  0  4G01G24G18G11                                    
  22006013.66449 115642382.90249      3089.91049        48.000  

  22563674.52349 118572908.92649     -3096.68849        48.000  

  20340722.46949 106891217.70749      7648.05549        50.000  

  20273230.51649 106536545.00449      2078.16849        50.000  

 16 04 02 12 01 33.5000000  0  4G01G24G18G11                                    
  22005954.88349 115642074.01249      3088.01649        48.000  

  22563733.48449 118573218.75849     -3099.72349        48.000  

  20340576.97749 106890453.14849      7642.81649        50.000  

  20273191.00049 106536337.34449      2075.14149        50.000  

 16 04 02 12 01 33.6000000  0  4G01G24G18G11                                    
  22005896.14149 115641765.28549      3086.42249        48.000  

  22563792.50049 118573528.87949     -3102.72749        48.000  

  20340431.57849 106889689.07049      7638.07049        50.000  

  20273151.53149 106536129.93049      2072.58649        50.000  

 16 04 02 12 01 33.7000000  0  4G01G24G18G11                                    
  22005837.42249 115641456.72749      3084.74249        48.000  

  22563851.57049 118573839.27749     -3105.52349        48.000  

  20340286.27349 106888925.48849      7633.09449        50.000  

  20273112.10949 106535922.80149      2069.84849        50.000  

 16 04 02 12 01 33.8000000  0  4G01G24G18G11                                    
  22005778.73449 115641148.35249      3082.89849        48.000  

  22563910.69549 118574149.98449     -3108.32049        48.000  

  20340141.07049 106888162.41849      7628.12949        50.000  

  20273072.75049 106535715.94549      2067.14549        50.000  

 16 04 02 12 01 33.9000000  0  4G01G24G18G11                                    
  22005720.07849 115640840.11349      3081.46149        48.000  

  22563969.87549 118574460.96149     -3111.26649        48.000  

  20339995.94549 106887399.79749      7623.46949        50.000  

  20273033.43049 106535509.33249      2064.55149        50.000  

 16 04 02 12 01 34.0000000  0  4G01G24G18G11                                    
  22005661.46949 115640532.09449      3079.45349        48.000  

  22564029.10949 118574772.25849     -3114.42649        48.000  

  20339850.93049 106886637.73449      7617.90649        50.000  

  20272994.17249 106535303.03149      2061.47749        50.000  

 16 04 02 12 01 34.1000000  0  4G01G24G18G11                                    
  22005602.88349 115640224.23449      3077.83249        48.000  

  22564088.40649 118575083.84449     -3117.24249        48.000  

  20339706.00049 106885876.15249      7613.27349        50.000  

  20272954.96949 106535097.00049      2059.12149        50.000  

 16 04 02 12 01 34.2000000  0  4G01G24G18G11                                    
  22005544.31249 115639916.43449      3077.30149        48.000  

  22564147.73449 118575395.62149     -3119.09049        48.000  

  20339561.14849 106885114.96149      7609.44149        50.000  

  20272915.78149 106534891.12949      2057.40649        50.000  

 16 04 02 12 01 34.3000000  0  4G01G24G18G11                                    
  22005485.78149 115639608.84049      3075.25049        48.000  

  22564207.12549 118575707.70749     -3122.22749        48.000  

  20339416.39849 106884354.28149      7604.19949        49.000  

  20272876.66449 106534685.55949      2054.44949        50.000  

 16 04 02 12 01 34.4000000  0  4G01G24G18G11                                    
  22005427.28149 115639301.42249      3073.43049        48.000  

  22564266.57049 118576020.09449     -3125.12549        48.000  

  20339271.74249 106883594.11349      7599.16849        50.000  

  20272837.59449 106534480.26249      2051.63749        50.000  

 16 04 02 12 01 34.5000000  0  4G01G24G18G11                                    
  22005368.80549 115638994.12149      3072.20349        48.000  

  22564326.05549 118576332.73849     -3127.90249        48.000  

  20339127.17249 106882834.38749      7594.52749        49.000  

  20272798.57049 106534275.19949      2049.13349        50.000  

 16 04 02 12 01 34.6000000  0  4G01G24G18G11                                    
  22005310.36749 115638687.01649      3070.26249        48.000  

  22564385.60249 118576645.66849     -3130.82449        48.000  

  20338982.70349 106882075.17649      7589.45749        50.000  

  20272759.60949 106534070.41849      2046.35549        50.000  

 16 04 02 12 01 34.7000000  0  4G01G24G18G11                                    
  22005251.95349 115638380.07449      3068.45749        48.000  

  22564445.21149 118576958.90649     -3133.92649        48.000  

  20338838.32049 106881316.46149      7584.40249        49.000  

  20272720.68849 106533865.90249      2043.55549        50.000  

 16 04 02 12 01 34.8000000  0  4G01G24G18G11                                    
  22005193.58649 115638073.38749      3065.94549        48.000  

  22564504.89149 118577272.51249     -3137.55149        48.000  

  20338694.05549 106880558.32849      7578.57449        49.000  

  20272681.84449 106533661.75849      2039.97349        50.000  

 16 04 02 12 01 34.9000000  0  4G01G24G18G11                                    
  22005135.25849 115637766.84849      3064.43849        48.000  

  22564564.62549 118577586.38749     -3140.43049        48.000  

  20338549.87549 106879800.66449      7573.80149        49.000  

  20272643.03949 106533457.85249      2037.39549        50.000  

 16 04 02 12 01 35.0000000  0  4G01G24G18G11                                    
  22005076.95349 115637460.47349      3062.95349        48.000  

  22564624.40649 118577900.53949     -3143.02049        48.000  

  20338405.78949 106879043.48049      7569.20749        49.000  

  20272604.28949 106533254.20349      2035.05949        50.000  

 16 04 02 12 01 35.1000000  0  4G01G24G18G11                                    
  22005018.68849 115637154.27049      3061.10549        48.000  

  22564684.24249 118578214.98849     -3146.13749        48.000  

  20338261.79749 106878286.80149      7564.06649        49.000  

  20272565.58649 106533050.83249      2032.09449        50.000  

 16 04 02 12 01 35.2000000  0  4G01G24G18G11                                    
  22004960.44549 115636848.20749      3059.87949        48.000  

  22564744.12549 118578529.70749     -3148.52349        48.000  

  20338117.89149 106877530.59049      7559.49249        50.000  

  20272526.93049 106532847.70749      2029.86749        50.000  

 16 04 02 12 01 35.3000000  0  4G01G24G18G11                                    
  22004902.23449 115636542.30949      3058.34849        48.000  

  22564804.06249 118578844.69949     -3151.26249        48.000  

  20337974.07849 106876774.85549      7554.92649        50.000  

  20272488.32849 106532644.84449      2027.50049        50.000  

 16 04 02 12 01 35.4000000  0  4G01G24G18G11                                    
  22004844.04749 115636236.52349      3056.96949        48.000  

  22564864.05549 118579159.93049     -3153.74649        48.000  

  20337830.35249 106876019.57449      7550.24649        49.000  

  20272449.76649 106532442.19549      2024.98449        50.000  

 16 04 02 12 01 35.5000000  0  4G01G24G18G11                                    
  22004785.88349 115635930.89549      3055.59849        48.000  

  22564924.09449 118579475.44149     -3156.39549        48.000  

  20337686.71949 106875264.76249      7545.60549        49.000  

  20272411.25049 106532239.80549      2022.67649        50.000  

 16 04 02 12 01 35.6000000  0  4G01G24G18G11                                    
  22004727.75049 115635625.38749      3054.34049        48.000  

  22564984.18049 118579791.19149     -3158.88749        48.000  

  20337543.16449 106874510.40249      7541.11749        49.000  

  20272372.78149 106532037.63349      2020.37149        50.000  

 16 04 02 12 01 35.7000000  0  4G01G24G18G11                                    
  22004669.64849 115635320.06249      3052.41449        48.000  

  22565044.32049 118580107.23449     -3161.85549        48.000  

  20337399.71149 106873756.55149      7535.94149        49.000  

  20272334.35949 106531835.74649      2017.37549        50.000  

 16 04 02 12 01 35.8000000  0  4G01G24G18G11                                    
  22004611.57849 115635014.89549      3050.83249        48.000  

  22565104.51649 118580423.57849     -3164.83249        48.000  

  20337256.35249 106873003.18049      7531.09049        49.000  

  20272295.99249 106531634.12149      2014.75849        50.000  

 16 04 02 12 01 35.9000000  0  4G01G24G18G11                                    
  22004553.54749 115634709.93449      3048.70749        48.000  

  22565164.77349 118580740.23049     -3168.06649        48.000  

  20337113.08649 106872250.34449      7525.75049        49.000  

  20272257.68049 106531432.80149      2011.69549        50.000  

 16 04 02 12 01 36.0000000  0  4G01G24G18G11                                    
  22004495.54749 115634405.16449      3046.76649        48.000  

  22565225.09449 118581057.20349     -3171.27049        48.000  

  20336969.93049 106871498.00849      7520.53549        49.000  

  20272219.42249 106531231.76649      2008.81649        50.000  

 16 04 02 12 01 36.1000000  0  4G01G24G18G11                                    
  22004437.57849 115634100.53149      3045.32849        48.000  

  22565285.46149 118581374.43849     -3174.05549        48.000  

  20336826.85249 106870746.15249      7515.66449        49.000  

  20272181.21149 106531030.97749      2006.22749        50.000  

 16 04 02 12 01 36.2000000  0  4G01G24G18G11                                    
  22004379.64849 115633796.10549      3043.45749        48.000  

  22565345.89149 118581691.98849     -3177.05549        48.000  

  20336683.88349 106869994.82049      7510.76649        50.000  

  20272143.06249 106530830.49249      2003.52049        50.000  

 16 04 02 12 01 36.3000000  0  4G01G24G18G11                                    
  22004321.74249 115633491.78949      3042.20749        48.000  

  22565406.35949 118582009.77049     -3179.27749        48.000  

  20336540.99249 106869243.92249      7506.18049        49.000  

  20272104.95349 106530630.21949      2001.22349        50.000  

 16 04 02 12 01 36.4000000  0  4G01G24G18G11                                    
  22004263.86749 115633187.67649      3040.24649        48.000  

  22565466.89849 118582327.88749     -3182.60549        48.000  

  20336398.20349 106868493.55549      7500.89549        49.000  

  20272066.89849 106530430.25849      1998.16449        50.000  

 16 04 02 12 01 36.5000000  0  4G01G24G18G11                                    
  22004206.03149 115632883.75049      3038.44949        48.000  

  22565527.48449 118582646.30549     -3185.64549        48.000  

  20336255.50849 106867743.70349      7495.96549        49.000  

  20272028.89849 106530230.57849      1995.38749        50.000  

 16 04 02 12 01 36.6000000  0  4G01G24G18G11                                    
  22004148.22749 115632579.98849      3036.71949        48.000  

  22565588.13349 118582965.01649     -3188.72349        48.000  

  20336112.90649 106866994.33249      7490.80949        49.000  

  20271990.94549 106530031.16049      1992.59049        50.000  

 16 04 02 12 01 36.7000000  0  4G01G24G18G11                                    
  22004090.45349 115632276.37549      3035.23049        48.000  

  22565648.82849 118583283.97349     -3191.10249        48.000  

  20335970.39849 106866245.43049      7486.40649        49.000  

  20271953.04749 106529831.98849      1990.31249        50.000  

 16 04 02 12 01 36.8000000  0  4G01G24G18G11                                    
  22004032.69549 115631972.89149      3034.08649        48.000  

  22565709.57849 118583603.19549     -3193.58649        48.000  

  20335827.96949 106865496.99649      7481.66849        50.000  

  20271915.19549 106529633.05149      1988.03949        50.000  

 16 04 02 12 01 36.9000000  0  4G01G24G18G11                                    
  22003974.97749 115631669.57449      3032.57049        48.000  

  22565770.38349 118583922.70749     -3196.34849        48.000  

  20335685.64149 106864749.03949      7477.21549        50.000  

  20271877.39149 106529434.38349      1985.60949        50.000  

 16 04 02 12 01 37.0000000  0  4G01G24G18G11                                    
  22003917.28149 115631366.37949      3031.03149        48.000  

  22565831.22749 118584242.45749     -3199.10949        48.000  

  20335543.39849 106864001.54749      7472.21549        50.000  

  20271839.62549 106529235.94149      1982.82049        50.000  

 16 04 02 12 01 37.1000000  0  4G01G24G18G11                                    
  22003859.63349 115631063.42649      3028.75049        48.000  

  22565892.14849 118584562.57049     -3202.51249        48.000  

  20335401.25849 106863254.60249      7466.80549        50.000  

  20271801.92249 106529037.83649      1979.69949        50.000  

 16 04 02 12 01 37.2000000  0  4G01G24G18G11                                    
  22003802.00049 115630760.56649      3027.67649        48.000  

  22565953.10249 118584882.89149     -3204.71149        48.000  

  20335259.20349 106862508.09049      7462.49249        50.000  

  20271764.26649 106528839.93049      1977.65249        50.000  

 16 04 02 12 01 37.3000000  0  4G01G24G18G11                                    
  22003744.40649 115630457.92649      3025.48449        48.000  

  22566014.12549 118585203.56249     -3208.18449        48.000  

  20335117.25049 106861762.10549      7457.07049        50.000  

  20271726.66449 106528642.32849      1974.59049        50.000  

 16 04 02 12 01 37.4000000  0  4G01G24G18G11                                    
  22003686.84449 115630155.41449      3024.24249        48.000  

  22566075.18849 118585524.47749     -3210.60949        48.000  

  20334975.38349 106861016.59049      7452.45749        49.000  

  20271689.10249 106528444.97749      1972.04749        50.000  

 16 04 02 12 01 37.5000000  0  4G01G24G18G11                                    
  22003629.31249 115629853.08649      3022.56649        48.000  

  22566136.31249 118585845.69549     -3213.59849        48.000  

  20334833.60949 106860271.57849      7447.67649        49.000  

  20271651.60249 106528247.90249      1969.39149        50.000  

 16 04 02 12 01 37.6000000  0  4G01G24G18G11                                    
  22003571.80549 115629550.88749      3021.07049        48.000  

  22566197.49249 118586167.17649     -3216.33649        48.000  

  20334691.92249 106859527.02749      7442.84049        49.000  

  20271614.14149 106528051.05949      1966.96949        50.000  

 16 04 02 12 01 37.7000000  0  4G01G24G18G11                                    
  22003514.34449 115629248.91049      3018.77349        48.000  

  22566258.72749 118586488.97349     -3219.60549        48.000  

  20334550.34449 106858783.00849      7437.40649        50.000  

  20271576.74249 106527854.53549      1963.71549        50.000  

 16 04 02 12 01 37.8000000  0  4G01G24G18G11                                    
  22003456.92249 115628947.13349      3016.75049        48.000  

  22566320.03149 118586811.11749     -3222.91049        48.000  

  20334408.85949 106858039.52349      7432.11349        50.000  

  20271539.40649 106527658.31249      1960.70749        50.000  

 16 04 02 12 01 37.9000000  0  4G01G24G18G11                                    
  22003399.50849 115628645.45749      3015.98449        48.000  

  22566381.37549 118587133.47349     -3225.06249        48.000  

  20334267.46149 106857296.46949      7427.89849        50.000  

  20271502.10249 106527462.30549      1958.68849        50.000  

 16 04 02 12 01 38.0000000  0  4G01G24G18G11                                    
  22003342.14149 115628343.96149      3014.24249        48.000  

  22566442.77349 118587456.12549     -3227.84449        48.000  

  20334126.15649 106856553.90649      7422.90649        50.000  

  20271464.85949 106527266.55149      1956.02749        50.000  

 16 04 02 12 01 38.1000000  0  4G01G24G18G11                                    
  22003284.80549 115628042.65649      3012.19549        48.000  

  22566504.22749 118587779.08249     -3231.06249        48.000  

  20333984.95349 106855811.86749      7417.76249        49.000  

  20271427.66449 106527071.10249      1953.14149        50.000  

 16 04 02 12 01 38.2000000  0  4G01G24G18G11                                    
  22003227.50049 115627741.50449      3010.68449        48.000  

  22566565.74249 118588102.32849     -3233.84849        48.000  

  20333843.83649 106855070.29749      7413.10949        50.000  

  20271390.52349 106526875.90649      1950.60249        50.000  

 16 04 02 12 01 38.3000000  0  4G01G24G18G11                                    
  22003170.21949 115627440.52749      3008.92649        48.000  

  22566627.30549 118588425.85549     -3236.80549        48.000  

  20333702.82049 106854329.24249      7407.82049        50.000  

  20271353.43049 106526680.99649      1947.68849        50.000  

 16 04 02 12 01 38.4000000  0  4G01G24G18G11                                    
  22003112.97749 115627139.70749      3007.54349        48.000  

  22566688.92249 118588749.66849     -3239.45749        48.000  

  20333561.89149 106853588.65249      7403.32849        50.000  

  20271316.38349 106526486.32449      1945.35549        50.000  

 16 04 02 12 01 38.5000000  0  4G01G24G18G11                                    
  22003055.76649 115626839.04349      3005.73449        48.000  

  22566750.59449 118589073.76649     -3242.62149        48.000  

  20333421.05549 106852848.55549      7398.34049        50.000  

  20271279.39149 106526291.93049      1942.45349        50.000  

 16 04 02 12 01 38.6000000  0  4G01G24G18G11                                    
  22002998.59449 115626538.64149      3003.16449        48.000  

  22566812.34449 118589398.22749     -3246.13749        48.000  

  20333280.32849 106852109.03549      7392.48849        49.000  

  20271242.46149 106526097.88349      1938.91449        50.000  

 16 04 02 12 01 38.7000000  0  4G01G24G18G11                                    
  22002941.45349 115626238.34049      3002.25449        48.000  

  22566874.12549 118589722.91849     -3248.23849        48.000  

  20333139.68849 106851369.94549      7388.24649        50.000  

  20271205.57849 106525904.03549      1937.11349        50.000  

 16 04 02 12 01 38.8000000  0  4G01G24G18G11                                    
  22002884.33649 115625938.18449      3000.88749        48.000  

  22566935.96949 118590047.88749     -3251.03149        48.000  

  20332999.13349 106850631.34049      7383.55549        50.000  

  20271168.74249 106525710.45749      1934.56249        50.000  

 16 04 02 12 01 38.9000000  0  4G01G24G18G11                                    
  22002827.25849 115625638.21549      2999.16049        48.000  

  22566997.85949 118590373.14149     -3253.67249        48.000  

  20332858.67249 106849893.21949      7378.83249        50.000  

  20271131.95349 106525517.14149      1932.04349        50.000  

 16 04 02 12 01 39.0000000  0  4G01G24G18G11                                    
  22002770.19549 115625338.34049      2997.85549        48.000  

  22567059.78949 118590698.61749     -3256.36749        48.000  

  20332718.29749 106849155.53949      7374.04749        50.000  

  20271095.20349 106525324.03549      1929.56249        50.000  

 16 04 02 12 01 39.1000000  0  4G01G24G18G11                                    
  22002713.18049 115625038.72349      2995.37149        48.000  

  22567121.79749 118591024.47749     -3260.07849        48.000  

  20332578.02349 106848418.43049      7368.24249        50.000  

  20271058.52349 106525131.27749      1925.98049        50.000  

 16 04 02 12 01 39.2000000  0  4G01G24G18G11                                    
  22002656.20349 115624739.29349      2993.35949        48.000  

  22567183.85949 118591350.63749     -3263.14849        48.000  

  20332437.85249 106847681.82849      7363.36749        50.000  

  20271021.89849 106524938.81249      1923.26649        50.000  

 16 04 02 12 01 39.3000000  0  4G01G24G18G11                                    
  22002599.24249 115624439.95749      2992.46149        48.000  

  22567245.96949 118591677.01249     -3265.36749        48.000  

  20332297.76649 106846945.65649      7358.90249        50.000  

  20270985.30549 106524746.53549      1921.16049        50.000  

 16 04 02 12 01 39.4000000  0  4G01G24G18G11                                    
  22002542.32849 115624140.89849      2989.70349        48.000  

  22567308.15649 118592003.79749     -3269.34849        48.000  

  20332157.79749 106846210.09049      7352.92249        50.000  

  20270948.78949 106524554.65649      1917.25449        50.000  

 16 04 02 12 01 39.5000000  0  4G01G24G18G11                                    
  22002485.44549 115623841.98849      2988.11749        48.000  

  22567370.37549 118592330.83249     -3272.03949        48.000  

  20332017.90649 106845474.98049      7348.24249        50.000  

  20270912.32049 106524363.00849      1914.92249        50.000  

 16 04 02 12 01 39.6000000  0  4G01G24G18G11                                    
  22002428.59449 115623543.23049      2986.90649        48.000  

  22567432.66449 118592658.14849     -3274.39849        48.000  

  20331878.10949 106844740.35949      7343.78149        50.000  

  20270875.89149 106524171.62549      1912.57449        50.000  

 16 04 02 12 01 39.7000000  0  4G01G24G18G11                                    
  22002371.77349 115623244.61349      2985.38349        48.000  

  22567495.00049 118592985.72749     -3277.35549        48.000  

  20331738.40649 106844006.19549      7338.93449        50.000  

  20270839.51649 106523980.46549      1910.09049        50.000  

 16 04 02 12 01 39.8000000  0  4G01G24G18G11                                    
  22002314.97749 115622946.16849      2983.72349        48.000  

  22567557.39149 118593313.60249     -3280.15649        48.000  

  20331598.79749 106843272.53949      7334.08249        50.000  

  20270803.19549 106523789.59449      1907.39549        50.000  

 16 04 02 12 01 39.9000000  0  4G01G24G18G11                                    
  22002258.21949 115622647.91449      2981.57049        48.000  

  22567619.84449 118593641.77349     -3283.32049        48.000  

  20331459.28149 106842539.39149      7328.69149        50.000  

  20270766.93049 106523599.00849      1904.30949        50.000  

 16 04 02 12 01 40.0000000  0  4G01G24G18G11                                    
  22002201.49249 115622349.78149      2980.57049        48.000  

  22567682.33649 118593970.20749     -3285.69149        48.000  

  20331319.85949 106841806.69549      7324.42249        50.000  

  20270730.70349 106523408.64549      1902.41049        50.000  

 16 04 02 12 01 40.1000000  0  4G01G24G18G11                                    
  22002144.78149 115622051.77049      2979.28949        48.000  

  22567744.87549 118594298.87149     -3288.24249        48.000  

  20331180.50849 106841074.43449      7319.90249        50.000  

  20270694.52349 106523218.50049      1899.96149        50.000  

 16 04 02 12 01 40.2000000  0  4G01G24G18G11                                    
  22002088.10949 115621753.99249      2977.08649        48.000  

  22567807.48449 118594627.88349     -3291.46949        48.000  

  20331041.27349 106840342.74249      7314.41849        50.000  

  20270658.39849 106523028.69549      1896.73849        50.000  

 16 04 02 12 01 40.3000000  0  4G01G24G18G11                                    
  22002031.47749 115621456.36349      2975.30549        48.000  

  22567870.14849 118594957.16449     -3294.33249        48.000  

  20330902.12549 106839611.50849      7309.55949        50.000  

  20270622.32849 106522839.13349      1894.07449        50.000  

 16 04 02 12 01 40.4000000  0  4G01G24G18G11                                    
  22001974.86749 115621158.86749      2974.16049        48.000  

  22567932.85949 118595286.70349     -3296.88349        48.000  

  20330763.07049 106838880.75849      7304.97349        49.000  

  20270586.30549 106522649.81649      1891.75849        50.000  

 16 04 02 12 01 40.5000000  0  4G01G24G18G11                                    
  22001918.28949 115620861.56249      2972.30149        48.000  

  22567995.62549 118595616.55149     -3299.79749        48.000  

  20330624.10249 106838150.50449      7299.97749        50.000  

  20270550.33649 106522460.78549      1889.09849        50.000  

 16 04 02 12 01 40.6000000  0  4G01G24G18G11                                    
  22001861.74249 115620564.39149      2970.84849        48.000  

  22568058.44549 118595946.64849     -3302.48849        48.000  

  20330485.22749 106837420.70749      7295.20349        50.000  

  20270514.40649 106522271.98049      1886.48849        50.000  

 16 04 02 12 01 40.7000000  0  4G01G24G18G11                                    
  22001805.22749 115620267.41849      2968.97749        48.000  

  22568121.32049 118596277.08249     -3305.68849        48.000  

  20330346.45349 106836691.44949      7290.03549        50.000  

  20270478.53949 106522083.48849      1883.50849        50.000  

 16 04 02 12 01 40.8000000  0  4G01G24G18G11                                    
  22001748.74249 115619970.59049      2967.43049        48.000  

  22568184.25049 118596607.76249     -3308.42249        48.000  

  20330207.76649 106835962.64549      7285.33249        50.000  

  20270442.71949 106521895.23049      1881.07849        50.000  

 16 04 02 12 01 40.9000000  0  4G01G24G18G11                                    
  22001692.29749 115619673.96949      2965.25049        48.000  

  22568247.23449 118596938.77749     -3311.63349        48.000  

  20330069.18049 106835234.37549      7280.05949        50.000  

  20270406.95349 106521707.27749      1877.99249        50.000  

 16 04 02 12 01 41.0000000  0  4G01G24G18G11                                    
  22001635.88349 115619377.51249      2963.68049        48.000  

  22568310.28149 118597270.06649     -3314.48049        48.000  

  20329930.68849 106834506.59849      7275.09049        50.000  

  20270371.24249 106521519.60949      1875.20349        50.000  

 16 04 02 12 01 41.1000000  0  4G01G24G18G11                                    
  22001579.49249 115619081.18049      2962.52049        48.000  

  22568373.36749 118597601.60949     -3316.80949        48.000  

  20329792.28149 106833779.26649      7270.68449        50.000  

  20270335.56249 106521332.14149      1873.21949        50.000  

 16 04 02 12 01 41.2000000  0  4G01G24G18G11                                    
  22001523.13349 115618785.04749      2960.52749        48.000  

  22568436.52349 118597933.48449     -3320.19949        48.000  

  20329653.97749 106833052.46549      7265.39149        50.000  

  20270299.95349 106521144.99249      1870.14149        50.000  

 16 04 02 12 01 41.3000000  0  4G01G24G18G11                                    
  22001466.82049 115618489.09049      2958.87549        48.000  

  22568499.72749 118598265.64149     -3323.02749        48.000  

  20329515.76649 106832326.16849      7260.39149        50.000  

  20270264.39149 106520958.11749      1867.41049        50.000  

 16 04 02 12 01 41.4000000  0  4G01G24G18G11                                    
  22001410.53149 115618193.29349      2957.10249        48.000  

  22568562.98449 118598598.06249     -3325.75049        48.000  

  20329377.64149 106831600.34049      7255.54349        50.000  

  20270228.87549 106520771.49249      1864.78949        50.000  

 16 04 02 12 01 41.5000000  0  4G01G24G18G11                                    
  22001354.27349 115617897.66849      2955.49249        48.000  

  22568626.30549 118598930.79349     -3328.63349        48.000  

  20329239.61749 106830875.01249      7250.75049        50.000  

  20270193.41449 106520585.14149      1862.15649        50.000  

 16 04 02 12 01 41.6000000  0  4G01G24G18G11                                    
  22001298.03949 115617602.17649      2954.11349        48.000  

  22568689.67249 118599263.78549     -3331.28949        48.000  

  20329101.68049 106830150.15649      7245.95349        50.000  

  20270158.00049 106520399.03949      1859.62549        50.000  

 16 04 02 12 01 41.7000000  0  4G01G24G18G11                                    
  22001241.83649 115617306.84449      2952.64549        48.000  

  22568753.08649 118599597.03549     -3333.85549        48.000  

  20328963.83649 106829425.77049      7241.36349        50.000  

  20270122.63349 106520213.18449      1857.14549        50.000  

 16 04 02 12 01 41.8000000  0  4G01G24G18G11                                    
  22001185.68049 115617011.70749      2950.68449        48.000  

  22568816.56249 118599930.62149     -3337.08249        48.000  

  20328826.08649 106828701.91849      7236.07449        50.000  

  20270087.32049 106520027.62549      1854.35949        50.000  

 16 04 02 12 01 41.9000000  0  4G01G24G18G11                                    
  22001129.54749 115616716.73449      2948.84049        48.000  

  22568880.09449 118600264.48849     -3340.19149        48.000  

  20328688.43849 106827978.54349      7231.02749        50.000  

  20270052.06249 106519842.34449      1851.31649        50.000  

 16 04 02 12 01 42.0000000  0  4G01G24G18G11                                    
  22001073.44549 115616421.93449      2947.09849        48.000  

  22568943.68049 118600598.63749     -3343.07449        48.000  

  20328550.87549 106827255.66449      7226.08649        50.000  

  20270016.85949 106519657.31249      1848.75049        50.000  

 16 04 02 12 01 42.1000000  0  4G01G24G18G11                                    
  22001017.37549 115616127.26249      2945.87149        48.000  

  22569007.32049 118600933.03549     -3345.44549        48.000  

  20328413.40649 106826533.24249      7221.47349        50.000  

  20269981.69549 106519472.52349      1846.53549        50.000  

 16 04 02 12 01 42.2000000  0  4G01G24G18G11                                    
  22000961.32849 115615832.76649      2944.03549        48.000  

  22569071.00849 118601267.73449     -3348.63349        48.000  

  20328276.03149 106825811.31249      7216.52049        50.000  

  20269946.57849 106519288.00849      1843.61349        50.000  

 16 04 02 12 01 42.3000000  0  4G01G24G18G11                                    
  22000905.32049 115615538.41849      2942.85949        48.000  

  22569134.75049 118601602.68849     -3350.91849        48.000  

  20328138.74249 106825089.85949      7212.13349        50.000  

  20269911.51649 106519103.73449      1841.46549        50.000  

 16 04 02 12 01 42.4000000  0  4G01G24G18G11                                    
  22000849.32849 115615244.19949      2941.52049        48.000  

  22569198.53949 118601937.89549     -3353.48449        48.000  

  20328001.53949 106824368.87149      7207.25849        50.000  

  20269876.50049 106518919.71549      1838.85249        50.000  

 16 04 02 12 01 42.5000000  0  4G01G24G18G11                                    
  22000793.37549 115614950.16049      2939.64149        48.000  

  22569262.39149 118602273.42649     -3356.54349        48.000  

  20327864.43849 106823648.38349      7202.35949        50.000  

  20269841.53149 106518735.95749      1836.18849        50.000  

 16 04 02 12 01 42.6000000  0  4G01G24G18G11                                    
  22000737.45349 115614656.29349      2937.89849        48.000  

  22569326.28949 118602609.22749     -3359.43449        48.000  

  20327727.42249 106822928.39149      7197.35549        50.000  

  20269806.61749 106518552.48049      1833.30949        50.000  

 16 04 02 12 01 42.7000000  0  4G01G24G18G11                                    
  22000681.57049 115614362.62549      2935.87149        48.000  

  22569390.25049 118602945.34849     -3362.78149        48.000  

  20327590.50849 106822208.91449      7191.99249        50.000  

  20269771.75849 106518369.28949      1830.39849        50.000  

 16 04 02 12 01 42.8000000  0  4G01G24G18G11                                    
  22000625.72749 115614069.16849      2933.50049        48.000  

  22569454.28149 118603281.79749     -3366.14549        48.000  

  20327453.70349 106821489.97749      7186.52349        50.000  

  20269736.96149 106518186.41849      1827.02349        50.000  

 16 04 02 12 01 42.9000000  0  4G01G24G18G11                                    
  22000569.90649 115613775.83649      2932.42649        48.000  

  22569518.35249 118603618.49649     -3368.51649        48.000  

  20327316.97749 106820771.49649      7182.08249        50.000  

  20269702.20349 106518003.77049      1824.91049        50.000  

 16 04 02 12 01 43.0000000  0  4G01G24G18G11                                    
  22000514.11749 115613482.67249      2930.68849        48.000  

  22569582.47749 118603955.48449     -3371.35249        48.000  

  20327180.35249 106820053.49249      7177.21149        50.000  

  20269667.50049 106517821.39149      1822.22749        50.000  

 16 04 02 12 01 43.1000000  0  4G01G24G18G11                                    
  22000458.35949 115613189.68849      2929.22349        48.000  

  22569646.66449 118604292.77349     -3374.16449        48.000  

  20327043.81249 106819336.00849      7172.49249        50.000  

  20269632.84449 106517639.30149      1819.65649        50.000  

 16 04 02 12 01 43.2000000  0  4G01G24G18G11                                    
  22000402.63349 115612896.84049      2927.53949        48.000  

  22569710.89849 118604630.31649     -3376.93449        48.000  

  20326907.37549 106818618.98449      7167.51249        50.000  

  20269598.23449 106517457.43449      1817.21149        50.000  

 16 04 02 12 01 43.3000000  0  4G01G24G18G11                                    
  22000346.93049 115612604.13749      2926.29749        48.000  

  22569775.18049 118604968.12549     -3379.53949        48.000  

  20326771.01649 106817902.43049      7162.87549        50.000  

  20269563.68049 106517275.82449      1814.64549        50.000  

 16 04 02 12 01 43.4000000  0  4G01G24G18G11                                    
  22000291.28149 115612311.65649      2924.07849        48.000  

  22569839.53149 118605306.26649     -3382.83649        48.000  

  20326634.75849 106817186.40249      7157.70749        50.000  

  20269529.17249 106517094.52049      1811.68849        50.000  

 16 04 02 12 01 43.5000000  0  4G01G24G18G11                                    
  22000235.65649 115612019.34449      2922.26249        48.000  

  22569903.93049 118605644.69949     -3385.78149        48.000  

  20326498.60249 106816470.89149      7152.44149        50.000  

  20269494.72749 106516913.50849      1808.67649        50.000  

 16 04 02 12 01 43.6000000  0  4G01G24G18G11                                    
  22000180.04749 115611727.10549      2921.74249        48.000  

  22569968.37549 118605983.33649     -3387.61749        48.000  

  20326362.51649 106815755.77049      7148.77749        50.000  

  20269460.31249 106516732.65649      1807.30949        50.000  

 16 04 02 12 01 43.7000000  0  4G01G24G18G11                                    
  22000124.47749 115611435.08249      2919.46549        48.000  

  22570032.87549 118606322.29749     -3391.05549        48.000  

  20326226.53949 106815041.18449      7143.19949        50.000  

  20269425.96149 106516552.12149      1803.97749        50.000  

 16 04 02 12 01 43.8000000  0  4G01G24G18G11                                    
  22000068.93849 115611143.21949      2917.67649        48.000  

  22570097.43049 118606661.53549     -3393.93449        48.000  

  20326090.64849 106814327.07849      7138.34849        50.000  

  20269391.65649 106516371.84849      1801.18849        50.000  

 16 04 02 12 01 43.9000000  0  4G01G24G18G11                                    
  22000013.43049 115610851.52349      2916.08649        48.000  

  22570162.03949 118607001.07449     -3396.86349        48.000  

  20325954.85949 106813613.49249      7133.27349        50.000  

  20269357.39849 106516191.84049      1798.58249        50.000  

 16 04 02 12 01 44.0000000  0  4G01G24G18G11                                    
  21999957.95349 115610559.98849      2914.57849        48.000  

  22570226.70349 118607340.87949     -3399.38749        48.000  

  20325819.14849 106812900.36349      7128.67649        50.000  

  20269323.20349 106516012.09449      1796.17649        50.000  

 16 04 02 12 01 44.1000000  0  4G01G24G18G11                                    
  21999902.50049 115610268.59449      2913.10549        48.000  

  22570291.41449 118607680.94949     -3402.11749        48.000  

  20325683.53949 106812187.70749      7123.89849        50.000  

  20269289.03949 106515832.59449      1793.54349        50.000  

 16 04 02 12 01 44.2000000  0  4G01G24G18G11                                    
  21999847.09449 115609977.40649      2911.12149        48.000  

  22570356.19549 118608021.34849     -3405.34049        48.000  

  20325548.02349 106811475.59049      7118.65649        50.000  

  20269254.93849 106515653.39849      1790.71149        50.000  

 16 04 02 12 01 44.3000000  0  4G01G24G18G11                                    
  21999791.71149 115609686.37149      2909.50849        48.000  

  22570421.02349 118608362.01649     -3408.17649        48.000  

  20325412.60249 106810763.94149      7113.80949        50.000  

  20269220.89149 106515474.45749      1787.97749        50.000  

 16 04 02 12 01 44.4000000  0  4G01G24G18G11                                    
  21999736.35249 115609395.46149      2908.31249        48.000  

  22570485.89849 118608702.93449     -3410.55149        48.000  

  20325277.26649 106810052.75049      7109.32849        50.000  

  20269186.87549 106515295.74649      1785.79749        50.000  

 16 04 02 12 01 44.5000000  0  4G01G24G18G11                                    
  21999681.03149 115609104.72749      2906.51249        48.000  

  22570550.82849 118609044.14549     -3413.54749        48.000  

  20325142.02349 106809342.04749      7104.38349        50.000  

  20269152.92249 106515117.29349      1783.09849        50.000  

 16 04 02 12 01 44.6000000  0  4G01G24G18G11                                    
  21999625.75049 115608814.22349      2904.10249        48.000  

  22570615.82049 118609385.69949     -3417.16449        48.000  

  20325006.89149 106808631.91449      7098.47349        50.000  

  20269119.03149 106514939.19149      1779.43449        50.000  

 16 04 02 12 01 44.7000000  0  4G01G24G18G11                                    
  21999570.50049 115608523.88749      2902.45349        48.000  

  22570680.87549 118609727.55149     -3420.06649        48.000  

  20324871.84449 106807922.25849      7093.78149        50.000  

  20269085.18849 106514761.34049      1776.88749        50.000  

 16 04 02 12 01 44.8000000  0  4G01G24G18G11                                    
  21999515.28149 115608233.73449      2900.73849        48.000  

  22570745.98449 118610069.69949     -3422.84849        48.000  

  20324736.90649 106807213.12949      7088.80149        50.000  

  20269051.39849 106514583.79349      1774.19949        50.000  

 16 04 02 12 01 44.9000000  0  4G01G24G18G11                                    
  21999460.09449 115607943.69149      2899.60949        48.000  

  22570811.14149 118610412.07849     -3425.20749        48.000  

  20324602.03949 106806504.41449      7084.53949        50.000  

  20269017.64849 106514406.44549      1772.05549        50.000  

 16 04 02 12 01 45.0000000  0  4G01G24G18G11                                    
  21999404.93049 115607653.78949      2898.30549        48.000  

  22570876.34449 118610754.72349     -3427.91449        48.000  

  20324467.26649 106805796.17649      7079.82449        50.000  

  20268983.94549 106514229.33649      1769.66449        50.000  

 16 04 02 12 01 45.1000000  0  4G01G24G18G11                                    
  21999349.79749 115607364.07849      2896.32049        48.000  

  22570941.60249 118611097.66049     -3430.84049        48.000  

  20324332.58649 106805088.44949      7074.66849        50.000  

  20268950.29749 106514052.52049      1766.73449        50.000  

 16 04 02 12 01 45.2000000  0  4G01G24G18G11                                    
  21999294.70349 115607074.55149      2894.53549        48.000  

  22571006.92249 118611440.91449     -3433.92649        48.000  

  20324198.00849 106804381.23449      7069.57849        50.000  

  20268916.70349 106513875.98449      1763.99249        50.000  

 16 04 02 12 01 45.3000000  0  4G01G24G18G11                                    
  21999239.63349 115606785.17249      2892.93849        48.000  

  22571072.29749 118611784.43049     -3436.70749        48.000  

  20324063.52349 106803674.48849      7064.80149        50.000  

  20268883.16449 106513699.71149      1761.31249        50.000  

 16 04 02 12 01 45.4000000  0  4G01G24G18G11                                    
  21999184.59449 115606495.93849      2891.51249        48.000  

  22571137.71149 118612128.21949     -3439.35549        48.000  

  20323929.12549 106802968.21149      7060.16849        50.000  

  20268849.66449 106513523.67249      1759.01249        50.000  

 16 04 02 12 01 45.5000000  0  4G01G24G18G11                                    
  21999129.59449 115606206.90249      2889.62949        48.000  

  22571203.19549 118612472.31249     -3442.28549        48.000  

  20323794.82049 106802262.45349      7054.94949        50.000  

  20268816.21949 106513347.92249      1756.05949        50.000  

 16 04 02 12 01 45.6000000  0  4G01G24G18G11                                    
  21999074.62549 115605918.02749      2887.85949        48.000  

  22571268.73449 118612816.70349     -3445.35949        48.000  

  20323660.61749 106801557.19149      7049.91849        50.000  

  20268782.83649 106513172.45349      1753.33249        50.000  

 16 04 02 12 01 45.7000000  0  4G01G24G18G11                                    
  21999019.69549 115605629.37149      2885.49249        48.000  

  22571334.32849 118613161.42649     -3448.94549        48.000  

  20323526.51649 106800852.47349      7044.29749        50.000  

  20268749.50049 106512997.29749      1749.80949        50.000  

 16 04 02 12 01 45.8000000  0  4G01G24G18G11                                    
  21998964.80549 115605340.92649      2883.68849        48.000  

  22571399.98449 118613506.46549     -3451.83249        48.000  

  20323392.50849 106800148.27349      7039.39549        50.000  

  20268716.22749 106512822.43849      1747.16049        50.000  

 16 04 02 12 01 45.9000000  0  4G01G24G18G11                                    
  21998909.93849 115605052.57849      2882.52049        48.000  

  22571465.68849 118613851.73849     -3454.30549        48.000  

  20323258.58649 106799444.52049      7034.85249        50.000  

  20268682.99249 106512647.79749      1744.90249        50.000  

 16 04 02 12 01 46.0000000  0  4G01G24G18G11                                    
  21998855.10249 115604764.43449      2880.64149        48.000  

  22571531.45349 118614197.32849     -3457.49649        48.000  

  20323124.75849 106798741.27349      7029.72749        50.000  

  20268649.82049 106512473.45749      1741.93849        50.000  

 16 04 02 12 01 46.1000000  0  4G01G24G18G11                                    
  21998800.30549 115604476.45749      2878.95349        48.000  

  22571597.26649 118614543.19549     -3460.13349        48.000  

  20322991.03149 106798038.52749      7024.89849        50.000  

  20268616.68849 106512299.36749      1739.51249        50.000  

 16 04 02 12 01 46.2000000  0  4G01G24G18G11                                    
  21998745.53149 115604188.60949      2877.36749        48.000  

  22571663.13349 118614889.31649     -3462.92649        48.000  

  20322857.39149 106797336.23049      7020.07049        50.000  

  20268583.60949 106512125.52049      1736.87149        50.000  

 16 04 02 12 01 46.3000000  0  4G01G24G18G11                                    
  21998690.78149 115603900.90249      2876.43049        48.000  

  22571729.04749 118615235.71149     -3465.12149        48.000  

  20322723.83649 106796634.41849      7015.81249        50.000  

  20268550.57049 106511951.92249      1734.85549        50.000  

 16 04 02 12 01 46.4000000  0  4G01G24G18G11                                    
  21998636.05549 115603613.31249      2875.14149        48.000  

  22571795.00849 118615582.33249     -3467.60949        48.000  

  20322590.36749 106795933.02349      7011.30549        50.000  

  20268517.57049 106511778.52749      1732.52749        50.000  

 16 04 02 12 01 46.5000000  0  4G01G24G18G11                                    
  21998581.35949 115603325.87549      2873.63349        48.000  

  22571861.02349 118615929.21549     -3470.27349        48.000  

  20322456.99249 106795232.11349      7006.55549        50.000  

  20268484.62549 106511605.39149      1730.00849        50.000  

 16 04 02 12 01 46.6000000  0  4G01G24G18G11                                    
  21998526.70349 115603038.67649      2870.97749        48.000  

  22571927.10249 118616276.46149     -3473.95349        48.000  

  20322323.71949 106794531.76649      7000.72749        50.000  

  20268451.74249 106511432.59049      1726.32449        50.000  

 16 04 02 12 01 46.7000000  0  4G01G24G18G11                                    
  21998472.08649 115602751.66449      2869.28549        48.000  

  22571993.23449 118616624.02749     -3477.07849        48.000  

  20322190.54749 106793831.94149      6995.56249        50.000  

  20268418.91449 106511260.07849      1723.78149        50.000  

 16 04 02 12 01 46.8000000  0  4G01G24G18G11                                    
  21998417.48449 115602464.75449      2868.31249        48.000  

  22572059.41449 118616971.80149     -3479.16449        48.000  

  20322057.45349 106793132.52049      6991.59849        50.000  

  20268386.12549 106511087.77049      1721.72349        50.000  

 16 04 02 12 01 46.9000000  0  4G01G24G18G11                                    
  21998362.93049 115602178.04349      2866.13749        48.000  

  22572125.65649 118617319.90249     -3482.53949        48.000  

  20321924.46149 106792433.64549      6986.08649        50.000  

  20268353.39149 106510915.77049      1718.44149        50.000  

 16 04 02 12 01 47.0000000  0  4G01G24G18G11                                    
  21998308.40649 115601891.52349      2864.30949        48.000  

  22572191.95349 118617668.29349     -3485.42249        48.000  

  20321791.56249 106791735.27049      6981.04349        50.000  

  20268320.71949 106510744.04349      1715.83649        50.000  

 16 04 02 12 01 47.1000000  0  4G01G24G18G11                                    
  21998253.90649 115601605.12549      2863.12949        48.000  

  22572258.29749 118618016.94949     -3488.03149        48.000  

  20321658.75849 106791037.34849      6976.48849        50.000  

  20268288.08649 106510572.55149      1713.45349        50.000  

 16 04 02 12 01 47.2000000  0  4G01G24G18G11                                    
  21998199.44549 115601318.93849      2861.12549        48.000  

  22572324.71149 118618365.93449     -3491.26249        48.000  

  20321526.04749 106790339.96149      6971.27049        50.000  

  20268255.50849 106510401.37549      1710.46149        50.000  

 16 04 02 12 01 47.3000000  0  4G01G24G18G11                                    
  21998145.01649 115601032.89149      2859.57049        48.000  

  22572391.16449 118618715.15649     -3493.84849        48.000  

  20321393.42249 106789643.03949      6966.55949        50.000  

  20268222.97749 106510230.43449      1707.90249        50.000  

 16 04 02 12 01 47.4000000  0  4G01G24G18G11                                    
  21998090.60249 115600746.96949      2858.62149        48.000  

  22572457.67249 118619064.64549     -3496.10549        48.000  

  20321260.89149 106788946.57049      6962.21149        50.000  

  20268190.49249 106510059.71549      1705.84449        50.000  

 16 04 02 12 01 47.5000000  0  4G01G24G18G11                                    
  21998036.21949 115600461.16849      2857.30149        48.000  

  22572524.21949 118619414.36749     -3498.55149        48.000  

  20321128.43849 106788250.54349      6957.67649        50.000  

  20268158.04749 106509889.21149      1703.70349        50.000  

 16 04 02 12 01 47.6000000  0  4G01G24G18G11                                    
  21997981.87549 115600175.60249      2854.89549        48.000  

  22572590.83649 118619764.43849     -3502.16449        48.000  

  20320996.09449 106787555.07049      6952.09849        50.000  

  20268125.68049 106509719.05949      1700.13349        50.000  

 16 04 02 12 01 47.7000000  0  4G01G24G18G11                                    
  21997927.56249 115599890.17249      2853.59449        48.000  

  22572657.50849 118620114.77349     -3504.73049        48.000  

  20320863.84449 106786860.06649      6947.47349        50.000  

  20268093.34449 106509549.12949      1697.86749        50.000  

 16 04 02 12 01 47.8000000  0  4G01G24G18G11                                    
  21997873.27349 115599604.88749      2852.08649        48.000  

  22572724.21949 118620465.35249     -3507.32049        48.000  

  20320731.67249 106786165.51649      6942.77749        50.000  

  20268061.04749 106509379.44549      1695.32049        50.000  

 16 04 02 12 01 47.9000000  0  4G01G24G18G11                                    
  21997819.03149 115599319.84449      2849.56249        48.000  

  22572791.00049 118620816.30549     -3511.07449        48.000  

  20320599.60949 106785471.54349      6937.05149        50.000  

  20268028.82049 106509210.10249      1691.91049        50.000  

 16 04 02 12 01 48.0000000  0  4G01G24G18G11                                    
  21997764.82049 115599034.98449      2847.44949        48.000  

  22572857.84449 118621167.55549     -3514.22749        48.000  

  20320467.64849 106784778.08249      6931.64149        50.000  

  20267996.65649 106509041.04749      1688.76249        50.000  

 16 04 02 12 01 48.1000000  0  4G01G24G18G11                                    
  21997710.64849 115598750.28149      2846.26649        48.000  

  22572924.73449 118621519.09849     -3516.68449        48.000  

  20320335.78149 106784085.09449      6927.39849        50.000  

  20267964.53149 106508872.25449      1686.65649        50.000  

 16 04 02 12 01 48.2000000  0  4G01G24G18G11                                    
  21997656.49249 115598465.69549      2844.94149        48.000  

  22572991.68049 118621870.86749     -3519.33649        48.000  

  20320204.00049 106783392.56249      6922.56249        50.000  

  20267932.45349 106508703.67249      1684.28149        50.000  

 16 04 02 12 01 48.3000000  0  4G01G24G18G11                                    
  21997602.38349 115598181.36749      2842.64849        48.000  

  22573058.68849 118622223.00449     -3522.73049        48.000  

  20320072.32049 106782700.60249      6917.19549        50.000  

  20267900.44549 106508535.44949      1681.00449        50.000  

 16 04 02 12 01 48.4000000  0  4G01G24G18G11                                    
  21997548.30549 115597897.14149      2841.33649        48.000  

  22573125.74249 118622575.36349     -3525.13349        48.000  

  20319940.71949 106782009.06249      6912.53549        50.000  

  20267868.46949 106508367.43049      1678.62549        50.000  

 16 04 02 12 01 48.5000000  0  4G01G24G18G11                                    
  21997494.25049 115597613.09049      2839.68849        48.000  

  22573192.85249 118622928.02049     -3527.94949        48.000  

  20319809.22749 106781318.02749      6907.70349        50.000  

  20267836.54749 106508199.68849      1675.94949        50.000  

 16 04 02 12 01 48.6000000  0  4G01G24G18G11                                    
  21997440.22749 115597329.20749      2838.09049        48.000  

  22573260.01649 118623280.96549     -3530.73849        48.000  

  20319677.81249 106780627.48449      6902.89149        50.000  

  20267804.67249 106508032.19549      1673.62549        50.000  

 16 04 02 12 01 48.7000000  0  4G01G24G18G11                                    
  21997386.21949 115597045.40649      2837.05149        48.000  

  22573327.21949 118623634.12949     -3533.22349        48.000  

  20319546.49249 106779937.36749      6898.42249        50.000  

  20267772.84449 106507864.91849      1671.24249        50.000  

 16 04 02 12 01 48.8000000  0  4G01G24G18G11                                    
  21997332.26649 115596761.87549      2834.61349        48.000  

  22573394.49249 118623987.66049     -3536.67249        48.000  

  20319415.27349 106779247.80949      6893.01649        50.000  

  20267741.07849 106507697.98849      1667.91449        50.000  

 16 04 02 12 01 48.9000000  0  4G01G24G18G11                                    
  21997278.34449 115596478.51649      2832.76249        48.000  

  22573461.82049 118624341.47749     -3539.66849        48.000  

  20319284.14849 106778558.76649      6887.78549        50.000  

  20267709.36749 106507531.32849      1665.13349        50.000  

 16 04 02 12 01 49.0000000  0  4G01G24G18G11                                    
  21997224.43849 115596195.22749      2832.16049        48.000  

  22573529.18849 118624695.49249     -3541.50849        48.000  

  20319153.10249 106777870.10949      6884.00849        50.000  

  20267677.68849 106507364.85249      1663.44949        50.000  

 16 04 02 12 01 49.1000000  0  4G01G24G18G11                                    
  21997170.58649 115595912.20749      2829.25849        48.000  

  22573596.63349 118625049.90249     -3545.74649        48.000  

  20319022.17249 106777182.06249      6877.71549        50.000  

  20267646.07849 106507198.74249      1659.60549        50.000  

 16 04 02 12 01 49.2000000  0  4G01G24G18G11                                    
  21997116.75849 115595629.35949      2827.70749        48.000  

  22573664.12549 118625404.59849     -3548.50449        48.000  

  20318891.33649 106776494.50449      6872.99649        50.000  

  20267614.52349 106507032.90649      1656.96549        50.000  

 16 04 02 12 01 49.3000000  0  4G01G24G18G11                                    
  21997062.96149 115595346.64549      2826.31649        48.000  

  22573731.67249 118625759.53949     -3550.93849        48.000  

  20318760.57849 106775807.39549      6868.45749        50.000  

  20267583.00849 106506867.29749      1654.63749        50.000  

 16 04 02 12 01 49.4000000  0  4G01G24G18G11                                    
  21997009.18849 115595064.09049      2824.72749        48.000  

  22573799.26649 118626114.76249     -3553.70349        48.000  

  20318629.92249 106775120.78149      6863.53149        50.000  

  20267551.53949 106506701.94949      1652.04749        50.000  

 16 04 02 12 01 49.5000000  0  4G01G24G18G11                                    
  21996955.45349 115594781.69949      2822.91449        48.000  

  22573866.92249 118626470.26249     -3556.60249        48.000  

  20318499.35949 106774434.65649      6858.43049        50.000  

  20267520.12549 106506536.87149      1649.13749        50.000  

 16 04 02 12 01 49.6000000  0  4G01G24G18G11                                    
  21996901.75049 115594499.48849      2821.48849        48.000  

  22573934.62549 118626826.07849     -3559.48049        48.000  

  20318368.87549 106773749.01649      6853.95349        50.000  

  20267488.76649 106506372.05949      1646.84849        50.000  

 16 04 02 12 01 49.7000000  0  4G01G24G18G11                                    
  21996848.07049 115594217.40249      2820.01649        48.000  

  22574002.37549 118627182.11349     -3561.71149        48.000  

  20318238.49249 106773063.84449      6849.13349        50.000  

  20267457.44549 106506207.49249      1644.25449        50.000  

 16 04 02 12 01 49.8000000  0  4G01G24G18G11                                    
  21996794.41449 115593935.46949      2818.47749        48.000  

  22574070.18849 118627538.44949     -3564.74249        48.000  

  20318108.20349 106772379.15249      6844.29749        50.000  

  20267426.18049 106506043.16449      1641.76249        50.000  

 16 04 02 12 01 49.9000000  0  4G01G24G18G11                                    
  21996740.80549 115593653.73849      2816.53149        48.000  

  22574138.05549 118627895.08649     -3567.94549        48.000  

  20317978.00849 106771694.96949      6839.13349        50.000  

  20267394.96949 106505879.14149      1638.78549        50.000  

 16 04 02 12 01 50.0000000  0  4G01G24G18G11                                    
  21996687.22749 115593372.16849      2814.82449        48.000  

  22574205.97749 118628252.02049     -3570.78949        48.000  

  20317847.90649 106771011.28949      6834.31649        50.000  

  20267363.80549 106505715.38349      1636.21949        50.000  

 16 04 02 12 01 50.1000000  0  4G01G24G18G11                                    
  21996633.68049 115593090.77749      2813.05149        48.000  

  22574273.95349 118628609.23049     -3573.60949        48.000  

  20317717.89849 106770328.10949      6829.17249        50.000  

  20267332.69549 106505551.90249      1633.35549        50.000  

 16 04 02 12 01 50.2000000  0  4G01G24G18G11                                    
  21996580.16449 115592809.56649      2811.17649        48.000  

  22574341.98449 118628966.75049     -3576.80949        48.000  

  20317587.99249 106769645.42649      6824.06249        50.000  

  20267301.64149 106505388.70349      1630.41449        50.000  

 16 04 02 12 01 50.3000000  0  4G01G24G18G11                                    
  21996526.68849 115592528.54349      2809.26649        48.000  

  22574410.07049 118629324.56249     -3579.81249        48.000  

  20317458.18049 106768963.25849      6818.91049        50.000  

  20267270.63349 106505225.77349      1627.60949        50.000  

 16 04 02 12 01 50.4000000  0  4G01G24G18G11                                    
  21996473.24249 115592247.70349      2807.42649        48.000  

  22574478.22749 118629682.69949     -3582.94549        48.000  

  20317328.46149 106768281.60249      6813.72749        50.000  

  20267239.69549 106505063.15649      1624.69549        50.000  

 16 04 02 12 01 50.5000000  0  4G01G24G18G11                                    
  21996419.82049 115591966.96949      2806.50049        48.000  

  22574546.41449 118630041.04749     -3584.93449        48.000  

  20317198.82849 106767600.36349      6809.81649        50.000  

  20267208.78949 106504900.73049      1622.82849        50.000  

 16 04 02 12 01 50.6000000  0  4G01G24G18G11                                    
  21996366.43849 115591686.43049      2804.68449        48.000  

  22574614.66449 118630399.70749     -3587.95349        48.000  

  20317069.29749 106766919.66049      6804.52049        50.000  

  20267177.93049 106504738.60549      1619.92649        50.000  

 16 04 02 12 01 50.7000000  0  4G01G24G18G11                                    
  21996313.07849 115591406.03149      2803.09449        48.000  

  22574682.96149 118630758.63349     -3590.84449        48.000  

  20316939.84449 106766239.41049      6799.71949        50.000  

  20267147.12549 106504576.71549      1617.34049        50.000  

 16 04 02 12 01 50.8000000  0  4G01G24G18G11                                    
  21996259.76649 115591125.87549      2800.57449        48.000  

  22574751.33649 118631117.92649     -3594.57849        48.000  

  20316810.50849 106765559.73449      6793.98049        50.000  

  20267116.38349 106504415.16849      1613.80149        50.000  

 16 04 02 12 01 50.9000000  0  4G01G24G18G11                                    
  21996206.47749 115590845.81649      2799.90249        48.000  

  22574819.74249 118631477.41049     -3596.15649        48.000  

  20316681.25049 106764880.47749      6790.12549        50.000  

  20267085.68049 106504253.81649      1612.28549        50.000  

 16 04 02 12 01 51.0000000  0  4G01G24G18G11                                    
  21996153.20349 115590565.89549      2798.23849        48.000  

  22574888.20349 118631837.17649     -3599.18849        48.000  

  20316552.08649 106764201.68449      6785.17249        50.000  

  20267055.02349 106504092.71149      1609.50049        50.000  

 16 04 02 12 01 51.1000000  0  4G01G24G18G11                                    
  21996099.98449 115590286.21149      2796.06649        48.000  

  22574956.72749 118632197.28949     -3602.65649        48.000  

  20316423.02349 106763523.44549      6779.73049        50.000  

  20267024.43049 106503931.94149      1606.25849        50.000  

 16 04 02 12 01 51.2000000  0  4G01G24G18G11                                    
  21996046.78949 115590006.66849      2794.57449        48.000  

  22575025.30549 118632557.64549     -3605.02349        48.000  

  20316294.03949 106762845.67649      6775.02349        50.000  

  20266993.87549 106503771.39849      1603.93849        50.000  

 16 04 02 12 01 51.3000000  0  4G01G24G18G11                                    
  21995993.62549 115589727.28549      2792.85249        48.000  

  22575093.93849 118632918.31249     -3608.14549        48.000  

  20316165.16449 106762168.40649      6769.95349        50.000  

  20266963.37549 106503611.14149      1600.98049        50.000  

 16 04 02 12 01 51.4000000  0  4G01G24G18G11                                    
  21995940.50849 115589448.13349      2790.71549        48.000  

  22575162.63349 118633279.29749     -3611.46549        48.000  

  20316036.38349 106761491.66849      6764.60249        50.000  

  20266932.93849 106503451.19149      1597.96149        50.000  

 16 04 02 12 01 51.5000000  0  4G01G24G18G11                                    
  21995887.39849 115589169.05149      2790.16049        48.000  

  22575231.36749 118633640.50449     -3613.31249        48.000  

  20315907.68049 106760815.34049      6760.80149        50.000  

  20266902.53149 106503291.41449      1596.53549        50.000  

 16 04 02 12 01 51.6000000  0  4G01G24G18G11                                    
  21995834.32049 115588890.12549      2788.47349        48.000  

  22575300.14849 118634001.95349     -3615.99249        48.000  

  20315779.07049 106760139.47749      6756.09049        50.000  

  20266872.18049 106503131.90249      1593.83649        50.000  

 16 04 02 12 01 51.7000000  0  4G01G24G18G11                                    
  21995781.27349 115588611.36749      2786.87949        48.000  

  22575368.98449 118634363.70749     -3618.91849        48.000  

  20315650.55549 106759464.11749      6751.02749        50.000  

  20266841.87549 106502972.65649      1591.17249        50.000  

 16 04 02 12 01 51.8000000  0  4G01G24G18G11                                    
  21995728.26649 115588332.82449      2784.48849        48.000  

  22575437.88349 118634725.78549     -3622.41449        48.000  

  20315522.13349 106758789.30149      6745.37149        50.000  

  20266811.63349 106502813.73049      1587.72749        50.000  

 16 04 02 12 01 51.9000000  0  4G01G24G18G11                                    
  21995675.28949 115588054.44149      2782.77349        48.000  

  22575506.83649 118635088.13749     -3625.16449        48.000  

  20315393.81249 106758114.94549      6740.69549        50.000  

  20266781.43849 106502655.04749      1585.22749        50.000  

 16 04 02 12 01 52.0000000  0  4G01G24G18G11                                    
  21995622.35949 115587776.29749      2780.55149        48.000  

  22575575.85949 118635450.86749     -3628.68449        48.000  

  20315265.59449 106757441.18849      6735.10249        50.000  

  20266751.31249 106502496.72749      1581.85949        50.000  

 16 04 02 12 01 52.1000000  0  4G01G24G18G11                                    
  21995569.45349 115587498.27049      2779.25449        48.000  

  22575644.93049 118635813.81249     -3631.29349        48.000  

  20315137.46149 106756767.84449      6730.46549        50.000  

  20266721.21949 106502338.60949      1579.34049        50.000  

 16 04 02 12 01 52.2000000  0  4G01G24G18G11                                    
  21995516.58649 115587220.43049      2777.64149        48.000  

  22575714.05549 118636177.06649     -3633.91849        48.000  

  20315009.43049 106756095.01649      6725.69549        50.000  

  20266691.18849 106502180.77349      1577.03149        50.000  

 16 04 02 12 01 52.3000000  0  4G01G24G18G11                                    
  21995463.72749 115586942.68449      2776.69549        48.000  

  22575783.21949 118636540.55149     -3636.27049        48.000  

  20314881.47749 106755422.62149      6721.38349        50.000  

  20266661.19549 106502023.16049      1574.82849        50.000  

 16 04 02 12 01 52.4000000  0  4G01G24G18G11                                    
  21995410.90649 115586665.08649      2775.42649        48.000  

  22575852.43849 118636904.29349     -3638.61349        48.000  

  20314753.60949 106754750.69149      6716.99649        50.000  

  20266631.24249 106501865.75849      1572.76249        50.000  

 16 04 02 12 01 52.5000000  0  4G01G24G18G11                                    
  21995358.11749 115586387.70349      2772.89149        48.000  

  22575921.71949 118637268.35549     -3642.21149        48.000  

  20314625.85249 106754079.30549      6711.09849        50.000  

  20266601.35249 106501708.69149      1569.16449        50.000  

 16 04 02 12 01 52.6000000  0  4G01G24G18G11                                    
  21995305.37549 115586110.52749      2770.79349        48.000  

  22575991.06249 118637632.74649     -3645.45749        48.000  

  20314498.18849 106753408.43449      6705.95349        50.000  

  20266571.51649 106501551.92249      1566.19149        50.000  

 16 04 02 12 01 52.7000000  0  4G01G24G18G11                                    
  21995252.64149 115585833.43449      2770.08249        48.000  

  22576060.43849 118637997.34049     -3647.44549        48.000  

  20314370.60249 106752737.98049      6701.81249        50.000  

  20266541.71949 106501395.34449      1564.27749        50.000  

 16 04 02 12 01 52.8000000  0  4G01G24G18G11                                    
  21995199.95349 115585556.57049      2767.76649        48.000  

  22576129.89149 118638362.29349     -3651.05549        48.000  

  20314243.12549 106752068.08249      6696.31649        50.000  

  20266511.98449 106501239.09049      1561.12549        50.000  

 16 04 02 12 01 52.9000000  0  4G01G24G18G11                                    
  21995147.29749 115585279.84049      2766.46149        48.000  

  22576199.38349 118638727.48449     -3653.30549        48.000  

  20314115.73449 106751398.63749      6691.89149        50.000  

  20266482.29749 106501083.07049      1558.90249        50.000  

 16 04 02 12 01 53.0000000  0  4G01G24G18G11                                    
  21995094.66449 115585003.28149      2764.76649        48.000  

  22576268.93049 118639092.96949     -3656.35249        48.000  

  20313988.43849 106750729.68849      6686.77749        50.000  

  20266452.65649 106500927.32849      1555.93049        50.000  

 16 04 02 12 01 53.1000000  0  4G01G24G18G11                                    
  21995042.06249 115584726.82049      2763.77349        48.000  

  22576338.52349 118639458.68049     -3658.47349        48.000  

  20313861.21949 106750061.16849      6682.51249        50.000  

  20266423.06249 106500771.78149      1554.02749        50.000  

 16 04 02 12 01 53.2000000  0  4G01G24G18G11                                    
  21994989.49249 115584450.60249      2761.39849        48.000  

  22576408.18049 118639824.73849     -3661.96149        48.000  

  20313734.10949 106749393.19949      6677.05549        50.000  

  20266393.52349 106500616.56649      1550.77349        50.000  

 16 04 02 12 01 53.3000000  0  4G01G24G18G11                                    
  21994936.96149 115584174.54349      2759.75049        48.000  

  22576477.89849 118640191.09049     -3665.07449        48.000  

  20313607.09449 106748725.73849      6671.90649        50.000  

  20266364.03949 106500461.62149      1547.99649        50.000  

 16 04 02 12 01 53.4000000  0  4G01G24G18G11                                    
  21994884.47749 115583898.70349      2757.36749        48.000  

  22576547.67249 118640557.75049     -3668.28949        48.000  

  20313480.18049 106748058.79749      6666.57449        50.000  

  20266334.61749 106500306.99249      1544.66049        50.000  

 16 04 02 12 01 53.5000000  0  4G01G24G18G11                                    
  21994832.01649 115583623.02349      2755.94549        48.000  

  22576617.50049 118640924.70749     -3670.96949        48.000  

  20313353.36749 106747392.35249      6661.97749        50.000  

  20266305.24249 106500152.62949      1542.30949        50.000  

 16 04 02 12 01 53.6000000  0  4G01G24G18G11                                    
  21994779.57849 115583347.46549      2754.64849        48.000  

  22576687.37549 118641291.91449     -3673.67649        48.000  

  20313226.63349 106746726.35949      6657.10949        50.000  

  20266275.90649 106499998.48449      1539.85549        50.000  

 16 04 02 12 01 53.7000000  0  4G01G24G18G11                                    
  21994727.18849 115583072.16449      2752.04349        48.000  

  22576757.32049 118641659.46949     -3677.13349        48.000  

  20313100.00049 106746060.92249      6651.57049        50.000  

  20266246.64149 106499844.68449      1536.39849        50.000  

 16 04 02 12 01 53.8000000  0  4G01G24G18G11                                    
  21994674.82049 115582796.96949      2751.08249        48.000  

  22576827.31249 118642027.27749     -3679.52049        48.000  

  20312973.46149 106745395.94949      6647.23849        50.000  

  20266217.41449 106499691.11349      1534.43449        50.000  

 16 04 02 12 01 53.9000000  0  4G01G24G18G11                                    
  21994622.48449 115582521.94949      2749.19949        48.000  

  22576897.35949 118642395.35949     -3682.48449        48.000  

  20312847.00849 106744731.44949      6642.20749        50.000  

  20266188.24249 106499537.79749      1531.55149        50.000  

 16 04 02 12 01 54.0000000  0  4G01G24G18G11                                    
  21994570.18849 115582247.12549      2747.25049        48.000  

  22576967.46149 118642763.76249     -3685.73049        48.000  

  20312720.65649 106744067.48849      6636.68849        50.000  

  20266159.13349 106499384.80549      1528.39149        50.000  

 16 04 02 12 01 54.1000000  0  4G01G24G18G11                                    
  21994517.93049 115581972.50449      2745.40249        48.000  

  22577037.62549 118643132.48849     -3688.70349        48.000  

  20312594.40649 106743404.04749      6631.84449        50.000  

  20266130.07049 106499232.09049      1525.69149        50.000  

 16 04 02 12 01 54.2000000  0  4G01G24G18G11                                    
  21994465.68049 115581697.96549      2744.60249        48.000  

  22577107.82849 118643501.41449     -3690.73449        48.000  

  20312468.23449 106742741.00449      6627.73849        50.000  

  20266101.03949 106499079.55149      1523.94949        50.000  

 16 04 02 12 01 54.3000000  0  4G01G24G18G11                                    
  21994413.47749 115581423.62549      2742.61349        48.000  

  22577178.09449 118643870.65649     -3693.94149        48.000  

  20312342.16449 106742078.50049      6622.40649        50.000  

  20266072.07849 106498927.34049      1520.80549        50.000  

 16 04 02 12 01 54.4000000  0  4G01G24G18G11                                    
  21994361.31249 115581149.50049      2740.43849        48.000  

  22577248.42249 118644240.22749     -3697.18449        48.000  

  20312216.19549 106741416.51649      6617.19549        50.000  

  20266043.16449 106498775.40649      1517.90649        50.000  

 16 04 02 12 01 54.5000000  0  4G01G24G18G11                                    
  21994309.18049 115580875.54349      2738.48449        48.000  

  22577318.80549 118644610.08649     -3700.29349        48.000  

  20312090.31249 106740755.03149      6611.98849        50.000  

  20266014.30549 106498623.76249      1514.88749        50.000  

 16 04 02 12 01 54.6000000  0  4G01G24G18G11                                    
  21994257.07849 115580601.73049      2737.21149        48.000  

  22577389.23449 118644980.20349     -3702.73849        48.000  

  20311964.53149 106740094.02349      6607.43049        50.000  

  20265985.50049 106498472.37149      1512.52749        50.000  

 16 04 02 12 01 54.7000000  0  4G01G24G18G11                                    
  21994205.00849 115580328.10249      2735.42249        48.000  

  22577459.72749 118645350.63749     -3705.81249        48.000  

  20311838.84449 106739433.52349      6602.32049        50.000  

  20265956.74249 106498321.26249      1509.66449        50.000  

 16 04 02 12 01 54.8000000  0  4G01G24G18G11                                    
  21994152.96949 115580054.66049      2733.55549        48.000  

  22577530.27349 118645721.35949     -3708.82849        48.000  

  20311713.25049 106738773.52049      6597.29349        50.000  

  20265928.03949 106498170.42249      1506.89849        50.000  

 16 04 02 12 01 54.9000000  0  4G01G24G18G11                                    
  21994100.96949 115579781.38349      2731.91449        48.000  

  22577600.87549 118646092.37149     -3711.55949        48.000  

  20311587.75049 106738114.01649      6592.41049        50.000  

  20265899.39149 106498019.86349      1504.23849        50.000  

 16 04 02 12 01 55.0000000  0  4G01G24G18G11                                    
  21994049.00049 115579508.28149      2730.03149        48.000  

  22577671.53149 118646463.68049     -3714.65249        48.000  

  20311462.34449 106737455.00849      6587.31249        50.000  

  20265870.78949 106497869.57849      1501.22749        50.000  

 16 04 02 12 01 55.1000000  0  4G01G24G18G11                                    
  21993997.06249 115579235.34849      2728.47349        48.000  

  22577742.24249 118646835.26649     -3717.39849        48.000  

  20311337.03949 106736796.50049      6582.45349        50.000  

  20265842.23449 106497719.54749      1498.77749        50.000  

 16 04 02 12 01 55.2000000  0  4G01G24G18G11                                    
  21993945.16449 115578962.59449      2726.87549        48.000  

  22577813.01649 118647207.15649     -3720.23049        48.000  

  20311211.82049 106736138.48849      6577.63749        50.000  

  20265813.74249 106497569.80549      1496.10549        50.000  

 16 04 02 12 01 55.3000000  0  4G01G24G18G11                                    
  21993893.28149 115578689.96549      2725.47349        48.000  

  22577883.82849 118647579.29349     -3722.86349        48.000  

  20311086.68849 106735480.92649      6572.97749        50.000  

  20265785.28949 106497420.28149      1493.81249        50.000  

 16 04 02 12 01 55.4000000  0  4G01G24G18G11                                    
  21993841.43849 115578417.52749      2723.60549        48.000  

  22577954.70349 118647951.72349     -3725.75849        48.000  

  20310961.65649 106734823.88349      6567.81649        50.000  

  20265756.89149 106497271.05949      1490.85949        50.000  

 16 04 02 12 01 55.5000000  0  4G01G24G18G11                                    
  21993789.63349 115578145.26649      2721.81649        48.000  

  22578025.63349 118648324.45349     -3728.70349        48.000  

  20310836.71949 106734167.33249      6562.87549        50.000  

  20265728.54749 106497122.10249      1488.10949        50.000  

 16 04 02 12 01 55.6000000  0  4G01G24G18G11                                    
  21993737.86749 115577873.21949      2719.53949        48.000  

  22578096.62549 118648697.53549     -3732.23449        48.000  

  20310711.89149 106733511.34049      6557.21949        50.000  

  20265700.26649 106496973.47749      1484.76249        50.000  

 16 04 02 12 01 55.7000000  0  4G01G24G18G11                                    
  21993686.12549 115577601.31249      2718.15249        48.000  

  22578167.66449 118649070.84849     -3734.63749        48.000  

  20310587.14149 106732855.78149      6552.79349        50.000  

  20265672.02349 106496825.06649      1482.66849        50.000  

 16 04 02 12 01 55.8000000  0  4G01G24G18G11                                    
  21993634.40649 115577329.59049      2716.41849        48.000  

  22578238.76649 118649444.48449     -3737.84849        48.000  

  20310462.50049 106732200.75849      6547.75449        50.000  

  20265643.83649 106496676.96549      1479.67249        50.000  

 16 04 02 12 01 55.9000000  0  4G01G24G18G11                                    
  21993582.72749 115577057.97749      2715.35249        48.000  

  22578309.91449 118649818.34049     -3740.13749        48.000  

  20310337.93049 106731546.15649      6543.37149        50.000  

  20265615.68849 106496529.06249      1477.56649        50.000  

 16 04 02 12 01 56.0000000  0  4G01G24G18G11                                    
  21993531.07849 115576786.56249      2713.35549        48.000  

  22578381.10949 118650192.50449     -3743.03549        48.000  

  20310213.46149 106730892.08249      6538.13349        50.000  

  20265587.60249 106496381.46149      1474.47749        50.000  

 16 04 02 12 01 56.1000000  0  4G01G24G18G11                                    
  21993479.45349 115576515.29349      2711.91449        48.000  

  22578452.36749 118650566.93849     -3745.77049        48.000  

  20310089.08649 106730238.46949      6533.43449        50.000  

  20265559.56249 106496234.10549      1472.14849        50.000  

 16 04 02 12 01 56.2000000  0  4G01G24G18G11                                    
  21993427.86749 115576244.20749      2710.12949        48.000  

  22578523.68049 118650941.68849     -3748.75049        48.000  

  20309964.80549 106729585.37149      6528.52349        50.000  

  20265531.57049 106496087.02749      1469.31249        50.000  

 16 04 02 12 01 56.3000000  0  4G01G24G18G11                                    
  21993376.31249 115575973.26649      2708.51249        48.000  

  22578595.03149 118651316.67249     -3751.52049        48.000  

  20309840.60949 106728932.73849      6523.55149        50.000  

  20265503.63349 106495940.19549      1466.71549        50.000  

 16 04 02 12 01 56.4000000  0  4G01G24G18G11                                    
  21993324.78949 115575702.51249      2706.71949        48.000  

  22578666.45349 118651691.98049     -3754.58249        48.000  

  20309716.51649 106728280.62949      6518.59049        50.000  

  20265475.74249 106495793.65249      1464.02749        50.000  

 16 04 02 12 01 56.5000000  0  4G01G24G18G11                                    
  21993273.30549 115575431.94149      2704.84849        48.000  

  22578737.93049 118652067.59049     -3757.61349        48.000  

  20309592.51649 106727629.01649      6513.40249        50.000  

  20265447.91449 106495647.39849      1461.01649        50.000  

 16 04 02 12 01 56.6000000  0  4G01G24G18G11                                    
  21993221.85249 115575161.57449      2702.89549        48.000  

  22578809.46149 118652443.49249     -3760.53949        48.000  

  20309468.61749 106726977.91849      6508.35949        50.000  

  20265420.14149 106495501.43449      1458.25449        50.000  

 16 04 02 12 01 56.7000000  0  4G01G24G18G11                                    
  21993170.42249 115574891.33249      2701.60249        48.000  

  22578881.04749 118652819.68049     -3763.36749        48.000  

  20309344.81249 106726327.28949      6503.64149        50.000  

  20265392.41449 106495355.70349      1455.81649        50.000  

 16 04 02 12 01 56.8000000  0  4G01G24G18G11                                    
  21993119.03149 115574621.27749      2699.70749        48.000  

  22578952.68849 118653196.14149     -3766.08649        48.000  

  20309221.09449 106725677.16049      6498.73849        50.000  

  20265364.73449 106495210.25449      1453.04749        50.000  

 16 04 02 12 01 56.9000000  0  4G01G24G18G11                                    
  21993067.66449 115574351.34449      2698.65649        48.000  

  22579024.37549 118653572.84849     -3768.31649        48.000  

  20309097.46149 106725027.48049      6494.35949        50.000  

  20265337.09449 106495065.02749      1451.07049        50.000  

