     2.10           OBSERVATION DATA    G (GPS)             RINEX VERSION / TYPE
Convert v1.8.0                          07-Jun-2016 18:56   PGM / RUN BY / DATE 
Signal Strength values S1,S2 are in dBHz                    COMMENT             
                                                            MARKER NAME         
                                                            MARKER NUMBER       
                                                            OBSERVER / AGENCY   
                    NovAtel GPSCard                         REC # / TYPE / VERS 
                                                            ANT # / TYPE        
0.0000        0.0000        0.0000                          APPROX POSITION XYZ 
        0.0000        0.0000        0.0000                  ANTENNA: DELTA H/E/N
     1     1                                                WAVELENGTH FACT L1/2
     1     1     6   G04   G07   G09   G16   G26   G30      WAVELENGTH FACT L1/2
                                                            COMMENT             
                                                            COMMENT             
                                                            COMMENT             
                                                            COMMENT             
                                                            COMMENT             
                                                            COMMENT             
     4    C1    L1    D1    S1                              # / TYPES OF OBSERV 
     0.100                                                  INTERVAL            
  2016    04    02    14    16     6.7000000    GPS         TIME OF FIRST OBS   
  2016    04    02    14    19    58.5000000    GPS         TIME OF LAST OBS    
Leap Seconds Unknown                                        COMMENT             
                                                            END OF HEADER       
 16 04 02 14 16  6.7000000  0  1G16                                             
  20376576.00849 107079628.76659     -3907.71949        49.000  
 16 04 02 14 16  6.8000000  0  1G16                                             
  20376650.42249 107080019.79349     -3912.68049        49.000  
 16 04 02 14 16  6.9000000  0  2G07G16                                          
  22203528.76649 116680329.85259      2659.58249        50.000  
  20376724.91449 107080411.28149     -3917.24249        49.000  
 16 04 02 14 16  7.0000000  0  2G07G16                                          
  22203478.19549 116680064.12549      2655.12949        50.000  
  20376799.50049 107080803.22349     -3922.14149        49.000  
 16 04 02 14 16  7.1000000  0  2G07G16                                          
  22203427.71949 116679798.82449      2651.02349        50.000  
  20376874.18849 107081195.66449     -3926.80149        49.000  
 16 04 02 14 16  7.2000000  0  2G07G16                                          
  22203377.30549 116679533.90649      2647.12949        50.000  
  20376948.94549 107081588.53149     -3931.09049        49.000  
 16 04 02 14 16  7.3000000  0  2G07G16                                          
  22203326.98449 116679269.46949      2642.06249        50.000  
  20377023.80549 107081981.93449     -3936.70749        49.000  
 16 04 02 14 16  7.4000000  0  2G07G16                                          
  22203276.75849 116679005.52049      2637.21949        50.000  
  20377098.76649 107082375.85949     -3942.00449        49.000  
 16 04 02 14 16  7.5000000  0  2G07G16                                          
  22203226.60949 116678741.95349      2633.48049        50.000  
  20377173.81249 107082770.23449     -3946.32849        49.000  
 16 04 02 14 16  7.6000000  0  2G07G16                                          
  22203176.52349 116678478.78549      2629.57449        50.000  
  20377248.94549 107083165.05949     -3950.82849        49.000  
 16 04 02 14 16  7.7000000  0  2G07G16                                          
  22203126.55549 116678216.11349      2624.64849        50.000  
  20377324.18049 107083560.41449     -3956.20749        49.000  
 16 04 02 14 16  7.8000000  0  2G07G16                                          
  22203076.64149 116677953.80949      2621.11349        50.000  
  20377399.49249 107083956.20349     -3960.36349        49.000  
 16 04 02 14 16  7.9000000  0  2G07G16                                          
  22203026.81249 116677691.95749      2616.49649        50.000  
  20377474.89849 107084352.48449     -3965.33249        49.000  
 16 04 02 14 16  8.0000000  0  2G07G16                                          
  22202977.05549 116677430.48849      2612.63349        50.000  
  20377550.39149 107084749.20349     -3969.57849        49.000  
 16 04 02 14 16  8.1000000  0  2G07G16                                          
  22202927.38349 116677169.41849      2608.62149        50.000  
  20377625.96149 107085146.36349     -3974.20749        49.000  
 16 04 02 14 16  8.2000000  0  2G07G16                                          
  22202877.78949 116676908.80149      2603.97349        50.000  
  20377701.64149 107085544.03549     -3979.30949        49.000  
 16 04 02 14 16  8.3000000  0  2G07G16                                          
  22202828.27349 116676648.58249      2600.09049        50.000  
  20377777.40649 107085942.15649     -3983.80549        49.000  
 16 04 02 14 16  8.4000000  0  2G07G16                                          
  22202778.84449 116676388.83249      2595.40249        50.000  
  20377853.25849 107086340.77049     -3988.69149        49.000  
 16 04 02 14 16  8.5000000  0  2G07G16                                          
  22202729.49249 116676129.44549      2591.69549        50.000  
  20377929.20349 107086739.82449     -3993.09049        49.000  
 16 04 02 14 16  8.6000000  0  2G07G16                                          
  22202680.22749 116675870.54349      2586.85949        50.000  
  20378005.24249 107087139.40649     -3998.31649        49.000  
 16 04 02 14 16  8.7000000  0  2G07G16                                          
  22202631.02349 116675612.01649      2583.28149        50.000  
  20378081.36749 107087539.42649     -4002.56649        49.000  
 16 04 02 14 16  8.8000000  0  2G07G16                                          
  22202581.89849 116675353.85549      2579.33249        50.000  
  20378157.56249 107087939.84049     -4006.96949        49.000  
 16 04 02 14 16  8.9000000  0  2G07G16                                          
  22202532.86749 116675096.20349      2574.50449        50.000  
  20378233.86749 107088340.83249     -4012.28549        49.000  
 16 04 02 14 16  9.0000000  0  2G07G16                                          
  22202483.90649 116674838.90649      2570.85949        50.000  
  20378310.25049 107088742.21949     -4016.46949        49.000  
 16 04 02 14 16  9.1000000  0  2G07G16                                          
  22202435.02349 116674582.05549      2566.32449        50.000  
  20378386.71949 107089144.09049     -4021.34049        49.000  
 16 04 02 14 16  9.2000000  0  2G07G16                                          
  22202386.23449 116674325.64549      2562.08649        50.000  
  20378463.28949 107089546.47349     -4026.22349        49.000  
 16 04 02 14 16  9.3000000  0  2G07G16                                          
  22202337.50849 116674069.59449      2558.33649        50.000  
  20378539.94549 107089949.23849     -4030.26649        49.000  
 16 04 02 14 16  9.4000000  0  2G07G16                                          
  22202288.86749 116673813.96949      2554.22349        50.000  
  20378616.68849 107090352.50849     -4035.17249        49.000  
 16 04 02 14 16  9.5000000  0  2G07G16                                          
  22202240.30549 116673558.81249      2549.56249        50.000  
  20378693.51649 107090756.28149     -4040.14849        49.000  
 16 04 02 14 16  9.6000000  0  2G07G16                                          
  22202191.83649 116673304.10249      2544.89549        50.000  
  20378770.44549 107091160.54349     -4045.30149        49.000  
 16 04 02 14 16  9.7000000  0  2G07G16                                          
  22202143.43049 116673049.76249      2541.30549        50.000  
  20378847.46149 107091565.24249     -4049.52049        49.000  
 16 04 02 14 16  9.8000000  0  2G07G16                                          
  22202095.11749 116672795.89149      2536.62949        50.000  
  20378924.57049 107091970.44949     -4054.75049        49.000  
 16 04 02 14 16  9.9000000  0  2G07G16                                          
  22202046.89149 116672542.43449      2532.59449        50.000  
  20379001.76649 107092376.11749     -4059.06249        49.000  
 16 04 02 14 16 10.0000000  0  2G07G16                                          
  22201998.74249 116672289.42649      2528.00449        50.000  
  20379079.05549 107092782.29349     -4064.24249        49.000  
 16 04 02 14 16 10.1000000  0  2G07G16                                          
  22201950.68049 116672036.79749      2524.10249        50.000  
  20379156.45349 107093188.88749     -4068.49649        49.000  
 16 04 02 14 16 10.2000000  0  2G07G16                                          
  22201902.68049 116671784.57849      2519.98049        50.000  
  20379233.91449 107093595.94549     -4073.21949        49.000  
 16 04 02 14 16 10.3000000  0  2G07G16                                          
  22201854.77349 116671532.80549      2515.64549        50.000  
  20379311.47749 107094003.49249     -4077.97349        49.000  
 16 04 02 14 16 10.4000000  0  2G07G16                                          
  22201806.94549 116671281.44549      2511.47749        50.000  
  20379389.11749 107094411.51249     -4082.66449        49.000  
 16 04 02 14 16 10.5000000  0  2G07G16                                          
  22201759.18849 116671030.44549      2508.07449        50.000  
  20379466.84449 107094819.93049     -4086.62949        49.000  
 16 04 02 14 16 10.6000000  0  2G07G16                                          
  22201711.50849 116670779.91449      2503.20749        50.000  
  20379544.66449 107095228.88349     -4092.01249        49.000  
 16 04 02 14 16 10.7000000  0  2G07G16                                          
  22201663.89849 116670529.75449      2499.52749        50.000  
  20379622.57049 107095638.23449     -4096.14149        49.000  
 16 04 02 14 16 10.8000000  0  2G07G16                                          
  22201616.37549 116670280.03549      2495.00449        50.000  
  20379700.56249 107096048.09049     -4101.16849        49.000  
 16 04 02 14 16 10.9000000  0  2G07G16                                          
  22201568.95349 116670030.80149      2490.09449        50.000  
  20379778.65649 107096458.47349     -4106.52749        49.000  
 16 04 02 14 16 11.0000000  0  2G07G16                                          
  22201521.60249 116669781.95749      2486.26249        50.000  
  20379856.83649 107096869.30549     -4110.97349        49.000  
 16 04 02 14 16 11.1000000  0  2G07G16                                          
  22201474.32049 116669533.50049      2482.35249        50.000  
  20379935.10249 107097280.57049     -4115.32049        49.000  
 16 04 02 14 16 11.2000000  0  2G07G16                                          
  22201427.12549 116669285.47349      2478.30549        50.000  
  20380013.45349 107097692.29749     -4119.69949        49.000  
 16 04 02 14 16 11.3000000  0  2G07G16                                          
  22201380.00849 116669037.86749      2474.08249        50.000  
  20380091.89849 107098104.51649     -4124.56649        49.000  
 16 04 02 14 16 11.4000000  0  2G07G16                                          
  22201332.96949 116668790.67649      2469.69149        50.000  
  20380170.43049 107098517.19149     -4129.57049        49.000  
 16 04 02 14 16 11.5000000  0  2G07G16                                          
  22201286.01649 116668543.91849      2465.52049        50.000  
  20380249.05549 107098930.34449     -4133.96149        49.000  
 16 04 02 14 16 11.6000000  0  2G07G16                                          
  22201239.13349 116668297.52349      2461.85949        50.000  
  20380327.75849 107099343.91849     -4138.24649        49.000  
 16 04 02 14 16 11.7000000  0  2G07G16                                          
  22201192.33649 116668051.62149      2456.97349        50.000  
  20380406.55549 107099758.02749     -4143.49649        49.000  
 16 04 02 14 16 11.8000000  0  2G07G16                                          
  22201145.61749 116667806.11349      2453.05149        50.000  
  20380485.43849 107100172.57849     -4147.91449        49.000  
 16 04 02 14 16 11.9000000  0  2G07G16                                          
  22201098.96149 116667561.01649      2448.80549        50.000  
  20380564.41449 107100587.58649     -4152.80949        49.000  
 16 04 02 14 16 12.0000000  0  2G07G16                                          
  22201052.40649 116667316.36749      2444.20749        50.000  
  20380643.48449 107101003.10249     -4157.93849        49.000  
 16 04 02 14 16 12.1000000  0  2G07G16                                          
  22201005.93849 116667072.16849      2439.77349        50.000  
  20380722.64849 107101419.10949     -4162.60249        49.000  
 16 04 02 14 16 12.2000000  0  2G07G16                                          
  22200959.54749 116666828.37949      2435.81649        50.000  
  20380801.89849 107101835.57049     -4167.11749        49.000  
 16 04 02 14 16 12.3000000  0  2G07G16                                          
  22200913.23449 116666585.03949      2431.21149        50.000  
  20380881.24249 107102252.53549     -4172.34849        49.000  
 16 04 02 14 16 12.4000000  0  2G07G16                                          
  22200867.01649 116666342.17249      2426.30949        50.000  
  20380960.68849 107102670.02049     -4177.64149        49.000  
 16 04 02 14 16 12.5000000  0  2G07G16                                          
  22200820.88349 116666099.73449      2422.20349        50.000  
  20381040.21149 107103087.98849     -4182.20749        49.000  
 16 04 02 14 16 12.6000000  0  2G07G16                                          
  22200774.82849 116665857.69949      2418.15649        50.000  
  20381119.83649 107103506.39549     -4186.55149        49.000  
 16 04 02 14 16 12.7000000  0  2G07G16                                          
  22200728.85949 116665616.07049      2414.23849        50.000  
  20381199.54749 107103925.27049     -4191.21149        49.000  
 16 04 02 14 16 12.8000000  0  2G07G16                                          
  22200682.95349 116665374.84049      2410.27749        50.000  
  20381279.33649 107104344.59049     -4195.62149        49.000  
 16 04 02 14 16 12.9000000  0  2G07G16                                          
  22200637.14149 116665134.09849      2405.28549        50.000  
  20381359.22749 107104764.44149     -4200.96549        49.000  
 16 04 02 14 16 13.0000000  0  2G07G16                                          
  22200591.39849 116664893.71549      2401.73449        50.000  
  20381439.20349 107105184.69549     -4205.05149        49.000  
 16 04 02 14 16 13.1000000  0  2G07G16                                          
  22200545.74249 116664653.78949      2397.19149        50.000  
  20381519.27349 107105605.46549     -4210.11749        49.000  
 16 04 02 14 16 13.2000000  0  2G07G16                                          
  22200500.16449 116664414.26649      2392.97349        50.000  
  20381599.43049 107106026.69149     -4214.93449        49.000  
 16 04 02 14 16 13.3000000  0  2G07G16                                          
  22200454.66449 116664175.19549      2388.63749        50.000  
  20381679.68849 107106448.39549     -4219.51649        49.000  
 16 04 02 14 16 13.4000000  0  2G07G16                                          
  22200409.24249 116663936.50449      2384.69949        50.000  
  20381760.01649 107106870.55149     -4224.27749        49.000  
 16 04 02 14 16 13.5000000  0  3G26G07G16                                       
  21930816.10949 115247216.40659      6622.01649        50.000  
  22200363.91449 116663698.24649      2380.51649        50.000  
  20381840.43849 107107293.17649     -4228.77049        49.000  
 16 04 02 14 16 13.6000000  0  3G26G07G16                                       
  21930690.13349 115246554.37549      6618.58649        50.000  
  22200318.64849 116663460.39849      2376.31649        50.000  
  20381920.95349 107107716.26249     -4233.50449        49.000  
 16 04 02 14 16 13.7000000  0  3G26G07G16                                       
  21930564.19549 115245892.69149      6615.25449        50.000  
  22200273.47749 116663222.96149      2372.44949        50.000  
  20382001.55549 107108139.80149     -4237.84049        49.000  
 16 04 02 14 16 13.8000000  0  3G26G07G16                                       
  21930438.35249 115245231.37949      6611.50449        50.000  
  22200228.37549 116662985.98049      2367.72749        50.000  
  20382082.25049 107108563.85949     -4242.97749        49.000  
 16 04 02 14 16 13.9000000  0  3G26G07G16                                       
  21930312.55549 115244570.43849      6607.60549        50.000  
  22200183.36749 116662749.43449      2363.21949        50.000  
  20382163.03949 107108988.38749     -4248.12949        49.000  
 16 04 02 14 16 14.0000000  0  3G26G07G16                                       
  21930186.85949 115243909.88349      6603.71549        50.000  
  22200138.44549 116662513.35249      2358.59849        50.000  
  20382243.92249 107109413.43049     -4253.07849        49.000  
 16 04 02 14 16 14.1000000  0  3G26G07G16                                       
  21930061.21149 115243249.66449      6600.41049        50.000  
  22200093.59449 116662277.68449      2354.40249        50.000  
  20382324.89849 107109838.94149     -4257.83649        49.000  
 16 04 02 14 16 14.2000000  0  3G26G07G16                                       
  21929935.65649 115242589.85549      6596.34049        50.000  
  22200048.83649 116662042.49649      2349.70749        50.000  
  20382405.96949 107110264.97749     -4262.96149        49.000  
 16 04 02 14 16 14.3000000  0  3G26G07G16                                       
  21929810.13349 115241930.33249      6593.40249        50.000  
  22200004.14849 116661807.66049      2346.21149        50.000  
  20382487.12549 107110691.40649     -4266.93449        49.000  
 16 04 02 14 16 14.4000000  0  3G26G07G16                                       
  21929684.68849 115241271.12149      6590.46549        50.000  
  22199959.53149 116661573.22749      2342.36349        50.000  
  20382568.35949 107111118.29349     -4271.34849        49.000  
 16 04 02 14 16 14.5000000  0  3G26G07G16                                       
  21929559.30549 115240612.25049      6587.13749        50.000  
  22199915.00049 116661339.19549      2338.34049        50.000  
  20382649.68849 107111545.63749     -4275.85549        49.000  
 16 04 02 14 16 14.6000000  0  3G26G07G16                                       
  21929433.99249 115239953.72749      6583.52749        50.000  
  22199870.54749 116661105.59049      2333.97349        50.000  
  20382731.09449 107111973.43449     -4280.53949        49.000  
 16 04 02 14 16 14.7000000  0  3G26G07G16                                       
  21929308.75049 115239295.59849      6579.44549        50.000  
  22199826.18049 116660872.44149      2329.24249        50.000  
  20382812.60249 107112401.75849     -4285.90649        49.000  
 16 04 02 14 16 14.8000000  0  3G26G07G16                                       
  21929183.58649 115238637.83249      6575.85549        50.000  
  22199781.89849 116660639.73449      2324.91049        50.000  
  20382894.19549 107112830.56249     -4290.66049        49.000  
 16 04 02 14 16 14.9000000  0  3G26G07G16                                       
  21929058.47749 115237980.36749      6572.68849        50.000  
  22199737.68849 116660407.42249      2320.80549        50.000  
  20382975.88349 107113259.80149     -4295.21149        49.000  
 16 04 02 14 16 15.0000000  0  3G26G07G16                                       
  21928933.44549 115237323.30949      6569.05549        50.000  
  22199693.56249 116660175.56249      2316.60249        50.000  
  20383057.65649 107113689.54749     -4299.89549        49.000  
 16 04 02 14 16 15.1000000  0  3G26G07G16                                       
  21928808.46949 115236666.52749      6566.05949        50.000  
  22199649.51649 116659944.07449      2312.78149        50.000  
  20383139.52349 107114119.71949     -4304.25849        49.000  
 16 04 02 14 16 15.2000000  0  3G26G07G16                                       
  21928683.55549 115236010.09849      6562.78149        50.000  
  22199605.53949 116659712.99249      2308.87949        50.000  
  20383221.46949 107114550.33649     -4308.51249        49.000  
 16 04 02 14 16 15.3000000  0  3G26G07G16                                       
  21928558.71949 115235354.02349      6559.07849        50.000  
  22199561.64849 116659482.35549      2304.26249        50.000  
  20383303.50849 107114981.45349     -4313.73049        49.000  
 16 04 02 14 16 15.4000000  0  3G26G07G16                                       
  21928433.94549 115234698.34849      6554.99249        50.000  
  22199517.85249 116659252.18449      2299.61349        50.000  
  20383385.64149 107115413.07449     -4318.78549        49.000  
 16 04 02 14 16 15.5000000  0  3G26G07G16                                       
  21928309.22749 115234042.96149      6552.11349        50.000  
  22199474.12549 116659022.38749      2295.85249        50.000  
  20383467.87549 107115845.11349     -4322.92649        49.000  
 16 04 02 14 16 15.6000000  0  3G26G07G16                                       
  21928184.57849 115233387.90649      6548.99649        50.000  
  22199430.46949 116658792.98049      2292.09849        50.000  
  20383550.17249 107116277.60549     -4327.20749        49.000  
 16 04 02 14 16 15.7000000  0  3G26G07G16                                       
  21928060.00049 115232733.18849      6545.53149        50.000  
  22199386.89149 116658563.97749      2288.00849        50.000  
  20383632.55549 107116710.55149     -4331.95349        49.000  
 16 04 02 14 16 15.8000000  0  3G26G07G16                                       
  21927935.47749 115232078.82849      6541.85249        50.000  
  22199343.40649 116658335.42649      2283.52049        50.000  
  20383715.03149 107117143.98849     -4336.89849        49.000  
 16 04 02 14 16 15.9000000  0  3G26G07G16                                       
  21927811.07049 115231424.83249      6538.25449        50.000  
  22199299.99249 116658107.30149      2279.18049        49.000  
  20383797.60249 107117577.89149     -4341.55949        49.000  
 16 04 02 14 16 16.0000000  0  3G26G07G16                                       
  21927686.68049 115230771.16449      6534.86749        50.000  
  22199256.65649 116657879.59049      2275.00849        49.000  
  20383880.25849 107118012.27049     -4346.35249        49.000  
 16 04 02 14 16 16.1000000  0  3G26G07G16                                       
  21927562.37549 115230117.83649      6531.47749        50.000  
  22199213.40649 116657652.28149      2270.92649        50.000  
  20383963.00049 107118447.08249     -4350.81649        49.000  
 16 04 02 14 16 16.2000000  0  3G26G07G16                                       
  21927438.13349 115229464.93049      6527.39149        50.000  
  22199170.24249 116657425.48049      2265.93449        50.000  
  20384045.85249 107118882.46149     -4356.27049        49.000  
 16 04 02 14 16 16.3000000  0  3G26G07G16                                       
  21927313.95349 115228812.25849      6524.98449        50.000  
  22199127.13349 116657198.98049      2262.89149        50.000  
  20384128.76649 107119318.18049     -4359.66849        49.000  
 16 04 02 14 16 16.4000000  0  3G26G07G16                                       
  21927189.82049 115228159.94949      6521.30549        50.000  
  22199084.10949 116656972.90649      2258.43849        50.000  
  20384211.77349 107119754.39149     -4364.75449        49.000  
 16 04 02 14 16 16.5000000  0  3G26G07G16                                       
  21927065.75849 115227508.04749      6517.40649        50.000  
  22199041.18849 116656747.33649      2253.74649        50.000  
  20384294.89149 107120191.13349     -4369.83249        49.000  
 16 04 02 14 16 16.6000000  0  3G26G07G16                                       
  21926941.76649 115226856.43849      6514.27349        50.000  
  22198998.32849 116656522.11349      2249.93449        50.000  
  20384378.07849 107120628.27749     -4374.18449        49.000  
 16 04 02 14 16 16.7000000  0  3G26G07G16                                       
  21926817.85949 115226205.24249      6510.18849        50.000  
  22198955.56249 116656297.38749      2245.10549        50.000  
  20384461.36749 107121065.96549     -4379.46149        49.000  
 16 04 02 14 16 16.8000000  0  3G26G07G16                                       
  21926694.00849 115225554.40649      6506.59849        50.000  
  22198912.88349 116656073.08649      2240.88349        50.000  
  20384544.74249 107121504.13349     -4384.10249        49.000  
 16 04 02 14 16 16.9000000  0  3G26G07G16                                       
  21926570.19549 115224903.84049      6503.92249        50.000  
  22198870.25049 116655849.12949      2237.42249        50.000  
  20384628.19549 107121942.68449     -4388.08249        49.000  
 16 04 02 14 16 17.0000000  0  3G26G07G16                                       
  21926446.46149 115224253.61349      6500.75449        50.000  
  22198827.71949 116655625.59849      2233.42249        50.000  
  20384711.73449 107122381.70749     -4392.59049        49.000  
 16 04 02 14 16 17.1000000  0  3G26G07G16                                       
  21926322.78149 115223603.71949      6497.39149        50.000  
  22198785.25049 116655402.46549      2229.27749        50.000  
  20384795.37549 107122821.18049     -4397.17249        49.000  
 16 04 02 14 16 17.2000000  0  3G26G07G16                                       
  21926199.18049 115222954.20749      6493.35949        50.000  
  22198742.87549 116655179.78949      2224.59849        50.000  
  20384879.10249 107123261.14849     -4402.27349        49.000  
 16 04 02 14 16 17.3000000  0  3G26G07G16                                       
  21926075.63349 115222305.02049      6490.00049        50.000  
  22198700.57849 116654957.51249      2220.50049        50.000  
  20384962.90649 107123701.57449     -4406.91049        49.000  
 16 04 02 14 16 17.4000000  0  3G26G07G16                                       
  21925952.17249 115221656.20349      6486.47349        50.000  
  22198658.35949 116654735.67649      2216.30549        50.000  
  20385046.81249 107124142.48449     -4411.59849        49.000  
 16 04 02 14 16 17.5000000  0  3G26G07G16                                       
  21925828.78149 115221007.73449      6482.98449        50.000  
  22198616.22749 116654514.27349      2211.93449        50.000  
  20385130.80549 107124583.87149     -4416.36349        49.000  
 16 04 02 14 16 17.6000000  0  3G26G07G16                                       
  21925705.46149 115220359.65649      6479.11749        50.000  
  22198574.18849 116654293.33249      2207.27349        50.000  
  20385214.89149 107125025.76649     -4421.55149        49.000  
 16 04 02 14 16 17.7000000  0  3G26G07G16                                       
  21925582.21149 115219711.94549      6475.41849        50.000  
  22198532.21949 116654072.82449      2202.85549        50.000  
  20385299.07849 107125468.14549     -4426.32049        49.000  
 16 04 02 14 16 17.8000000  0  3G26G07G16                                       
  21925459.01649 115219064.52749      6472.48849        50.000  
  22198490.32849 116653852.68049      2199.35949        50.000  
  20385383.33649 107125910.94549     -4430.39549        49.000  
 16 04 02 14 16 17.9000000  0  3G26G07G16                                       
  21925335.85949 115218417.44949      6469.07449        50.000  
  22198448.52349 116653632.96149      2195.11349        50.000  
  20385467.69549 107126354.19949     -4435.22349        49.000  
 16 04 02 14 16 18.0000000  0  3G26G07G16                                       
  21925212.82049 115217770.84449      6464.14849        50.000  
  22198406.81249 116653413.77749      2189.48849        50.000  
  20385552.15649 107126798.04349     -4441.11349        49.000  
 16 04 02 14 16 18.1000000  0  3G26G07G16                                       
  21925089.82049 115217124.50049      6461.57449        50.000  
  22198365.16449 116653194.93449      2186.30549        50.000  
  20385636.69549 107127242.27349     -4444.78549        49.000  
 16 04 02 14 16 18.2000000  0  3G26G07G16                                       
  21924966.89849 115216478.53149      6457.85249        50.000  
  22198323.60949 116652976.55949      2181.58649        50.000  
  20385721.32849 107127687.01649     -4449.98449        49.000  
 16 04 02 14 16 18.3000000  0  3G26G07G16                                       
  21924844.04749 115215832.94949      6453.97349        50.000  
  22198282.13349 116652758.62149      2177.11349        50.000  
  20385806.04749 107128132.24249     -4454.93449        49.000  
 16 04 02 14 16 18.4000000  0  3G26G07G16                                       
  21924721.26649 115215187.71549      6450.46149        50.000  
  22198240.74249 116652541.10949      2172.84849        50.000  
  20385890.86749 107128577.96149     -4459.75449        49.000  
 16 04 02 14 16 18.5000000  0  3G26G07G16                                       
  21924598.54749 115214542.80549      6447.53149        50.000  
  22198199.42249 116652323.99649      2169.19149        50.000  
  20385975.76649 107129024.10249     -4463.78549        49.000  
 16 04 02 14 16 18.6000000  0  3G26G07G16                                       
  21924475.88349 115213898.23049      6444.09849        50.000  
  22198158.18849 116652107.30549      2164.88749        50.000  
  20386060.75849 107129470.72349     -4468.63349        49.000  
 16 04 02 14 16 18.7000000  0  3G26G07G16                                       
  21924353.28949 115213254.02049      6440.33649        50.000  
  22198117.03949 116651891.03149      2160.55949        50.000  
  20386145.82849 107129917.79749     -4473.33249        49.000  
 16 04 02 14 16 18.8000000  0  3G26G07G16                                       
  21924230.76649 115212610.18849      6436.46149        50.000  
  22198075.96949 116651675.22349      2155.82049        50.000  
  20386231.00849 107130365.40249     -4478.70349        49.000  
 16 04 02 14 16 18.9000000  0  3G26G07G16                                       
  21924108.31249 115211966.71949      6433.04349        50.000  
  22198034.99249 116651459.85549      2151.65649        50.000  
  20386316.27349 107130813.47349     -4483.15249        49.000  
 16 04 02 14 16 19.0000000  0  3G26G07G16                                       
  21923985.92249 115211323.52349      6430.25449        50.000  
  22197994.07849 116651244.83249      2148.18049        50.000  
  20386401.61749 107131261.94549     -4487.27349        49.000  
 16 04 02 14 16 19.1000000  0  3G26G07G16                                       
  21923863.59449 115210680.71149      6426.50049        50.000  
  22197953.23449 116651030.25849      2143.69549        50.000  
  20386487.05549 107131710.91849     -4492.23049        49.000  
 16 04 02 14 16 19.2000000  0  3G26G07G16                                       
  21923741.33649 115210038.24649      6422.81649        50.000  
  22197912.48449 116650816.11749      2139.17249        50.000  
  20386572.57849 107132160.36349     -4497.18849        49.000  
 16 04 02 14 16 19.3000000  0  3G26G07G16                                       
  21923619.14849 115209396.08649      6419.94949        50.000  
  22197871.79749 116650602.34849      2135.64849        50.000  
  20386658.18849 107132610.22749     -4501.09049        49.000  
 16 04 02 14 16 19.4000000  0  4G04G26G07G16                                    
  22866510.14849 120164320.98059     11715.60949        49.000  
  21923497.03149 115208754.34449      6415.72349        50.000  
  22197831.21149 116650389.06649      2130.76249        50.000  
  20386743.89849 107133060.62949     -4506.59449        49.000  
 16 04 02 14 16 19.5000000  0  5G04G09G26G07G16                                 
  22866287.21949 120163149.49649     11713.45349        49.000  
  21280907.06249 111831920.52759    -16282.90249        50.000  
  21923374.96149 115208112.89549      6412.79749        50.000  
  22197790.70349 116650176.16449      2126.96549        50.000  
  20386829.69549 107133511.45749     -4510.80149        49.000  
 16 04 02 14 16 19.6000000  0  5G04G09G26G07G16                                 
  22866064.36749 120161978.32849     11710.27049        49.000  
  21281216.97749 111833549.14549    -16288.89149        50.000  
  21923252.96949 115207471.82849      6408.93849        50.000  
  22197750.27349 116649963.71149      2122.53949        50.000  
  20386915.57849 107133962.77349     -4515.69149        49.000  
 16 04 02 14 16 19.7000000  0  5G04G09G26G07G16                                 
  22865841.54749 120160807.41049     11707.57449        49.000  
  21281527.03149 111835178.34849    -16294.91849        50.000  
  21923131.05549 115206831.09049      6405.54749        50.000  
  22197709.93049 116649751.66849      2118.18049        50.000  
  20387001.53949 107134414.55149     -4520.49249        49.000  
 16 04 02 14 16 19.8000000  0  5G04G09G26G07G16                                 
  22865618.78149 120159636.76649     11705.14149        49.000  
  21281837.16449 111836808.12149    -16300.36749        50.000  
  21923009.18849 115206190.68849      6402.42649        50.000  
  22197669.65649 116649540.03549      2114.34449        50.000  
  20387087.60249 107134866.78549     -4524.75049        49.000  
 16 04 02 14 16 19.9000000  0  5G04G09G26G07G16                                 
  22865396.07049 120158466.41449     11701.93849        49.000  
  21282147.40649 111838438.50049    -16306.52349        50.000  
  21922887.38349 115205550.65649      6398.65649        50.000  
  22197629.46949 116649328.84049      2109.81649        50.000  
  20387173.75849 107135319.50449     -4529.76649        49.000  
 16 04 02 14 16 20.0000000  0  5G04G09G26G07G16                                 
  22865173.39849 120157296.34049     11699.32049        49.000  
  21282457.77349 111840069.47749    -16312.58649        50.000  
  21922765.65649 115204910.98449      6395.04749        50.000  
  22197589.35949 116649118.08249      2105.43449        50.000  
  20387260.00049 107135772.69949     -4534.54749        49.000  
 16 04 02 14 16 20.1000000  0  5G04G09G26G07G16                                 
  22864950.78149 120156126.48449     11697.07849        49.000  
  21282768.21949 111841700.97349    -16317.84849        49.000  
  21922643.98449 115204271.59049      6392.09849        50.000  
  22197549.32049 116648907.66849      2101.85549        50.000  
  20387346.31249 107136226.29749     -4538.54749        49.000  
 16 04 02 14 16 20.2000000  0  5G04G09G26G07G16                                 
  22864728.26649 120154956.96149     11693.80949        49.000  
  21283078.80549 111843333.11349    -16324.04749        49.000  
  21922522.39149 115203632.59849      6388.26649        50.000  
  22197509.37549 116648697.74649      2097.15649        50.000  
  20387432.73449 107136680.42649     -4543.76249        49.000  
 16 04 02 14 16 20.3000000  0  5G04G09G26G07G16                                 
  22864505.76649 120153787.70749     11691.09449        49.000  
  21283389.52349 111844965.84849    -16330.17649        49.000  
  21922400.83649 115202993.96149      6384.63349        50.000  
  22197469.50849 116648488.23849      2092.96949        50.000  
  20387519.25049 107137135.02049     -4548.48449        49.000  
 16 04 02 14 16 20.4000000  0  5G04G09G26G07G16                                 
  22864283.33649 120152618.66849     11688.96149        49.000  
  21283700.32049 111846599.09849    -16335.28949        50.000  
  21922279.35949 115202355.59849      6381.90249        50.000  
  22197429.70349 116648279.09449      2089.30549        50.000  
  20387605.83649 107137590.01249     -4552.53549        49.000  
 16 04 02 14 16 20.5000000  0  5G04G09G26G07G16                                 
  22864060.95349 120151450.02749     11684.87549        49.000  
  21284011.26649 111848233.05149    -16342.39549        50.000  
  21922157.96149 115201717.70349      6377.14849        50.000  
  22197390.00849 116648070.47749      2083.92649        50.000  
  20387692.53949 107138045.60549     -4558.57449        49.000  
 16 04 02 14 16 20.6000000  0  5G04G09G26G07G16                                 
  22863838.63349 120150281.68449     11681.92649        49.000  
  21284322.31249 111849867.61749    -16348.55549        50.000  
  21922036.64849 115201080.18849      6373.31649        50.000  
  22197350.39849 116647862.32049      2079.36749        50.000  
  20387779.32849 107138501.67249     -4563.30149        49.000  
 16 04 02 14 16 20.7000000  0  5G04G09G26G07G16                                 
  22863616.35249 120149113.57049     11679.67249        49.000  
  21284633.47749 111851502.73049    -16353.98049        49.000  
  21921915.38349 115200442.96949      6370.45749        50.000  
  22197310.85949 116647654.54349      2075.59849        50.000  
  20387866.18849 107138958.17649     -4567.60249        49.000  
 16 04 02 14 16 20.8000000  0  5G04G09G26G07G16                                 
  22863394.10949 120147945.68049     11677.46149        49.000  
  21284944.72749 111853138.36749    -16359.05149        50.000  
  21921794.18049 115199806.05149      6367.47749        50.000  
  22197271.39149 116647447.11749      2072.12549        50.000  
  20387953.13349 107139415.08649     -4571.69549        49.000  
 16 04 02 14 16 20.9000000  0  5G04G09G26G07G16                                 
  22863171.93049 120146778.12949     11674.16049        49.000  
  21285256.10249 111854774.66849    -16365.59849        50.000  
  21921673.06249 115199169.53149      6363.57449        50.000  
  22197232.01649 116647240.19549      2067.23449        50.000  
  20388040.18049 107139872.53549     -4576.96549        49.000  
 16 04 02 14 16 21.0000000  0  5G04G09G26G07G16                                 
  22862949.81249 120145610.87149     11671.20349        49.000  
  21285567.59449 111856411.56649    -16371.68049        49.000  
  21921552.00849 115198533.39149      6359.78549        50.000  
  22197192.71949 116647033.70349      2062.86349        50.000  
  20388127.32049 107140330.46949     -4581.76649        49.000  
 16 04 02 14 17  6.6000000  0  1G16                                             
  21223434.75049 111529902.36359     -6691.46949        49.000  
 16 04 02 14 17  6.7000000  0  1G16                                             
  21223562.11749 111530571.68449     -6695.41849        49.000  
 16 04 02 14 17  6.8000000  0  2G16G26                                          
  21223689.57849 111531241.43849     -6699.49649        49.000  
  22659418.57849 119076046.94959      4771.99649        50.000  
 16 04 02 14 17  6.9000000  0  3G16G07G26                                       
  21223817.10949 111531911.65249     -6704.12549        49.000  
  22974019.53949 120729286.50059       119.60549        50.000  
  22659327.80549 119075569.93449      4768.50849        50.000  
 16 04 02 14 17  7.0000000  0  3G16G07G26                                       
  21223944.74249 111532582.30549     -6708.57449        49.000  
  22974017.29749 120729274.72749       115.59849        50.000  
  22659237.07849 119075093.24249      4765.21549        50.000  
 16 04 02 14 17  7.1000000  0  3G16G07G26                                       
  21224072.43849 111533253.35249     -6712.40649        49.000  
  22974015.11749 120729263.31649       112.15249        50.000  
  22659146.42249 119074616.84049      4762.50449        50.000  
 16 04 02 14 17  7.2000000  0  3G16G07G26                                       
  21224200.21149 111533924.78549     -6716.16049        49.000  
  22974013.01649 120729252.26249       108.60949        50.000  
  22659055.81249 119074140.71149      4759.84849        50.000  
 16 04 02 14 17  7.3000000  0  3G16G07G26                                       
  21224328.06249 111534596.64849     -6720.63749        49.000  
  22974011.00049 120729241.59449       104.48449        50.000  
  22658965.26649 119073664.88749      4756.57849        50.000  
 16 04 02 14 17  7.4000000  0  3G16G07G26                                       
  21224456.00849 111535269.00049     -6725.71149        49.000  
  22974009.05549 120729231.39849        99.68049        50.000  
  22658874.79749 119073189.45349      4752.52349        50.000  
 16 04 02 14 17  7.5000000  0  3G16G07G26                                       
  21224584.03949 111535941.81249     -6730.23049        49.000  
  22974007.20349 120729221.62549        95.48049        50.000  
  22658784.39149 119072714.37549      4749.00049        50.000  
 16 04 02 14 17  7.6000000  0  3G16G07G26                                       
  21224712.16449 111536615.10949     -6735.33249        49.000  
  22974005.42249 120729212.30149        90.78549        50.000  
  22658694.06249 119072239.66449      4745.05549        50.000  
 16 04 02 14 17  7.7000000  0  3G16G07G26                                       
  21224840.37549 111537288.86349     -6739.66849        49.000  
  22974003.72749 120729203.40649        86.79349        50.000  
  22658603.79749 119071765.30149      4741.90249        50.000  
 16 04 02 14 17  7.8000000  0  3G16G07G26                                       
  21224968.66449 111537963.01249     -6743.53549        49.000  
  22974002.10249 120729194.86749        83.23849        50.000  
  22658513.57049 119071291.20749      4739.21549        50.000  
 16 04 02 14 17  7.9000000  0  3G16G07G26                                       
  21225097.04749 111538637.66849     -6748.82049        49.000  
  22974000.56249 120729186.81249        78.21549        50.000  
  22658423.43049 119070817.52349      4734.91049        50.000  
 16 04 02 14 17  8.0000000  0  3G16G07G26                                       
  21225225.51649 111539312.77349     -6753.26649        49.000  
  22973999.10949 120729179.17249        74.23049        50.000  
  22658333.35249 119070344.19149      4731.59849        50.000  
 16 04 02 14 17  8.1000000  0  3G16G07G26                                       
  21225354.05549 111539988.27349     -6757.06249        49.000  
  22973997.71949 120729171.89149        70.87549        50.000  
  22658243.32849 119069871.10949      4729.17649        50.000  
 16 04 02 14 17  8.2000000  0  3G16G07G26                                       
  21225482.67249 111540664.11749     -6760.56649        49.000  
  22973996.39849 120729164.93449        67.45349        50.000  
  22658153.34449 119069398.29349      4726.49249        50.000  
 16 04 02 14 17  8.3000000  0  3G16G07G26                                       
  21225611.38349 111541340.48049     -6765.57849        49.000  
  22973995.17249 120729158.44549        62.85549        50.000  
  22658063.44549 119068925.87549      4722.56649        50.000  
 16 04 02 14 17  8.4000000  0  3G16G07G26                                       
  21225740.17249 111542017.30949     -6770.47749        49.000  
  22973994.01649 120729152.40249        58.17249        50.000  
  22657973.60949 119068453.80549      4718.82849        50.000  
 16 04 02 14 17  8.5000000  0  3G16G07G26                                       
  21225869.06249 111542694.64149     -6775.62949        49.000  
  22973992.96149 120729146.84449        53.17249        50.000  
  22657883.85249 119067982.13749      4714.68449        50.000  
 16 04 02 14 17  8.6000000  0  3G16G07G26                                       
  21225998.03149 111543372.37949     -6779.49249        49.000  
  22973991.96949 120729141.63349        49.86749        50.000  
  22657794.14849 119067510.75449      4712.00449        50.000  
 16 04 02 14 17  8.7000000  0  3G16G07G26                                       
  21226127.09449 111544050.60549     -6784.33249        49.000  
  22973991.07049 120729136.88749        45.26249        50.000  
  22657704.52349 119067039.75049      4708.27749        50.000  
 16 04 02 14 17  8.8000000  0  3G16G07G26                                       
  21226256.24249 111544729.32049     -6789.30549        49.000  
  22973990.25849 120729132.60249        40.57049        50.000  
  22657614.96949 119066569.12549      4704.48449        50.000  
 16 04 02 14 17  8.9000000  0  3G16G07G26                                       
  21226385.48449 111545408.48449     -6793.92249        49.000  
  22973989.51649 120729128.73449        36.23849        50.000  
  22657525.47749 119066098.84849      4700.87149        50.000  
 16 04 02 14 17  9.0000000  0  3G16G07G26                                       
  21226514.80549 111546088.08649     -6798.05949        49.000  
  22973988.85249 120729125.26649        32.66849        50.000  
  22657436.03949 119065628.88749      4697.95349        50.000  
 16 04 02 14 17  9.1000000  0  3G16G07G26                                       
  21226644.21149 111546768.11749     -6802.48049        49.000  
  22973988.26649 120729122.20349        28.33249        50.000  
  22657346.67249 119065159.24649      4694.56649        50.000  
 16 04 02 14 17  9.2000000  0  3G16G07G26                                       
  21226773.71149 111547448.59049     -6806.74249        49.000  
  22973987.76649 120729119.55549        24.42649        50.000  
  22657257.37549 119064689.94549      4691.42249        50.000  
 16 04 02 14 17  9.3000000  0  3G16G07G26                                       
  21226903.28149 111548129.49649     -6811.15649        49.000  
  22973987.33649 120729117.29749        20.46149        50.000  
  22657168.13349 119064220.96549      4688.14549        50.000  
 16 04 02 14 17  9.4000000  0  3G16G07G26                                       
  21227032.93849 111548810.81249     -6815.32049        49.000  
  22973986.97749 120729115.42649        16.60249        50.000  
  22657078.95349 119063752.27749      4685.13349        50.000  
 16 04 02 14 17  9.5000000  0  3G16G07G26                                       
  21227162.68849 111549492.62949     -6820.39549        49.000  
  22973986.70349 120729114.01649        11.69549        50.000  
  22656989.83649 119063283.98049      4681.11749        50.000  
 16 04 02 14 17  9.6000000  0  3G16G07G26                                       
  21227292.52349 111550174.95749     -6825.48049        49.000  
  22973986.53149 120729113.10549         6.72349        50.000  
  22656900.78949 119062816.08649      4677.02349        50.000  
 16 04 02 14 17  9.7000000  0  3G16G07G26                                       
  21227422.45349 111550857.73049     -6829.87949        49.000  
  22973986.43049 120729112.58649         2.90649        50.000  
  22656811.82049 119062348.53549      4673.73849        50.000  
 16 04 02 14 17  9.8000000  0  3G16G07G26                                       
  21227552.45349 111551540.89849     -6833.69949        49.000  
  22973986.40649 120729112.43049        -0.53949        50.000  
  22656722.90649 119061881.25049      4671.14849        50.000  
 16 04 02 14 17  9.9000000  0  3G16G07G26                                       
  21227682.54749 111552224.55949     -6838.66849        49.000  
  22973986.46149 120729112.73849        -5.29349        50.000  
  22656634.05549 119061414.35949      4667.21949        50.000  
 16 04 02 14 17 10.0000000  0  3G16G07G26                                       
  21227812.71949 111552908.66449     -6843.27349        49.000  
  22973986.60249 120729113.47349        -9.59449        50.000  
  22656545.26649 119060947.80549      4663.71949        50.000  
 16 04 02 14 17 10.1000000  0  3G16G07G26                                       
  21227942.97749 111553593.15649     -6847.02749        49.000  
  22973986.79749 120729114.55149       -12.91449        50.000  
  22656456.53949 119060481.52349      4661.15649        50.000  
 16 04 02 14 17 10.2000000  0  3G16G07G26                                       
  21228073.30549 111554278.04349     -6850.84849        49.000  
  22973987.07049 120729116.00049       -16.56249        50.000  
  22656367.86749 119060015.52749      4658.30549        50.000  
 16 04 02 14 17 10.3000000  0  3G16G07G26                                       
  21228203.72749 111554963.41049     -6855.76649        49.000  
  22973987.43049 120729117.89149       -21.09849        50.000  
  22656279.25849 119059549.89849      4654.50049        50.000  
 16 04 02 14 17 10.4000000  0  3G16G07G26                                       
  21228334.22749 111555649.21949     -6860.16049        49.000  
  22973987.86749 120729120.20349       -25.33249        50.000  
  22656190.71149 119059084.60249      4651.20349        50.000  
 16 04 02 14 17 10.5000000  0  3G16G07G26                                       
  21228464.82049 111556335.50449     -6865.00849        49.000  
  22973988.39149 120729122.94149       -29.78549        50.000  
  22656102.23449 119058619.67249      4647.43049        50.000  
 16 04 02 14 17 10.6000000  0  3G16G07G26                                       
  21228595.52349 111557022.30149     -6870.12949        49.000  
  22973989.00849 120729126.17649       -34.57049        50.000  
  22656013.83649 119058155.14549      4643.56649        50.000  
 16 04 02 14 17 10.7000000  0  3G16G07G26                                       
  21228726.28149 111557709.46949     -6873.76649        49.000  
  22973989.68849 120729129.74649       -37.83249        50.000  
  22655925.48449 119057690.87149      4641.13349        50.000  
 16 04 02 14 17 10.8000000  0  3G16G07G26                                       
  21228857.15649 111558397.14849     -6878.90649        49.000  
  22973990.45349 120729133.78549       -42.69549        50.000  
  22655837.20349 119057227.00049      4636.90249        50.000  
 16 04 02 14 17 10.9000000  0  3G16G07G26                                       
  21228988.10249 111559085.27349     -6883.46949        49.000  
  22973991.31249 120729138.26249       -47.04749        50.000  
  22655749.00049 119056763.48049      4633.39849        50.000  
 16 04 02 14 17 11.0000000  0  3G16G07G26                                       
  21229119.14149 111559773.85949     -6888.21549        49.000  
  22973992.24249 120729143.14849       -51.32449        50.000  
  22655660.85949 119056300.28949      4629.94149        50.000  
 16 04 02 14 17 11.1000000  0  3G16G07G26                                       
  21229250.25849 111560462.90249     -6892.53949        49.000  
  22973993.25849 120729148.47749       -55.44149        50.000  
  22655572.78149 119055837.46549      4626.46949        50.000  
 16 04 02 14 17 11.2000000  0  3G16G07G26                                       
  21229381.45349 111561152.34049     -6896.52349        49.000  
  22973994.33649 120729154.16049       -59.10249        50.000  
  22655484.76649 119055374.92249      4623.59049        50.000  
 16 04 02 14 17 11.3000000  0  3G16G07G26                                       
  21229512.75049 111561842.30949     -6901.61349        49.000  
  22973995.51649 120729160.34049       -63.96549        50.000  
  22655396.82049 119054912.78949      4619.62149        50.000  
 16 04 02 14 17 11.4000000  0  3G16G07G26                                       
  21229644.10949 111562532.67249     -6905.67249        49.000  
  22973996.75849 120729166.88749       -67.48849        50.000  
  22655308.93849 119054450.94149      4616.84049        50.000  
 16 04 02 14 17 11.5000000  0  3G16G07G26                                       
  21229775.56249 111563223.48449     -6910.31249        49.000  
  22973998.09449 120729173.85949       -71.96549        50.000  
  22655221.11749 119053989.44149      4613.16449        50.000  
 16 04 02 14 17 11.6000000  0  3G16G07G26                                       
  21229907.10249 111563914.74649     -6914.64149        49.000  
  22973999.50049 120729181.24249       -75.89549        50.000  
  22655133.35949 119053528.27349      4610.03549        50.000  
 16 04 02 14 17 11.7000000  0  3G16G07G26                                       
  21230038.72749 111564606.42249     -6918.90649        49.000  
  22974000.98449 120729189.01249       -80.03549        50.000  
  22655045.66449 119053067.41049      4606.79749        50.000  
 16 04 02 14 17 11.8000000  0  3G16G07G26                                       
  21230170.44549 111565298.59449     -6923.74249        49.000  
  22974002.55549 120729197.24249       -84.58249        50.000  
  22654958.03949 119052606.94149      4602.84449        50.000  
 16 04 02 14 17 11.9000000  0  3G16G07G26                                       
  21230302.25849 111565991.29749     -6929.34849        49.000  
  22974004.21149 120729205.97349       -89.66449        50.000  
  22654870.49249 119052146.88749      4598.65249        50.000  
 16 04 02 14 17 12.0000000  0  3G16G07G26                                       
  21230434.14849 111566684.36349     -6932.75849        49.000  
  22974005.93849 120729215.03949       -92.70749        50.000  
  22654783.00049 119051687.08249      4596.33649        50.000  
 16 04 02 14 17 12.1000000  0  3G16G07G26                                       
  21230566.10949 111567377.82049     -6936.69149        49.000  
  22974007.72749 120729224.46149       -96.49649        50.000  
  22654695.55549 119051227.56249      4593.43849        50.000  
 16 04 02 14 17 12.2000000  0  3G16G07G26                                       
  21230698.16449 111568071.77049     -6941.38349        49.000  
  22974009.60949 120729234.35949      -101.01649        50.000  
  22654608.18849 119050768.43449      4589.75449        50.000  
 16 04 02 14 17 12.3000000  0  3G16G07G26                                       
  21230830.29749 111568766.16049     -6945.93049        49.000  
  22974011.56249 120729244.64149      -104.81249        50.000  
  22654520.87549 119050309.61349      4586.61749        50.000  
 16 04 02 14 17 12.4000000  0  3G16G07G26                                       
  21230962.50849 111569460.92649     -6949.85249        49.000  
  22974013.59449 120729255.29349      -108.76649        50.000  
  22654433.62549 119049851.07849      4583.59049        50.000  
 16 04 02 14 17 12.5000000  0  3G16G07G26                                       
  21231094.80549 111570156.14549     -6954.16449        49.000  
  22974015.70349 120729266.35249      -112.64149        50.000  
  22654346.43049 119049392.88349      4580.35949        50.000  
 16 04 02 14 17 12.6000000  0  3G16G07G26                                       
  21231227.18849 111570851.81249     -6958.82849        49.000  
  22974017.88349 120729277.83649      -117.00849        50.000  
  22654259.31249 119048935.02349      4576.82849        50.000  
 16 04 02 14 17 12.7000000  0  3G16G07G26                                       
  21231359.65649 111571547.94549     -6963.59849        49.000  
  22974020.16449 120729289.75849      -121.57849        50.000  
  22654172.25049 119048477.52349      4573.05149        50.000  
 16 04 02 14 17 12.8000000  0  3G16G07G26                                       
  21231492.22749 111572244.55549     -6968.23849        49.000  
  22974022.51649 120729302.12149      -125.89549        50.000  
  22654085.26649 119048020.38349      4569.57849        50.000  
 16 04 02 14 17 12.9000000  0  3G16G07G26                                       
  21231624.86749 111572941.59849     -6972.48049        49.000  
  22974024.93049 120729314.88349      -129.64849        50.000  
  22653998.33649 119047563.56649      4566.57449        50.000  
 16 04 02 14 17 13.0000000  0  3G16G07G26                                       
  21231757.58649 111573639.08649     -6977.07049        49.000  
  22974027.43849 120729328.06249      -133.99649        50.000  
  22653911.47749 119047107.09049      4562.99649        50.000  
 16 04 02 14 17 13.1000000  0  3G16G07G26                                       
  21231890.39849 111574337.00849     -6981.34449        49.000  
  22974030.02349 120729341.65649      -138.06649        50.000  
  22653824.67249 119046650.94549      4559.74649        50.000  
 16 04 02 14 17 13.2000000  0  3G16G07G26                                       
  21232023.29749 111575035.39849     -6985.99649        49.000  
  22974032.69549 120729355.68049      -142.42649        50.000  
  22653737.93849 119046195.15249      4556.18449        50.000  
 16 04 02 14 17 13.3000000  0  4G04G16G07G26                                    
  23540354.01649 123705394.31259     10229.33649        49.000  
  21232156.28949 111575734.26649     -6990.85549        49.000  
  22974035.44549 120729370.14149      -146.90249        50.000  
  22653651.26649 119045739.71949      4552.43449        50.000  
 16 04 02 14 17 13.4000000  0  4G04G16G07G26                                    
  23540159.37549 123704371.47749     10226.90649        49.000  
  21232289.35949 111576433.55949     -6995.09849        49.000  
  22974038.27349 120729385.00449      -150.76249        50.000  
  22653564.68049 119045284.59849      4549.42649        50.000  
 16 04 02 14 17 13.5000000  0  4G04G16G07G26                                    
  23539964.76649 123703348.88349     10224.36349        49.000  
  21232422.50849 111577133.27049     -6999.21949        49.000  
  22974041.17249 120729400.26649      -154.88349        50.000  
  22653478.13349 119044829.81249      4546.13749        50.000  
 16 04 02 14 17 13.6000000  0  4G04G16G07G26                                    
  23539770.22749 123702326.59449     10221.61749        49.000  
  21232555.75049 111577833.46149     -7003.75449        49.000  
  22974044.15649 120729415.96549      -159.06249        50.000  
  22653391.64849 119044375.38349      4542.73849        50.000  
 16 04 02 14 17 13.7000000  0  4G04G16G07G26                                    
  23539575.75849 123701304.56649     10218.82049        49.000  
  21232689.07849 111578534.09449     -7008.30149        49.000  
  22974047.23449 120729432.07849      -163.29749        50.000  
  22653305.23449 119043921.27749      4539.29349        50.000  
 16 04 02 14 17 13.8000000  0  4G04G16G07G26                                    
  23539381.32049 123700282.80149     10216.28549        49.000  
  21232822.47749 111579235.17249     -7012.63749        49.000  
  22974050.37549 120729448.60549      -167.29349        50.000  
  22653218.88349 119043467.51249      4536.10949        50.000  
 16 04 02 14 17 13.9000000  0  4G04G16G07G26                                    
  23539186.92249 123699261.30149     10213.57449        49.000  
  21232955.97749 111579936.68849     -7017.20349        49.000  
  22974053.59449 120729465.53549      -171.45749        50.000  
  22653132.60249 119043014.06649      4532.73449        50.000  
 16 04 02 14 17 14.0000000  0  4G04G16G07G26                                    
  23538992.59449 123698240.08249     10210.90649        49.000  
  21233089.56249 111580638.65649     -7021.69149        49.000  
  22974056.89849 120729482.89849      -175.61749        50.000  
  22653046.37549 119042560.98049      4529.28549        50.000  
 16 04 02 14 17 14.1000000  0  4G04G16G07G26                                    
  23538798.31249 123697219.06249     10208.62949        49.000  
  21233223.21949 111581341.00849     -7025.65649        49.000  
  22974060.27349 120729500.61349      -179.33249        50.000  
  22652960.21149 119042108.16849      4526.38349        50.000  
 16 04 02 14 17 14.2000000  0  4G04G16G07G26                                    
  23538604.07049 123696198.31649     10206.06249        49.000  
  21233356.96149 111582043.81649     -7030.18449        49.000  
  22974063.71949 120729518.74649      -183.48849        50.000  
  22652874.10249 119041655.68449      4523.02749        50.000  
 16 04 02 14 17 14.3000000  0  4G04G16G07G26                                    
  23538409.88349 123695177.85949     10203.06649        49.000  
  21233490.78949 111582747.07849     -7034.73449        49.000  
  22974067.25849 120729537.31249      -187.85949        50.000  
  22652788.07049 119041203.56649      4519.50849        50.000  
 16 04 02 14 17 14.4000000  0  4G04G16G07G26                                    
  23538215.74249 123694157.64149     10200.80149        49.000  
  21233624.70349 111583450.76649     -7038.94549        49.000  
  22974070.86749 120729556.27049      -191.66049        50.000  
  22652702.08649 119040751.75049      4516.44949        50.000  
 16 04 02 14 17 14.5000000  0  4G04G16G07G26                                    
  23538021.65649 123693137.70749     10198.00049        49.000  
  21233758.69549 111584154.90649     -7043.44149        49.000  
  22974074.54749 120729575.64849      -195.89149        50.000  
  22652616.18049 119040300.28549      4512.93049        50.000  
 16 04 02 14 17 14.6000000  0  4G04G16G07G26                                    
  23537827.62549 123692118.05549     10194.98049        50.000  
  21233892.77349 111584859.51649     -7048.35249        49.000  
  22974078.32049 120729595.46149      -200.38349        50.000  
  22652530.32849 119039849.16449      4509.32049        50.000  
 16 04 02 14 17 14.7000000  0  4G04G16G07G26                                    
  23537633.67249 123691098.71149     10191.73449        49.000  
  21234026.94549 111585564.60249     -7053.13749        49.000  
  22974082.17249 120729615.73449      -205.14849        50.000  
  22652444.55549 119039398.42649      4505.44949        50.000  
 16 04 02 14 17 14.8000000  0  4G04G16G07G26                                    
  23537439.75049 123690079.64849     10188.97749        49.000  
  21234161.21149 111586270.14549     -7057.70349        49.000  
  22974086.10949 120729636.42249      -209.28549        50.000  
  22652358.83649 119038948.03549      4501.98449        50.000  
 16 04 02 14 17 14.9000000  0  4G04G16G07G26                                    
  23537245.89149 123689060.86749     10186.34049        49.000  
  21234295.55549 111586976.15649     -7062.19549        49.000  
  22974090.12549 120729657.54749      -213.40249        50.000  
  22652273.19549 119038497.99649      4498.65249        50.000  
 16 04 02 14 17 15.0000000  0  4G04G16G07G26                                    
  23537052.07049 123688042.32849     10183.83649        50.000  
  21234429.97749 111587682.57849     -7066.43449        49.000  
  22974094.21949 120729679.07049      -217.51249        50.000  
  22652187.60949 119038048.27349      4495.39849        50.000  
 16 04 02 14 17 15.1000000  0  4G04G16G07G26                                    
  23536858.34449 123687024.07849     10180.97349        50.000  
  21234564.49249 111588389.46549     -7070.98049        49.000  
  22974098.39149 120729701.02049      -221.81649        50.000  
  22652102.09449 119037598.89149      4491.99649        50.000  
 16 04 02 14 17 15.2000000  0  4G04G16G07G26                                    
  23536664.63349 123686006.09449     10178.43449        50.000  
  21234699.09449 111589096.80149     -7075.41049        49.000  
  22974102.64849 120729723.37549      -225.68049        50.000  
  22652016.64149 119037149.84849      4488.80949        50.000  
 16 04 02 14 17 15.3000000  0  4G04G16G07G26                                    
  23536470.93849 123684988.30149     10176.63749        50.000  
  21234833.76649 111589804.50049     -7078.91849        49.000  
  22974106.96949 120729746.08249      -228.97349        50.000  
  22651931.24249 119036701.07049      4486.24249        50.000  
 16 04 02 14 17 15.4000000  0  4G04G16G07G26                                    
  23536277.31249 123683970.80949     10173.40649        50.000  
  21234968.53149 111590512.68449     -7083.87149        49.000  
  22974111.37549 120729769.23049      -233.65249        50.000  
  22651845.91449 119036252.65249      4482.48449        50.000  
 16 04 02 14 17 15.5000000  0  4G04G16G07G26                                    
  23536083.76649 123682953.64849     10169.99249        49.000  
  21235103.39149 111591221.37149     -7089.10549        49.000  
  22974115.86749 120729792.85949      -238.58249        50.000  
  22651760.65649 119035804.64549      4478.22349        50.000  
 16 04 02 14 17 15.6000000  0  4G04G16G07G26                                    
  23535890.25049 123681936.73449     10167.60249        50.000  
  21235238.32849 111591930.47749     -7093.21949        49.000  
  22974120.44549 120729816.88349      -242.43049        50.000  
  22651675.46149 119035356.93449      4475.28149        50.000  
 16 04 02 14 17 15.7000000  0  4G04G16G07G26                                    
  23535696.76649 123680920.07849     10165.10549        49.000  
  21235373.35249 111592640.03149     -7097.64149        49.000  
  22974125.08649 120729841.31249      -246.59049        50.000  
  22651590.32849 119034909.57049      4471.93849        50.000  
 16 04 02 14 17 15.8000000  0  4G04G16G07G26                                    
  23535503.35949 123679903.72749     10162.11349        49.000  
  21235508.45349 111593350.05549     -7102.31649        49.000  
  22974129.82049 120729866.18849      -250.91449        50.000  
  22651505.26649 119034462.56249      4468.32449        50.000  
 16 04 02 14 17 15.9000000  0  4G04G16G07G26                                    
  23535310.00049 123678887.61749     10159.63349        50.000  
  21235643.64849 111594060.50449     -7106.60549        49.000  
  22974134.62549 120729891.45749      -254.87949        50.000  
  22651420.26649 119034015.87549      4465.15649        50.000  
 16 04 02 14 17 16.0000000  0  4G04G16G07G26                                    
  23535116.68849 123677871.73849     10157.37149        49.000  
  21235778.92249 111594771.35549     -7110.55149        49.000  
  22974139.50849 120729917.10949      -258.71949        50.000  
  22651335.32049 119033569.48049      4462.22749        50.000  
 16 04 02 14 17 16.1000000  0  4G04G16G07G26                                    
  23534923.41449 123676856.14549     10154.40649        49.000  
  21235914.28149 111595482.67649     -7115.23449        49.000  
  22974144.46149 120729943.18849      -263.03549        50.000  
  22651250.44549 119033123.44549      4458.57849        50.000  
 16 04 02 14 17 16.2000000  0  4G04G16G07G26                                    
  23534730.20349 123675840.82849     10151.83249        49.000  
  21236049.72749 111596194.43449     -7119.64549        49.000  
  22974149.50049 120729969.67249      -266.95749        50.000  
  22651165.62549 119032677.73449      4455.35249        50.000  
 16 04 02 14 17 16.3000000  0  4G04G16G07G26                                    
  23534537.02349 123674825.75049     10149.18449        49.000  
  21236185.25049 111596906.62149     -7123.93449        49.000  
  22974154.60949 120729996.57049      -271.32449        50.000  
  22651080.86749 119032232.34849      4452.07449        50.000  
 16 04 02 14 17 16.4000000  0  4G04G16G07G26                                    
  23534343.93849 123673811.04749     10145.61749        50.000  
  21236320.88349 111597619.35949     -7129.43449        49.000  
  22974159.82049 120730023.97749      -276.14849        50.000  
  22650996.20349 119031787.39849      4447.78149        50.000  
 16 04 02 14 17 16.5000000  0  4G04G16G07G26                                    
  23534150.87549 123672796.55149     10143.23449        50.000  
  21236456.57849 111598332.47349     -7133.41049        49.000  
  22974165.10949 120730051.74649      -280.12949        50.000  
  22650911.58649 119031342.72349      4444.80149        50.000  
 16 04 02 14 17 16.6000000  0  4G04G16G07G26                                    
  23533957.87549 123671782.34049     10140.90649        50.000  
  21236592.37549 111599046.05949     -7137.77049        49.000  
  22974170.47749 120730079.93849      -283.82049        50.000  
  22650827.02349 119030898.40249      4441.75449        50.000  
 16 04 02 14 17 16.7000000  0  4G04G16G07G26                                    
  23533764.92249 123670768.34849     10138.36749        49.000  
  21236728.24249 111599760.03949     -7141.92249        49.000  
  22974175.92249 120730108.51649      -287.96949        50.000  
  22650742.53149 119030454.37549      4438.45349        50.000  
 16 04 02 14 17 16.8000000  0  4G04G16G07G26                                    
  23533572.01649 123669754.63349     10135.84849        50.000  
  21236864.18849 111600474.46149     -7146.17649        49.000  
  22974181.43049 120730137.48449      -291.80949        50.000  
  22650658.09449 119030010.68049      4435.35949        50.000  
 16 04 02 14 17 16.9000000  0  4G04G16G07G26                                    
  23533379.18049 123668741.19549     10132.78549        50.000  
  21237000.23449 111601189.35249     -7150.97749        49.000  
  22974187.03149 120730166.90649      -296.37949        50.000  
  22650573.72749 119029567.33649      4431.60549        50.000  
 16 04 02 14 17 17.0000000  0  4G04G16G07G26                                    
  23533186.37549 123667728.02349     10130.30549        50.000  
  21237136.35249 111601904.67249     -7155.31249        49.000  
  22974192.70349 120730196.71949      -300.33649        50.000  
  22650489.42249 119029124.31649      4428.53549        50.000  
 16 04 02 14 17 17.1000000  0  4G04G16G07G26                                    
  23532993.64849 123666715.07849     10127.85249        50.000  
  21237272.54749 111602620.40649     -7159.54749        49.000  
  22974198.46149 120730226.92649      -304.31649        50.000  
  22650405.17249 119028681.59849      4425.44949        50.000  
 16 04 02 14 17 17.2000000  0  4G04G16G07G26                                    
  23532800.95349 123665702.45349     10124.86349        50.000  
  21237408.84449 111603336.62149     -7164.23449        49.000  
  22974204.29749 120730257.58249      -308.74249        50.000  
  22650321.00849 119028239.27749      4421.60249        50.000  
 16 04 02 14 17 17.3000000  0  4G04G16G07G26                                    
  23532608.32049 123664690.12949     10121.67249        50.000  
  21237545.22749 111604053.32849     -7169.28949        49.000  
  22974210.21149 120730288.69949      -313.48049        50.000  
  22650236.90649 119027797.31249      4417.77349        50.000  
 16 04 02 14 17 17.4000000  0  4G04G16G07G26                                    
  23532415.71949 123663678.01649     10119.63349        50.000  
  21237681.68849 111604770.41849     -7173.02349        49.000  
  22974216.20349 120730320.16849      -316.94149        50.000  
  22650152.85249 119027355.62949      4415.05549        50.000  
 16 04 02 14 17 17.5000000  0  4G04G16G07G26                                    
  23532223.14849 123662666.16449     10117.13349        50.000  
  21237818.22749 111605487.94149     -7177.25449        49.000  
  22974222.26649 120730352.04749      -320.85549        50.000  
  22650068.86749 119026914.28149      4411.77049        50.000  
 16 04 02 14 17 17.6000000  0  4G04G16G07G26                                    
  23532030.64149 123661654.56649     10114.59849        50.000  
  21237954.83649 111606205.89849     -7181.52049        49.000  
  22974228.40649 120730384.32449      -324.87149        50.000  
  22649984.95349 119026473.23849      4408.70349        50.000  
 16 04 02 14 17 17.7000000  0  4G04G16G07G26                                    
  23531838.19549 123660643.28549     10111.48849        50.000  
  21238091.55549 111606924.34849     -7186.39149        49.000  
  22974234.63349 120730417.06649      -329.37549        50.000  
  22649901.09449 119026032.58649      4404.93049        50.000  
 16 04 02 14 17 17.8000000  0  4G04G16G07G26                                    
  23531645.79749 123659632.25449     10108.75849        50.000  
  21238228.35949 111607643.22349     -7190.92249        49.000  
  22974240.93849 120730450.21149      -333.75049        50.000  
  22649817.30549 119025592.25849      4401.45749        50.000  
 16 04 02 14 17 17.9000000  0  4G04G16G07G26                                    
  23531453.45349 123658621.48449     10106.18849        50.000  
  21238365.24249 111608362.53949     -7195.21949        49.000  
  22974247.32849 120730483.76249      -337.74249        50.000  
  22649733.57049 119025152.26249      4398.25449        50.000  
 16 04 02 14 17 18.0000000  0  4G04G16G07G26                                    
  23531261.15649 123657610.96149     10103.92249        50.000  
  21238502.20349 111609082.28549     -7199.40649        49.000  
  22974253.78949 120730517.70749      -341.54749        50.000  
  22649649.89849 119024712.57049      4395.25849        50.000  
 16 04 02 14 17 18.1000000  0  4G04G16G07G26                                    
  23531068.92249 123656600.72349     10100.86749        50.000  
  21238639.25049 111609802.48049     -7204.15649        49.000  
  22974260.32849 120730552.08249      -346.06649        50.000  
  22649566.29749 119024273.23449      4391.59849        50.000  
 16 04 02 14 17 18.2000000  0  4G04G16G07G26                                    
  23530876.75049 123655590.82049     10097.52349        50.000  
  21238776.39849 111610523.17649     -7209.05949        49.000  
  22974266.96149 120730586.94549      -350.87949        50.000  
  22649482.77349 119023834.29349      4387.58649        50.000  
 16 04 02 14 17 18.3000000  0  4G04G16G07G26                                    
  23530684.60249 123654581.16049     10095.06649        50.000  
  21238913.63349 111611244.31649     -7213.59049        49.000  
  22974273.67249 120730622.18849      -354.81249        50.000  
  22649399.30549 119023395.68849      4384.22349        50.000  
 16 04 02 14 17 18.4000000  0  4G04G16G07G26                                    
  23530492.52349 123653571.77049     10092.53549        50.000  
  21239050.93849 111611965.87949     -7217.66049        49.000  
  22974280.45349 120730657.84849      -358.75449        50.000  
  22649315.90649 119022957.38749      4381.19549        50.000  
 16 04 02 14 17 18.5000000  0  4G04G16G07G26                                    
  23530300.48449 123652562.63349     10089.86349        50.000  
  21239188.33649 111612687.89149     -7222.16449        49.000  
  22974287.32849 120730693.92649      -362.98049        50.000  
  22649232.56249 119022519.42649      4377.85949        50.000  
 16 04 02 14 17 18.6000000  0  4G04G16G07G26                                    
  23530108.50049 123651553.75049     10087.36749        50.000  
  21239325.81249 111613410.32849     -7226.44549        49.000  
  22974294.26649 120730730.38749      -366.82449        50.000  
  22649149.28149 119022081.78149      4374.72349        50.000  
 16 04 02 14 17 18.7000000  0  4G04G16G07G26                                    
  23529916.57849 123650545.14149     10084.64149        50.000  
  21239463.36749 111614133.20349     -7230.79349        49.000  
  22974301.28149 120730767.28149      -371.09449        50.000  
  22649066.06249 119021644.48049      4371.36349        50.000  
 16 04 02 14 17 18.8000000  0  4G04G16G07G26                                    
  23529724.70349 123649536.82449     10081.61749        50.000  
  21239601.01649 111614856.55549     -7235.61349        49.000  
  22974308.38349 120730804.60249      -375.51649        50.000  
  22648982.91449 119021207.53549      4367.69149        50.000  
 16 04 02 14 17 18.9000000  0  4G04G16G07G26                                    
  23529532.87549 123648528.78949     10078.79349        50.000  
  21239738.75849 111615580.37149     -7240.36749        49.000  
  22974315.57049 120730842.35549      -379.80549        50.000  
  22648899.83649 119020770.94949      4364.06649        50.000  
 16 04 02 14 17 19.0000000  0  4G04G16G07G26                                    
  23529341.09449 123647521.00849     10076.28549        50.000  
  21239876.56249 111616304.59849     -7244.46149        49.000  
  22974322.83649 120730880.50849      -383.75449        50.000  
  22648816.81249 119020334.66049      4360.99249        50.000  
 16 04 02 14 17 19.1000000  0  4G04G16G07G26                                    
  23529149.36749 123646513.47349     10074.16449        50.000  
  21240014.46149 111617029.26249     -7248.49249        49.000  
  22974330.17249 120730919.06649      -387.50449        50.000  
  22648733.85949 119019898.70749      4358.12549        50.000  
 16 04 02 14 17 19.2000000  0  4G04G16G07G26                                    
  23528957.69549 123645506.20349     10071.17649        50.000  
  21240152.43849 111617754.36749     -7253.15649        49.000  
  22974337.58649 120730958.02349      -391.80949        50.000  
  22648650.96949 119019463.08649      4354.43449        50.000  
 16 04 02 14 17 19.3000000  0  4G04G16G07G26                                    
  23528766.06249 123644499.24249     10068.21549        49.000  
  21240290.50849 111618479.94549     -7257.79749        49.000  
  22974345.08649 120730997.44549      -396.23449        50.000  
  22648568.14149 119019027.83249      4350.87549        50.000  
 16 04 02 14 17 19.4000000  0  4G04G16G07G26                                    
  23528574.48449 123643492.48849     10066.07049        50.000  
  21240428.65649 111619205.91449     -7261.81249        49.000  
  22974352.64849 120731037.21949      -400.04749        50.000  
  22648485.36749 119018592.85549      4347.97349        50.000  
 16 04 02 14 17 19.5000000  0  4G04G16G07G26                                    
  23528382.96949 123642486.07849     10062.79749        50.000  
  21240566.89849 111619932.39849     -7266.81249        49.000  
  22974360.30549 120731077.46949      -404.57449        50.000  
  22648402.67249 119018158.28949      4344.09849        50.000  
 16 04 02 14 17 19.6000000  0  4G04G16G07G26                                    
  23528191.50049 123641479.88749     10060.20749        50.000  
  21240705.21949 111620659.28549     -7271.08249        49.000  
  22974368.03949 120731118.10549      -408.75449        50.000  
  22648320.03149 119017724.01249      4340.81249        50.000  
 16 04 02 14 17 19.7000000  0  4G04G16G07G26                                    
  23528000.09449 123640474.03149     10057.09449        50.000  
  21240843.64149 111621386.67649     -7275.99649        49.000  
  22974375.85949 120731159.20749      -413.18449        50.000  
  22648237.46949 119017290.13349      4337.03949        50.000  
 16 04 02 14 17 19.8000000  0  4G04G16G07G26                                    
  23527808.72749 123639468.42649     10054.57049        50.000  
  21240982.14149 111622114.49649     -7280.35949        49.000  
  22974383.75849 120731200.72749      -417.34049        50.000  
  22648154.96949 119016856.58249      4333.75049        50.000  
 16 04 02 14 17 19.9000000  0  4G04G16G07G26                                    
  23527617.41449 123638463.05949     10052.13749        50.000  
  21241120.71949 111622842.72749     -7284.42649        49.000  
  22974391.72749 120731242.61749      -421.14149        50.000  
  22648072.51649 119016423.32049      4330.76649        50.000  
 16 04 02 14 17 20.0000000  0  4G04G16G07G26                                    
  23527426.14849 123637457.94549     10049.91849        50.000  
  21241259.38349 111623571.38749     -7288.53149        49.000  
  22974399.78149 120731284.91849      -425.01649        50.000  
  22647990.13349 119015990.39149      4327.74649        50.000  
 16 04 02 14 17 20.1000000  0  4G04G16G07G26                                    
  23527234.94549 123636453.08649     10047.19149        49.000  
  21241398.12549 111624300.47749     -7292.90649        49.000  
  22974407.89849 120731327.60949      -429.16449        50.000  
  22647907.81249 119015557.77349      4324.45349        50.000  
 16 04 02 14 17 20.2000000  0  4G04G16G07G26                                    
  23527043.78149 123635448.52049     10044.09449        49.000  
  21241536.94549 111625030.03949     -7297.74249        49.000  
  22974416.10949 120731370.74249      -433.63349        50.000  
  22647825.56249 119015125.53149      4320.55549        50.000  
 16 04 02 14 17 20.3000000  0  4G04G16G07G26                                    
  23526852.68049 123634444.24249     10041.44949        50.000  
  21241675.86749 111625760.06649     -7302.27349        49.000  
  22974424.39849 120731414.32049      -437.80149        50.000  
  22647743.37549 119014693.63749      4317.27749        50.000  
 16 04 02 14 17 20.4000000  0  4G04G16G07G26                                    
  23526661.62549 123633440.24649     10038.02049        50.000  
  21241814.87549 111626490.54349     -7307.15649        49.000  
  22974432.77349 120731458.32449      -442.66049        50.000  
  22647661.25049 119014262.09449      4313.25049        50.000  
 16 04 02 14 17 20.5000000  0  4G04G16G07G26                                    
  23526470.64149 123632436.57449     10035.39549        49.000  
  21241953.97749 111627221.52349     -7311.77749        49.000  
  22974441.24249 120731502.79349      -446.77349        50.000  
  22647579.20349 119013830.93049      4310.01249        50.000  
 16 04 02 14 17 20.6000000  0  4G04G16G07G26                                    
  23526279.68849 123631433.11749     10033.00049        50.000  
  21242093.15649 111627952.89849     -7315.94549        49.000  
  22974449.77349 120731547.62549      -450.63749        50.000  
  22647497.21149 119013400.05949      4306.88349        50.000  
 16 04 02 14 17 20.7000000  0  4G04G16G07G26                                    
  23526088.79749 123630429.97349     10029.91049        50.000  
  21242232.42249 111628684.75849     -7320.67249        49.000  
  22974458.39149 120731592.92249      -455.16449        50.000  
  22647415.28949 119012969.57049      4303.16049        50.000  
 16 04 02 14 17 20.8000000  0  4G04G16G07G26                                    
  23525897.94549 123629427.07849     10027.48449        50.000  
  21242371.78149 111629417.04349     -7324.96149        49.000  
  22974467.08649 120731638.61349      -459.07449        50.000  
  22647333.42249 119012539.39549      4300.00449        50.000  
 16 04 02 14 17 20.9000000  0  4G04G16G07G26                                    
  23525707.14849 123628424.43849     10024.93849        50.000  
  21242511.21149 111630149.75449     -7329.13349        49.000  
  22974475.85249 120731684.70349      -463.09449        50.000  
  22647251.62549 119012109.54349      4296.80949        50.000  
 16 04 02 14 17 21.0000000  0  4G04G16G07G26                                    
  23525516.40649 123627422.08649     10022.25449        50.000  
  21242650.73449 111630882.93449     -7333.76649        49.000  
  22974484.70349 120731731.22749      -467.22749        50.000  
  22647169.89149 119011680.03949      4293.43049        50.000  
 16 04 02 14 17 21.1000000  0  4G04G16G07G26                                    
  23525325.71149 123626420.00849     10019.38749        50.000  
  21242790.33649 111631616.54349     -7338.21949        49.000  
  22974493.63349 120731778.17249      -471.48049        50.000  
  22647088.22749 119011250.87549      4289.95749        50.000  
 16 04 02 14 17 21.2000000  0  4G04G16G07G26                                    
  23525135.06249 123625418.13349     10017.36349        50.000  
  21242930.01649 111632350.55149     -7342.09449        49.000  
  22974502.63349 120731825.48049      -475.25049        50.000  
  22647006.61749 119010821.99649      4287.00449        50.000  
 16 04 02 14 17 21.3000000  0  4G04G16G07G26                                    
  23524944.46149 123624416.55149     10014.39149        50.000  
  21243069.78149 111633085.02349     -7346.73849        49.000  
  22974511.71949 120731873.21149      -479.55949        50.000  
  22646925.07049 119010393.46949      4283.57449        50.000  
 16 04 02 14 17 21.4000000  0  4G04G16G07G26                                    
  23524753.92249 123623415.27749     10011.30149        50.000  
  21243209.64149 111633819.98049     -7351.69549        49.000  
  22974520.89149 120731921.40649      -484.09049        50.000  
  22646843.58649 119009965.30549      4279.84449        50.000  
 16 04 02 14 17 21.5000000  0  4G04G16G07G26                                    
  23524563.42249 123622414.23449     10008.77349        50.000  
  21243349.57049 111634555.34849     -7355.89149        49.000  
  22974530.13349 120731969.98049      -488.02049        50.000  
  22646762.17249 119009537.46549      4276.57449        50.000  
 16 04 02 14 17 21.6000000  0  4G04G16G07G26                                    
  23524372.98449 123621413.48849     10005.96149        50.000  
  21243489.59449 111635291.18449     -7360.54749        49.000  
  22974539.46149 120732018.99649      -492.52049        50.000  
  22646680.82049 119009109.97749      4272.99249        50.000  
 16 04 02 14 17 21.7000000  0  4G04G16G07G26                                    
  23524182.57849 123620412.96149     10003.93449        50.000  
  21243629.68849 111636027.40249     -7364.20349        49.000  
  22974548.85949 120732068.37549      -495.91049        50.000  
  22646599.53149 119008682.77049      4270.31249        50.000  
 16 04 02 14 17 21.8000000  0  4G04G16G07G26                                    
  23523992.23449 123619412.69149     10001.27049        50.000  
  21243769.87549 111636764.06649     -7368.61749        49.000  
  22974558.32849 120732118.16849      -500.00849        50.000  
  22646518.29749 119008255.88749      4267.04749        50.000  
 16 04 02 14 17 21.9000000  0  4G04G16G07G26                                    
  23523801.96149 123618412.82049      9997.25449        50.000  
  21243910.16449 111637501.29749     -7374.49649        49.000  
  22974567.91449 120732168.49649      -505.57449        50.000  
  22646437.15649 119007829.47349      4262.40249        50.000  
 16 04 02 14 17 22.0000000  0  4G04G16G07G26                                    
  23523611.73449 123617413.16049      9995.03949        50.000  
  21244050.53149 111638238.91049     -7378.43449        49.000  
  22974577.55549 120732219.18049      -509.14149        50.000  
  22646356.06249 119007403.33249      4259.56249        50.000  
 16 04 02 14 17 22.1000000  0  4G04G16G07G26                                    
  23523421.54749 123616413.73449      9992.72349        50.000  
  21244190.97749 111638976.93049     -7382.31249        49.000  
  22974587.28149 120732270.25449      -513.00049        50.000  
  22646275.03149 119006977.49249      4256.62149        50.000  
 16 04 02 14 17 22.2000000  0  4G04G16G07G26                                    
  23523231.42249 123615414.63349      9989.47749        50.000  
  21244331.51649 111639715.47349     -7387.42649        49.000  
  22974597.08649 120732321.80949      -517.73449        50.000  
  22646194.07849 119006552.07049      4252.50449        50.000  
 16 04 02 14 17 22.3000000  0  4G04G16G07G26                                    
  23523041.36749 123614415.79349      9986.94149        50.000  
  21244472.12549 111640454.41849     -7391.51649        49.000  
  22974606.96949 120732373.74249      -521.58249        50.000  
  22646113.18049 119006126.94549      4249.35949        50.000  
 16 04 02 14 17 22.4000000  0  4G04G16G07G26                                    
  23522851.34449 123613417.22349      9984.27349        50.000  
  21244612.84449 111641193.84049     -7396.24649        49.000  
  22974616.93849 120732426.11749      -525.91449        50.000  
  22646032.34449 119005702.17249      4245.93049        50.000  
 16 04 02 14 17 22.5000000  0  4G04G16G07G26                                    
  23522661.36749 123612418.90649      9981.79349        49.000  
  21244753.62549 111641933.67249     -7400.40649        49.000  
  22974626.96949 120732478.88749      -529.80949        50.000  
  22645951.57049 119005277.70349      4242.97749        50.000  
 16 04 02 14 17 22.6000000  0  4G04G16G07G26                                    
  23522471.43849 123611420.82049      9979.36749        49.000  
  21244894.49249 111642673.92249     -7404.62149        49.000  
  22974637.08649 120732532.03549      -533.69149        50.000  
  22645870.85249 119004853.55549      4239.80949        50.000  
 16 04 02 14 17 22.7000000  0  4G04G16G07G26                                    
  23522281.58649 123610423.07049      9976.03549        50.000  
  21245035.45349 111643414.65649     -7409.40249        49.000  
  22974647.28149 120732585.65249      -538.30549        50.000  
  22645790.21149 119004429.78549      4235.95349        50.000  
 16 04 02 14 17 22.8000000  0  4G04G16G07G26                                    
  23522091.76649 123609425.57449      9973.57849        50.000  
  21245176.49249 111644155.84049     -7413.89149        49.000  
  22974657.56249 120732639.68849      -542.35249        50.000  
  22645709.64149 119004006.35549      4232.76649        50.000  
 16 04 02 14 17 22.9000000  0  4G04G16G07G26                                    
  23521901.97749 123608428.23849      9971.93049        50.000  
  21245317.59449 111644897.35949     -7417.22349        49.000  
  22974667.89849 120732694.03149      -545.53549        50.000  
  22645629.10249 119003583.14549      4230.37149        50.000  
 16 04 02 14 17 23.0000000  0  4G04G16G07G26                                    
  23521712.25849 123607431.27049      9968.23449        50.000  
  21245458.80549 111645639.41849     -7422.62949        49.000  
  22974678.34449 120732748.88349      -550.78149        50.000  
  22645548.65649 119003160.37549      4225.97749        50.000  
 16 04 02 14 17 23.1000000  0  4G04G16G07G26                                    
  23521522.58649 123606434.52049      9966.18049        50.000  
  21245600.08649 111646381.86749     -7426.53949        49.000  
  22974688.84449 120732804.10249      -554.25049        50.000  
  22645468.25849 119002737.89149      4223.23049        50.000  
 16 04 02 14 17 23.2000000  0  4G04G16G07G26                                    
  23521332.95349 123605438.02749      9963.59449        50.000  
  21245741.46149 111647124.74649     -7430.78549        49.000  
  22974699.43049 120732859.71949      -558.26649        50.000  
  22645387.91449 119002315.71949      4220.12149        50.000  
 16 04 02 14 17 23.3000000  0  4G04G16G07G26                                    
  23521143.39149 123604441.80149      9960.78549        50.000  
  21245882.91449 111647868.07049     -7435.26249        49.000  
  22974710.09449 120732915.75449      -562.48849        50.000  
  22645307.64149 119001893.88749      4216.70749        50.000  
 16 04 02 14 17 23.4000000  0  4G04G16G07G26                                    
  23520953.87549 123603445.87949      9957.88349        50.000  
  21246024.44549 111648611.87149     -7440.05949        49.000  
  22974720.84449 120732972.25049      -567.10549        50.000  
  22645227.44549 119001472.43449      4212.93449        50.000  
 16 04 02 14 17 23.5000000  0  4G04G16G07G26                                    
  23520764.39149 123602450.24249      9954.63349        50.000  
  21246166.07849 111649356.13749     -7444.95349        49.000  
  22974731.68049 120733029.16849      -571.67249        50.000  
  22645147.31249 119001051.32849      4209.16049        50.000  
 16 04 02 14 17 23.6000000  0  4G04G16G07G26                                    
  23520574.97749 123601454.85949      9952.43849        50.000  
  21246307.78149 111650100.82849     -7448.95349        49.000  
  22974742.58649 120733086.48849      -575.27749        50.000  
  22645067.23449 119000630.53949      4206.27349        50.000  
 16 04 02 14 17 23.7000000  0  4G04G16G07G26                                    
  23520385.62549 123600459.76249      9949.41049        50.000  
  21246449.57849 111650845.96949     -7453.61349        49.000  
  22974753.57849 120733144.23049      -579.65249        50.000  
  22644987.23449 119000210.10249      4202.53149        50.000  
 16 04 02 14 17 23.8000000  0  4G04G16G07G26                                    
  23520196.31249 123599464.94949      9946.73449        49.000  
  21246591.46149 111651591.57849     -7458.12549        49.000  
  22974764.64849 120733202.42649      -584.07049        50.000  
  22644907.28949 118999790.02049      4199.10549        50.000  
 16 04 02 14 17 23.9000000  0  4G04G16G07G26                                    
  23520007.07849 123598470.45749      9943.46549        50.000  
  21246733.43849 111652337.68849     -7463.20749        49.000  
  22974775.82049 120733261.07849      -588.75849        50.000  
  22644827.42249 118999370.32849      4195.09849        50.000  
 16 04 02 14 17 24.0000000  0  4G04G16G07G26                                    
  23519817.87549 123597476.18449      9941.35549        49.000  
  21246875.50049 111653084.18449     -7467.07449        49.000  
  22974787.04749 120733320.09849      -592.41449        50.000  
  22644747.61749 118998950.92649      4192.25849        50.000  
 16 04 02 14 17 24.1000000  0  4G04G16G07G26                                    
  23519628.70349 123596482.13349      9939.11349        50.000  
  21247017.62549 111653831.06649     -7470.80149        49.000  
  22974798.35249 120733379.47749      -595.91849        50.000  
  22644667.85949 118998531.79349      4189.71549        50.000  
 16 04 02 14 17 24.2000000  0  4G04G16G07G26                                    
  23519439.59449 123595488.36349      9936.43449        50.000  
  21247159.83649 111654578.41449     -7475.37949        49.000  
  22974809.73449 120733439.29349      -600.21549        50.000  
  22644588.15649 118998113.02349      4186.15649        50.000  
 16 04 02 14 17 24.3000000  0  4G04G16G07G26                                    
  23519250.53949 123594494.86349      9933.49249        50.000  
  21247302.14149 111655326.21149     -7480.07049        49.000  
  22974821.19549 120733499.52749      -604.52749        50.000  
  22644508.53149 118997694.58649      4182.59849        50.000  
 16 04 02 14 17 24.4000000  0  4G04G16G07G26                                    
  23519061.53949 123593501.62949      9930.94149        50.000  
  21247444.52349 111656074.44949     -7484.37549        49.000  
  22974832.73449 120733560.17649      -608.63349        50.000  
  22644428.97749 118997276.49249      4179.26649        50.000  
 16 04 02 14 17 24.5000000  0  4G04G16G07G26                                    
  23518872.56249 123592508.62549      9928.75849        50.000  
  21247586.98449 111656823.07449     -7488.18449        49.000  
  22974844.35249 120733621.19949      -612.30549        50.000  
  22644349.46949 118996858.68049      4176.47749        50.000  
 16 04 02 14 17 24.6000000  0  4G04G16G07G26                                    
  23518683.64149 123591515.86349      9926.18049        50.000  
  21247729.52349 111657572.13749     -7492.57449        49.000  
  22974856.03949 120733682.60949      -616.30549        50.000  
  22644270.02349 118996441.19149      4173.19549        50.000  
 16 04 02 14 17 24.7000000  0  4G04G16G07G26                                    
  23518494.78149 123590523.44149      9922.50049        50.000  
  21247872.16449 111658321.70749     -7497.95749        49.000  
  22974867.80549 120733744.50449      -621.33649        50.000  
  22644190.64849 118996024.09049      4169.00449        50.000  
 16 04 02 14 17 24.8000000  0  4G04G16G07G26                                    
  23518305.99249 123589531.32449      9919.56249        50.000  
  21248014.89149 111659071.74649     -7502.63349        49.000  
  22974879.67249 120733806.85949      -625.77349        50.000  
  22644111.35249 118995607.38749      4165.29749        50.000  
 16 04 02 14 17 24.9000000  0  4G04G16G07G26                                    
  23518117.25049 123588539.39149      9917.77049        50.000  
  21248157.68849 111659822.15249     -7506.26249        49.000  
  22974891.60249 120733869.54349      -629.22349        50.000  
  22644032.10249 118995190.90649      4162.95749        50.000  
 16 04 02 14 17 25.0000000  0  4G04G16G07G26                                    
  23517928.53949 123587547.72349      9915.46549        50.000  
  21248300.57049 111660572.98849     -7510.21949        49.000  
  22974903.60949 120733932.63749      -632.85549        50.000  
  22643952.91449 118994774.77049      4159.92249        50.000  
 16 04 02 14 17 25.1000000  0  4G04G16G07G26                                    
  23517739.87549 123586556.29349      9912.91849        49.000  
  21248443.53149 111661324.25449     -7514.55549        49.000  
  22974915.68849 120733996.11349      -636.89149        50.000  
  22643873.78949 118994358.94949      4156.60549        50.000  
 16 04 02 14 17 25.2000000  0  4G04G16G07G26                                    
  23517551.28149 123585565.20749      9909.57849        49.000  
  21248586.58649 111662076.01649     -7519.65249        49.000  
  22974927.85949 120734060.08249      -641.77349        50.000  
  22643794.73449 118993943.52349      4152.66049        50.000  
 16 04 02 14 17 25.3000000  0  4G04G16G07G26                                    
  23517362.71149 123584574.34049      9907.14149        49.000  
  21248729.71949 111662828.18049     -7523.73849        49.000  
  22974940.09449 120734124.41049      -645.55949        50.000  
  22643715.73449 118993528.38749      4149.63749        50.000  
 16 04 02 14 17 25.4000000  0  4G04G16G07G26                                    
  23517174.21149 123583583.76249      9904.18849        49.000  
  21248872.94549 111663580.80549     -7528.40649        49.000  
  22974952.42249 120734189.18849      -650.05949        50.000  
  22643636.81249 118993113.60949      4145.91849        50.000  
 16 04 02 14 17 25.5000000  0  4G04G16G07G26                                    
  23516985.75049 123582593.47349      9901.47749        49.000  
  21249016.25849 111664333.91049     -7533.07849        49.000  
  22974964.83649 120734254.39849      -654.33249        50.000  
  22643557.95349 118992699.19549      4142.48849        50.000  
 16 04 02 14 17 25.6000000  0  4G04G16G07G26                                    
  23516797.35249 123581603.42649      9898.95349        49.000  
  21249159.64849 111665087.41449     -7537.18849        49.000  
  22974977.32049 120734319.99649      -658.11749        50.000  
  22643479.14149 118992285.07049      4139.51249        50.000  
 16 04 02 14 17 25.7000000  0  4G04G16G07G26                                    
  23516608.99249 123580613.67649      9895.96149        49.000  
  21249303.12549 111665841.38749     -7541.91049        49.000  
  22974989.89149 120734386.03549      -662.62949        50.000  
  22643400.40649 118991871.33649      4135.65249        50.000  
 16 04 02 14 17 25.8000000  0  4G04G16G07G26                                    
  23516420.70349 123579624.19549      9893.32449        49.000  
  21249446.68849 111666595.82049     -7546.39849        49.000  
  22975002.53949 120734452.50449      -666.82049        50.000  
  22643321.73449 118991457.92249      4132.39549        50.000  
 16 04 02 14 17 25.9000000  0  4G04G16G07G26                                    
  23516232.46149 123578634.99649      9890.41049        49.000  
  21249590.33649 111667350.67649     -7550.81249        49.000  
  22975015.26649 120734519.38749      -671.24249        50.000  
  22643243.12549 118991044.85549      4128.77349        50.000  
 16 04 02 14 17 26.0000000  0  4G04G16G07G26                                    
  23516044.28149 123577646.08649      9887.61749        49.000  
  21249734.07049 111668106.02749     -7555.48849        49.000  
  22975028.07049 120734586.70749      -675.38349        50.000  
  22643164.59449 118990632.14149      4125.47349        50.000  
 16 04 02 14 17 26.1000000  0  4G04G16G07G26                                    
  23515856.14149 123576657.41449      9885.22749        50.000  
  21249877.88349 111668861.77749     -7559.59049        49.000  
  22975040.96149 120734654.42649      -679.47749        50.000  
  22643086.11749 118990219.73849      4122.28549        50.000  
 16 04 02 14 17 26.2000000  0  4G04G16G07G26                                    
  23515668.04749 123575669.01249      9882.59049        50.000  
  21250021.78149 111669617.96549     -7563.94549        49.000  
  22975053.92249 120734722.53549      -683.43049        50.000  
  22643007.69549 118989807.66449      4119.02349        50.000  
 16 04 02 14 17 26.3000000  0  4G04G16G07G26                                    
  23515480.00849 123574680.89149      9879.79749        50.000  
  21250165.76649 111670374.60949     -7568.50449        49.000  
  22975066.96149 120734791.08249      -687.61749        50.000  
  22642929.34449 118989395.94149      4115.50849        50.000  
 16 04 02 14 17 26.4000000  0  4G04G16G07G26                                    
  23515292.02349 123573693.02749      9877.12949        50.000  
  21250309.82849 111671131.69549     -7572.87549        49.000  
  22975080.08649 120734860.04349      -691.74249        50.000  
  22642851.05549 118988984.54749      4112.22749        50.000  
 16 04 02 14 17 26.5000000  0  4G04G16G07G26                                    
  23515104.09449 123572705.43049      9874.70749        50.000  
  21250453.98449 111671889.21149     -7577.08649        49.000  
  22975093.28949 120734929.42249      -695.84849        50.000  
  22642772.82849 118988573.49249      4109.03949        50.000  
 16 04 02 14 17 26.6000000  0  4G04G16G07G26                                    
  23514916.19549 123571718.02349      9872.59449        50.000  
  21250598.20349 111672647.09849     -7580.89149        49.000  
  22975106.55549 120734999.12549      -699.19949        50.000  
  22642694.65649 118988162.68049      4106.40649        50.000  
 16 04 02 14 17 26.7000000  0  4G04G16G07G26                                    
  23514728.35949 123570730.92649      9869.55149        49.000  
  21250742.51649 111673405.46549     -7585.72349        49.000  
  22975119.90649 120735069.29349      -703.80149        50.000  
  22642616.55549 118987752.25049      4102.68049        50.000  
 16 04 02 14 17 26.8000000  0  4G04G16G07G26                                    
  23514540.57049 123569744.10249      9866.87949        50.000  
  21250886.91449 111674164.27749     -7590.26649        49.000  
  22975133.34449 120735139.87149      -708.00849        50.000  
  22642538.50049 118987342.15649      4099.23449        50.000  
 16 04 02 14 17 26.9000000  0  4G04G16G07G26                                    
  23514352.81249 123568757.50449      9864.41849        50.000  
  21251031.38349 111674923.48449     -7594.19149        49.000  
  22975146.84449 120735210.82449      -711.77049        50.000  
  22642460.52349 118986932.36349      4096.16849        50.000  
 16 04 02 14 17 27.0000000  0  4G04G16G07G26                                    
  23514165.11749 123567771.14849      9862.17249        49.000  
  21251175.93849 111675683.11349     -7598.24249        49.000  
  22975160.42249 120735282.17649      -715.64549        50.000  
  22642382.59449 118986522.87149      4093.22349        50.000  
 16 04 02 14 17 27.1000000  0  4G04G16G07G26                                    
  23513977.46149 123566785.07849      9859.26249        50.000  
  21251320.57849 111676443.20349     -7602.94549        49.000  
  22975174.08649 120735353.96149      -720.06649        50.000  
  22642304.74249 118986113.74249      4089.62149        50.000  
 16 04 02 14 17 27.2000000  0  4G04G16G07G26                                    
  23513789.85949 123565799.23049      9857.07449        50.000  
  21251465.28949 111677203.68849     -7606.85249        49.000  
  22975187.81249 120735426.10949      -723.59049        50.000  
  22642226.94549 118985704.89549      4086.87149        50.000  
 16 04 02 14 17 27.3000000  0  4G04G16G07G26                                    
  23513602.31249 123564813.66049      9854.29749        50.000  
  21251610.09449 111677964.62149     -7611.34849        49.000  
  22975201.62549 120735498.68449      -727.87549        50.000  
  22642149.21149 118985296.39549      4083.31249        50.000  
 16 04 02 14 17 27.4000000  0  4G04G16G07G26                                    
  23513414.82049 123563828.36749      9851.67249        49.000  
  21251754.97749 111678726.00049     -7615.77049        49.000  
  22975215.51649 120735571.67649      -731.96149        50.000  
  22642071.53149 118984888.23049      4080.04749        50.000  
 16 04 02 14 17 27.5000000  0  4G04G16G07G26                                    
  23513227.37549 123562843.37549      9848.20349        49.000  
  21251899.95349 111679487.86349     -7620.86349        49.000  
  22975229.49249 120735645.12549      -736.90649        50.000  
  22641993.93049 118984480.44149      4075.84449        50.000  
 16 04 02 14 17 27.6000000  0  4G04G16G07G26                                    
  23513040.00049 123561858.70749      9845.18449        49.000  
  21252045.02349 111680250.21949     -7625.79349        49.000  
  22975243.55549 120735719.04349      -741.46149        50.000  
  22641916.40649 118984073.04749      4072.12149        50.000  
 16 04 02 14 17 27.7000000  0  4G04G16G07G26                                    
  23512852.68849 123560874.29749      9842.34849        50.000  
  21252190.18049 111681013.00449     -7630.23049        49.000  
  22975257.70349 120735793.36349      -745.67649        50.000  
  22641838.93849 118983665.95749      4068.85949        50.000  
 16 04 02 14 17 27.8000000  0  4G04G16G07G26                                    
  23512665.41449 123559890.19149      9839.42249        49.000  
  21252335.42249 111681776.26249     -7634.81649        49.000  
  22975271.93049 120735868.13749      -750.02049        50.000  
  22641761.53149 118983259.25449      4065.23049        50.000  
 16 04 02 14 17 27.9000000  0  4G04G16G07G26                                    
  23512478.18849 123558906.32849      9837.21549        50.000  
  21252480.74249 111682539.94149     -7638.80949        49.000  
  22975286.22749 120735943.30149      -753.69949        50.000  
  22641684.19549 118982852.85949      4062.29349        50.000  
 16 04 02 14 17 28.0000000  0  4G04G16G07G26                                    
  23512291.00849 123557922.70749      9834.81249        49.000  
  21252626.14849 111683304.03549     -7642.91449        49.000  
  22975300.60949 120736018.85249      -757.65249        50.000  
  22641606.92249 118982446.77749      4059.20349        50.000  
 16 04 02 14 17 28.1000000  0  4G04G16G07G26                                    
  23512103.89149 123556939.37149      9831.90249        50.000  
  21252771.64149 111684068.59049     -7647.53549        49.000  
  22975315.07049 120736094.83249      -761.98049        50.000  
  22641529.71149 118982041.03949      4055.64549        50.000  
 16 04 02 14 17 28.2000000  0  4G04G16G07G26                                    
  23511916.82849 123555956.35549      9828.77049        49.000  
  21252917.22749 111684833.63349     -7652.35549        49.000  
  22975329.61749 120736171.28949      -766.63349        50.000  
  22641452.57049 118981635.68849      4051.91449        50.000  
 16 04 02 14 17 28.3000000  0  4G04G16G07G26                                    
  23511729.80549 123554973.55549      9826.60249        49.000  
  21253062.88349 111685599.07049     -7656.44149        49.000  
  22975344.23449 120736248.10549      -770.27349        50.000  
  22641375.49249 118981230.61749      4049.01249        50.000  
 16 04 02 14 17 28.4000000  0  4G04G16G07G26                                    
  23511542.84449 123553991.07049      9823.24649        50.000  
  21253208.63349 111686364.98049     -7661.23849        49.000  
  22975358.93849 120736325.37549      -775.02049        50.000  
  22641298.48449 118980825.93449      4044.98849        50.000  
 16 04 02 14 17 28.5000000  0  4G04G16G07G26                                    
  23511355.93049 123553008.82449      9821.09049        50.000  
  21253354.46149 111687131.32849     -7665.40249        49.000  
  22975373.71949 120736403.03949      -778.73849        50.000  
  22641221.53949 118980421.55949      4042.07849        50.000  
 16 04 02 14 17 28.6000000  0  4G04G16G07G26                                    
  23511169.05549 123552026.79349      9819.09049        50.000  
  21253500.35949 111687898.05149     -7669.08649        49.000  
  22975388.57049 120736481.07049      -782.32049        50.000  
  22641144.64149 118980017.46149      4039.37949        50.000  
 16 04 02 14 17 28.7000000  0  4G04G16G07G26                                    
  23510982.24249 123551045.09449      9815.50849        50.000  
  21253646.35949 111688665.27049     -7674.21949        49.000  
  22975403.50849 120736559.57049      -787.17649        50.000  
  22641067.82049 118979613.76249      4035.22749        50.000  
 16 04 02 14 17 28.8000000  0  4G04G16G07G26                                    
  23510795.47749 123550063.64149      9813.07049        50.000  
  21253792.43049 111689432.91049     -7678.44549        49.000  
  22975418.51649 120736638.45349      -791.10549        50.000  
  22640991.05549 118979210.35949      4032.22349        50.000  
 16 04 02 14 17 28.9000000  0  4G04G16G07G26                                    
  23510608.77349 123549082.43449      9810.48849        50.000  
  21253938.59449 111690200.99249     -7682.86349        49.000  
  22975433.60949 120736717.76249      -795.18849        50.000  
  22640914.35249 118978807.30149      4028.81649        50.000  
 16 04 02 14 17 29.0000000  0  4G04G16G07G26                                    
  23510422.11749 123548101.57449      9807.30149        49.000  
  21254084.84449 111690969.56649     -7687.77749        49.000  
  22975448.78949 120736797.53549      -799.76649        50.000  
  22640837.73449 118978404.62949      4025.11349        50.000  
 16 04 02 14 17 29.1000000  0  4G04G16G07G26                                    
  23510235.50049 123547120.87549      9805.52049        50.000  
  21254231.16449 111691738.48849     -7691.23449        49.000  
  22975464.02349 120736877.63349      -803.12549        50.000  
  22640761.15649 118978002.20349      4022.58649        50.000  
 16 04 02 14 17 29.2000000  0  4G04G16G07G26                                    
  23510048.92249 123546140.42649      9803.23049        50.000  
  21254377.56249 111692507.82849     -7695.29749        49.000  
  22975479.34449 120736958.12949      -807.00049        50.000  
  22640684.63349 118977600.08649      4019.59849        50.000  
 16 04 02 14 17 29.3000000  0  4G04G16G07G26                                    
  23509862.40649 123545160.23449      9800.56649        50.000  
  21254524.04749 111693277.59849     -7699.59849        49.000  
  22975494.73449 120737039.01649      -810.96949        50.000  
  22640608.18049 118977198.29749      4016.25849        50.000  
 16 04 02 14 17 29.4000000  0  4G04G16G07G26                                    
  23509675.94549 123544180.35549      9797.32849        50.000  
  21254670.63349 111694047.85949     -7704.70349        49.000  
  22975510.21949 120737120.36749      -815.73449        50.000  
  22640531.79749 118976796.88349      4012.33249        50.000  
 16 04 02 14 17 29.5000000  0  4G04G16G07G26                                    
  23509489.53149 123543200.78149      9794.16049        49.000  
  21254817.29749 111694818.58649     -7709.50849        49.000  
  22975525.78949 120737202.16849      -820.23449        50.000  
  22640455.47749 118976395.83249      4008.69949        50.000  
 16 04 02 14 17 29.6000000  0  4G04G16G07G26                                    
  23509303.17249 123542221.45349      9791.77349        49.000  
  21254964.04749 111695589.73849     -7713.69549        49.000  
  22975541.43049 120737284.36749      -824.22349        50.000  
  22640379.21949 118975995.10249      4005.52749        50.000  
 16 04 02 14 17 29.7000000  0  4G04G16G07G26                                    
  23509116.85949 123541242.39149      9789.16849        49.000  
  21255110.87549 111696361.33649     -7718.03549        49.000  
  22975557.14149 120737366.98049      -828.30949        50.000  
  22640303.02349 118975594.70749      4002.19149        50.000  
 16 04 02 14 17 29.8000000  0  4G04G16G07G26                                    
  23508930.59449 123540263.53949      9787.06649        49.000  
  21255257.77349 111697133.30149     -7721.68449        49.000  
  22975572.93049 120737449.94549      -831.83249        50.000  
  22640226.89149 118975194.59049      3999.47349        50.000  
 16 04 02 14 17 29.9000000  0  4G04G16G07G26                                    
  23508744.36749 123539285.00049      9783.81249        49.000  
  21255404.76649 111697905.77349     -7726.78949        49.000  
  22975588.80549 120737533.37949      -836.55149        50.000  
  22640150.82049 118974794.84849      3995.61349        50.000  
 16 04 02 14 17 30.0000000  0  4G04G16G07G26                                    
  23508558.21149 123538306.73049      9781.08249        49.000  
  21255551.83649 111698678.66049     -7731.08649        49.000  
  22975604.75849 120737617.20749      -840.61349        50.000  
  22640074.81249 118974395.43049      3992.32449        50.000  
 16 04 02 14 17 30.1000000  0  4G04G16G07G26                                    
  23508372.11749 123537328.77349      9778.18049        49.000  
  21255699.00849 111699452.03549     -7735.71949        49.000  
  22975620.79749 120737701.50849      -845.02749        50.000  
  22639998.87549 118973996.39849      3988.63749        50.000  
 16 04 02 14 17 30.2000000  0  4G04G16G07G26                                    
  23508186.05549 123536351.02349      9775.83249        49.000  
  21255846.25049 111700225.81649     -7739.94149        49.000  
  22975636.90649 120737786.18849      -849.06649        50.000  
  22639923.00849 118973597.66049      3985.52349        50.000  
 16 04 02 14 17 30.3000000  0  4G04G16G07G26                                    
  23508000.05549 123535373.60549      9772.82849        49.000  
  21255993.58649 111701000.07849     -7744.68049        49.000  
  22975653.10949 120737871.31249      -853.41049        50.000  
  22639847.20349 118973199.29349      3981.94949        50.000  
 16 04 02 14 17 30.4000000  0  4G04G16G07G26                                    
  23507814.09449 123534396.40649      9770.46949        49.000  
  21256140.99249 111701774.74249     -7748.71949        49.000  
  22975669.37549 120737956.82049      -857.30949        50.000  
  22639771.44549 118972801.22749      3978.91049        50.000  
 16 04 02 14 17 30.5000000  0  4G04G16G07G26                                    
  23507628.20349 123533419.53949      9767.08649        50.000  
  21256288.50049 111702549.89849     -7753.71149        49.000  
  22975685.73449 120738042.79749      -862.09049        50.000  
  22639695.77349 118972403.55149      3974.92249        50.000  
 16 04 02 14 17 30.6000000  0  4G04G16G07G26                                    
  23507442.35249 123532442.88349      9765.26649        50.000  
  21256436.09449 111703325.44949     -7757.43449        49.000  
  22975702.16449 120738129.13349      -865.38349        50.000  
  22639620.14849 118972006.15649      3972.35249        50.000  
 16 04 02 14 17 30.7000000  0  4G04G16G07G26                                    
  23507256.54749 123531466.47749      9762.54349        50.000  
  21256583.75849 111704101.42649     -7761.86349        49.000  
  22975718.67249 120738215.87949      -869.62949        50.000  
  22639544.58649 118971609.08249      3969.04349        50.000  
 16 04 02 14 17 30.8000000  0  4G04G16G07G26                                    
  23507070.79749 123530490.35949      9759.93049        49.000  
  21256731.50049 111704877.84849     -7766.18449        49.000  
  22975735.26649 120738303.04749      -873.82049        50.000  
  22639469.08649 118971212.34449      3965.65649        50.000  
 16 04 02 14 17 30.9000000  0  4G04G16G07G26                                    
  23506885.08649 123529514.48049      9757.21949        50.000  
  21256879.33649 111705654.70349     -7770.61349        49.000  
  22975751.93049 120738390.60949      -877.88749        50.000  
  22639393.65649 118970815.94549      3962.25849        50.000  
 16 04 02 14 17 31.0000000  0  4G04G16G07G26                                    
  23506699.43849 123528538.89849      9754.23449        50.000  
  21257027.24249 111706432.01249     -7775.16049        49.000  
  22975768.67249 120738478.61349      -882.33649        50.000  
  22639318.28949 118970419.88349      3958.84449        50.000  
 16 04 02 14 17 31.1000000  0  4G04G16G07G26                                    
  23506513.84449 123527563.63349      9751.14549        50.000  
  21257175.25849 111707209.80149     -7780.01649        49.000  
  22975785.50849 120738567.07449      -886.96149        50.000  
  22639242.99249 118970024.21149      3954.90249        50.000  
 16 04 02 14 17 31.2000000  0  4G04G16G07G26                                    
  23506328.30549 123526588.61749      9748.64849        50.000  
  21257323.35249 111707988.02749     -7784.30149        49.000  
  22975802.42249 120738655.93449      -890.77749        50.000  
  22639167.75849 118969628.85249      3951.86349        50.000  
 16 04 02 14 17 31.3000000  0  4G04G16G07G26                                    
  23506142.80549 123525613.87149      9745.80949        50.000  
  21257471.52349 111708766.68849     -7788.75049        49.000  
  22975819.41449 120738745.21949      -895.16849        50.000  
  22639092.58649 118969233.83249      3948.34849        50.000  
 16 04 02 14 17 31.4000000  0  4G04G16G07G26                                    
  23505957.36749 123524639.39149      9743.37549        50.000  
  21257619.78949 111709545.79349     -7793.13349        49.000  
  22975836.47749 120738834.89549      -898.99249        50.000  
  22639017.48449 118968839.13749      3945.29349        50.000  
 16 04 02 14 17 31.5000000  0  4G04G16G07G26                                    
  23505771.96949 123523665.15249      9741.02049        50.000  
  21257768.12549 111710325.30549     -7797.11749        49.000  
  22975853.62549 120738924.98849      -903.01649        50.000  
  22638942.43849 118968444.76249      3942.13749        50.000  
 16 04 02 14 17 31.6000000  0  4G04G16G07G26                                    
  23505586.63349 123522691.17249      9738.31249        50.000  
  21257916.54749 111711105.24649     -7801.43849        49.000  
  22975870.84449 120739015.46949      -906.97749        50.000  
  22638867.46149 118968050.70749      3938.84449        50.000  
 16 04 02 14 17 31.7000000  0  4G04G16G07G26                                    
  23505401.35249 123521717.46549      9735.55149        50.000  
  21258065.04749 111711885.63749     -7805.94149        49.000  
  22975888.14149 120739106.37549      -911.32849        50.000  
  22638792.53949 118967656.99249      3935.36349        50.000  
 16 04 02 14 17 31.8000000  0  4G04G16G07G26                                    
  23505216.11749 123520744.07449      9732.44549        50.000  
  21258213.65649 111712666.52349     -7810.91449        49.000  
  22975905.52349 120739197.75449      -916.03149        50.000  
  22638717.69549 118967263.65649      3931.65649        50.000  
 16 04 02 14 17 31.9000000  0  4G04G16G07G26                                    
  23505030.93849 123519770.91849      9730.26649        50.000  
  21258362.32849 111713447.79749     -7814.78149        49.000  
  22975922.98449 120739289.48849      -919.47349        50.000  
  22638642.89849 118966870.61749      3928.74649        50.000  
 16 04 02 14 17 32.0000000  0  4G04G16G07G26                                    
  23504845.80549 123518798.03549      9727.28949        49.000  
  21258511.08649 111714229.52749     -7819.44949        49.000  
  22975940.52349 120739381.66049      -923.98049        50.000  
  22638568.18049 118966477.93049      3925.12949        50.000  
 16 04 02 14 17 32.1000000  0  4G04G16G07G26                                    
  23504660.71949 123517825.42249      9724.52049        50.000  
  21258659.93049 111715011.69549     -7823.89849        49.000  
  22975958.14849 120739474.25049      -928.14549        50.000  
  22638493.50849 118966085.56249      3921.83649        50.000  
 16 04 02 14 17 32.2000000  0  4G04G16G07G26                                    
  23504475.68049 123516853.02749      9722.65649        50.000  
  21258808.84449 111715794.25849     -7827.50049        49.000  
  22975975.83649 120739567.20749      -931.52749        50.000  
  22638418.90649 118965693.49249      3919.19149        50.000  
 16 04 02 14 17 32.3000000  0  4G04G16G07G26                                    
  23504290.68849 123515880.91449      9719.50049        50.000  
  21258957.84449 111716577.27749     -7832.23849        49.000  
  22975993.60949 120739660.58649      -936.08649        50.000  
  22638344.36749 118965301.77049      3915.48449        50.000  
 16 04 02 14 17 32.4000000  0  4G04G16G07G26                                    
  23504105.76649 123514909.12949      9716.46149        50.000  
  21259106.93849 111717360.78549     -7837.12949        49.000  
  22976011.46949 120739754.44149      -940.68049        50.000  
  22638269.89149 118964910.44149      3911.66449        50.000  
 16 04 02 14 17 32.5000000  0  4G04G16G07G26                                    
  23503920.87549 123513937.55549      9714.03949        50.000  
  21259256.11749 111718144.68849     -7841.23449        49.000  
  22976029.39849 120739848.66049      -944.50449        50.000  
  22638195.47749 118964519.39149      3908.58249        50.000  
 16 04 02 14 17 32.6000000  0  4G04G16G07G26                                    
  23503736.05549 123512966.31649      9711.19549        50.000  
  21259405.38349 111718929.08649     -7845.87549        49.000  
  22976047.41449 120739943.35949      -948.97749        50.000  
  22638121.14849 118964128.73849      3904.94149        50.000  
 16 04 02 14 17 32.7000000  0  4G04G16G07G26                                    
  23503551.27349 123511995.29349      9708.64549        50.000  
  21259554.71949 111719713.87949     -7849.98849        49.000  
  22976065.50849 120740038.40649      -952.77349        50.000  
  22638046.85949 118963738.36349      3901.97349        50.000  
 16 04 02 14 17 32.8000000  0  4G04G16G07G26                                    
  23503366.56249 123511024.60949      9705.25049        50.000  
  21259704.15649 111720499.18849     -7855.09849        49.000  
  22976083.68849 120740133.96549      -957.82049        50.000  
  22637972.65649 118963348.40649      3897.82049        50.000  
 16 04 02 14 17 32.9000000  0  4G04G16G07G26                                    
  23503181.90649 123510054.22749      9702.27049        50.000  
  21259853.68849 111721284.95749     -7859.84449        49.000  
  22976101.96149 120740229.96149      -962.19549        50.000  
  22637898.51649 118962958.80949      3894.13749        50.000  
 16 04 02 14 17 33.0000000  0  4G04G16G07G26                                    
  23502997.30549 123509084.11749      9699.68449        50.000  
  21260003.29749 111722071.17649     -7864.22749        49.000  
  22976120.30549 120740326.37149      -966.41449        50.000  
  22637824.44549 118962569.54749      3890.83249        50.000  
 16 04 02 14 17 33.1000000  0  4G04G16G07G26                                    
  23502812.73449 123508114.20749      9697.77049        50.000  
  21260152.98449 111722857.76249     -7867.86749        49.000  
  22976138.71949 120740423.12549      -969.80549        50.000  
  22637750.42249 118962180.54349      3888.36349        50.000  
 16 04 02 14 17 33.2000000  0  4G04G16G07G26                                    
  23502628.21949 123507144.58649      9694.68449        50.000  
  21260302.75049 111723644.82049     -7872.68449        49.000  
  22976157.21949 120740520.32449      -974.19949        50.000  
  22637676.46949 118961791.91449      3884.60549        50.000  
 16 04 02 14 17 33.3000000  0  4G04G16G07G26                                    
  23502443.75849 123506175.24249      9691.89849        50.000  
  21260452.60949 111724432.31249     -7877.04349        49.000  
  22976175.79749 120740617.94949      -978.48849        50.000  
  22637602.57849 118961403.61749      3881.17249        50.000  
 16 04 02 14 17 33.4000000  0  4G04G16G07G26                                    
  23502259.35249 123505206.16049      9689.48049        50.000  
  21260602.54749 111725220.25849     -7881.46149        49.000  
  22976194.45349 120740715.98049      -982.36749        50.000  
  22637528.75849 118961015.65249      3877.99649        50.000  
 16 04 02 14 17 33.5000000  0  4G04G16G07G26                                    
  23502074.96949 123504237.28549      9687.25449        50.000  
  21260752.55549 111726008.55549     -7885.01649        49.000  
  22976213.17249 120740814.35549      -985.97349        50.000  
  22637454.97749 118960627.95749      3875.22349        50.000  
 16 04 02 14 17 33.6000000  0  4G04G16G07G26                                    
  23501890.66449 123503268.73449      9684.17649        50.000  
  21260902.66449 111726797.36749     -7890.04349        49.000  
  22976231.98449 120740913.21549      -990.69149        50.000  
  22637381.27349 118960240.66049      3871.39549        50.000  
 16 04 02 14 17 33.7000000  0  4G04G16G07G26                                    
  23501706.41449 123502300.43449      9681.70349        50.000  
  21261052.85249 111727586.59449     -7894.32849        49.000  
  22976250.86749 120741012.46149      -994.63349        50.000  
  22637307.63349 118959853.66049      3868.28949        50.000  
 16 04 02 14 17 33.8000000  0  4G04G16G07G26                                    
  23501522.19549 123501332.37949      9679.10249        50.000  
  21261203.11749 111728376.23849     -7898.52749        49.000  
  22976269.82849 120741112.10549      -998.72749        50.000  
  22637234.04749 118959466.98849      3865.03149        50.000  
 16 04 02 14 17 33.9000000  0  4G04G16G07G26                                    
  23501338.03149 123500364.60549      9676.18049        50.000  
  21261353.46949 111729166.33249     -7903.03149        49.000  
  22976288.88349 120741212.18449     -1002.92249        50.000  
  22637160.53149 118959080.66449      3861.50049        50.000  
 16 04 02 14 17 34.0000000  0  4G04G16G07G26                                    
  23501153.91449 123499397.07849      9673.84449        50.000  
  21261503.89849 111729956.85249     -7907.14149        49.000  
  22976308.00049 120741312.64549     -1006.77049        50.000  
  22637087.07849 118958694.65249      3858.47349        50.000  
 16 04 02 14 17 34.1000000  0  4G04G16G07G26                                    
  23500969.84449 123498429.82049      9671.05949        50.000  
  21261654.41449 111730747.80949     -7911.67649        49.000  
  22976327.19549 120741413.52749     -1010.95749        50.000  
  22637013.68849 118958308.96549      3855.12149        50.000  
 16 04 02 14 17 34.2000000  0  4G04G16G07G26                                    
  23500785.83649 123497462.84449      9668.41049        50.000  
  21261805.01649 111731539.20749     -7915.98449        49.000  
  22976346.47749 120741514.84849     -1015.37949        50.000  
  22636940.35949 118957923.64149      3851.57049        50.000  
 16 04 02 14 17 34.3000000  0  4G04G16G07G26                                    
  23500601.86749 123496496.09049      9666.01249        50.000  
  21261955.68849 111732331.01249     -7920.10249        49.000  
  22976365.81249 120741616.52049     -1019.07849        50.000  
  22636867.08649 118957538.58649      3848.76249        50.000  
 16 04 02 14 17 34.4000000  0  4G04G16G07G26                                    
  23500417.96149 123495529.67649      9662.59849        50.000  
  21262106.46949 111733123.32849     -7925.21549        49.000  
  22976385.25849 120741718.68449     -1023.89849        50.000  
  22636793.89149 118957153.95749      3844.50849        50.000  
 16 04 02 14 17 34.5000000  0  4G04G16G07G26                                    
  23500234.13349 123494563.58249      9659.35249        50.000  
  21262257.33649 111733916.12949     -7930.15249        49.000  
  22976404.78949 120741821.32449     -1028.75849        50.000  
  22636720.76649 118956769.69949      3840.70349        50.000  
 16 04 02 14 17 34.6000000  0  4G04G16G07G26                                    
  23500050.34449 123493597.77049      9656.52749        50.000  
  21262408.28949 111734709.38749     -7934.73049        49.000  
  22976424.39849 120741924.37949     -1032.80949        50.000  
  22636647.71149 118956385.79349      3837.25849        50.000  
 16 04 02 14 17 34.7000000  0  4G04G16G07G26                                    
  23499866.59449 123492632.16449      9654.48849        50.000  
  21262559.31249 111735503.02049     -7938.50449        49.000  
  22976444.08649 120742027.80149     -1036.55949        50.000  
  22636574.71149 118956002.16849      3834.50049        50.000  
 16 04 02 14 17 34.8000000  0  4G04G16G07G26                                    
  23499682.89849 123491666.85949      9651.65249        50.000  
  21262710.43049 111736297.12549     -7943.03549        49.000  
  22976463.84449 120742131.66449     -1040.84449        50.000  
  22636501.77349 118955618.89849      3830.98849        50.000  
 16 04 02 14 17 34.9000000  0  4G04G16G07G26                                    
  23499499.25049 123490701.80549      9649.25049        50.000  
  21262861.62549 111737091.66049     -7947.28949        49.000  
  22976483.68849 120742235.93049     -1044.72349        50.000  
  22636428.90649 118955235.95749      3827.84049        50.000  
 16 04 02 14 17 35.0000000  0  4G04G16G07G26                                    
  23499315.65649 123489737.01649      9646.67249        50.000  
  21263012.89149 111737886.61349     -7951.52049        49.000  
  22976503.60249 120742340.59449     -1048.61749        50.000  
  22636356.09449 118954853.33249      3824.70749        50.000  
 16 04 02 14 17 35.1000000  0  4G04G16G07G26                                    
  23499132.10249 123488772.44149      9644.26649        49.000  
  21263164.24249 111738681.96549     -7955.58249        49.000  
  22976523.59449 120742445.62949     -1052.59449        50.000  
  22636283.33649 118954470.99249      3821.68449        50.000  
 16 04 02 14 17 35.2000000  0  4G04G16G07G26                                    
  23498948.60949 123487808.17649      9641.26649        49.000  
  21263315.68049 111739477.79349     -7960.30149        49.000  
  22976543.67249 120742551.11749     -1056.91049        50.000  
  22636210.65649 118954089.03949      3817.88349        50.000  
 16 04 02 14 17 35.3000000  0  4G04G16G07G26                                    
  23498765.16449 123486844.19149      9638.43049        50.000  
  21263467.20349 111740274.07449     -7964.89149        49.000  
  22976563.82849 120742657.04349     -1061.36749        50.000  
  22636138.03949 118953707.42649      3814.38349        50.000  
 16 04 02 14 17 35.4000000  0  4G04G16G07G26                                    
  23498581.76649 123485880.42649      9636.22349        50.000  
  21263618.79749 111741070.74649     -7968.76249        49.000  
  22976584.05549 120742763.32849     -1065.02349        50.000  
  22636065.47749 118953326.09449      3811.48049        50.000  
 16 04 02 14 17 35.5000000  0  4G04G16G07G26                                    
  23498398.41449 123484916.94149      9633.25449        50.000  
  21263770.48449 111741867.86349     -7973.23049        49.000  
  22976604.35949 120742870.04349     -1069.44549        50.000  
  22635992.97749 118952945.10549      3808.04749        50.000  
 16 04 02 14 17 35.6000000  0  4G04G16G07G26                                    
  23498215.13349 123483953.78149      9630.09849        50.000  
  21263922.27349 111742665.48849     -7978.26649        49.000  
  22976624.75049 120742977.23049     -1074.14149        50.000  
  22635920.55549 118952564.52049      3804.07049        50.000  
 16 04 02 14 17 35.7000000  0  4G04G16G07G26                                    
  23498031.89149 123482990.88749      9627.46149        50.000  
  21264074.13349 111743463.53149     -7982.57049        49.000  
  22976645.22749 120743084.81649     -1078.12149        50.000  
  22635848.18849 118952184.25049      3800.91849        50.000  
 16 04 02 14 17 35.8000000  0  4G04G16G07G26                                    
  23497848.70349 123482028.25849      9624.66449        50.000  
  21264226.08649 111744262.03549     -7987.20349        49.000  
  22976665.78149 120743192.84049     -1082.52349        50.000  
  22635775.89149 118951804.32449      3797.47749        50.000  
 16 04 02 14 17 35.9000000  0  4G04G16G07G26                                    
  23497665.57049 123481065.90649      9621.96949        50.000  
  21264378.11749 111745060.96549     -7991.45749        49.000  
  22976686.41449 120743301.26649     -1086.56249        50.000  
  22635703.66449 118951424.73849      3794.09849        50.000  
 16 04 02 14 17 36.0000000  0  4G04G16G07G26                                    
  23497482.49249 123480103.81649      9619.52749        50.000  
  21264530.22749 111745860.33649     -7995.70749        49.000  
  22976707.12549 120743410.11349     -1090.56249        50.000  
  22635631.49249 118951045.47749      3790.96149        50.000  
 16 04 02 14 17 36.1000000  0  4G04G16G07G26                                    
  23497299.45349 123479141.89149      9617.94549        50.000  
  21264682.40649 111746660.03549     -7998.82449        49.000  
  22976727.89849 120743519.26249     -1093.54349        50.000  
  22635559.36749 118950666.44949      3788.78149        50.000  
 16 04 02 14 17 36.2000000  0  4G04G16G07G26                                    
  23497116.46949 123478180.31249      9614.30149        50.000  
  21264834.68049 111747460.25849     -8004.16049        49.000  
  22976748.76649 120743628.91049     -1098.60549        50.000  
  22635487.32049 118950287.83249      3784.50049        50.000  
 16 04 02 14 17 36.3000000  0  4G04G16G07G26                                    
  23496933.54749 123477219.02349      9611.37549        50.000  
  21264987.04749 111748260.93849     -8008.94549        49.000  
  22976769.71949 120743738.98849     -1103.13749        50.000  
  22635415.33649 118949909.56649      3780.84449        50.000  
 16 04 02 14 17 36.4000000  0  4G04G16G07G26                                    
  23496750.66449 123476257.96149      9609.16049        49.000  
  21265139.48449 111749062.02349     -8012.97349        49.000  
  22976790.73449 120743849.44949     -1106.89149        50.000  
  22635343.41449 118949531.60249      3777.88749        50.000  
 16 04 02 14 17 36.5000000  0  4G04G16G07G26                                    
  23496567.83649 123475297.16849      9606.32449        49.000  
  21265292.00849 111749863.53949     -8017.35549        49.000  
  22976811.83649 120743960.32449     -1111.07049        50.000  
  22635271.55549 118949153.97349      3774.35549        50.000  
 16 04 02 14 17 36.6000000  0  4G04G16G07G26                                    
  23496385.05549 123474336.66049      9603.51649        49.000  
  21265444.61749 111750665.51649     -8021.84449        49.000  
  22976833.01649 120744071.62949     -1115.31649        50.000  
  22635199.75849 118948776.68849      3771.05549        50.000  
 16 04 02 14 17 36.7000000  0  4G04G16G07G26                                    
  23496202.33649 123473376.46149      9600.70349        49.000  
  21265597.32049 111751467.96549     -8026.41849        49.000  
  22976854.28149 120744183.39149     -1119.66449        50.000  
  22635128.03949 118948399.78149      3767.50049        50.000  
 16 04 02 14 17 36.8000000  0  4G04G16G07G26                                    
  23496019.65649 123472416.48849      9598.05149        49.000  
  21265750.10249 111752270.82449     -8030.76649        49.000  
  22976875.62549 120744295.53149     -1123.83649        50.000  
  22635056.37549 118948023.16449      3764.29749        50.000  
 16 04 02 14 17 36.9000000  0  4G04G16G07G26                                    
  23495837.04749 123471456.83649      9595.20349        49.000  
  21265902.96949 111753074.15649     -8035.36349        49.000  
  22976897.04749 120744408.12949     -1128.08249        50.000  
  22634984.78149 118947646.93049      3760.70749        50.000  
 16 04 02 14 17 37.0000000  0  4G04G16G07G26                                    
  23495654.47749 123470497.42249      9592.70749        49.000  
  21266055.91449 111753877.90649     -8039.53949        49.000  
  22976918.54749 120744521.11749     -1132.02749        50.000  
  22634913.24249 118947271.01249      3757.55549        50.000  
 16 04 02 14 17 37.1000000  0  4G04G16G07G26                                    
  23495471.95349 123469538.23449      9590.35949        49.000  
  21266208.93849 111754682.05549     -8043.48849        49.000  
  22976940.12549 120744634.48449     -1135.96949        50.000  
  22634841.76649 118946895.37949      3754.57849        50.000  
 16 04 02 14 17 37.2000000  0  4G04G16G07G26                                    
  23495289.48449 123468579.37549      9587.22749        49.000  
  21266362.05549 111755486.69549     -8048.43049        49.000  
  22976961.78949 120744748.30549     -1140.43049        50.000  
  22634770.35949 118946520.13749      3750.73849        50.000  
 16 04 02 14 17 37.3000000  0  4G04G16G07G26                                    
  23495107.07049 123467620.79349      9584.27049        49.000  
  21266515.25849 111756291.78549     -8052.98449        49.000  
  22976983.53149 120744862.57049     -1144.86349        50.000  
  22634699.02349 118946145.24649      3747.14549        50.000  
 16 04 02 14 17 37.4000000  0  4G04G16G07G26                                    
  23494924.70349 123466662.43049      9582.16849        49.000  
  21266668.53949 111757097.27749     -8056.96549        49.000  
  22977005.34449 120744977.19549     -1148.41849        50.000  
  22634627.73449 118945770.63349      3744.40649        50.000  
 16 04 02 14 17 37.5000000  0  4G04G16G07G26                                    
  23494742.38349 123465704.37149      9579.00449        49.000  
  21266821.90649 111757903.23049     -8061.64849        49.000  
  22977027.24249 120745092.27749     -1153.07449        50.000  
  22634556.52349 118945396.39149      3740.64149        50.000  
 16 04 02 14 17 37.6000000  0  4G04G16G07G26                                    
  23494560.10949 123464746.50449      9577.34049        49.000  
  21266975.34449 111758709.55149     -8065.06649        49.000  
  22977049.20349 120745207.68849     -1156.18449        50.000  
  22634485.35949 118945022.41049      3738.15249        50.000  
 16 04 02 14 17 37.7000000  0  4G04G16G07G26                                    
  23494377.88349 123463788.96149      9574.09049        49.000  
  21267128.87549 111759516.35949     -8070.06649        49.000  
  22977071.25049 120745323.57049     -1160.85549        50.000  
  22634414.26649 118944648.81249      3734.42649        50.000  
 16 04 02 14 17 37.8000000  0  4G04G16G07G26                                    
  23494195.72749 123462831.69549      9571.21549        49.000  
  21267282.49249 111760323.61749     -8074.64849        49.000  
  22977093.38349 120745439.88349     -1165.23849        50.000  
  22634343.23449 118944275.55549      3730.93849        50.000  
 16 04 02 14 17 37.9000000  0  4G04G16G07G26                                    
  23494013.60249 123461874.65649      9568.69149        49.000  
  21267436.18049 111761131.27349     -8078.82049        49.000  
  22977115.58649 120745556.57449     -1169.27749        50.000  
  22634272.26649 118943902.60549      3727.65649        50.000  
 16 04 02 14 17 38.0000000  0  4G04G16G07G26                                    
  23493831.54749 123460917.96549      9565.64149        49.000  
  21267589.96949 111761939.44149     -8083.60249        49.000  
  22977137.88349 120745673.74249     -1173.64549        50.000  
  22634201.37549 118943530.05549      3724.00849        50.000  
 16 04 02 14 17 38.1000000  0  4G04G16G07G26                                    
  23493649.52349 123459961.46149      9563.44949        50.000  
  21267743.82849 111762747.96549     -8087.31649        49.000  
  22977160.25049 120745791.26249     -1177.46149        50.000  
  22634130.53149 118943157.76649      3721.12949        50.000  
 16 04 02 14 17 38.2000000  0  4G04G16G07G26                                    
  23493467.56249 123459005.25049      9560.60549        50.000  
  21267897.77349 111763556.97349     -8092.08249        49.000  
  22977182.70349 120745909.21949     -1181.79349        50.000  
  22634059.75049 118942785.84049      3717.53949        50.000  
 16 04 02 14 17 38.3000000  0  4G04G16G07G26                                    
  23493285.65649 123458049.35549      9557.54749        50.000  
  21268051.81249 111764366.44149     -8096.71149        49.000  
  22977205.23449 120746027.62949     -1186.18449        50.000  
  22633989.04749 118942414.28149      3713.88749        50.000  
 16 04 02 14 17 38.4000000  0  4G04G16G07G26                                    
  23493103.80549 123457093.70349      9554.97749        50.000  
  21268205.93049 111765176.35249     -8101.31249        49.000  
  22977227.83649 120746146.44149     -1190.43449        50.000  
  22633918.39849 118942043.04349      3710.51649        50.000  
 16 04 02 14 17 38.5000000  0  4G04G16G07G26                                    
  23492922.00049 123456138.28149      9552.70349        50.000  
  21268360.12549 111765986.63349     -8104.91449        49.000  
  22977250.51649 120746265.62149     -1194.03549        50.000  
  22633847.80549 118941672.09049      3707.76249        50.000  
 16 04 02 14 17 38.6000000  0  4G04G16G07G26                                    
  23492740.23449 123455183.11349      9550.27349        50.000  
  21268514.39849 111766797.35249     -8109.18849        49.000  
  22977273.27349 120746385.20349     -1197.94549        50.000  
  22633777.28149 118941301.46949      3704.53549        50.000  
 16 04 02 14 17 38.7000000  0  4G04G16G07G26                                    
  23492558.53149 123454228.25449      9547.04749        50.000  
  21268668.76649 111767608.54349     -8114.03949        49.000  
  22977296.11749 120746505.24649     -1202.74649        50.000  
  22633706.82049 118940931.21549      3700.71549        50.000  
 16 04 02 14 17 38.8000000  0  4G04G16G07G26                                    
  23492376.87549 123453273.66849      9544.36349        50.000  
  21268823.21149 111768420.17649     -8118.45349        49.000  
  22977319.03949 120746625.70349     -1206.83649        50.000  
  22633636.43049 118940561.30149      3697.29349        50.000  
 16 04 02 14 17 38.9000000  0  4G04G16G07G26                                    
  23492195.27349 123452319.34049      9542.00449        50.000  
  21268977.74249 111769232.24249     -8122.60949        49.000  
  22977342.03949 120746746.56649     -1210.58649        50.000  
  22633566.10249 118940191.70349      3694.38749        50.000  
 16 04 02 14 17 39.0000000  0  4G04G16G07G26                                    
  23492013.71149 123451365.23449      9539.36349        50.000  
  21269132.35249 111770044.70349     -8126.72349        49.000  
  22977365.10949 120746867.80149     -1214.66849        50.000  
  22633495.82849 118939822.40649      3691.14549        50.000  
 16 04 02 14 17 39.1000000  0  4G04G16G07G26                                    
  23491832.20349 123450411.43449      9536.73449        50.000  
  21269287.04749 111770857.63349     -8131.27749        49.000  
  22977388.26649 120746989.48449     -1218.84049        50.000  
  22633425.62549 118939453.46949      3687.85949        50.000  
 16 04 02 14 17 39.2000000  0  4G04G16G07G26                                    
  23491650.75049 123449457.88749      9533.86349        50.000  
  21269441.82849 111771670.99249     -8135.84049        49.000  
  22977411.50049 120747111.57849     -1223.32049        50.000  
  22633355.48449 118939084.86349      3684.23049        50.000  
 16 04 02 14 17 39.3000000  0  4G04G16G07G26                                    
  23491469.35949 123448504.68049      9530.67649        50.000  
  21269596.70349 111772484.85249     -8140.60549        49.000  
  22977434.81249 120747234.14849     -1227.88349        50.000  
  22633285.41449 118938716.65649      3680.35549        50.000  
 16 04 02 14 17 39.4000000  0  4G04G16G07G26                                    
  23491288.00849 123447551.68849      9528.26249        50.000  
  21269751.64849 111773299.09449     -8144.52749        49.000  
  22977458.21149 120747357.08249     -1231.62949        50.000  
  22633215.39849 118938348.72349      3677.39849        50.000  
 16 04 02 14 17 39.5000000  0  4G04G16G07G26                                    
  23491106.71149 123446598.97349      9525.94149        49.000  
  21269906.68049 111774113.79749     -8148.89149        49.000  
  22977481.68849 120747480.44549     -1235.65649        50.000  
  22633145.44549 118937981.14149      3674.30949        50.000  
 16 04 02 14 17 39.6000000  0  4G04G16G07G26                                    
  23490925.46149 123445646.49249      9523.32449        50.000  
  21270061.78949 111774928.89849     -8153.08249        49.000  
  22977505.23449 120747604.18049     -1239.63349        50.000  
  22633075.55549 118937613.85949      3671.09849        50.000  
 16 04 02 14 17 39.7000000  0  4G04G16G07G26                                    
  23490744.26649 123444694.36749      9519.87149        49.000  
  21270217.00049 111775744.51649     -8158.25049        49.000  
  22977528.87549 120747728.42649     -1244.63349        50.000  
  22633005.74249 118937246.99649      3666.97349        50.000  
 16 04 02 14 17 39.8000000  0  4G04G16G07G26                                    
  23490563.14149 123443742.54749      9516.63349        50.000  
  21270372.28949 111776560.61349     -8163.12949        49.000  
  22977552.60249 120747853.12549     -1249.32849        50.000  
  22632936.00049 118936880.50049      3663.09049        50.000  
 16 04 02 14 17 39.9000000  0  4G04G16G07G26                                    
  23490382.06249 123442790.97749      9514.20749        50.000  
  21270527.67249 111777377.13749     -8167.42649        49.000  
  22977576.40649 120747978.21149     -1253.14849        50.000  
  22632866.32049 118936514.32449      3659.93449        50.000  
 16 04 02 14 17 40.0000000  0  4G04G16G07G26                                    
  23490201.03949 123441839.68449      9511.32849        50.000  
  21270683.13349 111778194.09449     -8171.76649        49.000  
  22977600.28949 120748103.72349     -1257.44949        50.000  
  22632796.70349 118936148.48449      3656.59049        50.000  
 16 04 02 14 17 40.1000000  0  4G04G16G07G26                                    
  23490020.07849 123440888.69949      9508.33649        50.000  
  21270838.68849 111779011.53149     -8176.51649        49.000  
  22977624.25849 120748229.69149     -1261.91849        50.000  
  22632727.16449 118935783.02049      3652.94149        50.000  
 16 04 02 14 17 40.2000000  0  4G04G16G07G26                                    
  23489839.16449 123439937.99649      9505.25449        50.000  
  21270994.32849 111779829.43049     -8181.22349        49.000  
  22977648.31249 120748356.09049     -1266.34449        50.000  
  22632657.68049 118935417.91449      3649.16049        50.000  
 16 04 02 14 17 40.3000000  0  4G04G16G07G26                                    
  23489658.30549 123438987.57849      9502.72749        50.000  
  21271150.05549 111780647.78549     -8185.70349        49.000  
  22977672.44549 120748482.92249     -1270.54349        50.000  
  22632588.26649 118935053.14549      3646.00049        50.000  
 16 04 02 14 17 40.4000000  0  4G04G16G07G26                                    
  23489477.49249 123438037.42249      9499.98849        49.000  
  21271305.85949 111781466.56249     -8190.00449        49.000  
  22977696.66449 120748610.17249     -1274.76249        50.000  
  22632518.91449 118934688.72349      3642.41449        50.000  
 16 04 02 14 17 40.5000000  0  4G04G16G07G26                                    
  23489296.73449 123437087.57049      9497.04349        49.000  
  21271461.75849 111782285.80949     -8194.58649        49.000  
  22977720.96149 120748737.85549     -1279.04749        50.000  
  22632449.63349 118934324.64849      3638.99249        50.000  
 16 04 02 14 17 40.6000000  0  4G04G16G07G26                                    
  23489116.03149 123436137.96549      9494.70749        49.000  
  21271617.73449 111783105.47349     -8198.68049        49.000  
  22977745.33649 120748865.93449     -1282.85249        50.000  
  22632380.42249 118933960.89149      3635.90249        50.000  
 16 04 02 14 17 40.7000000  0  4G04G16G07G26                                    
  23488935.37549 123435188.60549      9492.07449        49.000  
  21271773.78949 111783925.55949     -8202.96549        49.000  
  22977769.78949 120748994.41849     -1287.14149        50.000  
  22632311.25849 118933597.45749      3632.52349        50.000  
 16 04 02 14 17 40.8000000  0  4G04G16G07G26                                    
  23488754.77349 123434239.57049      9488.92649        49.000  
  21271929.94549 111784746.13349     -8207.78149        49.000  
  22977794.32849 120749123.36349     -1291.69949        50.000  
  22632242.17249 118933234.40249      3628.78149        50.000  
 16 04 02 14 17 40.9000000  0  4G04G16G07G26                                    
  23488574.22749 123433290.77749      9486.21549        49.000  
  21272086.17249 111785567.12549     -8212.17249        49.000  
  22977818.93849 120749252.70749     -1295.74649        50.000  
  22632173.14849 118932871.66049      3625.48049        50.000  
 16 04 02 14 17 41.0000000  0  4G04G16G07G26                                    
  23488393.75049 123432342.34849      9482.81649        49.000  
  21272242.50049 111786388.63749     -8217.29749        49.000  
  22977843.64849 120749382.54749     -1300.64849        50.000  
  22632104.20349 118932509.33649      3621.38749        50.000  
 16 04 02 14 17 41.1000000  0  4G04G16G07G26                                    
  23488213.31249 123431394.11749      9480.73049        49.000  
  21272398.89849 111787210.52349     -8221.03549        49.000  
  22977868.42249 120749512.73849     -1304.17249        50.000  
  22632035.30549 118932147.27749      3618.79349        50.000  
 16 04 02 14 17 41.2000000  0  4G04G16G07G26                                    
  23488032.90649 123430446.08649      9479.08649        49.000  
  21272555.36749 111788032.78549     -8224.50449        49.000  
  22977893.26649 120749643.28149     -1307.44149        50.000  
  22631966.46149 118931785.50049      3616.28549        50.000  
 16 04 02 14 17 41.3000000  0  4G04G16G07G26                                    
  23487852.55549 123429498.33249      9476.25449        49.000  
  21272711.93049 111788855.49249     -8228.97749        49.000  
  22977918.18849 120749774.25449     -1311.69949        50.000  
  22631897.68049 118931424.06249      3612.84449        50.000  
 16 04 02 14 17 41.4000000  0  4G04G16G07G26                                    
  23487672.25849 123428550.90249      9472.93449        49.000  
  21272868.57849 111789678.68049     -8233.93849        49.000  
  22977943.19549 120749905.67649     -1316.36349        50.000  
  22631828.97749 118931062.99649      3609.02749        50.000  
 16 04 02 14 17 41.5000000  0  4G04G16G07G26                                    
  23487492.00049 123427603.66849      9470.82449        49.000  
  21273025.28949 111790502.23449     -8237.68049        49.000  
  22977968.26649 120750037.44949     -1320.03549        50.000  
  22631760.32049 118930702.20349      3606.11749        50.000  
 16 04 02 14 17 41.6000000  0  4G04G16G07G26                                    
  23487311.80549 123426656.71549      9468.16849        49.000  
  21273182.09449 111791326.24649     -8242.11749        49.000  
  22977993.42249 120750169.65249     -1324.10549        50.000  
  22631691.72749 118930341.75849      3602.82449        50.000  
 16 04 02 14 17 41.7000000  0  4G04G16G07G26                                    
  23487131.64849 123425710.01649      9465.48449        49.000  
  21273338.97749 111792150.68449     -8246.36349        49.000  
  22978018.65649 120750302.26649     -1328.30949        50.000  
  22631623.19549 118929981.63349      3599.57849        50.000  
 16 04 02 14 17 41.8000000  0  4G04G16G07G26                                    
  23486951.56249 123424763.64849      9462.24649        49.000  
  21273495.96149 111792975.60949     -8251.33649        49.000  
  22978043.98449 120750435.34449     -1332.94949        50.000  
  22631554.73449 118929621.89549      3595.62949        50.000  
 16 04 02 14 17 41.9000000  0  4G04G16G07G26                                    
  23486771.51649 123423817.50049      9459.97749        49.000  
  21273653.01649 111793800.93449     -8255.37149        49.000  
  22978069.38349 120750568.80149     -1336.77749        50.000  
  22631486.33649 118929262.44949      3592.64849        50.000  
 16 04 02 14 17 42.0000000  0  4G04G16G07G26                                    
  23486591.52349 123422871.64549      9456.91449        49.000  
  21273810.15649 111794626.70349     -8259.92249        49.000  
  22978094.85949 120750702.68049     -1341.18849        50.000  
  22631418.00849 118928903.35549      3589.06249        50.000  
 16 04 02 14 17 42.1000000  0  4G04G16G07G26                                    
  23486411.59449 123421926.10249      9454.02049        49.000  
  21273967.38349 111795452.96949     -8264.64849        49.000  
  22978120.42249 120750837.03949     -1345.72749        50.000  
  22631349.75049 118928544.65649      3585.27349        50.000  
 16 04 02 14 17 42.2000000  0  4G04G16G07G26                                    
  23486231.70349 123420980.78149      9451.88349        49.000  
  21274124.68849 111796279.62949     -8268.59449        49.000  
  22978146.06249 120750971.75449     -1349.28949        50.000  
  22631281.53949 118928186.23049      3582.60249        50.000  
 16 04 02 14 17 42.3000000  0  4G04G16G07G26                                    
  23486051.85949 123420035.71549      9449.34449        49.000  
  21274282.07849 111797106.70749     -8272.73049        49.000  
  22978171.77349 120751106.87149     -1353.23449        50.000  
  22631213.39849 118927828.12149      3579.45349        50.000  
 16 04 02 14 17 42.4000000  0  4G04G16G07G26                                    
  23485872.07049 123419090.92649      9446.63749        49.000  
  21274439.54749 111797934.22349     -8277.05149        49.000  
  22978197.56249 120751242.42649     -1357.50449        50.000  
  22631145.31249 118927470.36749      3576.07849        50.000  
 16 04 02 14 17 42.5000000  0  4G04G16G07G26                                    
  23485692.33649 123418146.38349      9443.77749        49.000  
  21274597.10249 111798762.16849     -8281.56649        49.000  
  22978223.43849 120751378.35949     -1361.61349        50.000  
  22631077.28949 118927112.91849      3572.64849        50.000  
 16 04 02 14 17 42.6000000  0  4G04G16G07G26                                    
  23485512.64849 123417202.14549      9440.82449        49.000  
  21274754.75049 111799590.57449     -8286.12149        49.000  
  22978249.39149 120751514.73849     -1366.09449        50.000  
  22631009.34449 118926755.83249      3569.04749        50.000  
 16 04 02 14 17 42.7000000  0  4G04G16G07G26                                    
  23485333.02349 123416258.21949      9437.84049        49.000  
  21274912.48449 111800419.46949     -8290.93449        49.000  
  22978275.43049 120751651.59049     -1370.55149        50.000  
  22630941.46949 118926399.13749      3565.30149        50.000  
 16 04 02 14 17 42.8000000  0  4G04G16G07G26                                    
  23485153.43049 123415314.46949      9436.03149        49.000  
  21275070.28149 111801248.70749     -8294.46549        49.000  
  22978301.53149 120751788.76249     -1373.96949        50.000  
  22630873.63349 118926042.67249      3562.87149        50.000  
 16 04 02 14 17 42.9000000  0  4G04G16G07G26                                    
  23484973.90649 123414371.05549      9432.80949        49.000  
  21275228.17249 111802078.44149     -8299.30149        49.000  
  22978327.72749 120751926.41449     -1378.59849        50.000  
  22630805.87549 118925686.61349      3558.96949        50.000  
 16 04 02 14 17 43.0000000  0  4G04G16G07G26                                    
  23484794.43049 123413427.87949      9430.40249        49.000  
  21275386.14149 111802908.59049     -8303.51249        49.000  
  22978354.00049 120752064.44949     -1382.46549        50.000  
  22630738.18049 118925330.85249      3555.87149        50.000  
 16 04 02 14 17 43.1000000  0  4G04G16G07G26                                    
  23484614.99249 123412484.95749      9427.65649        49.000  
  21275544.19549 111803739.16449     -8307.86349        49.000  
  22978380.34449 120752202.88749     -1386.62149        50.000  
  22630670.53949 118924975.41849      3552.58649        50.000  
 16 04 02 14 17 43.2000000  0  4G04G16G07G26                                    
  23484435.61749 123411542.31249      9425.09049        49.000  
  21275702.33649 111804570.17649     -8312.12549        49.000  
  22978406.77349 120752341.75849     -1390.76249        50.000  
  22630602.96949 118924620.32849      3549.29749        50.000  
 16 04 02 14 17 43.3000000  0  4G04G16G07G26                                    
  23484256.28949 123410599.94549      9422.39549        49.000  
  21275860.55549 111805401.63349     -8316.60549        49.000  
  22978433.28149 120752481.03949     -1394.94549        50.000  
  22630535.46149 118924265.57049      3545.85549        50.000  
 16 04 02 14 17 43.4000000  0  4G04G16G07G26                                    
  23484076.99249 123409657.72349      9420.69549        49.000  
  21276018.83649 111806233.40649     -8319.78149        49.000  
  22978459.84449 120752620.60949     -1397.84449        50.000  
  22630467.99249 118923911.03149      3543.68449        50.000  
 16 04 02 14 17 43.5000000  0  4G04G16G07G26                                    
  23483897.77349 123408715.91849      9416.43449        49.000  
  21276177.22749 111807065.76249     -8325.64849        49.000  
  22978486.50849 120752760.75449     -1403.70349        50.000  
  22630400.61749 118923556.96949      3538.81249        50.000  
 16 04 02 14 17 43.6000000  0  4G04G16G07G26                                    
  23483718.60949 123407774.40649      9413.33249        49.000  
  21276335.71149 111807898.58649     -8330.60949        49.000  
  22978513.25849 120752901.33649     -1408.37149        50.000  
  22630333.31249 118923203.27049      3534.98049        50.000  
 16 04 02 14 17 43.7000000  0  4G04G16G07G26                                    
  23483539.48449 123406833.12149      9411.26649        49.000  
  21276494.26649 111808731.80949     -8334.40249        49.000  
  22978540.07849 120753042.29349     -1411.71149        50.000  
  22630266.06249 118922849.86349      3532.24649        50.000  
 16 04 02 14 17 43.8000000  0  4G04G16G07G26                                    
  23483360.42249 123405892.12149      9408.71149        50.000  
  21276652.90649 111809565.46949     -8338.52749        49.000  
  22978566.98449 120753183.68449     -1415.80549        50.000  
  22630198.88349 118922496.80549      3529.00449        50.000  
 16 04 02 14 17 43.9000000  0  4G04G16G07G26                                    
  23483181.40649 123404951.40249      9405.71949        50.000  
  21276811.63349 111810399.59049     -8343.23449        49.000  
  22978593.97749 120753325.50449     -1420.34449        50.000  
  22630131.76649 118922144.09849      3525.32849        50.000  
 16 04 02 14 17 44.0000000  0  4G04G16G07G26                                    
  23483002.43849 123404010.91849      9403.48049        50.000  
  21276970.44549 111811234.10549     -8347.10949        49.000  
  22978621.03149 120753467.69949     -1424.03149        50.000  
  22630064.69549 118921791.67649      3522.52349        50.000  
 16 04 02 14 17 44.1000000  0  4G04G16G07G26                                    
  23482823.52349 123403070.69949      9400.71149        50.000  
  21277129.32849 111812069.05949     -8351.48849        49.000  
  22978648.16449 120753610.29749     -1428.07449        50.000  
  22629997.69549 118921439.59449      3519.18849        50.000  
 16 04 02 14 17 44.2000000  0  4G04G16G07G26                                    
  23482644.64849 123402130.72349      9398.41849        50.000  
  21277288.29749 111812904.42649     -8355.69549        49.000  
  22978675.38349 120753753.30549     -1432.09449        50.000  
  22629930.75849 118921087.82449      3516.04749        50.000  
 16 04 02 14 17 44.3000000  0  4G04G16G07G26                                    
  23482465.82049 123401191.00449      9395.71549        50.000  
  21277447.33649 111813740.21949     -8359.90649        49.000  
  22978702.67249 120753896.71149     -1436.27749        50.000  
  22629863.88349 118920736.37549      3512.78149        50.000  
 16 04 02 14 17 44.4000000  0  4G04G16G07G26                                    
  23482287.06249 123400251.62149      9392.32849        50.000  
  21277606.47749 111814576.50449     -8364.88749        49.000  
  22978730.05549 120754040.59449     -1441.07849        50.000  
  22629797.07849 118920385.32449      3508.68849        50.000  
 16 04 02 14 17 44.5000000  0  4G04G16G07G26                                    
  23482108.35249 123399312.48849      9389.71149        49.000  
  21277765.70349 111815413.22349     -8369.29749        49.000  
  22978757.50849 120754184.88349     -1445.21549        50.000  
  22629730.33649 118920034.59449      3505.46149        50.000  
 16 04 02 14 17 44.6000000  0  4G04G16G07G26                                    
  23481929.68849 123398373.60549      9387.34449        49.000  
  21277925.00849 111816250.35549     -8373.41049        49.000  
  22978785.03949 120754329.55549     -1449.00449        50.000  
  22629663.64849 118919684.16449      3502.49649        50.000  
 16 04 02 14 17 44.7000000  0  4G04G16G07G26                                    
  23481751.07849 123397434.97749      9384.87949        49.000  
  21278084.38349 111817087.90249     -8377.52049        49.000  
  22978812.65649 120754474.63349     -1452.92249        50.000  
  22629597.03149 118919334.05949      3499.45349        50.000  
 16 04 02 14 17 44.8000000  0  4G04G16G07G26                                    
  23481572.50849 123396496.60949      9382.15249        49.000  
  21278243.84449 111817925.89149     -8381.91849        49.000  
  22978840.34449 120754620.13349     -1457.24649        50.000  
  22629530.46949 118918984.29749      3495.94949        50.000  
 16 04 02 14 17 44.9000000  0  4G04G16G07G26                                    
  23481394.00049 123395558.53949      9379.29749        49.000  
  21278403.39849 111818764.32849     -8386.45749        49.000  
  22978868.11749 120754766.06249     -1461.49249        50.000  
  22629463.97749 118918634.87549      3492.45349        50.000  
 16 04 02 14 17 45.0000000  0  4G04G16G07G26                                    
  23481215.53149 123394620.69149      9377.03949        49.000  
  21278563.03149 111819603.16449     -8390.43849        49.000  
  22978895.95349 120754912.35949     -1465.20349        50.000  
  22629397.54749 118918285.75049      3489.54349        50.000  
 16 04 02 14 17 45.1000000  0  4G04G16G07G26                                    
  23481037.11749 123393683.13349      9373.98049        49.000  
  21278722.74249 111820442.46949     -8395.09049        49.000  
  22978923.88349 120755059.10249     -1469.68849        50.000  
  22629331.18049 118917936.98449      3485.91449        50.000  
 16 04 02 14 17 45.2000000  0  4G04G16G07G26                                    
  23480858.75849 123392745.86349      9371.28549        49.000  
  21278882.53949 111821282.20749     -8399.51649        49.000  
  22978951.89149 120755206.26249     -1473.80149        50.000  
  22629264.87549 118917588.56649      3482.53149        50.000  
 16 04 02 14 17 45.3000000  0  4G04G16G07G26                                    
  23480680.44549 123391808.81649      9368.96949        49.000  
  21279042.41449 111822122.34849     -8403.35549        49.000  
  22978979.96949 120755353.81649     -1477.65649        50.000  
  22629198.62549 118917240.43849      3479.54749        50.000  
 16 04 02 14 17 45.4000000  0  4G04G16G07G26                                    
  23480502.19549 123390872.09049      9365.98849        49.000  
  21279202.38349 111822962.97749     -8408.21949        49.000  
  22979008.13349 120755501.82449     -1482.13749        50.000  
  22629132.45349 118916892.69549      3475.85949        50.000  
 16 04 02 14 17 45.5000000  0  4G04G16G07G26                                    
  23480323.98449 123389935.59849      9363.39849        49.000  
  21279362.42249 111823804.00849     -8412.40249        49.000  
  22979036.37549 120755650.21149     -1486.08649        50.000  
  22629066.33649 118916545.25849      3472.61749        50.000  
 16 04 02 14 17 45.6000000  0  4G04G16G07G26                                    
  23480145.82849 123388999.39849      9360.43449        49.000  
  21279522.55549 111824645.49649     -8416.96949        49.000  
  22979064.69549 120755799.04349     -1490.56649        50.000  
  22629000.28949 118916198.15649      3469.19149        50.000  
 16 04 02 14 17 45.7000000  0  4G04G16G07G26                                    
  23479967.72749 123388063.44949      9357.91449        49.000  
  21279682.76649 111825487.40649     -8421.21149        49.000  
  22979093.08649 120755948.27349     -1494.57849        50.000  
  22628934.30549 118915851.39549      3465.89149        50.000  
 16 04 02 14 17 45.8000000  0  4G04G16G07G26                                    
  23479789.68049 123387127.80949      9355.14849        49.000  
  21279843.06249 111826329.78949     -8425.74649        49.000  
  22979121.57049 120756097.94949     -1498.78149        50.000  
  22628868.38349 118915504.99649      3462.46949        50.000  
 16 04 02 14 17 45.9000000  0  4G04G16G07G26                                    
  23479611.65649 123386192.34849      9352.94949        49.000  
  21280003.43049 111827172.51649     -8429.40649        49.000  
  22979150.11749 120756247.96549     -1502.44149        50.000  
  22628802.51649 118915158.84449      3459.62949        50.000  
 16 04 02 14 17 46.0000000  0  4G04G16G07G26                                    
  23479433.71149 123385257.23049      9349.92649        50.000  
  21280163.89849 111828015.76249     -8434.28149        49.000  
  22979178.75849 120756398.46549     -1506.95349        50.000  
  22628736.71949 118914813.09449      3455.99249        50.000  
 16 04 02 14 17 46.1000000  0  4G04G16G07G26                                    
  23479255.80549 123384322.32449      9347.49249        50.000  
  21280324.43049 111828859.38349     -8438.30549        49.000  
  22979207.46949 120756549.31649     -1510.69949        50.000  
  22628670.98449 118914467.62949      3452.88349        50.000  
 16 04 02 14 17 46.2000000  0  4G04G16G07G26                                    
  23479077.94549 123383387.67249      9345.08249        49.000  
  21280485.05549 111829703.43049     -8442.44549        49.000  
  22979236.25049 120756700.58649     -1514.84449        50.000  
  22628605.30549 118914122.48049      3449.74649        50.000  
 16 04 02 14 17 46.3000000  0  4G04G16G07G26                                    
  23478900.14149 123382453.32049      9342.25849        50.000  
  21280645.75849 111830547.93049     -8446.92249        49.000  
  22979265.11749 120756852.27749     -1518.96149        50.000  
  22628539.69549 118913777.69549      3446.32449        50.000  
 16 04 02 14 17 46.4000000  0  4G04G16G07G26                                    
  23478722.38349 123381519.19149      9339.59449        49.000  
  21280806.53949 111831392.84449     -8451.32449        49.000  
  22979294.05549 120757004.36349     -1523.19949        50.000  
  22628474.14149 118913433.19949      3443.10549        50.000  
 16 04 02 14 17 46.5000000  0  4G04G16G07G26                                    
  23478544.68049 123380585.42249      9336.33649        50.000  
  21280967.41449 111832238.26649     -8456.16049        49.000  
  22979323.09449 120757156.94549     -1527.89849        50.000  
  22628408.67249 118913089.13349      3439.13749        50.000  
 16 04 02 14 17 46.6000000  0  4G04G16G07G26                                    
  23478367.03149 123379651.89149      9333.62149        50.000  
  21281128.37549 111833084.09849     -8460.57849        49.000  
  22979352.20349 120757309.91449     -1532.14549        50.000  
  22628343.25049 118912745.35949      3435.76249        50.000  
 16 04 02 14 17 46.7000000  0  4G04G16G07G26                                    
  23478189.43049 123378718.57849      9331.64549        50.000  
  21281289.40649 111833930.32049     -8464.27049        49.000  
  22979381.37549 120757463.23849     -1535.43449        50.000  
  22628277.89149 118912401.87549      3433.15649        50.000  
 16 04 02 14 17 46.8000000  0  4G04G16G07G26                                    
  23478011.88349 123377785.55149      9329.05549        50.000  
  21281450.51649 111834776.98449     -8468.58649        49.000  
  22979410.64149 120757617.01649     -1539.67649        50.000  
  22628212.59449 118912058.74249      3429.75849        50.000  
 16 04 02 14 17 46.9000000  0  4G04G16G07G26                                    
  23477834.39149 123376852.80949      9325.80949        50.000  
  21281611.71949 111835624.10949     -8473.41049        49.000  
  22979439.98449 120757771.19549     -1544.19149        50.000  
  22628147.35949 118911715.96149      3425.93049        50.000  
 16 04 02 14 17 47.0000000  0  4G04G16G07G26                                    
  23477656.94549 123375920.32849      9323.23849        49.000  
  21281773.00849 111836471.66049     -8477.67249        49.000  
  22979469.40649 120757925.80549     -1548.35949        50.000  
  22628082.19549 118911373.50049      3422.78949        50.000  
 16 04 02 14 17 47.1000000  0  4G04G16G07G26                                    
  23477479.53949 123374988.08649      9320.77349        50.000  
  21281934.36749 111837319.61749     -8481.73849        49.000  
  22979498.89849 120758080.79749     -1552.23849        50.000  
  22628017.08649 118911031.34049      3419.75849        50.000  
 16 04 02 14 17 47.2000000  0  4G04G16G07G26                                    
  23477302.18849 123374056.11349      9318.53949        50.000  
  21282095.80549 111838168.01649     -8485.81649        49.000  
  22979528.46949 120758236.20749     -1556.05149        50.000  
  22627952.03949 118910689.52749      3416.60949        50.000  
 16 04 02 14 17 47.3000000  0  4G04G16G07G26                                    
  23477124.88349 123373124.34849      9316.64549        50.000  
  21282257.32049 111839016.78549     -8489.54349        49.000  
  22979558.10949 120758391.94949     -1559.32849        50.000  
  22627887.03949 118910347.97749      3414.17249        50.000  
 16 04 02 14 17 47.4000000  0  4G04G16G07G26                                    
  23476947.60949 123372192.76249      9314.43449        50.000  
  21282418.90649 111839865.89149     -8493.06649        49.000  
  22979587.81249 120758548.03549     -1562.87549        50.000  
  22627822.09449 118910006.66849      3411.45749        50.000  
 16 04 02 14 17 47.5000000  0  4G04G16G07G26                                    
  23476770.39849 123371261.52749      9310.84049        50.000  
  21282580.58649 111840715.52349     -8498.37949        49.000  
  22979617.60949 120758704.61749     -1567.96949        50.000  
  22627757.22749 118909665.78149      3407.06249        50.000  
 16 04 02 14 17 47.6000000  0  4G04G16G07G26                                    
  23476593.24249 123370330.57849      9307.88749        50.000  
  21282742.35249 111841565.60549     -8503.02049        49.000  
  22979647.49249 120758861.64549     -1572.56249        50.000  
  22627692.42249 118909325.23849      3403.57049        50.000  
 16 04 02 14 17 47.7000000  0  4G04G16G07G26                                    
  23476416.14149 123369399.85249      9305.52049        49.000  
  21282904.19549 111842416.09849     -8507.21949        49.000  
  22979677.43849 120759019.02749     -1576.28149        50.000  
  22627627.68049 118908985.00049      3400.41449        50.000  
 16 04 02 14 17 47.8000000  0  4G04G16G07G26                                    
  23476239.07849 123368469.38349      9303.25049        49.000  
  21283066.10949 111843266.98049     -8510.78949        49.000  
  22979707.46149 120759176.81249     -1579.97349        50.000  
  22627562.99249 118908645.07049      3397.60249        50.000  
 16 04 02 14 17 47.9000000  0  4G04G16G07G26                                    
  23476062.05549 123367539.18849      9300.56249        50.000  
  21283228.10949 111844118.32449     -8515.42649        49.000  
  22979737.57049 120759335.02349     -1584.25449        50.000  
  22627498.36749 118908305.46949      3394.32049        50.000  
 16 04 02 14 17 48.0000000  0  4G04G16G07G26                                    
  23475885.10249 123366609.27049      9297.66449        50.000  
  21283390.20349 111844970.11349     -8520.07449        49.000  
  22979767.75849 120759493.66049     -1588.67249        50.000  
  22627433.82049 118907966.23849      3390.55949        50.000  
 16 04 02 14 17 48.1000000  0  4G04G16G07G26                                    
  23475708.19549 123365679.65249      9294.56249        50.000  
  21283552.37549 111845822.36749     -8524.78949        49.000  
  22979798.03149 120759652.74249     -1593.10549        50.000  
  22627369.32849 118907627.35249      3386.95349        50.000  
 16 04 02 14 17 48.2000000  0  4G04G16G07G26                                    
  23475531.33649 123364750.25049      9292.55549        50.000  
  21283714.62549 111846674.99249     -8528.29749        49.000  
  22979828.37549 120759812.18849     -1596.58249        50.000  
  22627304.89849 118907288.74649      3384.39549        50.000  
 16 04 02 14 17 48.3000000  0  4G04G16G07G26                                    
  23475354.52349 123363821.10949      9290.12149        50.000  
  21283876.95349 111847528.05549     -8532.51249        49.000  
  22979858.79749 120759972.03149     -1600.52749        50.000  
  22627240.52349 118906950.46949      3381.28549        50.000  
 16 04 02 14 17 48.4000000  0  4G04G16G07G26                                    
  23475177.77349 123362892.27349      9286.96149        50.000  
  21284039.37549 111848381.58649     -8537.27049        49.000  
  22979889.30549 120760132.34449     -1605.23849        50.000  
  22627176.22749 118906612.56649      3377.33649        50.000  
 16 04 02 14 17 48.5000000  0  4G04G16G07G26                                    
  23475001.07049 123361963.68849      9284.41049        50.000  
  21284201.88349 111849235.53949     -8541.59049        49.000  
  22979919.87549 120760293.03149     -1609.18049        50.000  
  22627111.98449 118906274.97749      3374.20749        50.000  
 16 04 02 14 17 48.6000000  0  4G04G16G07G26                                    
  23474824.42249 123361035.39149      9281.46149        50.000  
  21284364.47749 111850089.94949     -8546.19549        49.000  
  22979950.54749 120760454.17249     -1613.59049        50.000  
  22627047.81249 118905937.73849      3370.59449        50.000  
 16 04 02 14 17 48.7000000  0  4G04G16G07G26                                    
  23474647.81249 123360107.34849      9278.86349        50.000  
  21284527.14149 111850944.77049     -8550.28549        49.000  
  22979981.28949 120760615.71149     -1617.56249        50.000  
  22626983.70349 118905600.82449      3367.44549        50.000  
 16 04 02 14 17 48.8000000  0  4G04G16G07G26                                    
  23474471.26649 123359179.57849      9276.35249        50.000  
  21284689.89149 111851800.05149     -8554.76249        49.000  
  22980012.10249 120760777.66849     -1621.71549        50.000  
  22626919.65649 118905264.24249      3364.32849        50.000  
 16 04 02 14 17 48.9000000  0  4G04G16G07G26                                    
  23474294.75849 123358252.06649      9273.71149        50.000  
  21284852.72749 111852655.73049     -8558.85249        49.000  
  22980043.00049 120760940.02049     -1625.70349        50.000  
  22626855.66449 118904927.97749      3360.94549        50.000  
 16 04 02 14 17 49.0000000  0  4G04G16G07G26                                    
  23474118.31249 123357324.83649      9270.82849        50.000  
  21285015.64149 111853511.85949     -8563.36349        49.000  
  22980073.97749 120761102.80949     -1630.00049        50.000  
  22626791.75049 118904592.06649      3357.41049        50.000  
 16 04 02 14 17 49.1000000  0  4G04G16G07G26                                    
  23473941.92249 123356397.85949      9268.25449        50.000  
  21285178.63349 111854368.41449     -8567.60949        49.000  
  22980105.02349 120761265.99649     -1634.09449        50.000  
  22626727.89149 118904256.48049      3354.02349        50.000  
 16 04 02 14 17 49.2000000  0  4G04G16G07G26                                    
  23473765.58649 123355471.20349      9264.77749        50.000  
  21285341.72749 111855225.47749     -8572.81649        49.000  
  22980136.17249 120761429.65649     -1639.01649        50.000  
  22626664.10249 118903921.27049      3350.06649        50.000  
 16 04 02 14 17 49.3000000  0  4G04G16G07G26                                    
  23473589.29749 123354544.84049      9262.21549        50.000  
  21285504.90649 111856082.96949     -8576.98849        49.000  
  22980167.39849 120761593.75049     -1643.13749        50.000  
  22626600.37549 118903586.41449      3346.80949        50.000  
 16 04 02 14 17 49.4000000  0  4G04G16G07G26                                    
  23473413.05549 123353618.68849      9260.16449        50.000  
  21285668.15649 111856940.85949     -8580.89149        49.000  
  22980198.69549 120761758.21149     -1646.68049        50.000  
  22626536.71149 118903251.84049      3344.13349        50.000  
 16 04 02 14 17 49.5000000  0  4G04G16G07G26                                    
  23473236.86749 123352692.80549      9257.39149        50.000  
  21285831.49249 111857799.17649     -8585.22749        49.000  
  22980230.07049 120761923.08649     -1651.00049        50.000  
  22626473.10949 118902917.59849      3340.80549        50.000  
 16 04 02 14 17 49.6000000  0  4G04G16G07G26                                    
  23473060.72749 123351767.19549      9254.70349        50.000  
  21285994.90649 111858657.92649     -8589.50049        49.000  
  22980261.52349 120762088.36749     -1655.03149        50.000  
  22626409.57049 118902583.70349      3337.37549        50.000  
 16 04 02 14 17 49.7000000  0  4G04G16G07G26                                    
  23472884.65649 123350841.89149      9251.44949        50.000  
  21286158.40649 111859517.14849     -8594.35249        49.000  
  22980293.06249 120762254.10549     -1659.71149        50.000  
  22626346.10249 118902250.15649      3333.56249        50.000  
 16 04 02 14 17 49.8000000  0  4G04G16G07G26                                    
  23472708.62549 123349916.83249      9249.13349        50.000  
  21286321.99249 111860376.79749     -8598.44549        49.000  
  22980324.67249 120762420.23849     -1663.57849        50.000  
  22626282.69549 118901916.93849      3330.60549        50.000  
 16 04 02 14 17 49.9000000  0  4G04G16G07G26                                    
  23472532.64849 123348992.03149      9246.62949        50.000  
  21286485.65649 111861236.86749     -8602.68049        49.000  
  22980356.36749 120762586.77349     -1667.50449        50.000  
  22626219.34449 118901584.05149      3327.15649        50.000  
 16 04 02 14 17 50.0000000  0  4G04G16G07G26                                    
  23472356.71149 123348067.49649      9244.05949        50.000  
  21286649.40649 111862097.35949     -8606.90249        49.000  
  22980388.14149 120762753.73849     -1671.61749        50.000  
  22626156.06249 118901251.46949      3324.11749        50.000  
 16 04 02 14 17 50.1000000  0  4G04G16G07G26                                    
  23472180.82849 123347143.20349      9241.30949        50.000  
  21286813.23449 111862958.26649     -8611.15249        49.000  
  22980419.97749 120762921.06249     -1675.58249        50.000  
  22626092.83649 118900919.21149      3320.78949        50.000  
 16 04 02 14 17 50.2000000  0  4G04G16G07G26                                    
  23472005.00849 123346219.24649      9238.09049        50.000  
  21286977.15649 111863819.66849     -8616.10549        49.000  
  22980451.91449 120763088.89149     -1680.48049        50.000  
  22626029.68049 118900587.34449      3316.96149        50.000  
 16 04 02 14 17 50.3000000  0  4G04G16G07G26                                    
  23471829.24249 123345295.58249      9234.92249        50.000  
  21287141.16449 111864681.53549     -8620.89149        49.000  
  22980483.93849 120763257.14849     -1685.05949        50.000  
  22625966.59449 118900255.83249      3313.08649        50.000  
 16 04 02 14 17 50.4000000  0  4G04G16G07G26                                    
  23471653.51649 123344372.14149      9233.05149        50.000  
  21287305.24249 111865543.78549     -8624.47749        49.000  
  22980516.02349 120763425.78949     -1688.50449        50.000  
  22625903.57049 118899924.61749      3310.52749        50.000  
 16 04 02 14 17 50.5000000  0  4G04G16G07G26                                    
  23471477.82849 123343448.94149      9230.69949        50.000  
  21287469.40649 111866406.45749     -8628.58249        49.000  
  22980548.18849 120763594.80149     -1692.17249        50.000  
  22625840.60249 118899593.70749      3307.50049        50.000  
 16 04 02 14 17 50.6000000  0  4G04G16G07G26                                    
  23471302.19549 123342525.99649      9227.96549        50.000  
  21287633.64849 111867269.53549     -8632.81649        49.000  
  22980580.43049 120763764.21949     -1696.34049        50.000  
  22625777.68849 118899263.11349      3304.24249        50.000  
 16 04 02 14 17 50.7000000  0  4G04G16G07G26                                    
  23471126.64149 123341603.37949      9224.73049        50.000  
  21287797.98449 111868133.11749     -8637.84849        49.000  
  22980612.76649 120763934.12149     -1701.20349        50.000  
  22625714.85249 118898932.91449      3300.21549        50.000  
 16 04 02 14 17 50.8000000  0  4G04G16G07G26                                    
  23470951.10949 123340680.98049      9222.67249        50.000  
  21287962.39149 111868997.07849     -8641.63749        49.000  
  22980645.16449 120764104.37949     -1704.64149        50.000  
  22625652.07849 118898603.00849      3297.45749        50.000  
 16 04 02 14 17 50.9000000  0  4G04G16G07G26                                    
  23470775.63349 123339758.81649      9220.05549        50.000  
  21288126.86749 111869861.43049     -8645.65249        49.000  
  22980677.63349 120764275.01649     -1708.66849        50.000  
  22625589.35249 118898273.38749      3294.40249        50.000  
 16 04 02 14 17 51.0000000  0  4G04G16G07G26                                    
  23470600.21149 123338836.96549      9217.37949        50.000  
  21288291.44549 111870726.27349     -8650.23849        49.000  
  22980710.19549 120764446.11749     -1712.90249        50.000  
  22625526.70349 118897944.13749      3290.99649        50.000  
 16 04 02 14 17 51.1000000  0  4G04G16G07G26                                    
  23470424.82049 123337915.32449      9214.83249        50.000  
  21288456.08649 111871591.49249     -8654.41049        49.000  
  22980742.82049 120764617.56649     -1716.94149        50.000  
  22625464.10249 118897615.17649      3287.71149        50.000  
 16 04 02 14 17 51.2000000  0  4G04G16G07G26                                    
  23470249.50049 123336993.99649      9211.93449        50.000  
  21288620.82049 111872457.18449     -8658.92249        49.000  
  22980775.53949 120764789.48849     -1721.22749        50.000  
  22625401.57849 118897286.57049      3284.44549        50.000  
 16 04 02 14 17 51.3000000  0  4G04G16G07G26                                    
  23470074.21949 123336072.90249      9209.35949        50.000  
  21288785.63349 111873323.28149     -8663.14149        49.000  
  22980808.32049 120764961.78549     -1725.28149        50.000  
  22625339.10949 118896958.30949      3280.97349        50.000  
 16 04 02 14 17 51.4000000  0  4G04G16G07G26                                    
  23469899.00049 123335152.11349      9206.30549        50.000  
  21288950.53149 111874189.84449     -8667.68849        49.000  
  22980841.20349 120765134.55149     -1729.85949        50.000  
  22625276.71149 118896630.37149      3277.39549        50.000  
 16 04 02 14 17 51.5000000  0  4G04G16G07G26                                    
  23469723.83649 123334231.63349      9203.31249        50.000  
  21289115.52349 111875056.89549     -8672.59849        49.000  
  22980874.16449 120765307.75449     -1734.46549        50.000  
  22625214.38349 118896302.82849      3273.80949        50.000  
 16 04 02 14 17 51.6000000  0  4G04G16G07G26                                    
  23469548.71949 123333311.38349      9201.02349        50.000  
  21289280.59449 111875924.32049     -8676.39849        49.000  
  22980907.19549 120765481.32449     -1738.03949        50.000  
  22625152.10949 118895975.58649      3270.76249        50.000  
 16 04 02 14 17 51.7000000  0  4G04G16G07G26                                    
  23469373.65649 123332391.43049      9197.92649        50.000  
  21289445.74249 111876792.21949     -8681.05949        49.000  
  22980940.31249 120765655.34449     -1742.36749        50.000  
  22625089.89849 118895648.68449      3267.03149        50.000  
 16 04 02 14 17 51.8000000  0  4G04G16G07G26                                    
  23469198.64849 123331471.75849      9195.26649        50.000  
  21289610.98449 111877660.55549     -8685.32449        49.000  
  22980973.50849 120765829.80149     -1746.56249        50.000  
  22625027.76649 118895322.14549      3263.66449        50.000  
 16 04 02 14 17 51.9000000  0  4G04G16G07G26                                    
  23469023.68849 123330552.28949      9193.02049        50.000  
  21289776.29749 111878529.28149     -8689.29349        49.000  
  22981006.76649 120766004.60949     -1750.29749        50.000  
  22624965.67249 118894995.86349      3260.90249        50.000  
 16 04 02 14 17 52.0000000  0  4G04G16G07G26                                    
  23468848.77349 123329633.10249      9190.72349        50.000  
  21289941.68849 111879398.43849     -8693.37149        49.000  
  22981040.10949 120766179.83249     -1754.11749        50.000  
  22624903.64849 118894669.93849      3257.82049        50.000  
 16 04 02 14 17 52.1000000  0  4G04G16G07G26                                    
  23468673.89849 123328714.12949      9188.36349        50.000  
  21290107.15649 111880267.98449     -8697.47349        49.000  
  22981073.52349 120766355.42649     -1758.09449        50.000  
  22624841.68049 118894344.27349      3254.92249        50.000  
 16 04 02 14 17 52.2000000  0  4G04G16G07G26                                    
  23468499.08649 123327795.49649      9184.78549        50.000  
  21290272.71949 111881138.02349     -8702.43849        49.000  
  22981107.03149 120766531.51249     -1763.01249        50.000  
  22624779.78949 118894019.03149      3250.77049        50.000  
 16 04 02 14 17 52.3000000  0  4G04G16G07G26                                    
  23468324.32849 123326877.10549      9182.32449        50.000  
  21290438.35949 111882008.48049     -8706.59449        49.000  
  22981140.60949 120766707.98049     -1766.88749        50.000  
  22624717.95349 118893694.09449      3247.48449        50.000  
 16 04 02 14 17 52.4000000  0  4G04G16G07G26                                    
  23468149.60949 123325958.98849      9179.53549        50.000  
  21290604.08649 111882879.37149     -8710.99649        49.000  
  22981174.27349 120766884.86749     -1771.28149        50.000  
  22624656.18049 118893369.48449      3244.27049        50.000  
 16 04 02 14 17 52.5000000  0  4G04G16G07G26                                    
  23467974.96149 123325041.19549      9176.63749        50.000  
  21290769.89849 111883750.75449     -8715.70349        49.000  
  22981208.02349 120767062.21949     -1775.59049        50.000  
  22624594.48449 118893045.26649      3240.57449        50.000  
 16 04 02 14 17 52.6000000  0  4G04G16G07G26                                    
  23467800.36749 123324123.68049      9173.31249        50.000  
  21290935.80549 111884622.58249     -8720.52049        49.000  
  22981241.85949 120767240.01249     -1780.44149        50.000  
  22624532.85249 118892721.39549      3236.60949        50.000  
 16 04 02 14 17 52.7000000  0  4G04G16G07G26                                    
  23467625.82849 123323206.44949      9170.77749        50.000  
  21291101.79749 111885494.85549     -8724.81249        49.000  
  22981275.76649 120767418.21549     -1784.28949        50.000  
  22624471.28949 118892397.86749      3233.58649        50.000  
 16 04 02 14 17 52.8000000  0  4G04G16G07G26                                    
  23467451.32849 123322289.44549      9168.67249        50.000  
  21291267.85249 111886367.52349     -8728.68449        49.000  
  22981309.75049 120767596.80149     -1788.03549        50.000  
  22624409.78149 118892074.63749      3230.60949        50.000  
 16 04 02 14 17 52.9000000  0  4G04G16G07G26                                    
  23467276.87549 123321372.70749      9165.94949        50.000  
  21291434.00049 111887240.62549     -8732.97349        49.000  
  22981343.81249 120767775.79749     -1791.99649        50.000  
  22624348.33649 118891751.73449      3227.39149        50.000  
 16 04 02 14 17 53.0000000  0  4G04G16G07G26                                    
  23467102.46949 123320456.21149      9163.27349        50.000  
  21291600.21949 111888114.12549     -8737.07849        49.000  
  22981377.94549 120767955.19149     -1796.27049        50.000  
  22624286.94549 118891429.13349      3224.06649        50.000  
 16 04 02 14 17 53.1000000  0  4G04G16G07G26                                    
  23466928.12549 123319540.02749      9160.54349        50.000  
  21291766.53949 111888988.10949     -8741.66449        49.000  
  22981412.17249 120768135.04749     -1800.62949        50.000  
  22624225.62549 118891106.91449      3220.52749        50.000  
 16 04 02 14 17 53.2000000  0  4G04G16G07G26                                    
  23466753.82049 123318624.07449      9158.10549        50.000  
  21291932.92249 111889862.48849     -8745.82449        49.000  
  22981446.46949 120768315.25849     -1804.39149        50.000  
  22624164.36749 118890784.98849      3217.54349        50.000  
 16 04 02 14 17 53.3000000  0  4G04G16G07G26                                    
  23466579.58649 123317708.42649      9155.13349        50.000  
  21292099.39849 111890737.33649     -8750.45749        49.000  
  22981480.85249 120768495.93849     -1808.85949        50.000  
  22624103.18049 118890463.42249      3214.04349        50.000  
 16 04 02 14 17 53.4000000  0  4G04G16G07G26                                    
  23466405.39149 123316793.04349      9152.14149        50.000  
  21292265.96949 111891612.62949     -8755.09449        49.000  
  22981515.31249 120768677.03549     -1813.42649        50.000  
  22624042.05549 118890142.20749      3210.28949        50.000  
 16 04 02 14 17 53.5000000  0  4G04G16G07G26                                    
  23466231.25849 123315877.95749      9149.32049        50.000  
  21292432.60949 111892488.36349     -8759.51649        49.000  
  22981549.85249 120768858.55549     -1817.44149        50.000  
  22623980.99249 118889821.34449      3206.78949        50.000  
 16 04 02 14 17 53.6000000  0  4G04G16G07G26                                    
  23466057.15649 123314963.04749      9147.65249        50.000  
  21292599.32849 111893364.45349     -8762.95349        49.000  
  22981584.46149 120769040.41849     -1820.73449        50.000  
  22623919.98449 118889500.71949      3204.53149        50.000  
 16 04 02 14 17 53.7000000  0  4G04G16G07G26                                    
  23465883.11749 123314048.43849      9144.94949        50.000  
  21292766.12549 111894240.98449     -8767.13749        49.000  
  22981619.14849 120769222.70749     -1824.79349        50.000  
  22623859.03949 118889180.44949      3201.30149        50.000  
 16 04 02 14 17 53.8000000  0  4G04G16G07G26                                    
  23465709.12549 123313134.08249      9141.78949        50.000  
  21292933.00849 111895117.96949     -8772.02349        49.000  
  22981653.92249 120769405.41849     -1829.58649        50.000  
  22623798.15649 118888860.52349      3197.28549        50.000  
 16 04 02 14 17 53.9000000  0  4G04G16G07G26                                    
  23465535.19549 123312220.07849      9138.67249        50.000  
  21293099.99249 111895995.44549     -8776.85249        49.000  
  22981688.78149 120769588.61349     -1834.05149        50.000  
  22623737.35249 118888540.98049      3193.78949        50.000  
 16 04 02 14 17 54.0000000  0  4G04G16G07G26                                    
  23465361.30549 123311306.28949      9136.14549        50.000  
  21293267.04749 111896873.31249     -8780.96549        49.000  
  22981723.71149 120769772.18449     -1838.09449        50.000  
  22623676.60249 118888221.75449      3190.37149        50.000  
 16 04 02 14 17 54.1000000  0  4G04G16G07G26                                    
  23465187.47749 123310392.80549      9133.56249        50.000  
  21293434.18849 111897751.64549     -8785.16049        49.000  
  22981758.72749 120769956.19549     -1841.98849        50.000  
  22623615.92249 118887902.87149      3187.33249        50.000  
 16 04 02 14 17 54.2000000  0  4G04G16G07G26                                    
  23465013.69549 123309479.55549      9130.96549        50.000  
  21293601.39849 111898630.37149     -8789.31649        49.000  
  22981793.82049 120770140.59049     -1846.28549        50.000  
  22623555.29749 118887584.28949      3184.08249        50.000  
 16 04 02 14 17 54.3000000  0  4G04G16G07G26                                    
  23464839.96949 123308566.61349      9127.94549        50.000  
  21293768.71149 111899509.59049     -8794.15649        49.000  
  22981828.99249 120770325.44149     -1850.82049        50.000  
  22623494.75049 118887266.09449      3180.24249        50.000  
 16 04 02 14 17 54.4000000  0  4G04G16G07G26                                    
  23464666.28949 123307653.93449      9125.35549        50.000  
  21293936.09449 111900389.21149     -8798.26649        49.000  
  22981864.24249 120770510.69149     -1854.75849        50.000  
  22623434.25049 118886948.20349      3177.17649        50.000  
 16 04 02 14 17 54.5000000  0  4G04G16G07G26                                    
  23464492.68049 123306741.60249      9121.72349        50.000  
  21294103.58649 111901269.36349     -8803.68449        49.000  
  22981899.58649 120770696.43849     -1859.77049        50.000  
  22623373.83649 118886630.73049      3172.82849        50.000  
 16 04 02 14 17 54.6000000  0  4G04G16G07G26                                    
  23464319.10949 123305829.45349      9119.98449        50.000  
  21294271.14149 111902149.84849     -8806.97349        49.000  
  22981935.00049 120770882.52349     -1863.05549        50.000  
  22623313.46949 118886313.51249      3170.47349        50.000  
 16 04 02 14 17 54.7000000  0  4G04G16G07G26                                    
  23464145.57849 123304917.55949      9117.69949        50.000  
  21294438.76649 111903030.76249     -8811.04749        49.000  
  22981970.48449 120771068.99249     -1866.71149        50.000  
  22623253.16449 118885996.60549      3167.51249        50.000  
 16 04 02 14 17 54.8000000  0  4G04G16G07G26                                    
  23463972.09449 123304005.88749      9115.58249        50.000  
  21294606.48449 111903912.05949     -8814.80149        49.000  
  22982006.04749 120771255.85549     -1870.53549        50.000  
  22623192.91449 118885679.99249      3164.72749        50.000  
 16 04 02 14 17 54.9000000  0  4G04G16G07G26                                    
  23463798.65649 123303094.48049      9112.60949        50.000  
  21294774.26649 111904793.78149     -8819.17249        49.000  
  22982041.68049 120771443.10549     -1874.55949        50.000  
  22623132.72749 118885363.70349      3161.24649        50.000  
 16 04 02 14 17 55.0000000  0  4G04G16G07G26                                    
  23463625.27349 123302183.34449      9109.94549        50.000  
  21294942.13349 111905675.94949     -8823.60249        49.000  
  22982077.39849 120771630.79749     -1878.97749        50.000  
  22623072.60249 118885047.74649      3157.89149        50.000  
 16 04 02 14 17 55.1000000  0  4G04G16G07G26                                    
  23463451.93849 123301272.48449      9107.27349        50.000  
  21295110.09449 111906558.57049     -8828.24249        49.000  
  22982113.19549 120771818.91049     -1883.32449        50.000  
  22623012.54749 118884732.14849      3154.32449        50.000  
 16 04 02 14 17 55.2000000  0  4G04G16G07G26                                    
  23463278.65649 123300361.89849      9104.49249        50.000  
  21295278.12549 111907441.59849     -8832.32849        49.000  
  22982149.06249 120772007.41049     -1887.25049        50.000  
  22622952.55549 118884416.87549      3151.03949        50.000  
 16 04 02 14 17 55.3000000  0  4G04G16G07G26                                    
  23463105.41449 123299451.51649      9102.35249        50.000  
  21295446.23449 111908325.00449     -8836.09849        49.000  
  22982185.00849 120772196.28549     -1890.75849        50.000  
  22622892.60949 118884101.85249      3148.45349        50.000  
 16 04 02 14 17 55.4000000  0  4G04G16G07G26                                    
  23462932.23449 123298541.41049      9099.66849        50.000  
  21295614.43049 111909208.85949     -8840.50449        49.000  
  22982221.03149 120772385.58249     -1895.07849        50.000  
  22622832.72749 118883787.19549      3144.97749        50.000  
 16 04 02 14 17 55.5000000  0  4G04G16G07G26                                    
  23462759.10249 123297631.60949      9096.37549        50.000  
  21295782.71149 111910093.19949     -8845.45349        49.000  
  22982257.14149 120772575.36749     -1900.06249        50.000  
  22622772.92249 118883472.91849      3140.90649        50.000  
 16 04 02 14 17 55.6000000  0  4G04G16G07G26                                    
  23462586.03149 123296722.12149      9093.39149        50.000  
  21295951.07849 111910977.96949     -8849.80549        49.000  
  22982293.32849 120772765.51649     -1903.76649        50.000  
  22622713.18049 118883158.97349      3137.66049        50.000  
 16 04 02 14 17 55.7000000  0  4G04G16G07G26                                    
  23462413.00049 123295812.83249      9091.49649        50.000  
  21296119.52349 111911863.14849     -8853.76249        49.000  
  22982329.59449 120772956.08649     -1907.76649        50.000  
  22622653.50049 118882845.32449      3134.82049        50.000  
 16 04 02 14 17 55.8000000  0  4G04G16G07G26                                    
  23462240.02349 123294903.82449      9088.75449        50.000  
  21296288.04749 111912748.75449     -8858.09849        49.000  
  22982365.93849 120773147.07849     -1912.01249        50.000  
  22622593.87549 118882532.01649      3131.50849        50.000  
 16 04 02 14 17 55.9000000  0  4G04G16G07G26                                    
  23462067.09449 123293995.11349      9085.45749        50.000  
  21296456.66449 111913634.83249     -8862.97749        49.000  
  22982402.36749 120773338.52049     -1916.75849        50.000  
  22622534.32849 118882219.07449      3127.64149        50.000  
 16 04 02 14 17 56.0000000  0  4G04G16G07G26                                    
  23461894.22749 123293086.68849      9082.80949        50.000  
  21296625.35949 111914521.32449     -8867.02749        49.000  
  22982438.86749 120773530.34049     -1920.32849        50.000  
  22622474.83649 118881906.45349      3124.55149        50.000  
 16 04 02 14 17 56.1000000  0  4G04G16G07G26                                    
  23461721.39849 123292178.44149      9080.95749        50.000  
  21296794.12549 111915408.21549     -8870.97749        49.000  
  22982475.44549 120773722.54749     -1924.43849        50.000  
  22622415.39849 118881594.12549      3121.58249        50.000  
 16 04 02 14 17 56.2000000  0  4G04G16G07G26                                    
  23461548.63349 123291270.55549      9077.40249        50.000  
  21296962.99249 111916295.57449     -8875.68049        49.000  
  22982512.10949 120773915.20349     -1928.83649        50.000  
  22622356.03949 118881282.17249      3117.64149        50.000  
 16 04 02 14 17 56.3000000  0  4G04G16G07G26                                    
  23461375.89849 123290362.84849      9075.60949        50.000  
  21297131.92249 111917183.31649     -8879.35549        49.000  
  22982548.84449 120774108.24649     -1932.32049        50.000  
  22622296.72749 118880970.49249      3115.17649        50.000  
 16 04 02 14 17 56.4000000  0  4G04G16G07G26                                    
  23461203.21949 123289455.39849      9072.99649        50.000  
  21297300.93049 111918071.46549     -8883.55549        49.000  
  22982585.64849 120774301.65649     -1936.38749        50.000  
  22622237.46949 118880659.11349      3112.12949        50.000  
 16 04 02 14 17 56.5000000  0  4G04G16G07G26                                    
  23461030.59449 123288548.26649      9069.91849        50.000  
  21297470.03149 111918960.10249     -8888.29749        49.000  
  22982622.54749 120774495.53549     -1940.89849        50.000  
  22622178.29749 118880348.12949      3108.24249        50.000  
 16 04 02 14 17 56.6000000  0  4G04G16G07G26                                    
  23460858.03149 123287641.41849      9066.99249        50.000  
  21297639.21949 111919849.17249     -8892.86349        49.000  
  22982659.52349 120774689.84049     -1945.21149        50.000  
  22622119.18049 118880037.49249      3104.63349        50.000  
 16 04 02 14 17 56.7000000  0  4G04G16G07G26                                    
  23460685.50849 123286734.82049      9064.22749        50.000  
  21297808.49249 111920738.68449     -8897.32449        49.000  
  22982696.57049 120774884.55549     -1949.61349        50.000  
  22622060.12549 118879727.16449      3101.26649        50.000  
 16 04 02 14 17 56.8000000  0  4G04G16G07G26                                    
  23460513.04749 123285828.53549      9061.50849        50.000  
  21297977.84449 111921628.64549     -8901.64849        49.000  
  22982733.71149 120775079.72749     -1953.77749        50.000  
  22622001.14149 118879417.21549      3097.89549        50.000  
 16 04 02 14 17 56.9000000  0  4G04G16G07G26                                    
  23460340.62549 123284922.48449      9058.85949        50.000  
  21298147.27349 111922519.02049     -8905.80949        49.000  
  22982770.93049 120775275.27349     -1957.71949        50.000  
  22621942.21949 118879107.57049      3094.69949        50.000  
 16 04 02 14 17 57.0000000  0  4G04G16G07G26                                    
  23460168.26649 123284016.72349      9056.29349        50.000  
  21298316.79749 111923409.84449     -8910.27749        49.000  
  22982808.21949 120775471.26249     -1961.96549        50.000  
  22621883.36749 118878798.27749      3091.30549        50.000  
 16 04 02 14 17 57.1000000  0  4G04G16G07G26                                    
  23459995.95349 123283111.18449      9053.78549        50.000  
  21298486.38349 111924301.04749     -8914.13749        49.000  
  22982845.58649 120775667.60249     -1965.66849        50.000  
  22621824.56249 118878489.25849      3088.38349        50.000  
 16 04 02 14 17 57.2000000  0  4G04G16G07G26                                    
  23459823.69549 123282205.94949      9050.89849        50.000  
  21298656.07049 111925192.72749     -8918.66849        49.000  
  22982883.03949 120775864.41849     -1970.19949        50.000  
  22621765.83649 118878180.63349      3084.69549        50.000  
 16 04 02 14 17 57.3000000  0  4G04G16G07G26                                    
  23459651.47749 123281300.93049      9048.89849        50.000  
  21298825.82849 111926084.78549     -8922.54349        49.000  
  22982920.55549 120776061.57449     -1973.59449        50.000  
  22621707.15649 118877872.25849      3082.14549        50.000  
 16 04 02 14 17 57.4000000  0  4G04G16G07G26                                    
  23459479.31249 123280396.20349      9045.68049        50.000  
  21298995.66449 111926977.29349     -8927.20749        49.000  
  22982958.15649 120776259.18849     -1978.37149        50.000  
  22621648.54749 118877564.25849      3078.28549        50.000  
 16 04 02 14 17 57.5000000  0  4G04G16G07G26                                    
  23459307.19549 123279491.75849      9043.00449        50.000  
  21299165.59449 111927870.25449     -8931.59449        49.000  
  22982995.84449 120776457.22349     -1982.57449        50.000  
  22621590.00049 118877256.60249      3074.92649        50.000  
 16 04 02 14 17 57.6000000  0  4G04G16G07G26                                    
  23459135.14149 123278587.58249      9040.38749        50.000  
  21299335.60249 111928763.64149     -8935.75449        49.000  
  22983033.60249 120776655.66849     -1986.58649        50.000  
  22621531.51649 118876949.27349      3071.62949        50.000  
 16 04 02 14 17 57.7000000  0  4G04G16G07G26                                    
  23458963.13349 123277683.67649      9037.47349        50.000  
  21299505.68849 111929657.46549     -8940.33649        49.000  
  22983071.45349 120776854.53549     -1990.97749        50.000  
  22621473.09449 118876642.27749      3068.15649        50.000  
 16 04 02 14 17 57.8000000  0  4G04G16G07G26                                    
  23458791.18849 123276780.09849      9034.14849        50.000  
  21299675.86749 111930551.77749     -8945.25449        49.000  
  22983109.38349 120777053.86349     -1995.66849        50.000  
  22621414.75049 118876335.67249      3064.20349        50.000  
 16 04 02 14 17 57.9000000  0  4G04G16G07G26                                    
  23458619.30549 123275876.84449      9031.04349        50.000  
  21299846.14149 111931446.58649     -8950.22349        49.000  
  22983147.40649 120777253.67649     -2000.35549        50.000  
  22621356.47749 118876029.46149      3060.40649        50.000  
 16 04 02 14 17 58.0000000  0  4G04G16G07G26                                    
  23458447.45349 123274973.75449      9029.11349        50.000  
  21300016.49249 111932341.75049     -8953.91049        49.000  
  22983185.49249 120777453.81649     -2003.75049        50.000  
  22621298.25049 118875723.48849      3057.78149        50.000  
 16 04 02 14 17 58.1000000  0  4G04G16G07G26                                    
  23458275.65649 123274070.96949      9026.63349        50.000  
  21300186.91449 111933237.33249     -8957.74249        49.000  
  22983223.65649 120777654.37149     -2007.58249        50.000  
  22621240.09449 118875417.86349      3054.79749        50.000  
 16 04 02 14 17 58.2000000  0  4G04G16G07G26                                    
  23458103.91449 123273168.44549      9023.77049        50.000  
  21300357.41449 111934133.34849     -8962.11349        49.000  
  22983261.89849 120777855.35549     -2011.97749        50.000  
  22621182.00849 118875112.57449      3051.22749        50.000  
 16 04 02 14 17 58.3000000  0  4G04G16G07G26                                    
  23457932.23449 123272266.23449      9020.57049        50.000  
  21300528.01649 111935029.85549     -8967.18849        49.000  
  22983300.23449 120778056.79349     -2016.59849        50.000  
  22621123.98449 118874807.65649      3047.31649        50.000  
 16 04 02 14 17 58.4000000  0  4G04G16G07G26                                    
  23457760.58649 123271364.24249      9018.41449        50.000  
  21300698.68849 111935926.74249     -8970.97349        49.000  
  22983338.63349 120778258.60249     -2020.34849        50.000  
  22621066.01649 118874503.02749      3044.52049        50.000  
 16 04 02 14 17 58.5000000  0  4G04G16G07G26                                    
  23457589.00049 123270462.55149      9015.42649        50.000  
  21300869.44549 111936824.08649     -8975.47349        49.000  
  22983377.12549 120778460.85549     -2024.70749        50.000  
  22621008.10949 118874198.75849      3040.86349        50.000  
 16 04 02 14 17 58.6000000  0  4G04G16G07G26                                    
  23457417.46149 123269561.08649      9013.37949        50.000  
  21301040.28149 111937721.83649     -8979.32849        49.000  
  22983415.68049 120778663.48049     -2028.23449        50.000  
  22620950.26649 118873894.78949      3038.21549        50.000  
 16 04 02 14 17 58.7000000  0  4G04G16G07G26                                    
  23457245.96149 123268659.83649      9011.16449        50.000  
  21301211.18849 111938619.94949     -8983.10249        49.000  
  22983454.30549 120778866.46949     -2032.04749        50.000  
  22620892.47749 118873591.09049      3035.34449        50.000  
 16 04 02 14 17 58.8000000  0  4G04G16G07G26                                    
  23457074.52349 123267758.92249      9007.76649        50.000  
  21301382.18849 111939518.55949     -8988.01649        49.000  
  22983493.02349 120779069.93449     -2036.74249        50.000  
  22620834.75849 118873287.78549      3031.31649        50.000  
 16 04 02 14 17 58.9000000  0  4G04G16G07G26                                    
  23456903.14849 123266858.32449      9004.28549        50.000  
  21301553.28149 111940417.64849     -8993.00849        49.000  
  22983531.82849 120779273.85949     -2041.65649        50.000  
  22620777.11749 118872984.86349      3027.34849        50.000  
 16 04 02 14 17 59.0000000  0  4G04G16G07G26                                    
  23456731.82049 123265957.97349      9002.25449        50.000  
  21301724.45349 111941317.16049     -8997.13349        49.000  
  22983570.71149 120779478.18849     -2045.38749        50.000  
  22620719.53149 118872682.25849      3024.50849        50.000  
 16 04 02 14 17 59.1000000  0  4G04G16G07G26                                    
  23456560.52349 123265057.83649      8999.95349        50.000  
  21301895.69549 111942217.04349     -9000.81249        49.000  
  22983609.66449 120779682.87149     -2049.05149        50.000  
  22620662.00049 118872379.93449      3021.59449        50.000  
 16 04 02 14 17 59.2000000  0  4G04G16G07G26                                    
  23456389.28949 123264158.00449      8997.06249        50.000  
  21302067.03149 111943117.39549     -9005.32049        49.000  
  22983648.69549 120779888.00449     -2053.34849        50.000  
  22620604.53949 118872077.96149      3018.14849        50.000  
 16 04 02 14 17 59.3000000  0  4G04G16G07G26                                    
  23456218.11749 123263258.48049      8993.73449        50.000  
  21302238.45349 111944018.22349     -9010.39149        49.000  
  22983687.82049 120780093.59849     -2058.16449        50.000  
  22620547.14849 118871776.38749      3014.02049        50.000  
 16 04 02 14 17 59.4000000  0  4G04G16G07G26                                    
  23456046.99249 123262359.20749      8991.05149        50.000  
  21302409.95349 111944919.44949     -9014.46549        49.000  
  22983727.01649 120780299.57849     -2062.17249        50.000  
  22620489.82049 118871475.10249      3010.89549        50.000  
 16 04 02 14 17 59.5000000  0  4G04G16G07G26                                    
  23455875.91449 123261460.19949      8988.87549        50.000  
  21302581.53149 111945821.12949     -9018.67249        49.000  
  22983766.28949 120780505.98849     -2066.00849        50.000  
  22620432.55549 118871174.16849      3007.84049        50.000  
 16 04 02 14 17 59.6000000  0  4G04G16G07G26                                    
  23455704.88349 123260561.43049      8986.27049        50.000  
  21302753.18849 111946723.19549     -9022.85249        49.000  
  22983805.64149 120780712.77349     -2070.13349        50.000  
  22620375.34449 118870873.51249      3004.71149        50.000  
 16 04 02 14 17 59.7000000  0  4G04G16G07G26                                    
  23455533.89849 123259662.91049      8983.88349        50.000  
  21302924.92249 111947625.66449     -9026.59049        49.000  
  22983845.06249 120780919.94549     -2073.77049        50.000  
  22620318.18849 118870573.18849      3001.71949        50.000  
 16 04 02 14 17 59.8000000  0  4G04G16G07G26                                    
  23455362.94549 123258764.53949      8982.46149        50.000  
  21303096.71949 111948528.46149     -9029.78549        49.000  
  22983884.54749 120781127.42649     -2076.75849        50.000  
  22620261.07849 118870273.07049      2999.64549        50.000  
 16 04 02 14 17 59.9000000  0  4G04G16G07G26                                    
  23455192.04749 123257866.44949      8979.76249        50.000  
  21303268.60249 111949431.68449     -9034.07449        49.000  
  22983924.10949 120781335.32449     -2080.85949        50.000  
  22620204.03149 118869973.29349      2996.39549        50.000  
 16 04 02 14 18  0.0000000  0  4G04G16G07G26                                    
  23455021.19549 123256968.63749      8976.53549        50.000  
  21303440.56249 111950335.36749     -9038.87949        49.000  
  22983963.75049 120781543.65649     -2085.59449        50.000  
  22620147.05549 118869673.86749      2992.55149        50.000  
 16 04 02 14 18  0.1000000  0  4G04G16G07G26                                    
  23454850.41449 123256071.19549      8972.83249        50.000  
  21303612.62549 111951239.57449     -9044.26249        49.000  
  22984003.49249 120781752.49649     -2090.76249        50.000  
  22620090.15649 118869374.86749      2988.10549        50.000  
 16 04 02 14 18  0.2000000  0  4G04G16G07G26                                    
  23454679.66449 123255173.91849      8971.45749        50.000  
  21303784.75849 111952144.10549     -9047.29349        49.000  
  22984043.28949 120781961.64849     -2093.56249        50.000  
  22620033.30549 118869076.09449      2986.10549        50.000  
 16 04 02 14 18  0.3000000  0  4G04G16G07G26                                    
  23454508.96949 123254276.91049      8968.63349        50.000  
  21303956.96149 111953049.07449     -9051.57049        49.000  
  22984083.17249 120782171.21949     -2097.84849        50.000  
  22619976.50849 118868777.65649      2982.68049        50.000  
 16 04 02 14 18  0.4000000  0  4G04G16G07G26                                    
  23454338.33649 123253380.23049      8965.42249        50.000  
  21304129.26649 111953954.53949     -9056.66849        49.000  
  22984123.14149 120782381.26649     -2102.59449        50.000  
  22619919.79749 118868479.60949      2978.76649        50.000  
 16 04 02 14 18  0.5000000  0  4G04G16G07G26                                    
  23454167.74249 123252483.76649      8963.06649        50.000  
  21304301.64149 111954860.37949     -9060.59049        49.000  
  22984163.18049 120782591.66849     -2106.34449        50.000  
  22619863.13349 118868181.84449      2975.82449        50.000  
 16 04 02 14 18  0.6000000  0  4G04G16G07G26                                    
  23453997.21949 123251587.63349      8959.80949        50.000  
  21304474.10949 111955766.69549     -9065.18449        49.000  
  22984203.31249 120782802.56249     -2111.10949        50.000  
  22619806.54749 118867884.48049      2971.88749        50.000  
 16 04 02 14 18  0.7000000  0  4G04G16G07G26                                    
  23453826.73449 123250691.76249      8957.21949        50.000  
  21304646.66449 111956673.47349     -9069.84849        49.000  
  22984243.51649 120783013.85249     -2115.23849        50.000  
  22619750.02349 118867587.44149      2968.55949        50.000  
 16 04 02 14 18  0.8000000  0  4G04G16G07G26                                    
  23453656.30549 123249796.13749      8954.84449        50.000  
  21304819.29749 111957580.63749     -9073.64149        49.000  
  22984283.80549 120783225.53949     -2119.03549        50.000  
  22619693.56249 118867290.71549      2965.46549        50.000  
 16 04 02 14 18  0.9000000  0  4G04G16G07G26                                    
  23453485.93049 123248900.79349      8952.07849        50.000  
  21304992.00849 111958488.23849     -9078.04349        49.000  
  22984324.16449 120783437.65649     -2123.29349        50.000  
  22619637.15649 118866994.31649      2962.07449        50.000  
 16 04 02 14 18  1.0000000  0  4G04G16G07G26                                    
  23453315.59449 123248005.68049      8949.78949        50.000  
  21305164.78949 111959396.25049     -9082.02349        49.000  
  22984364.60249 120783650.13749     -2126.96549        50.000  
  22619580.81249 118866698.21949      2959.24649        50.000  
 16 04 02 14 18  1.1000000  0  4G04G16G07G26                                    
  23453145.32049 123247110.90649      8946.11349        50.000  
  21305337.67249 111960304.75849     -9087.34049        49.000  
  22984405.13349 120783863.11749     -2132.20749        50.000  
  22619524.53949 118866402.52349      2954.99249        50.000  
 16 04 02 14 18  1.2000000  0  4G04G16G07G26                                    
  23452975.10249 123246216.38749      8943.85249        50.000  
  21305510.63349 111961213.67249     -9091.22349        49.000  
  22984445.73449 120784076.48849     -2135.76649        50.000  
  22619468.32849 118866107.14149      2952.09049        50.000  
 16 04 02 14 18  1.3000000  0  4G04G16G07G26                                    
  23452804.92249 123245322.10249      8941.42249        50.000  
  21305683.67249 111962122.98449     -9095.15649        49.000  
  22984486.41449 120784290.25049     -2139.74649        50.000  
  22619412.18049 118865812.06649      2949.03149        50.000  
 16 04 02 14 18  1.4000000  0  4G04G16G07G26                                    
  23452634.79749 123244428.09849      8938.59849        50.000  
  21305856.78949 111963032.75849     -9099.71149        49.000  
  22984527.17249 120784504.43849     -2143.93849        50.000  
  22619356.09449 118865517.34049      2945.60949        50.000  
 16 04 02 14 18  1.5000000  0  4G04G16G07G26                                    
  23452464.72749 123243534.39549      8935.46549        50.000  
  21306030.00049 111963942.97749     -9104.35549        49.000  
  22984568.01649 120784719.07449     -2148.71149        50.000  
  22619300.07049 118865222.96949      2941.85949        50.000  
 16 04 02 14 18  1.6000000  0  4G04G16G07G26                                    
  23452294.71149 123242640.94949      8932.93049        50.000  
  21306203.29749 111964853.62949     -9108.56249        49.000  
  22984608.93049 120784934.10549     -2152.62549        50.000  
  22619244.12549 118864928.92249      2938.81249        50.000  
 16 04 02 14 18  1.7000000  0  4G04G16G07G26                                    
  23452124.74249 123241747.75449      8930.46549        50.000  
  21306376.66449 111965764.68049     -9112.63349        49.000  
  22984649.93049 120785149.53149     -2156.42249        50.000  
  22619188.22749 118864635.18449      2935.66849        50.000  
 16 04 02 14 18  1.8000000  0  4G04G16G07G26                                    
  23451954.83649 123240854.89549      8926.86349        50.000  
  21306550.13349 111966676.24649     -9117.87549        49.000  
  22984691.01649 120785365.44949     -2161.52749        50.000  
  22619132.40649 118864341.85549      2931.40249        50.000  
 16 04 02 14 18  1.9000000  0  4G04G16G07G26                                    
  23451784.99249 123239962.33649      8924.15649        50.000  
  21306723.68049 111967588.26249     -9122.30549        49.000  
  22984732.18849 120785581.81249     -2165.86749        50.000  
  22619076.65649 118864048.89149      2927.85949        50.000  
 16 04 02 14 18  2.0000000  0  4G04G16G07G26                                    
  23451615.17249 123239069.94149      8922.42649        50.000  
  21306897.28949 111968500.59849     -9125.44549        49.000  
  22984773.42249 120785798.47749     -2168.91049        50.000  
  22619020.94549 118863756.13749      2925.73049        50.000  
 16 04 02 14 18  2.1000000  0  4G04G16G07G26                                    
  23451445.41449 123238177.87549      8919.17649        50.000  
  21307071.00049 111969413.44549     -9130.43849        49.000  
  22984814.74249 120786015.63349     -2173.64549        50.000  
  22618965.32049 118863463.80149      2921.71549        50.000  
 16 04 02 14 18  2.2000000  0  4G04G16G07G26                                    
  23451275.71149 123237286.08649      8916.45349        50.000  
  21307244.78949 111970326.71949     -9134.65649        49.000  
  22984856.14849 120786233.20749     -2177.95349        50.000  
  22618909.75049 118863171.79349      2918.35549        50.000  
 16 04 02 14 18  2.3000000  0  4G04G16G07G26                                    
  23451106.04749 123236394.50049      8914.50049        50.000  
  21307418.64849 111971240.36349     -9138.39849        49.000  
  22984897.61749 120786451.11349     -2181.14149        50.000  
  22618854.23449 118862880.03549      2915.99249        50.000  
 16 04 02 14 18  2.4000000  0  4G04G16G07G26                                    
  23450936.44549 123235503.21549      8911.36349        50.000  
  21307592.59449 111972154.45749     -9143.05149        49.000  
  22984939.17249 120786669.48049     -2185.80549        50.000  
  22618798.78149 118862588.66049      2912.02749        50.000  
 16 04 02 14 18  2.5000000  0  4G04G16G07G26                                    
  23450766.90649 123234612.27049      8907.86349        50.000  
  21307766.64149 111973069.07449     -9148.34449        49.000  
  22984980.81249 120786888.34049     -2190.89149        50.000  
  22618743.41449 118862297.69149      2907.82849        50.000  
 16 04 02 14 18  2.6000000  0  4G04G16G07G26                                    
  23450597.41449 123233721.59049      8905.10249        50.000  
  21307940.76649 111973984.11349     -9152.56649        49.000  
  22985022.53949 120787107.61349     -2194.99649        50.000  
  22618688.10249 118862007.05149      2904.50449        50.000  
 16 04 02 14 18  2.7000000  0  4G04G16G07G26                                    
  23450427.97749 123232831.18849      8902.50849        50.000  
  21308114.96949 111974899.57449     -9156.79749        49.000  
  22985064.34449 120787327.29349     -2199.14149        50.000  
  22618632.85949 118861716.73849      2901.26249        50.000  
 16 04 02 14 18  2.8000000  0  4G04G16G07G26                                    
  23450258.57849 123231941.02349      8900.27749        50.000  
  21308289.25849 111975815.45349     -9160.77749        49.000  
  22985106.22749 120787547.37149     -2202.92649        50.000  
  22618577.67249 118861426.73049      2898.39149        50.000  
 16 04 02 14 18  2.9000000  0  4G04G16G07G26                                    
  23450089.22749 123231051.06649      8898.14849        50.000  
  21308463.60949 111976731.68849     -9164.36349        49.000  
  22985148.17249 120787767.78949     -2206.37549        50.000  
  22618522.53949 118861137.00049      2895.60549        50.000  
 16 04 02 14 18  3.0000000  0  4G04G16G07G26                                    
  23449919.93849 123230161.46149      8894.81249        50.000  
  21308638.06249 111977648.44549     -9169.28549        49.000  
  22985190.21149 120787988.71549     -2211.18049        50.000  
  22618467.48449 118860847.67649      2891.71949        50.000  
 16 04 02 14 18  3.1000000  0  4G04G16G07G26                                    
  23449750.68849 123229272.06649      8892.26649        50.000  
  21308812.58649 111978565.58649     -9173.54749        49.000  
  22985232.32049 120788210.00049     -2215.23849        50.000  
  22618412.48449 118860558.64849      2888.35949        50.000  
 16 04 02 14 18  3.2000000  0  4G04G16G07G26                                    
  23449581.50049 123228382.99249      8889.37549        50.000  
  21308987.20349 111979483.18849     -9178.03549        49.000  
  22985274.51649 120788431.73849     -2219.43449        50.000  
  22618357.54749 118860269.96549      2885.20749        50.000  
 16 04 02 14 18  3.3000000  0  4G04G16G07G26                                    
  23449412.36749 123227494.17249      8886.63749        50.000  
  21309161.89849 111980401.23449     -9182.72349        49.000  
  22985316.78949 120788653.90249     -2223.97749        50.000  
  22618302.68849 118859981.64849      2881.26249        50.000  
 16 04 02 14 18  3.4000000  0  4G04G16G07G26                                    
  23449243.28149 123226605.60549      8884.43449        50.000  
  21309336.67249 111981319.65649     -9186.15649        49.000  
  22985359.13349 120788876.43449     -2227.20749        50.000  
  22618247.86749 118859693.59849      2879.03549        50.000  
 16 04 02 14 18  3.5000000  0  4G04G16G07G26                                    
  23449074.23449 123225717.27349      8881.80549        50.000  
  21309511.52349 111982238.50049     -9190.55949        49.000  
  22985401.56249 120789099.37949     -2231.81649        50.000  
  22618193.12549 118859405.89149      2875.25449        50.000  
 16 04 02 14 18  3.6000000  0  4G04G16G07G26                                    
  23448905.25849 123224829.29349      8878.15249        50.000  
  21309686.46949 111983157.85249     -9195.61349        49.000  
  22985444.07849 120789322.78949     -2236.43049        50.000  
  22618138.44549 118859118.55149      2871.58249        50.000  
 16 04 02 14 18  3.7000000  0  4G04G16G07G26                                    
  23448736.32849 123223941.54749      8875.87949        50.000  
  21309861.49249 111984077.61749     -9199.80149        49.000  
  22985486.67249 120789546.61349     -2240.32849        50.000  
  22618083.83649 118858831.56249      2868.23449        50.000  
 16 04 02 14 18  3.8000000  0  4G04G16G07G26                                    
  23448567.44549 123223054.08249      8873.21549        50.000  
  21310036.59449 111984997.79349     -9203.92649        49.000  
  22985529.33649 120789770.84049     -2244.55549        50.000  
  22618029.28149 118858544.88349      2864.92649        50.000  
 16 04 02 14 18  3.9000000  0  4G04G16G07G26                                    
  23448398.63349 123222166.95349      8869.82049        50.000  
  21310211.79749 111985918.48849     -9208.97349        49.000  
  22985572.10249 120789995.56249     -2249.43849        50.000  
  22617974.80549 118858258.60949      2860.94549        50.000  
 16 04 02 14 18  4.0000000  0  4G04G16G07G26                                    
  23448229.86749 123221280.07449      8867.20349        50.000  
  21310387.07849 111986839.58249     -9213.08249        49.000  
  22985614.93849 120790220.66849     -2253.36349        50.000  
  22617920.38349 118857972.64549      2857.86349        50.000  
 16 04 02 14 18  4.1000000  0  4G04G16G07G26                                    
  23448061.14149 123220393.41049      8865.24649        50.000  
  21310562.43049 111987761.06649     -9216.85949        49.000  
  22985657.84449 120790446.15249     -2256.95749        50.000  
  22617866.02349 118857686.98849      2854.93049        50.000  
 16 04 02 14 18  4.2000000  0  4G04G16G07G26                                    
  23447892.46949 123219507.04349      8862.25449        50.000  
  21310737.86749 111988683.00049     -9221.30549        49.000  
  22985700.83649 120790672.06649     -2261.26249        50.000  
  22617811.72749 118857401.65649      2851.64149        50.000  
 16 04 02 14 18  4.3000000  0  4G04G16G07G26                                    
  23447723.85949 123218620.95749      8859.35949        50.000  
  21310913.39149 111989605.38749     -9225.92249        49.000  
  22985743.90649 120790898.41849     -2265.72349        50.000  
  22617757.49249 118857116.67649      2847.98849        50.000  
 16 04 02 14 18  4.4000000  0  4G04G16G07G26                                    
  23447555.29749 123217735.17649      8856.33249        50.000  
  21311088.99249 111990528.22349     -9230.46949        49.000  
  22985787.06249 120791125.20749     -2270.18449        50.000  
  22617703.33649 118856832.07449      2844.32449        50.000  
 16 04 02 14 18  4.5000000  0  4G04G16G07G26                                    
  23447386.78949 123216849.64149      8853.61349        50.000  
  21311264.68849 111991451.48049     -9234.81649        49.000  
  22985830.29749 120791352.39849     -2274.37549        50.000  
  22617649.23449 118856547.77749      2840.95349        50.000  
 16 04 02 14 18  4.6000000  0  4G04G16G07G26                                    
  23447218.34449 123215964.43849      8850.62549        50.000  
  21311440.46949 111992375.22749     -9239.44149        49.000  
  22985873.62549 120791580.06649     -2278.79749        50.000  
  22617595.21149 118856263.87149      2837.40249        50.000  
 16 04 02 14 18  4.7000000  0  4G04G16G07G26                                    
  23447049.92249 123215079.44149      8848.54749        50.000  
  21311616.32849 111993299.34849     -9243.28949        49.000  
  22985917.01649 120791808.09049     -2282.48049        50.000  
  22617541.24249 118855980.24249      2834.59849        50.000  
 16 04 02 14 18  4.8000000  0  4G04G16G07G26                                    
  23446881.57049 123214194.71149      8846.16849        50.000  
  21311792.25849 111994223.88349     -9247.27049        49.000  
  22985960.48449 120792036.52049     -2286.21149        50.000  
  22617487.32849 118855696.93449      2831.59449        50.000  
 16 04 02 14 18  4.9000000  0  4G04G16G07G26                                    
  23446713.24249 123213310.21549      8843.23449        50.000  
  21311968.27349 111995148.83249     -9251.65649        49.000  
  22986004.02349 120792265.33649     -2290.48049        50.000  
  22617433.47749 118855413.94149      2828.09849        50.000  
 16 04 02 14 18  5.0000000  0  4G04G16G07G26                                    
  23446544.99249 123212426.05549      8840.23049        50.000  
  21312144.37549 111996074.25049     -9256.24649        49.000  
  22986047.65649 120792494.62149     -2295.02749        50.000  
  22617379.69549 118855131.32049      2824.47349        50.000  
 16 04 02 14 18  5.1000000  0  4G04G16G07G26                                    
  23446376.78149 123211542.10949      8837.75449        50.000  
  21312320.54749 111997000.07049     -9260.28149        49.000  
  22986091.35949 120792724.28949     -2298.91449        50.000  
  22617325.96949 118854848.99249      2821.52049        50.000  
 16 04 02 14 18  5.2000000  0  4G04G16G07G26                                    
  23446208.61749 123210658.41449      8835.50049        50.000  
  21312496.80549 111997926.29749     -9264.25049        49.000  
  22986135.14149 120792954.34049     -2302.61349        50.000  
  22617272.30549 118854566.98849      2818.50849        50.000  
 16 04 02 14 18  5.3000000  0  4G04G16G07G26                                    
  23446040.50049 123209774.96149      8833.31249        50.000  
  21312673.13349 111998852.91849     -9268.03949        49.000  
  22986178.99249 120793184.77349     -2306.30149        50.000  
  22617218.69549 118854285.26649      2815.74649        50.000  
 16 04 02 14 18  5.4000000  0  4G04G16G07G26                                    
  23445872.43849 123208891.80149      8830.18449        50.000  
  21312849.55549 111999779.98849     -9272.66049        49.000  
  22986222.93049 120793415.65249     -2310.87549        50.000  
  22617165.15649 118854003.91849      2811.89149        50.000  
 16 04 02 14 18  5.5000000  0  4G04G16G07G26                                    
  23445704.43049 123208008.90649      8827.43849        50.000  
  21313026.05549 112000707.50449     -9277.24649        49.000  
  22986266.94549 120793646.94949     -2315.21949        50.000  
  22617111.68049 118853722.89849      2808.44949        50.000  
 16 04 02 14 18  5.6000000  0  4G04G16G07G26                                    
  23445536.46949 123207126.26649      8824.85549        50.000  
  21313202.63349 112001635.42249     -9281.25049        49.000  
  22986311.03149 120793878.63749     -2319.12549        50.000  
  22617058.25849 118853442.17249      2805.52749        50.000  
 16 04 02 14 18  5.7000000  0  4G04G16G07G26                                    
  23445368.56249 123206243.94149      8821.50849        50.000  
  21313379.30549 112002563.83649     -9286.29749        49.000  
  22986355.21149 120794110.80549     -2324.04349        50.000  
  22617004.92249 118853161.87149      2801.20749        50.000  
 16 04 02 14 18  5.8000000  0  4G04G16G07G26                                    
  23445200.73449 123205361.98049      8818.02349        50.000  
  21313556.07049 112003492.75849     -9291.45749        49.000  
  22986399.48449 120794343.45749     -2328.83249        50.000  
  22616951.64849 118852881.95749      2797.22749        50.000  
 16 04 02 14 18  5.9000000  0  4G04G16G07G26                                    
  23445032.93849 123204480.23849      8815.80949        50.000  
  21313732.90649 112004422.06249     -9295.29349        49.000  
  22986443.82849 120794576.49249     -2332.65249        50.000  
  22616898.44549 118852602.34449      2794.23449        50.000  
 16 04 02 14 18  6.0000000  0  4G04G16G07G26                                    
  23444865.20349 123203598.80149      8812.88349        50.000  
  21313909.83649 112005351.81249     -9299.60549        49.000  
  22986488.25849 120794809.97349     -2337.10249        50.000  
  22616845.29749 118852323.07849      2790.82449        50.000  
 16 04 02 14 18  6.1000000  0  4G04G16G07G26                                    
  23444697.51649 123202717.55949      8811.01649        50.000  
  21314086.83649 112006281.95349     -9303.28549        49.000  
  22986532.75849 120795043.79349     -2340.38749        50.000  
  22616792.21149 118852044.09049      2788.28549        50.000  
 16 04 02 14 18  6.2000000  0  4G04G16G07G26                                    
  23444529.86749 123201836.57449      8808.41449        50.000  
  21314263.90649 112007212.49649     -9307.32849        49.000  
  22986577.32849 120795278.02749     -2344.42249        50.000  
  22616739.18049 118851765.41849      2785.21949        50.000  
 16 04 02 14 18  6.3000000  0  4G04G16G07G26                                    
  23444362.27349 123200955.83649      8806.02349        50.000  
  21314441.06249 112008143.44549     -9311.41449        49.000  
  22986621.96949 120795512.63749     -2348.23049        50.000  
  22616686.21149 118851487.05549      2782.05949        50.000  
 16 04 02 14 18  6.4000000  0  4G04G16G07G26                                    
  23444194.72749 123200075.40649      8802.77349        50.000  
  21314618.31249 112009074.86749     -9316.22749        49.000  
  22986666.70349 120795747.70749     -2352.95749        50.000  
  22616633.31249 118851209.06649      2778.08249        50.000  
 16 04 02 14 18  6.5000000  0  4G04G16G07G26                                    
  23444027.24249 123199195.25049      8800.10949        50.000  
  21314795.64149 112010006.72349     -9320.51649        49.000  
  22986711.51649 120795983.20749     -2357.17249        50.000  
  22616580.47749 118850931.41049      2774.87949        50.000  
 16 04 02 14 18  6.6000000  0  4G04G16G07G26                                    
  23443859.80549 123198315.36749      8797.35549        50.000  
  21314973.04749 112010939.01249     -9325.05149        49.000  
  22986756.40649 120796219.10249     -2361.22749        50.000  
  22616527.70349 118850654.09049      2771.40249        50.000  
 16 04 02 14 18  6.7000000  0  4G04G16G07G26                                    
  23443692.41449 123197435.72749      8795.09449        50.000  
  21315150.53149 112011871.71149     -9328.81649        49.000  
  22986801.37549 120796455.41849     -2365.07049        50.000  
  22616474.99249 118850377.08249      2768.60949        50.000  
 16 04 02 14 18  6.8000000  0  4G04G16G07G26                                    
  23443525.06249 123196556.30549      8792.85249        50.000  
  21315328.09449 112012804.78949     -9332.82049        49.000  
  22986846.41449 120796692.09049     -2368.96549        50.000  
  22616422.32849 118850100.35249      2765.64849        50.000  
 16 04 02 14 18  6.9000000  0  4G04G16G07G26                                    
  23443357.76649 123195677.14549      8790.21149        50.000  
  21315505.72749 112013738.28149     -9336.85949        49.000  
  22986891.53149 120796929.15649     -2372.73849        50.000  
  22616369.73449 118849823.94149      2762.39849        50.000  
 16 04 02 14 18  7.0000000  0  4G04G16G07G26                                    
  23443190.53149 123194798.29349      8787.17649        50.000  
  21315683.46149 112014672.23049     -9341.48049        49.000  
  22986936.72749 120797166.67649     -2377.24249        50.000  
  22616317.20349 118849547.90249      2758.77349        50.000  
 16 04 02 14 18  7.1000000  0  4G04G16G07G26                                    
  23443023.34449 123193919.70749      8784.30549        50.000  
  21315861.26649 112015606.62949     -9346.00049        49.000  
  22986982.00849 120797404.62149     -2381.69149        50.000  
  22616264.74249 118849272.19949      2755.24249        50.000  
 16 04 02 14 18  7.2000000  0  4G04G16G07G26                                    
  23442856.20349 123193041.37549      8781.86349        50.000  
  21316039.15649 112016541.43049     -9350.05549        49.000  
  22987027.36749 120797642.95749     -2385.48849        50.000  
  22616212.33649 118848996.80149      2752.23049        50.000  
 16 04 02 14 18  7.3000000  0  4G04G16G07G26                                    
  23442689.10949 123192163.30149      8779.12149        50.000  
  21316217.11749 112017476.65649     -9354.34049        49.000  
  22987072.79749 120797881.70349     -2389.68449        50.000  
  22616159.99249 118848721.73849      2748.87149        50.000  
 16 04 02 14 18  7.4000000  0  4G04G16G07G26                                    
  23442522.07049 123191285.50449      8776.34449        50.000  
  21316395.17249 112018412.31649     -9358.75849        49.000  
  22987118.31249 120798120.87149     -2393.96949        50.000  
  22616107.71149 118848447.00849      2745.46549        50.000  
 16 04 02 14 18  7.5000000  0  4G04G16G07G26                                    
  23442355.09449 123190408.02749      8773.27749        50.000  
  21316573.32049 112019348.46949     -9363.59049        49.000  
  22987163.91449 120798360.50849     -2398.57849        50.000  
  22616055.50849 118848172.67249      2741.65649        50.000  
 16 04 02 14 18  7.6000000  0  4G04G16G07G26                                    
  23442188.17249 123189530.81649      8770.64149        50.000  
  21316751.53149 112020285.02349     -9367.64149        49.000  
  22987209.59449 120798600.55549     -2402.70349        50.000  
  22616003.35949 118847898.64849      2738.54749        50.000  
 16 04 02 14 18  7.7000000  0  4G04G16G07G26                                    
  23442021.27349 123188653.81649      8768.35549        50.000  
  21316929.82849 112021221.97349     -9371.63749        49.000  
  22987255.33649 120798840.94949     -2406.23049        50.000  
  22615951.26649 118847624.91049      2735.57049        50.000  
 16 04 02 14 18  7.8000000  0  4G04G16G07G26                                    
  23441854.43849 123187777.08649      8765.87949        50.000  
  21317108.21149 112022159.34849     -9375.72749        49.000  
  22987301.16449 120799081.77349     -2410.39149        50.000  
  22615899.23449 118847351.49649      2732.48049        50.000  
 16 04 02 14 18  7.9000000  0  4G04G16G07G26                                    
  23441687.65649 123186900.65649      8762.75049        50.000  
  21317286.67249 112023097.16849     -9380.26249        49.000  
  22987347.07849 120799323.03949     -2414.89849        50.000  
  22615847.28149 118847078.44949      2728.71549        50.000  
 16 04 02 14 18  8.0000000  0  4G04G16G07G26                                    
  23441520.93049 123186024.49649      8760.28149        50.000  
  21317465.21949 112024035.43049     -9384.53949        49.000  
  22987393.06249 120799564.71949     -2418.98849        50.000  
  22615795.38349 118846805.74249      2725.44549        50.000  
 16 04 02 14 18  8.1000000  0  4G04G16G07G26                                    
  23441354.26649 123185148.65649      8756.72749        50.000  
  21317643.85249 112024974.16849     -9389.52349        49.000  
  22987439.14849 120799806.85549     -2423.71949        50.000  
  22615743.56249 118846533.40249      2721.53149        50.000  
 16 04 02 14 18  8.2000000  0  4G04G16G07G26                                    
  23441187.65649 123184273.10549      8753.92249        50.000  
  21317822.57849 112025913.36749     -9394.04349        49.000  
  22987485.31249 120800049.45349     -2428.19949        50.000  
  22615691.80549 118846261.43049      2718.02049        50.000  
 16 04 02 14 18  8.3000000  0  4G04G16G07G26                                    
  23441021.08649 123183397.78549      8751.89549        50.000  
  21318001.37549 112026852.94149     -9397.79349        49.000  
  22987531.54749 120800292.40649     -2431.58649        50.000  
  22615640.10949 118845989.75049      2715.19149        50.000  
 16 04 02 14 18  8.4000000  0  4G04G16G07G26                                    
  23440854.56249 123182522.70349      8749.33249        50.000  
  21318180.25049 112027792.92649     -9401.82449        49.000  
  22987577.85249 120800535.75049     -2435.72749        50.000  
  22615588.46149 118845718.35949      2712.19549        50.000  
 16 04 02 14 18  8.5000000  0  4G04G16G07G26                                    
  23440688.08649 123181647.89849      8747.01249        50.000  
  21318359.20349 112028733.33249     -9405.79749        49.000  
  22987624.23449 120800779.50449     -2439.47749        50.000  
  22615536.88349 118845447.30149      2709.23049        50.000  
 16 04 02 14 18  8.6000000  0  4G04G16G07G26                                    
  23440521.66449 123180773.32049      8744.27049        50.000  
  21318538.23449 112029674.14849     -9410.09049        49.000  
  22987670.69549 120801023.66849     -2443.81649        50.000  
  22615485.36749 118845176.57449      2705.56249        50.000  
 16 04 02 14 18  8.7000000  0  4G04G16G07G26                                    
  23440355.29749 123179899.07849      8741.00849        50.000  
  21318717.35249 112030615.44549     -9414.94149        49.000  
  22987717.24249 120801268.27749     -2448.25449        50.000  
  22615433.92249 118844906.20349      2701.96549        50.000  
 16 04 02 14 18  8.8000000  0  4G04G16G07G26                                    
  23440188.98449 123179025.09849      8738.25049        50.000  
  21318896.55549 112031557.16449     -9419.28149        49.000  
  22987763.86749 120801513.30549     -2452.52349        50.000  
  22615382.53149 118844636.16849      2698.58649        50.000  
 16 04 02 14 18  8.9000000  0  4G04G16G07G26                                    
  23440022.72749 123178151.41849      8735.29349        50.000  
  21319075.85249 112032499.34449     -9423.83649        49.000  
  22987810.57849 120801758.78149     -2457.06649        50.000  
  22615331.21949 118844366.50449      2694.89149        50.000  
 16 04 02 14 18  9.0000000  0  4G04G16G07G26                                    
  23439856.52349 123177277.98049      8732.84849        50.000  
  21319255.21949 112033441.93049     -9427.88349        49.000  
  22987857.36749 120802004.64549     -2460.86749        50.000  
  22615279.96149 118844097.14549      2691.84849        50.000  
 16 04 02 14 18  9.1000000  0  4G04G16G07G26                                    
  23439690.36749 123176404.85249      8729.88749        50.000  
  21319434.67249 112034384.99249     -9432.59049        49.000  
  22987904.24249 120802250.97749     -2465.31249        50.000  
  22615228.77349 118843828.14849      2688.33649        50.000  
 16 04 02 14 18  9.2000000  0  4G04G16G07G26                                    
  23439524.25849 123175531.93049      8727.55149        50.000  
  21319614.20349 112035328.41049     -9436.30549        49.000  
  22987951.18049 120802497.64549     -2469.10249        50.000  
  22615177.64149 118843559.43849      2685.28949        50.000  
 16 04 02 14 18  9.3000000  0  4G04G16G07G26                                    
  23439358.20349 123174659.30949      8724.81649        50.000  
  21319793.82049 112036272.29749     -9440.80549        49.000  
  22987998.21149 120802744.75449     -2473.23049        50.000  
  22615126.57049 118843291.07449      2682.09449        50.000  
 16 04 02 14 18  9.4000000  0  4G04G16G07G26                                    
  23439192.21149 123173787.00849      8721.39549        50.000  
  21319973.52349 112037216.65249     -9445.73849        49.000  
  22988045.32849 120802992.35949     -2478.39849        50.000  
  22615075.57849 118843023.10549      2677.77749        50.000  
 16 04 02 14 18  9.5000000  0  4G04G16G07G26                                    
  23439026.28149 123172915.03549      8718.23049        50.000  
  21320153.32049 112038161.50849     -9450.59849        49.000  
  22988092.52349 120803240.41049     -2482.87149        50.000  
  22615024.65649 118842755.52049      2674.14549        50.000  
 16 04 02 14 18  9.6000000  0  4G04G16G07G26                                    
  23438860.39149 123172043.27049      8716.15249        50.000  
  21320333.18849 112039106.72349     -9454.23449        49.000  
  22988139.79749 120803488.82449     -2486.33649        50.000  
  22614973.78949 118842488.20749      2671.41849        50.000  
 16 04 02 14 18  9.7000000  0  4G04G16G07G26                                    
  23438694.56249 123171171.78949      8713.45749        50.000  
  21320513.14149 112040052.38349     -9458.55949        49.000  
  22988187.14849 120803737.67249     -2490.60949        50.000  
  22614922.99249 118842221.24249      2668.05149        50.000  
 16 04 02 14 18  9.8000000  0  4G04G16G07G26                                    
  23438528.77349 123170300.56649      8710.79349        50.000  
  21320693.18049 112040998.47749     -9462.93449        49.000  
  22988234.58649 120803986.91849     -2494.60949        50.000  
  22614872.25049 118841954.60949      2664.62949        50.000  
 16 04 02 14 18  9.9000000  0  4G04G16G07G26                                    
  23438363.02349 123169429.57049      8708.80149        50.000  
  21320873.28149 112041944.93049     -9466.49249        49.000  
  22988282.08649 120804236.53149     -2498.09449        50.000  
  22614821.56249 118841688.23449      2662.23049        50.000  
 16 04 02 14 18 10.0000000  0  4G04G16G07G26                                    
  23438197.32849 123168558.83249      8706.00849        50.000  
  21321053.46949 112042891.81249     -9470.73849        49.000  
  22988329.66449 120804486.56249     -2502.44549        50.000  
  22614770.94549 118841422.21549      2658.61749        50.000  
 16 04 02 14 18 10.1000000  0  4G04G16G07G26                                    
  23438031.68049 123167688.34849      8703.44149        50.000  
  21321233.73449 112043839.10549     -9474.92249        49.000  
  22988377.32049 120804736.98449     -2506.34449        50.000  
  22614720.37549 118841156.48449      2655.64549        50.000  
 16 04 02 14 18 10.2000000  0  4G04G16G07G26                                    
  23437866.09449 123166818.16049      8700.34849        50.000  
  21321414.08649 112044786.86349     -9479.65249        49.000  
  22988425.06249 120804987.85249     -2510.89549        50.000  
  22614669.88349 118840891.13349      2651.82049        50.000  
 16 04 02 14 18 10.3000000  0  4G04G16G07G26                                    
  23437700.54749 123165948.23049      8697.80949        50.000  
  21321594.51649 112045735.02749     -9483.71149        49.000  
  22988472.87549 120805239.12949     -2514.98449        50.000  
  22614619.44549 118840626.09449      2648.60549        50.000  
 16 04 02 14 18 10.4000000  0  4G04G16G07G26                                    
  23437535.05549 123165078.55549      8695.13749        50.000  
  21321775.02349 112046683.61749     -9488.03549        49.000  
  22988520.76649 120805490.79749     -2519.10549        50.000  
  22614569.07049 118840361.37149      2645.35249        50.000  
 16 04 02 14 18 10.5000000  0  4G04G16G07G26                                    
  23437369.62549 123164209.18449      8692.32049        50.000  
  21321955.61749 112047632.66849     -9492.52349        49.000  
  22988568.75049 120805742.91849     -2523.27749        50.000  
  22614518.76649 118840097.01649      2641.86349        50.000  
 16 04 02 14 18 10.6000000  0  4G04G16G07G26                                    
  23437204.22749 123163340.02749      8690.10949        50.000  
  21322136.28949 112048582.09049     -9496.27049        49.000  
  22988616.79749 120805995.41049     -2527.14849        50.000  
  22614468.51649 118839832.95349      2638.92649        50.000  
 16 04 02 14 18 10.7000000  0  4G04G16G07G26                                    
  23437038.88349 123162471.12949      8687.55949        50.000  
  21322317.03949 112049531.93049     -9500.33649        49.000  
  22988664.92249 120806248.30149     -2531.11349        50.000  
  22614418.32049 118839569.18449      2635.87949        50.000  
 16 04 02 14 18 10.8000000  0  4G04G16G07G26                                    
  23436873.58649 123161602.52049      8684.86349        50.000  
  21322497.86749 112050482.22349     -9504.84849        49.000  
  22988713.12549 120806501.61349     -2535.21549        50.000  
  22614368.19549 118839305.77749      2632.57049        50.000  
 16 04 02 14 18 10.9000000  0  4G04G16G07G26                                    
  23436708.33649 123160734.14149      8682.27049        50.000  
  21322678.78149 112051432.89549     -9508.84049        49.000  
  22988761.39849 120806755.32049     -2539.28949        50.000  
  22614318.13349 118839042.66849      2629.37949        50.000  
 16 04 02 14 18 11.0000000  0  4G04G16G07G26                                    
  23436543.14849 123159866.06649      8679.23849        50.000  
  21322859.77349 112052384.03549     -9513.37549        49.000  
  22988809.75849 120807009.45349     -2543.64549        50.000  
  22614268.13349 118838779.92649      2625.68849        50.000  
 16 04 02 14 18 11.1000000  0  4G04G16G07G26                                    
  23436378.01649 123158998.28149      8676.19549        50.000  
  21323040.85249 112053335.62549     -9517.91849        49.000  
  22988858.20349 120807264.03949     -2548.21549        50.000  
  22614218.20349 118838517.53549      2622.03549        50.000  
 16 04 02 14 18 11.2000000  0  4G04G16G07G26                                    
  23436212.95349 123158130.85549      8672.47749        50.000  
  21323222.03949 112054287.74649     -9523.49649        49.000  
  22988906.75049 120807519.13749     -2553.44149        50.000  
  22614168.35249 118838255.56249      2617.70349        50.000  
 16 04 02 14 18 11.3000000  0  4G04G16G07G26                                    
  23436047.93849 123157263.71149      8669.77749        50.000  
  21323403.30549 112055240.28549     -9527.64149        49.000  
  22988955.37549 120807774.65249     -2557.55549        50.000  
  22614118.56249 118837993.94549      2614.25849        50.000  
 16 04 02 14 18 11.4000000  0  4G04G16G07G26                                    
  23435882.97749 123156396.80149      8667.55549        50.000  
  21323584.64149 112056193.23449     -9531.52049        49.000  
  22989004.07049 120808030.55549     -2561.21949        50.000  
  22614068.83649 118837732.60949      2611.56249        50.000  
 16 04 02 14 18 11.5000000  0  4G04G16G07G26                                    
  23435718.07049 123155530.23449      8664.35249        50.000  
  21323766.07849 112057146.67649     -9536.34849        49.000  
  22989052.85949 120808286.93449     -2565.99249        50.000  
  22614019.18049 118837471.68049      2607.66849        50.000  
 16 04 02 14 18 11.6000000  0  4G04G16G07G26                                    
  23435553.21149 123154663.86749      8662.18449        50.000  
  21323947.58649 112058100.48849     -9540.24649        49.000  
  22989101.71149 120808543.67649     -2569.65249        50.000  
  22613969.57849 118837211.02749      2604.74249        50.000  
 16 04 02 14 18 11.7000000  0  4G04G16G07G26                                    
  23435388.39149 123153797.76249      8659.47349        50.000  
  21324129.16449 112059054.70749     -9544.20349        49.000  
  22989150.64849 120808800.80149     -2573.60549        50.000  
  22613920.03949 118836950.69149      2601.63749        50.000  
 16 04 02 14 18 11.8000000  0  4G04G16G07G26                                    
  23435223.64149 123152931.98449      8656.51649        50.000  
  21324310.84449 112060009.42249     -9548.94549        49.000  
  22989199.67249 120809058.42249     -2578.11349        50.000  
  22613870.57049 118836690.74249      2597.96549        50.000  
 16 04 02 14 18 11.9000000  0  4G04G16G07G26                                    
  23435058.93049 123152066.46549      8653.52749        50.000  
  21324492.59449 112060964.55549     -9553.44149        49.000  
  22989248.77349 120809316.44549     -2582.52049        50.000  
  22613821.17249 118836431.11749      2594.40249        50.000  
 16 04 02 14 18 12.0000000  0  4G04G16G07G26                                    
  23434894.28149 123151201.21149      8650.98849        50.000  
  21324674.43849 112061920.11749     -9557.65249        49.000  
  22989297.94549 120809574.87149     -2586.50049        50.000  
  22613771.82849 118836171.81649      2591.28949        50.000  
 16 04 02 14 18 12.1000000  0  4G04G16G07G26                                    
  23434729.66449 123150336.19149      8648.65249        50.000  
  21324856.34449 112062876.06249     -9561.60949        49.000  
  22989347.19549 120809833.68849     -2590.46549        50.000  
  22613722.53949 118835912.82449      2588.18849        50.000  
 16 04 02 14 18 12.2000000  0  4G04G16G07G26                                    
  23434565.12549 123149471.51249      8645.34049        50.000  
  21325038.35249 112063832.51249     -9566.50849        49.000  
  22989396.53949 120810092.97749     -2595.08249        50.000  
  22613673.32849 118835654.22349      2584.29749        50.000  
 16 04 02 14 18 12.3000000  0  4G04G16G07G26                                    
  23434400.63349 123148607.08649      8642.71549        50.000  
  21325220.43849 112064789.37149     -9570.79349        49.000  
  22989445.96149 120810352.67249     -2599.26649        50.000  
  22613624.18049 118835395.94149      2580.97349        50.000  
 16 04 02 14 18 12.4000000  0  4G04G16G07G26                                    
  23434236.18849 123147742.89849      8640.52049        50.000  
  21325402.59449 112065746.62549     -9574.60549        49.000  
  22989495.45349 120810612.75449     -2602.95749        50.000  
  22613575.08649 118835137.95749      2578.17649        50.000  
 16 04 02 14 18 12.5000000  0  4G04G16G07G26                                    
  23434071.78949 123146878.96949      8637.73449        50.000  
  21325584.83649 112066704.30549     -9578.94949        49.000  
  22989545.02349 120810873.24249     -2607.14549        50.000  
  22613526.05549 118834880.30149      2574.82849        50.000  
 16 04 02 14 18 12.6000000  0  4G04G16G07G26                                    
  23433907.43849 123146015.31249      8635.24649        50.000  
  21325767.15649 112067662.40649     -9582.98449        49.000  
  22989594.66449 120811134.13749     -2611.09049        50.000  
  22613477.08649 118834622.96949      2571.75849        50.000  
 16 04 02 14 18 12.7000000  0  4G04G16G07G26                                    
  23433743.13349 123145151.89149      8632.85249        50.000  
  21325949.55549 112068620.91449     -9587.03149        49.000  
  22989644.39149 120811395.42649     -2615.00049        50.000  
  22613428.18049 118834365.94949      2568.60549        50.000  
 16 04 02 14 18 12.8000000  0  4G04G16G07G26                                    
  23433578.88349 123144288.75049      8629.91849        50.000  
  21326132.03149 112069579.84449     -9591.30149        49.000  
  22989694.18849 120811657.14149     -2619.35549        50.000  
  22613379.32849 118834109.26649      2565.11349        50.000  
 16 04 02 14 18 12.9000000  0  4G04G16G07G26                                    
  23433414.68849 123143425.92249      8626.64549        50.000  
  21326314.60249 112070539.26649     -9596.33649        49.000  
  22989744.07849 120811919.30949     -2623.95749        50.000  
  22613330.55549 118833852.96149      2561.20349        50.000  
 16 04 02 14 18 13.0000000  0  4G04G16G07G26                                    
  23433250.54749 123142563.35549      8624.33249        50.000  
  21326497.25049 112071499.08249     -9600.19549        49.000  
  22989794.04749 120812181.88749     -2627.89149        50.000  
  22613281.84449 118833596.96949      2558.28949        50.000  
 16 04 02 14 18 13.1000000  0  4G04G16G07G26                                    
  23433086.44549 123141701.00849      8621.94149        50.000  
  21326679.97749 112072459.30949     -9604.23849        49.000  
  22989844.08649 120812444.82849     -2631.64849        50.000  
  22613233.18849 118833341.27349      2555.21149        50.000  
 16 04 02 14 18 13.2000000  0  4G04G16G07G26                                    
  23432922.40649 123140838.97349      8619.01249        50.000  
  21326862.78149 112073419.98049     -9608.75449        49.000  
  22989894.21149 120812708.22349     -2635.98849        50.000  
  22613184.59449 118833085.94149      2551.68849        50.000  
 16 04 02 14 18 13.3000000  0  4G04G16G07G26                                    
  23432758.42249 123139977.19149      8616.20349        50.000  
  21327045.67249 112074381.08649     -9613.21149        49.000  
  22989944.41449 120812972.02749     -2640.44949        50.000  
  22613136.07049 118832830.93049      2548.27349        50.000  
 16 04 02 14 18 13.4000000  0  4G04G16G07G26                                    
  23432594.49249 123139115.73849      8613.30149        50.000  
  21327228.64849 112075342.65249     -9617.67249        49.000  
  22989994.70349 120813236.30149     -2644.66849        50.000  
  22613087.61749 118832576.30149      2544.75849        50.000  
 16 04 02 14 18 13.5000000  0  4G04G16G07G26                                    
  23432430.60249 123138254.47349      8611.11349        50.000  
  21327411.70349 112076304.57849     -9621.34449        49.000  
  22990045.05549 120813500.91049     -2648.27349        50.000  
  22613039.21149 118832321.93849      2541.89149        50.000  
 16 04 02 14 18 13.6000000  0  4G04G16G07G26                                    
  23432266.76649 123137393.51649      8608.23849        50.000  
  21327594.83649 112077266.96949     -9625.82049        49.000  
  22990095.49249 120813765.96549     -2652.63349        50.000  
  22612990.87549 118832067.93049      2538.46149        50.000  
 16 04 02 14 18 13.7000000  0  4G04G16G07G26                                    
  23432102.98449 123136532.85249      8604.96949        50.000  
  21327778.06249 112078229.81649     -9630.66049        49.000  
  22990146.01649 120814031.47749     -2657.50849        50.000  
  22612942.60949 118831814.29749      2534.50849        50.000  
 16 04 02 14 18 13.8000000  0  4G04G16G07G26                                    
  23431939.25849 123135672.47749      8602.25849        50.000  
  21327961.36749 112079193.10549     -9635.02049        49.000  
  22990196.62549 120814297.42249     -2661.73049        50.000  
  22612894.41449 118831561.00049      2531.08649        50.000  
 16 04 02 14 18 13.9000000  0  4G04G16G07G26                                    
  23431775.57049 123134812.29749      8600.26649        50.000  
  21328144.74249 112080156.75849     -9638.58249        49.000  
  22990247.29749 120814563.69149     -2664.97749        50.000  
  22612846.25849 118831307.95749      2528.69949        50.000  
 16 04 02 14 18 14.0000000  0  4G04G16G07G26                                    
  23431611.96149 123133952.50449      8596.50049        50.000  
  21328328.21949 112081120.94149     -9643.81649        49.000  
  22990298.07049 120814830.49649     -2670.22349        50.000  
  22612798.19549 118831055.37149      2524.24649        50.000  
 16 04 02 14 18 14.1000000  0  4G04G16G07G26                                    
  23431448.38349 123133092.91849      8594.31249        50.000  
  21328511.76649 112082085.48449     -9647.45749        49.000  
  22990348.91449 120815097.65649     -2673.92649        50.000  
  22612750.18049 118830803.04749      2521.45349        50.000  
 16 04 02 14 18 14.2000000  0  4G04G16G07G26                                    
  23431284.86749 123132233.65649      8591.23449        50.000  
  21328695.41449 112083050.54349     -9652.54349        49.000  
  22990399.84449 120815365.29349     -2678.48049        50.000  
  22612702.24249 118830551.12549      2517.64549        50.000  
 16 04 02 14 18 14.3000000  0  4G04G16G07G26                                    
  23431121.39849 123131374.60549      8588.94549        50.000  
  21328879.12549 112084015.94549     -9656.14849        49.000  
  22990450.83649 120815633.28149     -2682.14549        50.000  
  22612654.35249 118830299.46549      2514.73449        50.000  
 16 04 02 14 18 14.4000000  0  4G04G16G07G26                                    
  23430957.99249 123130515.89549      8585.59449        50.000  
  21329062.93849 112084981.85249     -9661.12149        49.000  
  22990501.93049 120815901.75849     -2686.98849        50.000  
  22612606.53949 118830048.21149      2510.81249        50.000  
 16 04 02 14 18 14.5000000  0  4G04G16G07G26                                    
  23430794.62549 123129657.43049      8583.26649        50.000  
  21329246.82049 112085948.15649     -9665.06249        49.000  
  22990553.09449 120816170.62549     -2690.84849        50.000  
  22612558.78149 118829797.26249      2507.85949        50.000  
 16 04 02 14 18 14.6000000  0  4G04G16G07G26                                    
  23430631.32849 123128799.27749      8579.78149        50.000  
  21329430.78949 112086914.93049     -9669.96549        49.000  
  22990604.34449 120816439.94549     -2695.64849        50.000  
  22612511.10249 118829546.69149      2503.72349        50.000  
 16 04 02 14 18 14.7000000  0  4G04G16G07G26                                    
  23430468.08649 123127941.41449      8577.04349        50.000  
  21329614.85249 112087882.17649     -9674.55549        49.000  
  22990655.68049 120816709.71549     -2699.98449        50.000  
  22612463.48449 118829296.46949      2500.37149        50.000  
 16 04 02 14 18 14.8000000  0  4G04G16G07G26                                    
  23430304.88349 123127083.80949      8574.54349        50.000  
  21329798.98449 112088849.80949     -9678.50449        49.000  
  22990707.08649 120816979.87149     -2703.84849        50.000  
  22612415.93049 118829046.56649      2497.31649        50.000  
 16 04 02 14 18 14.9000000  0  4G04G16G07G26                                    
  23430141.73449 123126226.43049      8572.36749        50.000  
  21329983.19549 112089817.83649     -9682.23449        49.000  
  22990758.57049 120817250.41049     -2707.47749        50.000  
  22612368.43049 118828796.95349      2494.52049        50.000  
 16 04 02 14 18 15.0000000  0  4G04G16G07G26                                    
  23429978.63349 123125369.34849      8569.31649        50.000  
  21330167.49249 112090786.32049     -9686.79349        49.000  
  22990810.14149 120817521.39549     -2712.01249        50.000  
  22612321.00049 118828547.70749      2490.75849        50.000  
 16 04 02 14 18 15.1000000  0  4G04G16G07G26                                    
  23429815.58649 123124512.52049      8566.79349        50.000  
  21330351.86749 112091755.21549     -9690.99649        49.000  
  22990861.78149 120817792.77049     -2716.00049        50.000  
  22612273.62549 118828298.76649      2487.65649        50.000  
 16 04 02 14 18 15.2000000  0  4G04G16G07G26                                    
  23429652.58649 123123655.98049      8564.01249        50.000  
  21330536.32849 112092724.56249     -9695.37949        49.000  
  22990913.50049 120818064.58249     -2720.25849        50.000  
  22612226.32049 118828050.17649      2484.25849        50.000  
 16 04 02 14 18 15.3000000  0  4G04G16G07G26                                    
  23429489.64149 123122799.68049      8561.44949        50.000  
  21330720.85949 112093694.30549     -9699.50449        49.000  
  22990965.30549 120818336.79349     -2724.37949        50.000  
  22612179.07849 118827801.89849      2481.00049        50.000  
 16 04 02 14 18 15.4000000  0  4G04G16G07G26                                    
  23429326.73449 123121943.60949      8559.20749        50.000  
  21330905.46949 112094664.43449     -9703.34449        49.000  
  22991017.17249 120818609.35949     -2728.02049        50.000  
  22612131.89149 118827553.90649      2478.16449        50.000  
 16 04 02 14 18 15.5000000  0  4G04G16G07G26                                    
  23429163.89849 123121087.89849      8555.74249        50.000  
  21331090.18049 112095635.07849     -9708.41049        49.000  
  22991069.14149 120818882.44549     -2732.91849        50.000  
  22612084.77349 118827306.34049      2474.10949        50.000  
 16 04 02 14 18 15.6000000  0  4G04G16G07G26                                    
  23429001.10949 123120232.41449      8553.05149        50.000  
  21331274.96149 112096606.10949     -9712.63349        49.000  
  22991121.17249 120819155.89549     -2736.91849        50.000  
  22612037.71949 118827059.05549      2470.85249        50.000  
 16 04 02 14 18 15.7000000  0  4G04G16G07G26                                    
  23428838.37549 123119377.23849      8550.14549        50.000  
  21331459.82849 112097577.60549     -9717.07049        49.000  
  22991173.29749 120819429.80949     -2741.52349        50.000  
  22611990.73449 118826812.14849      2467.27049        50.000  
 16 04 02 14 18 15.8000000  0  4G04G16G07G26                                    
  23428675.69549 123118522.34849      8547.50849        50.000  
  21331644.78149 112098549.53949     -9721.38349        49.000  
  22991225.50049 120819704.13749     -2745.51249        50.000  
  22611943.81249 118826565.58249      2463.92649        50.000  
 16 04 02 14 18 15.9000000  0  4G04G16G07G26                                    
  23428513.06249 123117667.69549      8544.98049        50.000  
  21331829.81249 112099521.88349     -9725.52349        49.000  
  22991277.78149 120819978.87549     -2749.57449        50.000  
  22611896.94549 118826319.32849      2460.76249        50.000  
 16 04 02 14 18 16.0000000  0  4G04G16G07G26                                    
  23428350.48449 123116813.32449      8542.26649        50.000  
  21332014.93049 112100494.65249     -9729.76649        49.000  
  22991330.14149 120820254.01649     -2753.66049        50.000  
  22611850.14849 118826073.39849      2457.51649        50.000  
 16 04 02 14 18 16.1000000  0  4G04G16G07G26                                    
  23428187.95349 123115959.25849      8539.20349        50.000  
  21332200.12549 112101467.88349     -9734.31649        49.000  
  22991382.58649 120820529.61749     -2758.24249        50.000  
  22611803.42249 118825827.84849      2453.76649        50.000  
 16 04 02 14 18 16.2000000  0  4G04G16G07G26                                    
  23428025.49249 123115105.49249      8536.21949        50.000  
  21332385.41449 112102441.57849     -9738.93849        49.000  
  22991435.11749 120820805.66849     -2762.73849        50.000  
  22611756.76649 118825582.65649      2450.17649        50.000  
 16 04 02 14 18 16.3000000  0  4G04G16G07G26                                    
  23427863.06249 123114251.92649      8534.08649        50.000  
  21332570.77349 112103415.63349     -9742.68849        49.000  
  22991487.71149 120821082.05549     -2766.23049        50.000  
  22611710.15649 118825337.73049      2447.47749        50.000  
 16 04 02 14 18 16.4000000  0  4G04G16G07G26                                    
  23427700.68849 123113398.66449      8531.00449        50.000  
  21332756.21149 112104390.14149     -9747.19149        49.000  
  22991540.39149 120821358.89549     -2770.72749        50.000  
  22611663.61749 118825093.16049      2443.86749        50.000  
 16 04 02 14 18 16.5000000  0  4G04G16G07G26                                    
  23427538.37549 123112545.69549      8528.20349        50.000  
  21332941.74249 112105365.10949     -9751.68449        49.000  
  22991593.15649 120821636.16849     -2775.07849        50.000  
  22611617.14849 118824848.95749      2440.21149        50.000  
 16 04 02 14 18 16.6000000  0  4G04G16G07G26                                    
  23427376.10949 123111692.97349      8525.72749        50.000  
  21333127.35249 112106340.48049     -9755.75049        49.000  
  22991645.99249 120821913.84449     -2778.98849        50.000  
  22611570.73449 118824605.06249      2437.25449        50.000  
 16 04 02 14 18 16.7000000  0  4G04G16G07G26                                    
  23427213.89149 123110840.50849      8523.28149        50.000  
  21333313.03149 112107316.25449     -9759.75049        49.000  
  22991698.90649 120822191.91449     -2782.69149        50.000  
  22611524.38349 118824361.48049      2434.20749        50.000  
 16 04 02 14 18 16.8000000  0  4G04G16G07G26                                    
  23427051.71149 123109988.27349      8520.76249        50.000  
  21333498.79749 112108292.42649     -9763.71949        49.000  
  22991751.89849 120822470.38349     -2786.95349        50.000  
  22611478.08649 118824118.19949      2431.03149        50.000  
 16 04 02 14 18 16.9000000  0  4G04G16G07G26                                    
  23426889.59449 123109136.32049      8518.27049        50.000  
  21333684.64149 112109269.04349     -9767.89849        49.000  
  22991804.96949 120822749.26249     -2790.75049        50.000  
  22611431.85949 118823875.26249      2427.84049        50.000  
 16 04 02 14 18 17.0000000  0  4G04G16G07G26                                    
  23426727.53149 123108284.66449      8514.90249        50.000  
  21333870.57049 112110246.09849     -9772.66049        49.000  
  22991858.11749 120823028.57449     -2795.66849        50.000  
  22611385.69549 118823632.67249      2424.00449        50.000  
 16 04 02 14 18 17.1000000  0  4G04G16G07G26                                    
  23426565.51649 123107433.27749      8512.61749        50.000  
  21334056.57849 112111223.59449     -9776.81649        49.000  
  22991911.35949 120823308.32049     -2799.47749        50.000  
  22611339.59449 118823390.42649      2420.88349        50.000  
 16 04 02 14 18 17.2000000  0  4G04G16G07G26                                    
  23426403.53949 123106582.10549      8510.23449        50.000  
  21334242.65649 112112201.46149     -9780.65249        49.000  
  22991964.65649 120823588.42649     -2803.24649        50.000  
  22611293.54749 118823148.44949      2418.02349        50.000  
 16 04 02 14 18 17.3000000  0  4G04G16G07G26                                    
  23426241.63349 123105731.27049      8507.05149        50.000  
  21334428.82849 112113179.80949     -9785.47349        49.000  
  22992018.04749 120823868.98849     -2807.82049        50.000  
  22611247.57849 118822906.86749      2414.15649        50.000  
 16 04 02 14 18 17.4000000  0  4G04G16G07G26                                    
  23426079.76649 123104880.67649      8504.38349        50.000  
  21334615.08649 112114158.57849     -9789.68049        49.000  
  22992071.51649 120824149.96549     -2811.98849        50.000  
  22611201.66449 118822665.59849      2410.91449        50.000  
 16 04 02 14 18 17.5000000  0  4G04G16G07G26                                    
  23425917.95349 123104030.36749      8501.61749        50.000  
  21334801.42249 112115137.76649     -9793.92249        49.000  
  22992125.06249 120824431.36749     -2816.32449        50.000  
  22611155.82049 118822424.67249      2407.51249        50.000  
 16 04 02 14 18 17.6000000  0  4G04G16G07G26                                    
  23425756.20349 123103180.34449      8498.91449        50.000  
  21334987.84449 112116117.40649     -9798.28549        49.000  
  22992178.69549 120824713.19949     -2820.49249        50.000  
  22611110.03949 118822184.09849      2404.13749        50.000  
 16 04 02 14 18 17.7000000  0  4G04G16G07G26                                    
  23425594.48449 123102330.53549      8496.67249        50.000  
  21335174.33649 112117097.42649     -9802.22349        49.000  
  22992232.39849 120824995.37549     -2823.98849        50.000  
  22611064.30549 118821943.78549      2401.37149        50.000  
 16 04 02 14 18 17.8000000  0  4G04G16G07G26                                    
  23425432.83649 123101481.03549      8493.58649        50.000  
  21335360.91449 112118077.90649     -9806.89849        49.000  
  22992286.18049 120825278.02349     -2828.53549        50.000  
  22611018.64849 118821703.85949      2397.58249        50.000  
 16 04 02 14 18 17.9000000  0  4G04G16G07G26                                    
  23425271.22749 123100631.79349      8491.07449        50.000  
  21335547.57049 112119058.79749     -9810.84049        49.000  
  22992340.04749 120825561.07849     -2832.67249        50.000  
  22610973.05549 118821464.25449      2394.45749        50.000  
 16 04 02 14 18 18.0000000  0  4G04G16G07G26                                    
  23425109.67249 123099782.79749      8488.48849        50.000  
  21335734.30549 112120040.10249     -9815.05149        49.000  
  22992393.98449 120825844.52049     -2836.63349        50.000  
  22610927.51649 118821224.94949      2391.39149        50.000  
 16 04 02 14 18 18.1000000  0  4G04G16G07G26                                    
  23424948.16449 123098934.11749      8485.21949        50.000  
  21335921.12549 112121021.85249     -9819.56649        49.000  
  22992448.00849 120826128.41849     -2841.30949        50.000  
  22610882.04749 118820986.02049      2387.49649        50.000  
 16 04 02 14 18 18.2000000  0  4G04G16G07G26                                    
  23424786.71949 123098085.69549      8482.85949        50.000  
  21336108.03149 112122004.04749     -9823.90649        49.000  
  22992502.10949 120826412.72749     -2845.11749        50.000  
  22610836.64849 118820747.42649      2384.37149        50.000  
 16 04 02 14 18 18.3000000  0  4G04G16G07G26                                    
  23424625.31249 123097237.54349      8479.86349        50.000  
  21336295.01649 112122986.66049     -9828.24649        49.000  
  22992556.28949 120826697.44949     -2849.57049        50.000  
  22610791.30549 118820509.14849      2380.80149        50.000  
 16 04 02 14 18 18.4000000  0  4G04G16G07G26                                    
  23424463.96949 123096389.67249      8477.32849        50.000  
  21336482.08649 112123969.70749     -9832.40249        49.000  
  22992610.54749 120826982.59849     -2853.62149        50.000  
  22610746.02349 118820271.21149      2377.69949        50.000  
 16 04 02 14 18 18.5000000  0  4G04G16G07G26                                    
  23424302.67249 123095542.03949      8474.98449        50.000  
  21336669.23449 112124953.16049     -9836.53149        49.000  
  22992664.88349 120827268.12949     -2857.45349        50.000  
  22610700.80549 118820033.59049      2374.60249        50.000  
 16 04 02 14 18 18.6000000  0  4G04G16G07G26                                    
  23424141.43049 123094694.70749      8471.51249        50.000  
  21336856.46149 112125937.05549     -9841.19949        49.000  
  22992719.30549 120827554.10549     -2862.18449        50.000  
  22610655.65649 118819796.32449      2370.73449        50.000  
 16 04 02 14 18 18.7000000  0  4G04G16G07G26                                    
  23423980.25049 123093847.69949      8468.61349        50.000  
  21337043.78149 112126921.44149     -9845.91449        49.000  
  22992773.82049 120827840.55949     -2866.82849        50.000  
  22610610.57849 118819559.44149      2367.07049        50.000  
 16 04 02 14 18 18.8000000  0  4G04G16G07G26                                    
  23423819.11749 123093000.93449      8466.04749        50.000  
  21337231.18049 112127906.22749     -9850.02749        49.000  
  22992828.39849 120828127.39849     -2870.78949        50.000  
  22610565.55549 118819322.87149      2363.77749        50.000  
 16 04 02 14 18 18.9000000  0  4G04G16G07G26                                    
  23423658.03149 123092154.43449      8463.71149        50.000  
  21337418.65649 112128891.42649     -9853.96949        49.000  
  22992883.06249 120828414.64549     -2874.55149        50.000  
  22610520.60249 118819086.62149      2360.92249        50.000  
 16 04 02 14 18 19.0000000  0  4G04G16G07G26                                    
  23423496.99249 123091308.17649      8461.04349        50.000  
  21337606.21149 112129877.03149     -9858.09049        49.000  
  22992937.79749 120828702.28149     -2878.60949        50.000  
  22610475.69549 118818850.66849      2357.73849        50.000  
 16 04 02 14 18 19.1000000  0  4G04G16G07G26                                    
  23423336.00849 123090462.19149      8458.44149        50.000  
  21337793.85249 112130863.07049     -9862.39849        49.000  
  22992992.60949 120828990.32849     -2882.58249        50.000  
  22610430.86749 118818615.06249      2354.38749        50.000  
 16 04 02 14 18 19.2000000  0  4G04G16G07G26                                    
  23423175.07849 123089616.49649      8455.51249        50.000  
  21337981.57049 112131849.54349     -9866.75849        49.000  
  22993047.50849 120829278.82849     -2887.19149        50.000  
  22610386.09449 118818379.80549      2350.84049        50.000  
 16 04 02 14 18 19.3000000  0  4G04G16G07G26                                    
  23423014.19549 123088771.05949      8452.82849        50.000  
  21338169.37549 112132836.44949     -9871.09449        49.000  
  22993102.48449 120829567.72349     -2891.20749        50.000  
  22610341.39149 118818144.86349      2347.68449        50.000  
 16 04 02 14 18 19.4000000  0  4G04G16G07G26                                    
  23422853.36749 123087925.90649      8450.18449        50.000  
  21338357.25849 112133823.78149     -9875.32849        49.000  
  22993157.53949 120829857.03949     -2895.16849        50.000  
  22610296.75049 118817910.27049      2344.33249        50.000  
 16 04 02 14 18 19.5000000  0  4G04G16G07G26                                    
  23422692.58649 123087080.97749      8447.97749        50.000  
  21338545.21149 112134811.49649     -9879.10949        49.000  
  22993212.66449 120830146.73049     -2898.92249        50.000  
  22610252.16449 118817675.96549      2341.46149        50.000  
 16 04 02 14 18 19.6000000  0  4G04G16G07G26                                    
  23422531.85949 123086236.35249      8444.67649        50.000  
  21338733.25849 112135799.67649     -9884.00449        49.000  
  22993267.87549 120830436.87949     -2903.71949        50.000  
  22610207.64849 118817442.03149      2337.43449        50.000  
 16 04 02 14 18 19.7000000  0  4G04G16G07G26                                    
  23422371.18849 123085392.03149      8441.80549        50.000  
  21338921.39149 112136788.30949     -9888.44549        49.000  
  22993323.17249 120830727.46549     -2908.08249        50.000  
  22610163.19549 118817208.44149      2334.14549        50.000  
 16 04 02 14 18 19.8000000  0  4G04G16G07G26                                    
  23422210.56249 123084547.92249      8439.63349        50.000  
  21339109.58649 112137777.31649     -9892.25449        49.000  
  22993378.53949 120831018.42249     -2911.73049        50.000  
  22610118.80549 118816975.15249      2331.10949        50.000  
 16 04 02 14 18 19.9000000  0  4G04G16G07G26                                    
  23422049.98449 123083704.08649      8436.92649        50.000  
  21339297.87549 112138766.74649     -9896.37549        49.000  
  22993433.99249 120831309.78949     -2915.91449        50.000  
  22610074.46949 118816742.18449      2327.93049        50.000  
 16 04 02 14 18 20.0000000  0  4G04G16G07G26                                    
  23421889.45349 123082860.47349      8434.84049        50.000  
  21339486.22749 112139756.56249     -9900.00449        49.000  
  22993489.50849 120831601.53149     -2919.37149        50.000  
  22610030.19549 118816509.50049      2325.21949        50.000  
 16 04 02 14 18 20.1000000  0  4G04G16G07G26                                    
  23421728.96949 123082017.14149      8431.80549        50.000  
  21339674.66449 112140746.82049     -9904.60949        49.000  
  22993545.10249 120831893.69549     -2923.82849        50.000  
  22609985.97749 118816277.15649      2321.68849        50.000  
 16 04 02 14 18 20.2000000  0  4G04G16G07G26                                    
  23421568.53149 123081174.05149      8429.47749        50.000  
  21339863.18049 112141737.46949     -9908.42249        49.000  
  22993600.77349 120832186.24249     -2927.59849        50.000  
  22609941.82849 118816045.12549      2318.60249        50.000  
 16 04 02 14 18 20.3000000  0  4G04G16G07G26                                    
  23421408.15649 123080331.27349      8426.14849        50.000  
  21340051.78149 112142728.58649     -9913.27049        49.000  
  22993656.53149 120832479.25849     -2932.40249        50.000  
  22609897.74249 118815813.46149      2314.77749        50.000  
 16 04 02 14 18 20.4000000  0  4G04G16G07G26                                    
  23421247.84449 123079488.80549      8423.14849        50.000  
  21340240.46949 112143720.16449     -9917.84449        49.000  
  22993712.37549 120832772.71949     -2936.84049        50.000  
  22609853.72749 118815582.16449      2311.18849        50.000  
 16 04 02 14 18 20.5000000  0  4G04G16G07G26                                    
  23421087.57849 123078646.60549      8420.40249        50.000  
  21340429.25049 112144712.19149     -9922.53549        49.000  
  22993768.30549 120833066.61349     -2941.23449        50.000  
  22609809.78149 118815351.22749      2307.57049        50.000  
 16 04 02 14 18 20.6000000  0  4G04G16G07G26                                    
  23420927.37549 123077804.69549      8417.71149        50.000  
  21340618.10249 112145704.62949     -9926.55949        49.000  
  22993824.30549 120833360.91449     -2945.27749        50.000  
  22609765.89149 118815120.60249      2304.48849        50.000  
 16 04 02 14 18 20.7000000  0  4G04G16G07G26                                    
  23420767.19549 123076962.98449      8415.51249        50.000  
  21340807.03149 112146697.43849     -9930.11749        49.000  
  22993880.37549 120833655.57449     -2948.93449        50.000  
  22609722.06249 118814890.25449      2301.65649        50.000  
 16 04 02 14 18 20.8000000  0  4G04G16G07G26                                    
  23420607.07849 123076121.57449      8412.75849        50.000  
  21340996.04749 112147690.70349     -9934.44549        49.000  
  22993936.53149 120833950.68049     -2953.12949        50.000  
  22609678.29749 118814660.27349      2298.28149        50.000  
 16 04 02 14 18 20.9000000  0  4G04G16G07G26                                    
  23420447.02349 123075280.44949      8409.68449        50.000  
  21341185.14149 112148684.42649     -9939.22349        49.000  
  22993992.77349 120834246.22349     -2957.70349        50.000  
  22609634.59449 118814430.63749      2294.57449        50.000  
 16 04 02 14 18 21.0000000  0  4G04G16G07G26                                    
  23420287.00049 123074439.55949      8407.37949        50.000  
  21341374.31249 112149678.52049     -9943.05949        49.000  
  22994049.08649 120834542.13349     -2961.35549        50.000  
  22609590.96149 118814201.29749      2291.61349        50.000  
 16 04 02 14 18 21.1000000  0  4G04G16G07G26                                    
  23420127.03949 123073598.96549      8404.54349        50.000  
  21341563.56249 112150673.07049     -9947.42249        49.000  
  22994105.47749 120834838.49249     -2965.73049        50.000  
  22609547.38349 118813972.30949      2288.20349        50.000  
 16 04 02 14 18 21.2000000  0  4G04G16G07G26                                    
  23419967.14149 123072758.66849      8401.42249        49.000  
  21341752.91449 112151668.08249     -9952.30549        49.000  
  22994161.96149 120835135.28949     -2970.32049        50.000  
  22609503.87549 118813743.69149      2284.43049        50.000  
 16 04 02 14 18 21.3000000  0  4G04G16G07G26                                    
  23419807.28149 123071918.58649      8399.45749        50.000  
  21341942.32049 112152663.44949     -9955.66049        49.000  
  22994218.50849 120835432.46149     -2973.75049        50.000  
  22609460.42249 118813515.33249      2281.94549        50.000  
 16 04 02 14 18 21.4000000  0  4G04G16G07G26                                    
  23419647.45349 123071078.70349      8397.47349        50.000  
  21342131.80549 112153659.19149     -9959.31649        49.000  
  22994275.12549 120835729.96949     -2977.22749        50.000  
  22609417.01649 118813287.25449      2279.19949        50.000  
 16 04 02 14 18 21.5000000  0  4G04G16G07G26                                    
  23419487.69549 123070239.16049      8394.08249        49.000  
  21342321.38349 112154655.41449     -9964.17649        49.000  
  22994331.82849 120836027.95749     -2982.02049        50.000  
  22609373.69549 118813059.56649      2275.24649        50.000  
 16 04 02 14 18 21.6000000  0  4G04G16G07G26                                    
  23419327.98449 123069399.87149      8391.25849        49.000  
  21342511.03149 112155652.04349     -9968.44949        49.000  
  22994388.60949 120836326.35249     -2986.32449        50.000  
  22609330.42249 118812832.19149      2271.87149        50.000  
 16 04 02 14 18 21.7000000  0  4G04G16G07G26                                    
  23419168.32849 123068560.89549      8388.37149        49.000  
  21342700.78149 112156649.16049     -9973.10549        49.000  
  22994445.47749 120836625.19949     -2990.59849        50.000  
  22609287.22749 118812605.19949      2268.26649        50.000  
 16 04 02 14 18 21.8000000  0  4G04G16G07G26                                    
  23419008.71949 123067722.12949      8386.08249        49.000  
  21342890.58649 112157646.62549     -9976.82049        49.000  
  22994502.41449 120836924.41449     -2994.52049        50.000  
  22609244.08649 118812378.48049      2265.39149        50.000  
 16 04 02 14 18 21.9000000  0  4G04G16G07G26                                    
  23418849.15649 123066883.63349      8383.77049        49.000  
  21343080.48449 112158644.53149     -9980.91449        49.000  
  22994559.43049 120837224.02049     -2998.07849        50.000  
  22609201.00049 118812152.07849      2262.49649        50.000  
 16 04 02 14 18 22.0000000  0  4G04G16G07G26                                    
  23418689.64849 123066045.44149      8380.38349        49.000  
  21343270.46149 112159642.88749     -9985.68849        49.000  
  22994616.53949 120837524.10549     -3003.04349        50.000  
  22609157.99249 118811926.05949      2258.44149        50.000  
 16 04 02 14 18 22.1000000  0  4G04G16G07G26                                    
  23418530.21149 123065207.56649      8377.20349        49.000  
  21343460.53149 112160641.71549     -9990.35249        49.000  
  22994673.72749 120837824.62949     -3007.37949        50.000  
  22609115.05549 118811700.40649      2254.75849        50.000  
 16 04 02 14 18 22.2000000  0  4G04G16G07G26                                    
  23418370.81249 123064369.91849      8375.05149        49.000  
  21343650.68049 112161640.91849     -9994.13349        49.000  
  22994730.98449 120838125.53149     -3011.29349        50.000  
  22609072.16449 118811475.04749      2251.85949        50.000  
 16 04 02 14 18 22.3000000  0  4G04G16G07G26                                    
  23418211.46149 123063532.52349      8372.53949        49.000  
  21343840.90649 112162640.55949     -9998.24249        49.000  
  22994788.32849 120838426.84849     -3015.14849        50.000  
  22609029.34449 118811250.01249      2248.78949        50.000  
 16 04 02 14 18 22.4000000  0  4G04G16G07G26                                    
  23418052.17249 123062695.46149      8369.09449        49.000  
  21344031.21949 112163640.65249    -10003.00449        49.000  
  22994845.75049 120838728.63349     -3020.05549        50.000  
  22608986.59449 118811025.35249      2244.73049        50.000  
 16 04 02 14 18 22.5000000  0  4G04G16G07G26                                    
  23417892.93049 123061858.66849      8366.26649        49.000  
  21344221.60949 112164641.18449    -10007.47749        49.000  
  22994903.25849 120839030.81649     -3024.30949        50.000  
  22608943.90649 118810801.02749      2241.33649        50.000  
 16 04 02 14 18 22.6000000  0  4G04G16G07G26                                    
  23417733.75849 123061022.20349      8362.95749        49.000  
  21344412.10249 112165642.21949    -10012.46549        49.000  
  22994960.85949 120839333.51249     -3029.21149        50.000  
  22608901.28949 118810577.10549      2237.43049        50.000  
 16 04 02 14 18 22.7000000  0  4G04G16G07G26                                    
  23417574.63349 123060186.01649      8360.32049        49.000  
  21344602.67249 112166643.66049    -10016.59849        49.000  
  22995018.53149 120839636.59449     -3033.18449        50.000  
  22608858.74249 118810353.51249      2234.12149        50.000  
 16 04 02 14 18 22.8000000  0  4G04G16G07G26                                    
  23417415.55549 123059350.03149      8358.37949        49.000  
  21344793.31249 112167645.47749    -10020.15249        49.000  
  22995076.28149 120839940.03949     -3036.69549        50.000  
  22608816.24249 118810130.19149      2231.47749        50.000  
 16 04 02 14 18 22.9000000  0  4G04G16G07G26                                    
  23417256.52349 123058514.31649      8355.75449        49.000  
  21344984.03149 112168647.71149    -10024.41849        49.000  
  22995134.10249 120840243.89549     -3040.72749        50.000  
  22608773.81249 118809907.18849      2228.33649        50.000  
 16 04 02 14 18 23.0000000  0  4G04G16G07G26                                    
  23417097.53949 123057678.87149      8353.02049        49.000  
  21345174.82849 112169650.36349    -10028.53549        49.000  
  22995192.00049 120840548.17649     -3045.00049        50.000  
  22608731.43849 118809684.53549      2224.84849        50.000  
