     2.10           OBSERVATION DATA    G (GPS)             RINEX VERSION / TYPE
Convert v1.8.0                          07-Jun-2016 18:55   PGM / RUN BY / DATE 
Signal Strength values S1,S2 are in dBHz                    COMMENT             
                                                            MARKER NAME         
                                                            MARKER NUMBER       
                                                            OBSERVER / AGENCY   
                    NovAtel GPSCard                         REC # / TYPE / VERS 
                                                            ANT # / TYPE        
0.0000        0.0000        0.0000                          APPROX POSITION XYZ 
        0.0000        0.0000        0.0000                  ANTENNA: DELTA H/E/N
     1     1                                                WAVELENGTH FACT L1/2
     1     1     6   G02   G05   G06   G09   G25   G29      WAVELENGTH FACT L1/2
                                                            COMMENT             
                                                            COMMENT             
                                                            COMMENT             
                                                            COMMENT             
                                                            COMMENT             
                                                            COMMENT             
     8    C1    L1    D1    S1    P2    L2    D2    S2      # / TYPES OF OBSERV 
     0.100                                                  INTERVAL            
  2016    04    02    12    56     6.6000000    GPS         TIME OF FIRST OBS   
  2016    04    02    13    00    27.7000000    GPS         TIME OF LAST OBS    
Leap Seconds Unknown                                        COMMENT             
                                                            END OF HEADER       
 16 04 02 12 56  6.6000000  0  1G25                                             
  25738906.89149 135258868.11759      3860.69149        49.000  

 16 04 02 12 56  6.7000000  0  1G25                                             
  25738833.43849 135258482.12149      3859.10949        49.000  

 16 04 02 12 56  6.8000000  0  2G02G25                                          
  22380617.18049 117610936.39559      5413.50049        49.000  

  25738760.04749 135258096.31649      3857.07049        49.000  

 16 04 02 12 56  6.9000000  0  2G02G25                                          
  22380514.21149 117610395.32049      5407.82449        49.000  

  25738686.66449 135257710.71149      3854.89849        49.000  

 16 04 02 12 56  7.0000000  0  1G02                                             
  22380411.32849 117609854.75049      5403.16849        49.000  

 16 04 02 12 56  7.1000000  0  1G02                                             
  22380308.55549 117609314.70749      5397.79749        49.000  

 16 04 02 12 56  7.2000000  0  1G02                                             
  22380205.87549 117608775.18449      5392.77749        49.000  

 16 04 02 12 56  7.3000000  0  1G02                                             
  22380103.29749 117608236.12549      5387.84849        49.000  

 16 04 02 12 56  7.4000000  0  1G02                                             
  22380000.81249 117607697.62549      5382.28149        49.000  

 16 04 02 12 56  7.5000000  0  1G02                                             
  22379898.45349 117607159.70349      5376.75849        49.000  

 16 04 02 12 56  7.6000000  0  1G02                                             
  22379796.20349 117606622.23449      5371.95749        49.000  

 16 04 02 12 56  7.7000000  0  1G02                                             
  22379694.03949 117606085.35549      5366.11749        49.000  

 16 04 02 12 56  7.8000000  0  1G02                                             
  22379591.96949 117605549.01649      5360.93849        49.000  

 16 04 02 12 56  7.9000000  0  1G02                                             
  22379489.99249 117605013.15649      5355.93849        49.000  

 16 04 02 12 56  8.0000000  0  1G02                                             
  22379388.14149 117604477.82449      5350.66849        49.000  

 16 04 02 12 56  8.1000000  0  1G02                                             
  22379286.36749 117603943.02749      5345.20749        49.000  

 16 04 02 12 56  8.2000000  0  1G02                                             
  22379184.69549 117603408.78149      5339.87949        49.000  

 16 04 02 12 56  8.3000000  0  1G02                                             
  22379083.12549 117602875.02749      5334.76249        49.000  

 16 04 02 12 56  8.4000000  0  1G02                                             
  22378981.68049 117602341.85949      5329.18849        49.000  

 16 04 02 12 56  8.5000000  0  1G02                                             
  22378880.30549 117601809.13749      5324.59049        49.000  

 16 04 02 12 56  8.6000000  0  1G02                                             
  22378779.04749 117601276.96149      5319.14849        49.000  

 16 04 02 12 56  8.7000000  0  1G02                                             
  22378677.88349 117600745.31649      5313.85949        49.000  

 16 04 02 12 56  8.8000000  0  1G02                                             
  22378576.81249 117600214.16849      5308.89149        49.000  

 16 04 02 12 56  8.9000000  0  1G02                                             
  22378475.83649 117599683.56249      5303.29749        49.000  

 16 04 02 12 56  9.0000000  0  1G02                                             
  22378374.98449 117599153.54749      5297.35549        49.000  

 16 04 02 12 56  9.1000000  0  1G02                                             
  22378274.23449 117598624.08649      5291.87549        49.000  

 16 04 02 12 56  9.2000000  0  1G02                                             
  22378173.55549 117598095.09449      5287.15249        49.000  

 16 04 02 12 56  9.3000000  0  1G02                                             
  22378072.98449 117597566.61349      5282.21149        49.000  

 16 04 02 12 56  9.4000000  0  1G02                                             
  22377972.53149 117597038.67649      5276.79749        49.000  

 16 04 02 12 56  9.5000000  0  1G02                                             
  22377872.16449 117596511.24649      5271.65649        49.000  

 16 04 02 12 56  9.6000000  0  1G02                                             
  22377771.90649 117595984.32849      5266.60249        49.000  

 16 04 02 12 56  9.7000000  0  1G02                                             
  22377671.74249 117595457.93849      5261.16049        49.000  

 16 04 02 12 56  9.8000000  0  1G02                                             
  22377571.71149 117594932.17249      5255.05949        49.000  

 16 04 02 12 56  9.9000000  0  1G02                                             
  22377471.75049 117594406.87149      5250.04749        49.000  

 16 04 02 12 56 10.0000000  0  1G02                                             
  22377371.89149 117593882.10249      5245.18049        49.000  

 16 04 02 12 56 10.1000000  0  1G02                                             
  22377272.12549 117593357.85549      5239.69549        49.000  

 16 04 02 12 56 10.2000000  0  1G02                                             
  22377172.46949 117592834.12549      5234.80549        49.000  

 16 04 02 12 56 10.3000000  0  1G02                                             
  22377072.89149 117592310.83249      5230.30949        49.000  

 16 04 02 12 56 10.4000000  0  1G02                                             
  22376973.42249 117591788.12949      5224.44549        49.000  

 16 04 02 12 56 10.5000000  0  1G02                                             
  22376874.05549 117591265.98049      5218.73049        49.000  

 16 04 02 12 56 10.6000000  0  1G02                                             
  22376774.78949 117590744.29349      5214.16849        49.000  

 16 04 02 12 56 10.7000000  0  1G02                                             
  22376675.61749 117590223.14549      5208.98049        49.000  

 16 04 02 12 56 10.8000000  0  1G02                                             
  22376576.54749 117589702.55949      5203.05949        49.000  

 16 04 02 12 56 10.9000000  0  1G02                                             
  22376477.60249 117589182.60949      5196.77749        49.000  

 16 04 02 12 56 11.0000000  0  1G02                                             
  22376378.76649 117588663.19549      5191.26649        49.000  

 16 04 02 12 56 11.1000000  0  1G02                                             
  22376280.01649 117588144.24649      5186.63749        49.000  

 16 04 02 12 56 11.2000000  0  1G02                                             
  22376181.35249 117587625.79349      5182.16849        49.000  

 16 04 02 12 56 11.3000000  0  1G02                                             
  22376082.79749 117587107.85549      5176.92649        49.000  

 16 04 02 12 56 11.4000000  0  1G02                                             
  22375984.34449 117586590.45349      5171.50449        49.000  

 16 04 02 12 56 11.5000000  0  1G02                                             
  22375886.00049 117586073.64149      5165.25849        49.000  

 16 04 02 12 56 11.6000000  0  1G02                                             
  22375787.72749 117585557.27049      5160.97749        49.000  

 16 04 02 12 56 11.7000000  0  1G02                                             
  22375689.56249 117585041.40649      5156.06249        49.000  

 16 04 02 12 56 11.8000000  0  1G02                                             
  22375591.50849 117584526.10549      5150.42649        49.000  

 16 04 02 12 56 11.9000000  0  1G02                                             
  22375493.54749 117584011.31649      5145.23849        49.000  

 16 04 02 12 56 12.0000000  0  1G02                                             
  22375395.69549 117583497.06249      5139.84449        49.000  

 16 04 02 12 56 12.1000000  0  1G02                                             
  22375297.93049 117582983.32049      5134.66449        49.000  

 16 04 02 12 56 12.2000000  0  1G02                                             
  22375200.25849 117582470.10249      5129.70749        49.000  

 16 04 02 12 56 12.3000000  0  1G02                                             
  22375102.68849 117581957.36349      5124.52749        49.000  

 16 04 02 12 56 12.4000000  0  1G02                                             
  22375005.22749 117581445.18449      5119.43049        49.000  

 16 04 02 12 56 12.5000000  0  1G02                                             
  22374907.86749 117580933.57849      5113.20349        49.000  

 16 04 02 12 56 12.6000000  0  1G02                                             
  22374810.61749 117580422.48449      5108.06649        49.000  

 16 04 02 12 56 12.7000000  0  1G02                                             
  22374713.45349 117579911.88749      5103.45749        49.000  

 16 04 02 12 56 12.8000000  0  1G02                                             
  22374616.39149 117579401.80949      5098.26249        49.000  

 16 04 02 12 56 12.9000000  0  1G02                                             
  22374519.43049 117578892.25049      5092.94549        49.000  

 16 04 02 12 56 13.0000000  0  1G02                                             
  22374422.57049 117578383.25449      5087.30949        49.000    22374419.43041
  91619506.35251      3964.13741        22.000  
 16 04 02 12 56 13.1000000  0  1G02                                             
  22374325.81249 117577874.78549      5082.03949        49.000    22374322.68041
  91619110.15241      3960.03141        20.000  
 16 04 02 12 56 13.2000000  0  1G02                                             
  22374229.14149 117577366.80149      5077.02349        49.000    22374223.04741
  91618714.32841      3956.12541        20.000  
 16 04 02 12 56 13.3000000  0  1G02                                             
  22374132.58649 117576859.38349      5071.59449        49.000    22374126.49241
  91618318.94941      3951.89141        20.000  
 16 04 02 12 56 13.4000000  0  1G02                                             
  22374036.10949 117576352.40649      5067.05149        49.000    22374026.10941
  91617923.88341      3948.35241        20.000  
 16 04 02 12 56 13.5000000  0  1G02                                             
  22373939.73449 117575845.95749      5061.89849        49.000    22373929.72741
  91617529.22341      3944.33641        20.000  
 16 04 02 12 56 13.6000000  0  1G02                                             
  22373843.47749 117575340.06649      5056.15249        49.000    22373833.07841
  91617135.00041      3939.85941        20.000  
 16 04 02 12 56 13.7000000  0  1G02                                             
  22373747.31249 117574834.71949      5050.56649        49.000    22373736.90641
  91616741.19941      3935.50841        20.000  
 16 04 02 12 56 13.8000000  0  2G02G06                                          
  22373651.25049 117574329.88349      5045.82449        49.000    22373636.93041
  91616347.79341      3931.81241        20.000  
  25772598.67249 135435919.58259      6496.76649        49.000  

 16 04 02 12 56 13.9000000  0  2G02G06                                          
  22373555.28149 117573825.57449      5040.35549        49.000    22373540.96141
  91615954.82441      3927.55141        20.000  
  25772475.07049 135435270.06649      6493.68049        49.000  

 16 04 02 12 56 14.0000000  0  2G02G06                                          
  22373459.40649 117573321.78949      5035.10549        49.000    22373449.00041
  91615562.26241      3923.46141        20.000  
  25772351.50849 135434620.83249      6490.78549        49.000  

 16 04 02 12 56 14.1000000  0  2G02G06                                          
  22373363.64849 117572818.58649      5029.52049        49.000    22373353.24241
  91615170.15641      3919.10541        20.000  
  25772228.03149 135433971.95749      6487.43049        49.000  

 16 04 02 12 56 14.2000000  0  2G02G06                                          
  22373267.97749 117572315.83649      5024.80149        49.000    22373258.32041
  91614778.40241      3915.43041        21.000  
  25772104.58649 135433323.28149      6485.14149        49.000  

 16 04 02 12 56 14.3000000  0  2G02G06                                          
  22373172.41449 117571813.64149      5019.42249        49.000    22373162.75841
  91614387.07841      3911.23841        20.000  
  25771981.21149 135432674.94149      6482.02349        49.000  

 16 04 02 12 56 14.4000000  0  2G02G06                                          
  22373076.94549 117571311.89149      5014.81649        49.000    22373071.17241
  91613996.09441      3907.64841        20.000  
  25771857.86749 135432026.80549      6479.81649        49.000  

 16 04 02 12 56 14.5000000  0  2G02G06                                          
  22372981.58649 117570810.76649      5008.81649        49.000    22372975.80541
  91613605.59441      3902.97341        20.000  
  25771734.60949 135431379.06249      6476.15249        49.000  

 16 04 02 12 56 14.6000000  0  2G02G06                                          
  22372886.31249 117570310.12549      5003.66849        49.000    22372876.62541
  91613215.46941      3898.96141        20.000  
  25771611.41449 135430731.55149      6473.52749        49.000  

 16 04 02 12 56 14.7000000  0  2G02G06                                          
  22372791.14149 117569810.00049      4998.71149        49.000    22372781.45341
  91612825.74641      3895.09841        20.000  
  25771488.25049 135430084.34849      6470.66849        49.000  

 16 04 02 12 56 14.8000000  0  2G02G06                                          
  22372696.05549 117569310.40649      4993.27049        49.000    22372690.28941
  91612436.44141      3890.85941        20.000  
  25771365.14149 135429437.41849      6467.71149        49.000  

 16 04 02 12 56 14.9000000  0  2G02G06                                          
  22372601.09449 117568811.36749      4987.92249        49.000  

  25771242.09449 135428790.82449      6464.65649        49.000  

 16 04 02 12 56 15.0000000  0  2G02G06                                          
  22372506.23449 117568312.83249      4982.53149        49.000  

  25771119.10949 135428144.48449      6461.74249        49.000  

 16 04 02 12 56 15.1000000  0  2G02G06                                          
  22372411.46149 117567814.80149      4977.78149        49.000  

  25770996.16449 135427498.41849      6459.27749        49.000  

 16 04 02 12 56 15.2000000  0  2G02G06                                          
  22372316.78949 117567317.27749      4972.52049        49.000  

  25770873.29749 135426852.62549      6456.32049        49.000  

 16 04 02 12 56 15.3000000  0  2G02G06                                          
  22372222.23449 117566820.37549      4966.43449        49.000  

  25770750.47749 135426207.22349      6452.52049        49.000  

 16 04 02 12 56 15.4000000  0  2G02G06                                          
  22372127.75049 117566323.96949      4961.28149        49.000  

  25770627.72749 135425562.07449      6449.80949        49.000  

 16 04 02 12 56 15.5000000  0  2G02G06                                          
  22372033.39149 117565828.10949      4955.99249        49.000    22372035.24241
  91609744.07451      3861.81241        20.000  
  25770505.01649 135424917.23049      6446.97749        49.000  

 16 04 02 12 56 15.6000000  0  2G02G06                                          
  22371939.14149 117565332.78149      4950.41049        49.000    22371940.14141
  91609358.10541      3857.46541        20.000  
  25770382.37549 135424272.68449      6443.82849        49.000  

 16 04 02 12 56 15.7000000  0  2G02G06                                          
  22371844.98449 117564837.98849      4945.26249        49.000    22371845.98441
  91608972.54741      3853.44941        20.000  
  25770259.78149 135423628.45749      6440.94949        49.000  

 16 04 02 12 56 15.8000000  0  2G02G06                                          
  22371750.91449 117564343.70349      4940.23449        49.000    22371748.47741
  91608587.38741      3849.53541        20.000  
  25770137.22749 135422984.48449      6438.21949        49.000  

 16 04 02 12 56 15.9000000  0  2G02G06                                          
  22371656.95349 117563849.92249      4935.16849        49.000    22371654.51641
  91608202.62941      3845.58641        20.000  
  25770014.73449 135422340.78149      6435.47349        49.000  

 16 04 02 12 56 16.0000000  0  2G02G06                                          
  22371563.09449 117563356.69549      4929.42649        49.000    22371558.78941
  91607818.30541      3841.11341        20.000  
  25769892.31249 135421697.40649      6432.10549        49.000  

 16 04 02 12 56 16.1000000  0  2G02G06                                          
  22371469.33649 117562863.99649      4924.42249        49.000    22371465.03941
  91607434.39141      3837.21141        20.000  
  25769769.93849 135421054.31649      6429.45749        49.000  

 16 04 02 12 56 16.2000000  0  2G02G06                                          
  22371375.66449 117562371.79749      4919.25049        49.000    22371368.28941
  91607050.87141      3833.18041        20.000  
  25769647.60949 135420411.48849      6426.64849        49.000  

 16 04 02 12 56 16.3000000  0  2G02G06                                          
  22371282.10249 117561880.15649      4913.94549        49.000    22371274.73441
  91606667.78141      3829.04741        20.000  
  25769525.34449 135419768.98849      6423.68449        49.000  

 16 04 02 12 56 16.4000000  0  2G02G06                                          
  22371188.61749 117561388.97349      4909.19549        49.000  

  25769403.11749 135419126.70749      6421.32849        49.000  

 16 04 02 12 56 16.5000000  0  2G02G06                                          
  22371095.25049 117560898.30949      4904.06649        49.000  

  25769280.94549 135418484.71549      6418.57049        49.000  

 16 04 02 12 56 16.6000000  0  2G02G06                                          
  22371001.99249 117560408.22749      4898.10549        49.000  

  25769158.83649 135417843.06249      6414.96549        49.000  

 16 04 02 12 56 16.7000000  0  2G02G06                                          
  22370908.83649 117559918.67649      4892.55949        49.000  

  25769036.78949 135417201.71149      6411.69949        49.000  

 16 04 02 12 56 16.8000000  0  2G02G06                                          
  22370815.78149 117559429.66049      4887.51649        49.000  

  25768914.79749 135416560.66049      6409.11749        49.000  

 16 04 02 12 56 16.9000000  0  2G02G06                                          
  22370722.81249 117558941.11349      4882.98449        49.000  

  25768792.85249 135415919.83649      6406.85249        49.000  

 16 04 02 12 56 17.0000000  0  2G02G06                                          
  22370629.95349 117558453.09049      4877.54749        49.000  

  25768670.96149 135415279.30549      6403.87549        49.000  

 16 04 02 12 56 17.1000000  0  2G02G06                                          
  22370537.18049 117557965.56249      4872.60949        49.000  

  25768549.11749 135414639.03549      6401.24249        49.000  

 16 04 02 12 56 17.2000000  0  2G02G06                                          
  22370444.51649 117557478.64149      4866.57049        49.000  

  25768427.35949 135413999.13349      6397.51249        49.000  

 16 04 02 12 56 17.3000000  0  2G02G06                                          
  22370351.96149 117556992.26649      4860.92649        49.000  

  25768305.64849 135413359.53949      6394.36749        49.000  

 16 04 02 12 56 17.4000000  0  2G02G06                                          
  22370259.50049 117556506.35949      4856.28549        49.000  

  25768183.96949 135412720.17649      6391.88749        49.000  

 16 04 02 12 56 17.5000000  0  2G02G06                                          
  22370167.14849 117556021.02749      4850.67649        49.000  

  25768062.36749 135412081.16449      6388.68049        49.000  

 16 04 02 12 56 17.6000000  0  2G02G06                                          
  22370074.88349 117555536.23049      4845.32849        49.000  

  25767940.82049 135411442.43849      6385.73449        49.000  

 16 04 02 12 56 17.7000000  0  2G02G06                                          
  22369982.71149 117555051.87549      4841.05949        49.000  

  25767819.31249 135410803.92649      6383.82049        49.000  

 16 04 02 12 56 17.8000000  0  2G02G06                                          
  22369890.62549 117554568.03149      4835.69949        49.000  

  25767697.85949 135410165.68449      6380.79749        49.000  

 16 04 02 12 56 17.9000000  0  2G02G06                                          
  22369798.66449 117554084.76649      4829.80149        49.000  

  25767576.47749 135409527.78549      6377.36749        49.000  

 16 04 02 12 56 18.0000000  0  2G02G06                                          
  22369706.79749 117553602.00849      4824.85949        49.000  

  25767455.13349 135408890.16449      6374.61749        49.000  

 16 04 02 12 56 18.1000000  0  2G02G06                                          
  22369615.03149 117553119.75049      4819.87949        49.000  

  25767333.84449 135408252.80549      6371.96949        49.000  

 16 04 02 12 56 18.2000000  0  1G06                                             
  25767212.66449 135407615.83649      6368.17649        49.000  

 16 04 02 12 56 18.3000000  0  1G06                                             
  25767091.50049 135406979.11349      6365.51249        49.000  

 16 04 02 12 56 18.4000000  0  1G06                                             
  25766970.39849 135406342.69549      6362.52749        49.000  

 16 04 02 12 56 18.5000000  0  1G06                                             
  25766849.33649 135405706.52049      6360.26649        49.000  

 16 04 02 12 56 18.6000000  0  1G06                                             
  25766728.31249 135405070.60949      6357.76249        49.000  

 16 04 02 12 56 18.7000000  0  1G06                                             
  25766607.35949 135404434.99649      6354.59049        49.000  

 16 04 02 12 56 18.8000000  0  1G06                                             
  25766486.48449 135403799.75049      6350.86749        49.000  

 16 04 02 12 56 18.9000000  0  1G06                                             
  25766365.64149 135403164.73449      6348.70349        49.000  

 16 04 02 12 56 19.0000000  0  1G06                                             
  25766244.83649 135402529.98049      6346.02049        49.000    25766250.39141
 105508486.90651      4944.94941        20.000  
 16 04 02 12 56 19.1000000  0  1G06                                             
  25766124.10949 135401895.53949      6342.96149        49.000    25766129.65641
 105507992.53141      4942.56641        20.000  
 16 04 02 12 56 19.2000000  0  1G06                                             
  25766003.43049 135401261.43849      6339.63349        49.000    25766007.87541
 105507498.42241      4939.97341        21.000  
 16 04 02 12 56 19.3000000  0  1G06                                             
  25765882.80549 135400627.56249      6337.24249        49.000    25765887.25841
 105507004.48841      4938.10941        20.000  
 16 04 02 12 56 19.4000000  0  1G06                                             
  25765762.25049 135399993.98849      6334.16449        49.000    25765770.59441
 105506510.80541      4935.71141        20.000  
 16 04 02 12 56 19.5000000  0  1G06                                             
  25765641.74249 135399360.73849      6330.87149        49.000    25765650.09441
 105506017.38341      4933.14541        20.000  
 16 04 02 12 56 19.6000000  0  1G06                                             
  25765521.26649 135398727.72749      6328.58649        49.000    25765527.93841
 105505524.14141      4931.36741        20.000  
 16 04 02 12 56 19.7000000  0  1G06                                             
  25765400.86749 135398095.02349      6325.40249        49.000    25765407.53941
 105505031.14141      4928.88341        20.000  
 16 04 02 12 56 19.8000000  0  1G06                                             
  25765280.53949 135397462.68849      6322.07049        49.000    25765285.18841
 105504538.42641      4926.28941        20.000  
 16 04 02 12 56 19.9000000  0  1G06                                             
  25765160.25049 135396830.53549      6320.03549        49.000    25765164.89141
 105504045.84841      4924.70341        20.000  
 16 04 02 12 56 20.0000000  0  1G06                                             
  25765040.00849 135396198.75049      6316.39549        49.000    25765047.49241
 105503553.55141      4921.86341        20.000  
 16 04 02 12 56 20.1000000  0  1G06                                             
  25764919.82849 135395567.21949      6313.69549        49.000    25764927.31241
 105503061.45341      4919.76241        20.000  
 16 04 02 12 56 20.2000000  0  1G06                                             
  25764799.69549 135394935.95749      6311.03149        49.000    25764803.28941
 105502569.56641      4917.68841        20.000  
 16 04 02 12 56 20.3000000  0  1G06                                             
  25764679.62549 135394305.00049      6308.29349        49.000    25764683.21941
 105502077.91441      4915.55541        20.000  
 16 04 02 12 56 20.4000000  0  1G06                                             
  25764559.59449 135393674.26649      6306.03949        49.000    25764560.46941
 105501586.44141      4913.79741        20.000  
 16 04 02 12 56 20.5000000  0  1G06                                             
  25764439.64149 135393043.91849      6302.00449        49.000    25764440.52341
 105501095.27741      4910.65241        20.000  
 16 04 02 12 56 20.6000000  0  1G06                                             
  25764319.75849 135392413.86349      6298.88749        49.000    25764320.90641
 105500604.33641      4908.22341        20.000  
 16 04 02 12 56 20.7000000  0  1G06                                             
  25764199.91449 135391784.07049      6296.34849        49.000    25764201.07041
 105500113.60241      4906.24641        20.000  
 16 04 02 12 56 20.8000000  0  1G06                                             
  25764080.12549 135391154.58249      6293.39149        49.000    25764079.80541
 105499623.10941      4903.94141        20.000  
 16 04 02 12 56 20.9000000  0  1G06                                             
  25763960.38349 135390525.34449      6290.83249        49.000    25763960.06241
 105499132.78541      4901.94941        20.000  
 16 04 02 12 56 21.0000000  0  1G06                                             
  25763840.68049 135389896.41449      6287.91849        49.000    25763836.47741
 105498642.69141      4899.67641        20.000  
 16 04 02 12 56 21.1000000  0  1G06                                             
  25763721.05549 135389267.75849      6285.18449        49.000    25763716.83641
 105498152.81241      4897.54341        20.000  
 16 04 02 12 56 21.2000000  0  1G06                                             
  25763601.46949 135388639.41449      6281.78549        49.000    25763601.16441
 105497663.17641      4894.89541        20.000  
 16 04 02 12 56 21.3000000  0  1G06                                             
  25763481.96949 135388011.41449      6278.52749        49.000    25763481.65641
 105497173.80941      4892.35941        20.000  
 16 04 02 12 56 21.4000000  0  1G06                                             
  25763362.52349 135387383.61749      6276.43449        49.000  

 16 04 02 12 56 21.5000000  0  1G06                                             
  25763243.10949 135386756.10949      6273.62949        49.000  

 16 04 02 12 56 21.6000000  0  1G06                                             
  25763123.76649 135386128.93849      6270.28149        49.000  

 16 04 02 12 56 21.7000000  0  1G06                                             
  25763004.48449 135385502.08649      6266.91849        49.000  

 16 04 02 12 56 21.8000000  0  1G06                                             
  25762885.21149 135384875.46549      6264.86349        49.000  

 16 04 02 12 56 21.9000000  0  1G06                                             
  25762766.02349 135384249.13349      6261.97349        49.000  

 16 04 02 12 56 22.0000000  0  1G06                                             
  25762646.89849 135383623.05149      6259.48449        49.000    25762644.53141
 105493721.44151      4877.52041        20.000  
 16 04 02 12 56 22.1000000  0  1G06                                             
  25762527.81249 135382997.26249      6256.37149        49.000    25762525.44541
 105493233.81241      4875.09441        20.000  
 16 04 02 12 56 22.2000000  0  1G06                                             
  25762408.78949 135382371.83649      6252.75849        49.000    25762407.36741
 105492746.47341      4872.27741        20.000  
 16 04 02 12 56 22.3000000  0  1G06                                             
  25762289.82849 135381746.69949      6249.74249        49.000    25762288.40641
 105492259.35541      4869.93041        20.000  
 16 04 02 12 56 22.4000000  0  1G06                                             
  25762170.89849 135381121.81249      6247.35549        49.000  

 16 04 02 12 56 22.5000000  0  1G06                                             
  25762052.03949 135380497.20349      6244.49649        49.000  

 16 04 02 12 56 22.6000000  0  1G06                                             
  25761933.22749 135379872.93049      6241.17649        49.000  

 16 04 02 12 56 22.7000000  0  1G06                                             
  25761814.47749 135379248.91049      6238.79749        49.000  

 16 04 02 12 56 22.8000000  0  1G06                                             
  25761695.78949 135378625.15649      6236.03149        49.000  

 16 04 02 12 56 22.9000000  0  1G06                                             
  25761577.15649 135378001.71549      6232.94149        49.000  

 16 04 02 12 56 23.0000000  0  1G06                                             
  25761458.57849 135377378.57849      6229.73849        49.000  

 16 04 02 12 56 23.1000000  0  1G06                                             
  25761340.04749 135376755.69149      6227.28149        49.000  

 16 04 02 12 56 23.2000000  0  1G06                                             
  25761221.58649 135376133.10249      6224.58249        49.000  

 16 04 02 12 56 23.3000000  0  1G06                                             
  25761103.16449 135375510.77349      6221.79749        49.000  

 16 04 02 12 56 23.4000000  0  1G06                                             
  25760984.81249 135374888.74249      6218.86749        49.000  

 16 04 02 12 56 23.5000000  0  1G06                                             
  25760866.49249 135374266.98049      6216.23049        49.000    25760864.20341
 105486431.07451      4843.81641        20.000  
 16 04 02 12 56 23.6000000  0  1G06                                             
  25760748.22749 135373645.47349      6213.62149        49.000  

 16 04 02 12 56 23.7000000  0  1G06                                             
  25760630.02349 135373024.29749      6210.37149        49.000  

 16 04 02 12 56 23.8000000  0  1G06                                             
  25760511.85249 135372403.34849      6207.86749        49.000  

 16 04 02 12 56 23.9000000  0  1G06                                             
  25760393.75849 135371782.75449      6204.42249        49.000  

 16 04 02 12 56 24.0000000  0  1G06                                             
  25760275.71149 135371162.40649      6202.21149        49.000  

 16 04 02 12 56 24.1000000  0  1G06                                             
  25760157.71149 135370542.30949      6199.25049        49.000  

 16 04 02 12 56 24.2000000  0  1G06                                             
  25760039.78149 135369922.57449      6195.84049        49.000  

 16 04 02 12 56 24.3000000  0  1G06                                             
  25759921.90649 135369303.11349      6193.10949        49.000  

 16 04 02 12 56 24.4000000  0  1G06                                             
  25759804.07849 135368683.97349      6189.73049        49.000  

 16 04 02 12 56 24.5000000  0  1G06                                             
  25759686.32049 135368065.13349      6186.87949        49.000  

 16 04 02 12 56 24.6000000  0  1G06                                             
  25759568.59449 135367446.54349      6184.48049        49.000  

 16 04 02 12 56 24.7000000  0  1G06                                             
  25759450.93049 135366828.21549      6181.77049        49.000  

 16 04 02 12 56 24.8000000  0  1G06                                             
  25759333.33649 135366210.20749      6178.61749        49.000  

 16 04 02 12 56 24.9000000  0  1G06                                             
  25759215.78949 135365592.51249      6175.46949        49.000  

 16 04 02 12 56 25.0000000  0  1G06                                             
  25759098.30549 135364975.08649      6172.64149        49.000    25759094.48441
 105479184.78151      4809.85241        20.000  
 16 04 02 12 56 25.1000000  0  1G06                                             
  25758980.86749 135364357.92249      6170.00449        49.000    25758977.03941
 105478703.86341      4807.79741        20.000  
 16 04 02 12 56 25.2000000  0  1G06                                             
  25758863.45349 135363741.03949      6167.48849        49.000    25758855.74241
 105478223.16441      4805.83641        20.000  
 16 04 02 12 56 25.3000000  0  1G06                                             
  25758746.11749 135363124.45349      6164.27349        49.000    25758738.40641
 105477742.69541      4803.32841        20.000  
 16 04 02 12 56 25.4000000  0  1G06                                             
  25758628.85249 135362508.19949      6160.99649        49.000    25758625.03941
 105477262.48041      4800.77741        20.000  
 16 04 02 12 56 25.5000000  0  1G06                                             
  25758511.64149 135361892.27049      6157.80549        49.000    25758507.82841
 105476782.51641      4798.28941        20.000  
 16 04 02 12 56 25.6000000  0  1G06                                             
  25758394.47749 135361276.54749      6155.60249        49.000    25758394.56241
 105476302.71141      4796.57041        20.000  
 16 04 02 12 56 25.7000000  0  1G06                                             
  25758277.36749 135360661.12949      6152.79349        49.000    25758277.44541
 105475823.14841      4794.38741        20.000  
 16 04 02 12 56 25.8000000  0  1G06                                             
  25758160.32849 135360045.97349      6150.15249        49.000    25758163.57841
 105475343.78541      4792.32441        20.000  
 16 04 02 12 56 25.9000000  0  1G06                                             
  25758043.32049 135359431.07449      6147.67649        49.000  

 16 04 02 12 56 26.0000000  0  1G06                                             
  25757926.39149 135358816.50049      6144.29749        49.000  

 16 04 02 12 56 26.1000000  0  1G06                                             
  25757809.50049 135358202.21949      6141.25849        49.000  

 16 04 02 12 56 26.2000000  0  1G06                                             
  25757692.65649 135357588.18449      6139.05149        49.000  

 16 04 02 12 56 26.3000000  0  1G06                                             
  25757575.86749 135356974.44549      6135.82849        49.000  

 16 04 02 12 56 26.4000000  0  1G06                                             
  25757459.12549 135356361.02749      6132.59049        49.000  

 16 04 02 12 56 26.5000000  0  1G06                                             
  25757342.46149 135355747.96149      6129.05949        49.000  

 16 04 02 12 56 26.6000000  0  1G06                                             
  25757225.85949 135355135.10949      6126.93049        49.000  

 16 04 02 12 56 26.7000000  0  1G06                                             
  25757109.28949 135354522.55149      6124.21549        49.000  

 16 04 02 12 56 26.8000000  0  1G06                                             
  25756992.78149 135353910.26649      6121.45749        49.000  

 16 04 02 12 56 26.9000000  0  1G06                                             
  25756876.32849 135353298.27349      6118.38749        49.000  

 16 04 02 12 56 27.0000000  0  1G06                                             
  25756759.93049 135352686.60949      6114.92249        49.000  

 16 04 02 12 56 27.1000000  0  1G06                                             
  25756643.59449 135352075.26249      6112.03149        49.000  

 16 04 02 12 56 27.2000000  0  1G06                                             
  25756527.28149 135351464.14849      6109.44549        49.000  

 16 04 02 12 56 27.3000000  0  1G06                                             
  25756411.04749 135350853.36349      6106.46949        49.000  

 16 04 02 12 56 27.4000000  0  1G06                                             
  25756294.85249 135350242.79749      6104.23449        49.000  

 16 04 02 12 56 27.5000000  0  1G06                                             
  25756178.72749 135349632.53549      6101.19149        49.000  

 16 04 02 12 56 27.6000000  0  1G06                                             
  25756062.64849 135349022.55149      6098.19549        49.000  

 16 04 02 12 56 27.7000000  0  1G06                                             
  25755946.63349 135348412.86749      6095.48849        49.000  

 16 04 02 12 56 27.8000000  0  1G06                                             
  25755830.65649 135347803.42249      6093.09849        49.000  

 16 04 02 12 56 27.9000000  0  1G06                                             
  25755714.72749 135347194.23049      6090.32049        49.000  

 16 04 02 12 56 28.0000000  0  1G06                                             
  25755598.86749 135346585.41049      6086.82449        49.000  

 16 04 02 12 56 28.1000000  0  1G06                                             
  25755483.05549 135345976.78149      6084.85949        49.000  

 16 04 02 12 56 28.2000000  0  1G06                                             
  25755367.28949 135345368.46949      6081.82849        49.000  

 16 04 02 12 56 28.3000000  0  1G06                                             
  25755251.59449 135344760.45349      6078.47749        49.000    25755251.42241
 105463447.62951      4736.47741        20.000  
 16 04 02 12 56 28.4000000  0  1G06                                             
  25755135.96149 135344152.77749      6075.30149        49.000    25755135.78141
 105462974.09841      4734.00441        20.000  
 16 04 02 12 56 28.5000000  0  1G06                                             
  25755020.36749 135343545.33249      6072.96149        49.000    25755016.28141
 105462500.74641      4732.17641        20.000  
 16 04 02 12 56 28.6000000  0  1G06                                             
  25754904.84449 135342938.19549      6069.73449        49.000    25754900.74241
 105462027.64141      4729.66441        20.000  
 16 04 02 12 56 28.7000000  0  1G06                                             
  25754789.37549 135342331.41449      6066.20349        49.000  

 16 04 02 12 56 28.8000000  0  1G06                                             
  25754673.94549 135341724.91449      6063.53149        49.000  

 16 04 02 12 56 28.9000000  0  1G06                                             
  25754558.57849 135341118.67649      6060.95749        49.000  

 16 04 02 12 56 29.0000000  0  1G06                                             
  25754443.26649 135340512.69949      6058.36349        49.000  

 16 04 02 12 56 29.1000000  0  1G06                                             
  25754328.00849 135339907.02749      6055.24649        49.000  

 16 04 02 12 56 29.2000000  0  1G06                                             
  25754212.81249 135339301.62949      6052.57849        49.000  

 16 04 02 12 56 29.3000000  0  1G06                                             
  25754097.64849 135338696.45749      6050.44549        49.000  

 16 04 02 12 56 29.4000000  0  1G06                                             
  25753982.55549 135338091.58249      6047.27049        49.000  

 16 04 02 12 56 29.5000000  0  1G06                                             
  25753867.52349 135337487.07449      6043.49649        49.000  

 16 04 02 12 56 29.6000000  0  1G06                                             
  25753752.52349 135336882.77349      6041.39149        49.000  

 16 04 02 12 56 29.7000000  0  1G06                                             
  25753637.58649 135336278.81249      6038.12149        49.000  

 16 04 02 12 56 29.8000000  0  1G06                                             
  25753522.71949 135335675.11749      6035.57849        49.000  

 16 04 02 12 56 29.9000000  0  1G06                                             
  25753407.89849 135335071.74249      6032.07849        49.000  

 16 04 02 12 56 30.0000000  0  1G06                                             
  25753293.14149 135334468.57849      6030.17249        49.000  

 16 04 02 12 56 30.1000000  0  1G06                                             
  25753178.40649 135333865.67649      6027.59849        49.000  

 16 04 02 12 56 30.2000000  0  1G06                                             
  25753063.73449 135333263.08249      6024.43049        49.000  

 16 04 02 12 56 30.3000000  0  1G06                                             
  25752949.12549 135332660.81649      6021.23049        49.000  

 16 04 02 12 56 30.4000000  0  1G06                                             
  25752834.55549 135332058.76249      6019.09049        49.000  

 16 04 02 12 56 30.5000000  0  1G06                                             
  25752720.05549 135331457.02349      6015.94549        49.000  

 16 04 02 12 56 30.6000000  0  1G06                                             
  25752605.61749 135330855.64849      6012.05149        49.000  

 16 04 02 12 56 30.7000000  0  1G06                                             
  25752491.22749 135330254.52049      6009.66449        49.000  

 16 04 02 12 56 30.8000000  0  1G06                                             
  25752376.90649 135329653.69949      6006.62949        49.000  

 16 04 02 12 56 30.9000000  0  1G06                                             
  25752262.62549 135329053.14549      6004.32049        49.000  

 16 04 02 12 56 31.0000000  0  1G06                                             
  25752148.40649 135328452.87149      6001.37549        49.000  

 16 04 02 12 56 31.1000000  0  1G06                                             
  25752034.22749 135327852.85949      5998.90249        49.000  

 16 04 02 12 56 31.2000000  0  1G06                                             
  25751920.09449 135327253.10949      5996.09049        49.000  

 16 04 02 12 56 31.3000000  0  1G06                                             
  25751806.02349 135326653.67649      5992.77049        49.000  

 16 04 02 12 56 31.4000000  0  1G06                                             
  25751692.00849 135326054.52049      5989.95349        49.000  

 16 04 02 12 56 31.5000000  0  1G06                                             
  25751578.03949 135325455.60949      5987.74249        49.000  

 16 04 02 12 56 31.6000000  0  1G06                                             
  25751464.12549 135324856.98049      5984.98849        49.000  

 16 04 02 12 56 31.7000000  0  1G06                                             
  25751350.26649 135324258.64149      5981.88749        49.000  

 16 04 02 12 56 31.8000000  0  1G06                                             
  25751236.46949 135323660.62949      5978.52349        49.000  

 16 04 02 12 56 31.9000000  0  1G06                                             
  25751122.72749 135323062.91449      5975.66449        49.000  

 16 04 02 12 56 32.0000000  0  1G06                                             
  25751009.03949 135322465.42249      5973.35249        49.000  

 16 04 02 12 56 32.1000000  0  1G06                                             
  25750895.37549 135321868.13749      5971.49649        49.000    25750899.34441
 105445626.78951      4653.11341        20.000  
 16 04 02 12 56 32.2000000  0  1G06                                             
  25750781.76649 135321271.18849      5968.16449        49.000    25750785.75041
 105445161.64141      4650.52041        20.000  
 16 04 02 12 56 32.3000000  0  1G06                                             
  25750668.23449 135320674.55549      5964.68049        49.000    25750668.31241
 105444696.73841      4647.80141        20.000  
 16 04 02 12 56 32.4000000  0  1G06                                             
  25750554.75849 135320078.21149      5961.70349        49.000    25750554.83641
 105444232.06241      4645.48441        20.000  
 16 04 02 12 56 32.5000000  0  1G06                                             
  25750441.33649 135319482.16049      5959.12949        49.000  

 16 04 02 12 56 32.6000000  0  1G06                                             
  25750327.96149 135318886.37149      5956.57049        49.000  

 16 04 02 12 56 32.7000000  0  1G06                                             
  25750214.62549 135318290.81249      5954.22749        49.000  

 16 04 02 12 56 32.8000000  0  1G06                                             
  25750101.35249 135317695.55549      5951.11349        49.000  

 16 04 02 12 56 32.9000000  0  1G06                                             
  25749988.14149 135317100.61349      5947.90649        49.000  

 16 04 02 12 56 33.0000000  0  1G06                                             
  25749875.00849 135316506.02749      5944.14849        49.000  

 16 04 02 12 56 33.1000000  0  1G06                                             
  25749761.89849 135315911.66449      5942.10949        49.000  

 16 04 02 12 56 33.2000000  0  1G06                                             
  25749648.83649 135315317.55549      5939.67649        49.000  

 16 04 02 12 56 33.3000000  0  1G06                                             
  25749535.84449 135314723.78549      5936.38349        49.000  

 16 04 02 12 56 33.4000000  0  1G06                                             
  25749422.88349 135314130.26249      5933.62549        49.000  

 16 04 02 12 56 33.5000000  0  1G06                                             
  25749309.99249 135313537.01649      5931.18049        49.000  

 16 04 02 12 56 33.6000000  0  1G06                                             
  25749197.14849 135312944.00449      5928.77349        49.000  

 16 04 02 12 56 33.7000000  0  1G06                                             
  25749084.35249 135312351.23849      5926.35949        49.000  

 16 04 02 12 56 33.8000000  0  1G06                                             
  25748971.61749 135311758.81249      5922.66049        49.000  

 16 04 02 12 56 33.9000000  0  1G06                                             
  25748858.94549 135311166.72349      5919.19949        49.000  

 16 04 02 12 56 34.0000000  0  1G06                                             
  25748746.32049 135310574.91449      5916.60249        49.000  

 16 04 02 12 56 34.1000000  0  1G06                                             
  25748633.75849 135309983.40649      5913.50049        49.000  

 16 04 02 12 56 34.2000000  0  1G06                                             
  25748521.25849 135309392.16849      5910.77049        49.000  

 16 04 02 12 56 34.3000000  0  1G06                                             
  25748408.80549 135308801.25449      5907.57049        49.000  

 16 04 02 12 56 34.4000000  0  1G06                                             
  25748296.41449 135308210.60249      5905.05549        49.000  

 16 04 02 12 56 34.5000000  0  1G06                                             
  25748184.07049 135307620.24649      5902.17649        49.000  

 16 04 02 12 56 34.6000000  0  1G06                                             
  25748071.77349 135307030.07049      5900.21549        49.000  

 16 04 02 12 56 34.7000000  0  1G06                                             
  25747959.53149 135306440.26249      5896.73049        49.000  

 16 04 02 12 56 34.8000000  0  1G06                                             
  25747847.34449 135305850.70749      5894.11349        49.000  

 16 04 02 12 56 34.9000000  0  1G06                                             
  25747735.21149 135305261.45349      5891.03949        49.000  

 16 04 02 12 56 35.0000000  0  1G06                                             
  25747623.14849 135304672.51649      5887.78149        49.000  

 16 04 02 12 56 35.1000000  0  1G06                                             
  25747511.11749 135304083.80549      5885.59449        49.000  

 16 04 02 12 56 35.2000000  0  1G06                                             
  25747399.15649 135303495.39849      5882.82049        49.000  

 16 04 02 12 56 35.3000000  0  1G06                                             
  25747287.23449 135302907.24649      5880.05949        49.000  

 16 04 02 12 56 35.4000000  0  1G06                                             
  25747175.36749 135302319.41049      5876.93049        49.000  

 16 04 02 12 56 35.5000000  0  1G06                                             
  25747063.54749 135301731.78949      5874.82049        49.000  

 16 04 02 12 56 35.6000000  0  1G06                                             
  25746951.78149 135301144.44949      5871.80949        49.000    25746936.20341
 105429398.65251      4575.43441        20.000  
 16 04 02 12 56 35.7000000  0  1G06                                             
  25746840.08649 135300557.48049      5868.03149        49.000    25746827.29741
 105428941.27341      4572.49241        20.000  
 16 04 02 12 56 35.8000000  0  1G06                                             
  25746728.45349 135299970.80949      5865.00049        49.000    25746715.65641
 105428484.12541      4570.12941        20.000  
 16 04 02 12 56 35.9000000  0  1G06                                             
  25746616.85949 135299384.36749      5863.05549        49.000    25746601.39841
 105428027.15641      4568.61341        20.000  
 16 04 02 12 56 36.0000000  0  1G06                                             
  25746505.31249 135298798.18849      5860.49249        49.000    25746489.85241
 105427570.39841      4566.61741        20.000  
 16 04 02 12 56 36.1000000  0  1G06                                             
  25746393.81249 135298212.25449      5857.84449        49.000    25746378.17241
 105427113.83241      4564.55541        20.000  
 16 04 02 12 56 36.2000000  0  1G06                                             
  25746282.37549 135297626.65249      5854.62549        49.000    25746266.73441
 105426657.52741      4562.04741        20.000  
 16 04 02 12 56 36.3000000  0  1G06                                             
  25746170.98449 135297041.30149      5852.04749        49.000    25746155.22741
 105426201.41841      4560.03541        20.000  
 16 04 02 12 56 36.4000000  0  1G06                                             
  25746059.64849 135296456.23849      5849.17649        49.000    25746043.89141
 105425745.53141      4557.79741        22.000  
 16 04 02 12 56 36.5000000  0  1G06                                             
  25745948.36749 135295871.45349      5846.39849        49.000  

 16 04 02 12 57 37.9000000  0  1G05                                             
  22949360.23449 120599701.74259     14637.02749        49.000  

 16 04 02 12 57 38.0000000  0  1G05                                             
  22949081.75849 120598238.36749     14630.62149        49.000  

 16 04 02 12 57 38.1000000  0  1G05                                             
  22948803.39149 120596775.58249     14624.67649        49.000  

 16 04 02 12 57 38.2000000  0  1G05                                             
  22948525.14149 120595313.36749     14619.06649        49.000  

 16 04 02 12 57 38.3000000  0  1G05                                             
  22948246.99249 120593851.75049     14612.97749        49.000  

 16 04 02 12 57 38.4000000  0  1G05                                             
  22947968.96949 120592390.74649     14607.12149        49.000  

 16 04 02 12 57 38.5000000  0  1G05                                             
  22947691.02349 120590930.23849     14602.05149        49.000  

 16 04 02 12 57 38.6000000  0  1G05                                             
  22947413.22749 120589470.41849     14595.15249        49.000  

 16 04 02 12 57 38.7000000  0  1G05                                             
  22947135.53949 120588011.18449     14589.04749        49.000  

 16 04 02 12 57 38.8000000  0  1G05                                             
  22946857.96949 120586552.53549     14583.46949        49.000  

 16 04 02 12 57 38.9000000  0  1G05                                             
  22946580.54749 120585094.46949     14577.53949        49.000  

 16 04 02 12 57 39.0000000  0  1G05                                             
  22946303.21149 120583637.03149     14571.29349        49.000  

 16 04 02 12 57 39.1000000  0  1G05                                             
  22946025.96149 120582180.16849     14565.38749        49.000  

 16 04 02 12 57 39.2000000  0  1G05                                             
  22945748.84449 120580723.92649     14559.29749        49.000  

 16 04 02 12 57 39.3000000  0  1G05                                             
  22945471.84449 120579268.26249     14553.44149        49.000  

 16 04 02 12 57 39.4000000  0  1G05                                             
  22945194.95349 120577813.18849     14547.90249        49.000  

 16 04 02 12 57 39.5000000  0  1G05                                             
  22944918.18049 120576358.70749     14541.70749        49.000  

 16 04 02 12 57 39.6000000  0  1G05                                             
  22944641.52349 120574904.87949     14535.10249        49.000  

 16 04 02 12 57 39.7000000  0  1G05                                             
  22944364.99249 120573451.65649     14529.00049        49.000  

 16 04 02 12 57 39.8000000  0  1G05                                             
  22944088.57049 120571999.05549     14522.77749        49.000  

 16 04 02 12 57 39.9000000  0  1G05                                             
  22943812.23449 120570547.03949     14517.34049        49.000  

 16 04 02 12 57 40.0000000  0  1G05                                             
  22943536.02349 120569095.55149     14511.72749        49.000  

 16 04 02 12 57 40.1000000  0  1G05                                             
  22943259.93049 120567644.64849     14505.98449        49.000  

 16 04 02 12 57 40.2000000  0  1G05                                             
  22942983.94549 120566194.35549     14499.67249        49.000  

 16 04 02 12 57 40.3000000  0  1G05                                             
  22942708.10949 120564744.68849     14493.73449        49.000  

 16 04 02 12 57 40.4000000  0  1G05                                             
  22942432.35949 120563295.60549     14487.55149        49.000  

 16 04 02 12 57 40.5000000  0  1G05                                             
  22942156.75049 120561847.12549     14481.60249        49.000  

 16 04 02 12 57 40.6000000  0  1G05                                             
  22941881.23449 120560399.26649     14475.28149        49.000  

 16 04 02 12 57 40.7000000  0  1G05                                             
  22941605.82849 120558952.01649     14469.44549        49.000  

 16 04 02 12 57 40.8000000  0  1G05                                             
  22941330.53149 120557505.32849     14463.67649        49.000  

 16 04 02 12 57 40.9000000  0  1G05                                             
  22941055.32849 120556059.26649     14457.69149        49.000  

 16 04 02 12 57 41.0000000  0  1G05                                             
  22940780.25849 120554613.78149     14451.75849        49.000  

 16 04 02 12 57 41.1000000  0  1G05                                             
  22940505.32049 120553168.87549     14445.90249        49.000  

 16 04 02 12 57 41.2000000  0  1G05                                             
  22940230.48449 120551724.60549     14439.38749        49.000  

 16 04 02 12 57 41.3000000  0  1G05                                             
  22939955.77349 120550280.90649     14433.69949        49.000  

 16 04 02 12 57 41.4000000  0  1G05                                             
  22939681.16449 120548837.84449     14427.44549        49.000  

 16 04 02 12 57 41.5000000  0  1G05                                             
  22939406.68049 120547395.41449     14421.14149        49.000  

 16 04 02 12 57 41.6000000  0  1G05                                             
  22939132.30549 120545953.55949     14415.16449        49.000  

 16 04 02 12 57 41.7000000  0  1G05                                             
  22938858.03149 120544512.34049     14409.03149        49.000  

 16 04 02 12 57 41.8000000  0  1G05                                             
  22938583.88349 120543071.68449     14403.46149        49.000  

 16 04 02 12 57 41.9000000  0  1G05                                             
  22938309.85949 120541631.62549     14397.65649        49.000  

 16 04 02 12 57 42.0000000  0  1G05                                             
  22938035.93849 120540192.16049     14391.26649        49.000  

 16 04 02 12 57 42.1000000  0  1G05                                             
  22937762.14849 120538753.32449     14385.33249        49.000  

 16 04 02 12 57 42.2000000  0  1G05                                             
  22937488.44549 120537315.01649     14379.97349        49.000  

 16 04 02 12 57 42.3000000  0  1G05                                             
  22937214.85249 120535877.30549     14374.17249        49.000  

 16 04 02 12 57 42.4000000  0  1G05                                             
  22936941.39149 120534440.25049     14367.36349        49.000  

 16 04 02 12 57 42.5000000  0  1G05                                             
  22936668.04749 120533003.79749     14361.30149        49.000  

 16 04 02 12 57 42.6000000  0  1G05                                             
  22936394.79749 120531567.85949     14356.39849        49.000  

 16 04 02 12 57 42.7000000  0  1G05                                             
  22936121.65649 120530132.57849     14349.80149        49.000  

 16 04 02 12 57 42.8000000  0  1G05                                             
  22935848.64149 120528697.85249     14344.08649        49.000  

 16 04 02 12 57 42.9000000  0  1G05                                             
  22935575.76649 120527263.70349     14338.19549        49.000  

 16 04 02 12 57 43.0000000  0  1G05                                             
  22935302.98449 120525830.21149     14331.90249        49.000  

 16 04 02 12 57 43.1000000  0  1G05                                             
  22935030.29749 120524397.25049     14326.48849        49.000  

 16 04 02 12 57 43.2000000  0  1G05                                             
  22934757.73449 120522964.89849     14320.32449        49.000  

 16 04 02 12 57 43.3000000  0  1G05                                             
  22934485.28949 120521533.18849     14314.03549        49.000  

 16 04 02 12 57 43.4000000  0  1G05                                             
  22934212.94549 120520102.01249     14308.53949        49.000  

 16 04 02 12 57 43.5000000  0  1G05                                             
  22933940.72749 120518671.44549     14302.77749        49.000  

 16 04 02 12 57 43.6000000  0  1G05                                             
  22933668.62549 120517241.52749     14295.94149        49.000  

 16 04 02 12 57 43.7000000  0  1G05                                             
  22933396.61749 120515812.21549     14289.93849        49.000  

 16 04 02 12 57 43.8000000  0  1G05                                             
  22933124.73449 120514383.48049     14283.94549        49.000  

 16 04 02 12 57 43.9000000  0  1G05                                             
  22932852.98449 120512955.41849     14277.41449        49.000  

 16 04 02 12 57 44.0000000  0  1G05                                             
  22932581.33649 120511527.91849     14271.92649        49.000  

 16 04 02 12 57 44.1000000  0  1G05                                             
  22932309.81249 120510101.02349     14265.89849        49.000    22932314.10241
  93903992.70751     11116.28541        20.000  
 16 04 02 12 57 44.2000000  0  1G05                                             
  22932038.39149 120508674.67649     14260.43849        49.000    22932042.68041
  93902881.28141     11112.03141        20.000  
 16 04 02 12 57 44.3000000  0  1G05                                             
  22931767.07049 120507248.93049     14254.22349        49.000    22931775.28141
  93901770.32841     11107.18841        20.000  
 16 04 02 12 57 44.4000000  0  1G05                                             
  22931495.87549 120505823.78149     14248.49649        49.000    22931504.08641
  93900659.84441     11102.72741        20.000  
 16 04 02 12 57 44.5000000  0  1G05                                             
  22931224.78949 120504399.22749     14242.30149        49.000  

 16 04 02 12 57 44.6000000  0  1G05                                             
  22930953.82849 120502975.32049     14235.90649        49.000  

 16 04 02 12 57 44.7000000  0  1G05                                             
  22930683.00049 120501552.05149     14229.46549        49.000  

 16 04 02 12 57 44.8000000  0  1G05                                             
  22930412.27349 120500129.36349     14223.66449        49.000  

 16 04 02 12 57 44.9000000  0  1G05                                             
  22930141.64849 120498707.23049     14218.21149        49.000  

 16 04 02 12 57 45.0000000  0  1G05                                             
  22929871.13349 120497285.67649     14212.56649        49.000  

 16 04 02 12 57 45.1000000  0  1G05                                             
  22929600.72749 120495864.66449     14206.92649        49.000  

 16 04 02 12 57 45.2000000  0  1G05                                             
  22929330.44549 120494444.30549     14200.74249        49.000  

 16 04 02 12 57 45.3000000  0  1G05                                             
  22929060.25849 120493024.51249     14194.52749        49.000  

 16 04 02 12 57 45.4000000  0  1G05                                             
  22928790.21149 120491605.41049     14187.88349        49.000  

 16 04 02 12 57 45.5000000  0  1G05                                             
  22928520.25849 120490186.83249     14182.69149        49.000  

 16 04 02 12 57 45.6000000  0  1G05                                             
  22928250.43049 120488768.87549     14176.46949        49.000  

 16 04 02 12 57 45.7000000  0  1G05                                             
  22927980.71149 120487351.51649     14170.52049        49.000  

 16 04 02 12 57 45.8000000  0  1G05                                             
  22927711.11749 120485934.78949     14164.02049        49.000  

 16 04 02 12 57 45.9000000  0  1G05                                             
  22927441.63349 120484518.62549     14158.36749        49.000  

 16 04 02 12 57 46.0000000  0  1G05                                             
  22927172.25049 120483103.01649     14153.00449        49.000  

 16 04 02 12 57 46.1000000  0  1G05                                             
  22926902.97749 120481687.98849     14147.32849        49.000  

 16 04 02 12 57 46.2000000  0  1G05                                             
  22926633.82849 120480273.60549     14140.69149        49.000  

 16 04 02 12 57 46.3000000  0  1G05                                             
  22926364.80549 120478859.82849     14134.37549        49.000  

 16 04 02 12 57 46.4000000  0  1G05                                             
  22926095.89149 120477446.66449     14128.56249        49.000  

 16 04 02 12 57 46.5000000  0  1G05                                             
  22925827.08649 120476034.05949     14122.83249        49.000  

 16 04 02 12 57 46.6000000  0  1G05                                             
  22925558.39849 120474622.09849     14116.50049        49.000    22925578.68041
  93876411.99651     10999.86741        20.000  
 16 04 02 12 57 46.7000000  0  1G05                                             
  22925289.80549 120473210.69149     14110.86349        49.000    22925309.78141
  93875312.19941     10995.48041        20.000  
 16 04 02 12 57 46.8000000  0  1G05                                             
  22925021.34449 120471799.92249     14104.61349        49.000    22925041.32841
  93874212.90241     10990.60941        20.000  
 16 04 02 12 57 46.9000000  0  1G05                                             
  22924753.00849 120470389.77749     14098.15249        49.000    22924769.76641
  93873114.09041     10985.57441        20.000  
 16 04 02 12 57 47.0000000  0  1G05                                             
  22924484.77349 120468980.18449     14092.81649        49.000  

 16 04 02 12 57 47.1000000  0  1G05                                             
  22924216.63349 120467571.16849     14087.10949        49.000  

 16 04 02 12 57 47.2000000  0  1G05                                             
  22923948.61749 120466162.73849     14081.24249        49.000  

 16 04 02 12 57 47.3000000  0  1G05                                             
  22923680.71949 120464754.93049     14074.91849        49.000  

 16 04 02 12 57 47.4000000  0  1G05                                             
  22923412.93849 120463347.74649     14068.80549        49.000  

 16 04 02 12 57 47.5000000  0  1G05                                             
  22923145.27349 120461941.18049     14062.34449        49.000  

 16 04 02 12 57 47.6000000  0  1G05                                             
  22922877.73449 120460535.23449     14056.30949        49.000  

 16 04 02 12 57 47.7000000  0  1G05                                             
  22922610.28949 120459129.82449     14050.77349        49.000  

 16 04 02 12 57 47.8000000  0  1G05                                             
  22922342.96949 120457725.04349     14044.74649        49.000  

 16 04 02 12 57 47.9000000  0  1G05                                             
  22922075.77349 120456320.85949     14038.66849        49.000  

 16 04 02 12 57 48.0000000  0  1G05                                             
  22921808.67249 120454917.24249     14033.01649        49.000  

 16 04 02 12 57 48.1000000  0  1G05                                             
  22921541.70349 120453514.26649     14026.57449        49.000  

 16 04 02 12 57 48.2000000  0  1G05                                             
  22921274.84449 120452111.89549     14020.76249        49.000  

 16 04 02 12 57 48.3000000  0  1G05                                             
  22921008.09449 120450710.09049     14014.71149        49.000  

 16 04 02 12 57 48.4000000  0  1G05                                             
  22920741.46149 120449308.94149     14008.21549        49.000  

 16 04 02 12 57 48.5000000  0  1G05                                             
  22920474.93849 120447908.39849     14002.15649        49.000  

 16 04 02 12 57 48.6000000  0  1G05                                             
  22920208.54749 120446508.50049     13995.84449        49.000  

 16 04 02 12 58 49.5000000  0  1G25                                             
  25663935.43049 134864889.44959      1013.55949        49.000  

 16 04 02 12 58 49.6000000  0  2G25G06                                          
  25663916.15649 134864788.17249      1011.87549        49.000  

  25643433.41449 134757151.60259      2261.35249        49.000  

 16 04 02 12 58 49.7000000  0  2G25G06                                          
  25663896.96949 134864687.09449      1009.90649        49.000  

  25643390.40649 134756925.61349      2258.48849        49.000  

 16 04 02 12 58 49.8000000  0  3G02G25G06                                       
  22342605.65649 117411184.26259     -2917.64549        49.000  

  25663877.77349 134864586.21549      1007.96949        49.000  

  25643347.43849 134756699.91449      2255.69549        49.000  

 16 04 02 12 58 49.9000000  0  3G02G25G06                                       
  22342661.21949 117411476.25449     -2922.52349        49.000  

  25663858.56249 134864485.48449      1006.34049        49.000  

  25643304.53949 134756474.46949      2252.97749        49.000  

 16 04 02 12 58 50.0000000  0  3G02G25G06                                       
  22342716.89149 117411768.76649     -2927.56249        49.000  

  25663839.43049 134864384.93849      1004.53949        49.000  

  25643261.62549 134756249.28149      2250.50049        49.000  

 16 04 02 12 58 50.1000000  0  3G02G25G06                                       
  22342772.65649 117412061.81249     -2932.99649        49.000  

  25663820.28149 134864284.58649      1002.71949        49.000  

  25643218.83649 134756024.39849      2247.64149        49.000  

 16 04 02 12 58 50.2000000  0  3G02G25G06                                       
  22342828.50849 117412355.31649     -2937.68849        49.000  

  25663801.21149 134864184.37149      1001.24649        49.000  

  25643176.14849 134755799.75049      2245.05549        49.000  

 16 04 02 12 58 50.3000000  0  3G02G25G06                                       
  22342884.45349 117412649.34049     -2942.85549        49.000  

  25663782.14849 134864084.33249       999.35549        49.000  

  25643133.44549 134755575.36349      2242.43049        49.000  

 16 04 02 12 58 50.4000000  0  3G02G25G06                                       
  22342940.49249 117412943.84049     -2947.47749        49.000  

  25663763.14149 134863984.44549       998.09449        49.000  

  25643090.75849 134755351.22349      2240.14549        49.000  

 16 04 02 12 58 50.5000000  0  3G02G25G06                                       
  22342996.64149 117413238.90249     -2953.09049        49.000  

  25663744.18049 134863884.78949       995.66049        49.000  

  25643048.17249 134755127.40649      2236.82049        49.000  

 16 04 02 12 58 50.6000000  0  3G02G25G06                                       
  22343052.90649 117413534.37549     -2957.28149        49.000  

  25663725.22749 134863785.19549       994.94149        49.000  

  25643005.62549 134754903.75849      2235.09849        49.000  

 16 04 02 12 58 50.7000000  0  3G02G25G06                                       
  22343109.23449 117413830.38749     -2962.64149        49.000  

  25663706.36749 134863685.83649       992.70349        49.000  

  25642963.12549 134754680.41849      2232.04749        49.000  

 16 04 02 12 58 50.8000000  0  3G02G25G06                                       
  22343165.67249 117414126.92249     -2967.94949        49.000  

  25663687.49249 134863586.64149       991.06649        49.000  

  25642920.71949 134754457.35249      2229.27349        49.000  

 16 04 02 12 58 50.9000000  0  3G02G25G06                                       
  22343222.18849 117414423.94149     -2972.92649        49.000  

  25663668.64149 134863487.62149       989.18049        49.000  

  25642878.32049 134754234.55149      2226.49649        49.000  

 16 04 02 12 58 51.0000000  0  3G02G25G06                                       
  22343278.82049 117414721.51649     -2978.22749        49.000  

  25663649.83649 134863388.80549       987.26649        49.000  

  25642836.00049 134754012.03949      2223.68849        49.000  

 16 04 02 12 58 51.1000000  0  3G02G25G06                                       
  22343335.53149 117415019.52349     -2982.60949        49.000  

  25663631.07849 134863290.09849       986.35949        49.000  

  25642793.69549 134753789.73849      2221.72349        49.000  

 16 04 02 12 58 51.2000000  0  3G02G25G06                                       
  22343392.34449 117415318.09849     -2988.13349        49.000  

  25663612.34449 134863191.64149       983.79749        49.000  

  25642751.42249 134753567.77049      2218.46549        49.000  

 16 04 02 12 58 51.3000000  0  3G02G25G06                                       
  22343449.25049 117415617.13349     -2992.91449        49.000  

  25663593.60949 134863093.29749       982.58249        49.000  

  25642709.21949 134753346.02349      2216.13349        49.000  

 16 04 02 12 58 51.4000000  0  3G02G25G06                                       
  22343506.25849 117415916.73449     -2998.69949        49.000  

  25663574.94549 134862995.18849       980.08649        49.000  

  25642667.08649 134753124.58649      2212.86349        49.000  

 16 04 02 12 58 51.5000000  0  3G02G25G06                                       
  22343563.35249 117416216.78149     -3003.19949        49.000  

  25663556.28149 134862897.19549       978.86749        49.000  

  25642625.00049 134752903.39549      2210.51649        49.000  

 16 04 02 12 58 51.6000000  0  3G02G25G06                                       
  22343620.56249 117416517.39549     -3008.60249        49.000  

  25663537.68049 134862799.42649       976.90249        49.000  

  25642582.94549 134752682.49249      2207.59849        49.000  

 16 04 02 12 58 51.7000000  0  3G02G25G06                                       
  22343677.85949 117416818.47349     -3013.34449        49.000  

  25663519.10249 134862701.80949       975.30149        49.000  

  25642540.96149 134752461.83649      2205.14149        49.000  

 16 04 02 12 58 51.8000000  0  3G02G25G06                                       
  22343735.27349 117417120.06649     -3018.31249        49.000  

  25663500.55549 134862604.35549       973.74249        49.000  

  25642498.92249 134752241.44549      2202.64149        49.000  

 16 04 02 12 58 51.9000000  0  3G02G25G06                                       
  22343792.76649 117417422.16449     -3023.55549        49.000  

  25663482.04749 134862507.08649       971.88749        49.000  

  25642457.03149 134752021.32449      2199.87949        49.000  

 16 04 02 12 58 52.0000000  0  3G02G25G06                                       
  22343850.32849 117417724.71949     -3028.27349        49.000  

  25663463.56249 134862409.94949       970.37549        49.000  

  25642415.18849 134751801.42649      2197.50449        49.000  

 16 04 02 12 58 52.1000000  0  3G02G25G06                                       
  22343908.00849 117418027.79349     -3033.20349        49.000  

  25663445.14149 134862312.99249       968.74249        49.000  

  25642373.39849 134751581.81249      2194.87949        49.000  

 16 04 02 12 58 52.2000000  0  3G02G25G06                                       
  22343965.78149 117418331.38349     -3038.41449        49.000  

  25663426.72749 134862216.21949       966.82849        49.000  

  25642331.72749 134751362.48049      2191.89149        49.000  

 16 04 02 12 58 52.3000000  0  3G02G25G06                                       
  22344023.64849 117418635.47749     -3043.56649        49.000  

  25663408.36749 134862119.60949       965.13349        49.000  

  25642290.03949 134751143.39549      2189.39849        49.000  

 16 04 02 12 58 52.4000000  0  3G02G25G06                                       
  22344081.61749 117418940.05549     -3048.47349        49.000  

  25663390.00849 134862023.16049       963.47749        49.000  

  25642248.39149 134750924.57049      2186.75849        49.000  

 16 04 02 12 58 52.5000000  0  3G02G25G06                                       
  22344139.67249 117419245.16049     -3053.46149        49.000  

  25663371.70349 134861926.90649       961.94549        49.000  

  25642206.80549 134750706.02349      2184.22349        49.000  

 16 04 02 12 58 52.6000000  0  3G02G25G06                                       
  22344197.85949 117419550.74649     -3058.53549        49.000  

  25663353.40649 134861830.79349       960.25449        49.000  

  25642165.24249 134750487.72749      2181.49649        49.000  

 16 04 02 12 58 52.7000000  0  3G02G25G06                                       
  22344256.10249 117419856.83249     -3063.29349        49.000  

  25663335.11749 134861734.87549       958.34449        49.000  

  25642123.75049 134750269.69149      2179.12149        49.000  

 16 04 02 12 58 52.8000000  0  3G02G25G06                                       
  22344314.43049 117420163.42249     -3068.65249        49.000  

  25663316.89149 134861639.09849       956.65249        49.000  

  25642082.34449 134750051.91849      2176.16449        49.000  

 16 04 02 12 58 52.9000000  0  3G02G25G06                                       
  22344372.88349 117420470.59049     -3074.24249        49.000  

  25663298.76649 134861543.58649       954.20749        49.000  

  25642040.97749 134749834.49649      2172.79749        49.000  

 16 04 02 12 58 53.0000000  0  3G02G25G06                                       
  22344431.43849 117420778.27049     -3079.46949        49.000  

  25663280.62549 134861448.23849       952.44149        49.000  

  25641999.67249 134749617.33649      2169.98449        49.000  

 16 04 02 12 58 53.1000000  0  3G02G25G06                                       
  22344490.07849 117421086.42249     -3083.97349        49.000  

  25663262.51649 134861353.04749       951.17249        49.000  

  25641958.39149 134749400.41449      2167.93849        49.000  

 16 04 02 12 58 53.2000000  0  3G02G25G06                                       
  22344548.81249 117421395.08249     -3089.09449        49.000  

  25663244.43049 134861258.02349       949.39149        49.000  

  25641917.18849 134749183.75849      2165.22349        49.000  

 16 04 02 12 58 53.3000000  0  3G02G25G06                                       
  22344607.64849 117421704.24649     -3094.19149        49.000  

  25663226.37549 134861163.18049       947.58249        49.000  

  25641876.01649 134748967.37149      2162.50049        49.000  

 16 04 02 12 58 53.4000000  0  3G02G25G06                                       
  22344666.57049 117422013.82849     -3098.16449        49.000  

  25663208.34449 134861068.41849       946.87549        49.000  

  25641834.88349 134748751.16449      2160.93049        49.000  

 16 04 02 12 58 53.5000000  0  3G02G25G06                                       
  22344725.57849 117422323.93049     -3103.39849        49.000  

  25663190.36749 134860973.82849       945.27049        49.000  

  25641793.78949 134748535.23449      2158.11749        49.000  

 16 04 02 12 58 53.6000000  0  3G02G25G06                                       
  22344784.64849 117422634.46949     -3107.82449        49.000  

  25663172.39149 134860879.36749       943.87949        49.000  

  25641752.74249 134748319.50849      2155.96149        49.000  

 16 04 02 12 58 53.7000000  0  3G02G25G06                                       
  22344843.83649 117422945.51249     -3112.69149        49.000  

  25663154.45349 134860785.07449       942.22349        49.000  

  25641711.74249 134748104.05149      2153.46949        49.000  

 16 04 02 12 58 53.8000000  0  3G02G25G06                                       
  22344903.14849 117423257.08649     -3118.30149        49.000  

  25663136.54749 134860690.96949       940.03949        49.000  

  25641670.82049 134747888.87949      2150.45349        49.000  

 16 04 02 12 58 53.9000000  0  3G02G25G06                                       
  22344962.53149 117423569.15249     -3123.26649        49.000  

  25663118.64849 134860597.02749       938.43449        49.000  

  25641629.92249 134747673.96949      2147.72749        49.000  

 16 04 02 12 58 54.0000000  0  3G02G25G06                                       
  22345022.03149 117423881.72749     -3128.43849        49.000  

  25663100.80549 134860503.28549       936.51249        49.000  

  25641589.07049 134747459.32049      2144.97349        49.000  

 16 04 02 12 58 54.1000000  0  3G02G25G06                                       
  22345081.60949 117424194.82449     -3133.73449        49.000  

  25663083.01649 134860409.71149       934.52349        49.000  

  25641548.28149 134747244.96149      2141.98049        49.000  

 16 04 02 12 58 54.2000000  0  3G02G25G06                                       
  22345141.28149 117424508.45349     -3138.85249        49.000  

  25663065.24249 134860316.33649       932.82849        49.000  

  25641507.56249 134747030.89849      2139.26649        49.000  

 16 04 02 12 58 54.3000000  0  3G02G25G06                                       
  22345201.05549 117424822.55949     -3143.53949        49.000  

  25663047.49249 134860223.10949       931.48049        49.000  

  25641466.87549 134746817.06649      2136.98849        49.000  

 16 04 02 12 58 54.4000000  0  3G02G25G06                                       
  22345260.92249 117425137.15249     -3148.33649        49.000  

  25663029.78149 134860130.04749       929.93849        49.000  

  25641426.23449 134746603.49249      2134.52349        49.000  

 16 04 02 12 58 54.5000000  0  3G02G25G06                                       
  22345320.87549 117425452.21949     -3153.30549        49.000  

  25663012.07849 134860037.10949       928.37949        49.000  

  25641385.63349 134746390.14549      2131.98849        49.000  

 16 04 02 12 58 54.6000000  0  3G02G25G06                                       
  22345380.91449 117425767.84049     -3158.66449        49.000  

  25662994.43849 134859944.41849       926.12549        49.000  

  25641345.07049 134746177.12549      2128.88349        49.000  

 16 04 02 12 58 54.7000000  0  3G02G25G06                                       
  22345441.07049 117426083.94949     -3163.57849        49.000  

  25662976.82049 134859851.85949       924.84049        49.000  

  25641304.57849 134745964.34449      2126.52749        49.000  

 16 04 02 12 58 54.8000000  0  3G02G25G06                                       
  22345501.28949 117426400.50449     -3168.19949        49.000  

  25662959.23449 134859759.43449       923.37549        49.000  

  25641264.16449 134745751.77749      2124.27749        49.000  

 16 04 02 12 58 54.9000000  0  3G02G25G06                                       
  22345561.64849 117426717.66449     -3173.98849        49.000  

  25662941.69549 134859667.27349       920.82849        49.000  

  25641223.78149 134745539.57049      2120.77349        49.000  

 16 04 02 12 58 55.0000000  0  3G02G25G06                                       
  22345622.10249 117427035.28149     -3178.95749        49.000  

  25662924.18049 134859575.24249       919.35549        49.000  

  25641183.46149 134745327.59049      2118.35949        49.000  

 16 04 02 12 58 55.1000000  0  3G02G25G06                                       
  22345682.64149 117427353.44149     -3184.27349        49.000  

  25662906.71949 134859483.41849       917.18049        49.000  

  25641143.18049 134745115.91049      2115.32449        49.000  

 16 04 02 12 58 55.2000000  0  3G02G25G06                                       
  22345743.28949 117427672.14149     -3189.68449        49.000  

  25662889.28149 134859391.80949       915.23449        49.000  

  25641102.93049 134744904.53149      2112.38349        49.000  

 16 04 02 12 58 55.3000000  0  3G02G25G06                                       
  22345804.02349 117427991.29749     -3194.16849        49.000  

  25662871.87549 134859300.32049       913.96949        49.000  

  25641062.75049 134744693.38349      2110.09849        49.000  

 16 04 02 12 58 55.4000000  0  3G02G25G06                                       
  22345864.85249 117428310.91049     -3198.48049        49.000  

  25662854.48449 134859208.96549       912.80549        49.000  

  25641022.60249 134744482.43849      2108.17249        49.000  

 16 04 02 12 58 55.5000000  0  3G02G25G06                                       
  22345925.78149 117428631.07449     -3204.19549        49.000  

  25662837.14849 134859117.80149       910.65649        49.000  

  25640982.52349 134744271.80549      2104.84049        49.000  

 16 04 02 12 58 55.6000000  0  3G02G25G06                                       
  22345986.79749 117428951.75449     -3209.17249        49.000  

  25662819.84449 134859026.85249       908.90249        49.000  

  25640942.50049 134744061.46149      2102.28949        49.000  

 16 04 02 12 58 55.7000000  0  3G02G25G06                                       
  22346047.91449 117429272.93049     -3214.34449        49.000  

  25662802.56249 134858936.05549       907.15649        49.000  

  25640902.52349 134743851.36749      2099.58649        49.000  

 16 04 02 12 58 55.8000000  0  3G02G25G06                                       
  22346109.14849 117429594.67249     -3220.14549        49.000  

  25662785.32849 134858845.49649       904.57449        49.000  

  25640862.60249 134743641.61349      2096.10249        49.000  

 16 04 02 12 58 55.9000000  0  3G02G25G06                                       
  22346170.46149 117429916.87549     -3224.60549        49.000  

  25662768.12549 134858755.07449       903.30549        49.000  

  25640822.72749 134743432.07049      2094.00849        49.000  

 16 04 02 12 58 56.0000000  0  3G02G25G06                                       
  22346231.89849 117430239.57049     -3229.37549        49.000  

  25662750.94549 134858664.80149       901.93449        49.000  

  25640782.91449 134743222.78549      2091.56649        49.000  

 16 04 02 12 58 56.1000000  0  3G02G25G06                                       
  22346293.39849 117430562.77349     -3234.57449        49.000  

  25662733.80549 134858574.70749       900.08249        49.000  

  25640743.14149 134743013.76249      2088.86349        49.000  

 16 04 02 12 58 56.2000000  0  3G02G25G06                                       
  22346355.00049 117430886.43049     -3239.03549        49.000  

  25662716.68049 134858484.73049       898.88349        49.000  

  25640703.36749 134742804.96949      2086.64849        49.000  

 16 04 02 12 58 56.3000000  0  3G02G25G06                                       
  22346416.68849 117431210.60949     -3244.25049        49.000  

  25662699.61749 134858394.95749       896.97749        49.000  

  25640663.69549 134742596.45749      2083.80549        49.000  

 16 04 02 12 58 56.4000000  0  3G02G25G06                                       
  22346478.49249 117431535.32449     -3249.60249        49.000  

  25662682.57049 134858305.37549       894.96949        49.000  

  25640624.06249 134742388.22749      2080.89849        49.000  

 16 04 02 12 58 56.5000000  0  3G02G25G06                                       
  22346540.36749 117431860.48449     -3254.21149        49.000  

  25662665.54749 134858215.91449       893.75049        49.000  

  25640584.48449 134742180.21949      2078.66049        49.000  

 16 04 02 12 58 56.6000000  0  3G02G25G06                                       
  22346602.35249 117432186.18849     -3259.54349        49.000  

  25662648.56249 134858126.66849       891.58649        49.000  

  25640544.96149 134741972.51649      2075.63349        49.000  

 16 04 02 12 58 56.7000000  0  3G02G25G06                                       
  22346664.42249 117432512.38749     -3264.63349        49.000  

  25662631.62549 134858037.58649       889.73849        49.000  

  25640505.48449 134741765.06649      2073.05549        49.000  

 16 04 02 12 58 56.8000000  0  3G02G25G06                                       
  22346726.60249 117432839.13749     -3270.10249        49.000  

  25662614.71149 134857948.72749       887.60249        49.000  

  25640466.07049 134741557.93449      2069.80549        49.000  

 16 04 02 12 58 56.9000000  0  3G02G25G06                                       
  22346788.86749 117433166.35549     -3274.68049        49.000  

  25662597.83649 134857859.99249       886.43849        49.000  

  25640426.69549 134741351.03149      2067.64849        49.000  

 16 04 02 12 58 57.0000000  0  3G02G25G06                                       
  22346851.21949 117433494.08249     -3279.65249        49.000  

  25662580.98449 134857771.42649       884.90649        49.000  

  25640387.39849 134741144.37949      2065.31249        49.000  

 16 04 02 12 58 57.1000000  0  3G02G25G06                                       
  22346913.67249 117433822.27049     -3284.41849        49.000  

  25662564.16449 134857683.02349       883.15649        49.000  

  25640348.12549 134740937.98049      2062.76249        49.000  

 16 04 02 12 58 57.2000000  0  3G02G25G06                                       
  22346976.22749 117434150.97749     -3289.58249        49.000  

  25662547.36749 134857594.78149       881.48049        49.000  

  25640308.89149 134740731.84849      2059.93049        49.000  

 16 04 02 12 58 57.3000000  0  3G02G25G06                                       
  22347038.87549 117434480.18049     -3294.50449        49.000  

  25662530.61749 134857506.71149       879.96149        49.000  

  25640269.71949 134740525.96949      2057.53949        49.000  

 16 04 02 12 58 57.4000000  0  3G02G25G06                                       
  22347101.60249 117434809.84449     -3299.23449        49.000  

  25662513.88349 134857418.77749       878.36749        49.000  

  25640230.57849 134740320.32449      2055.07449        49.000  

 16 04 02 12 58 57.5000000  0  3G02G25G06                                       
  22347164.44549 117435140.09049     -3304.89549        49.000  

  25662497.20349 134857331.09049       876.07449        49.000  

  25640191.51649 134740115.02049      2051.72749        49.000  

 16 04 02 12 58 57.6000000  0  3G02G25G06                                       
  22347227.39149 117435470.77349     -3309.32049        49.000  

  25662480.53949 134857243.50849       874.91449        49.000  

  25640152.48449 134739909.91049      2049.80149        49.000  

 16 04 02 12 58 57.7000000  0  3G02G25G06                                       
  22347290.41449 117435801.98049     -3314.71149        49.000  

  25662463.92249 134857156.12149       872.81249        49.000  

  25640113.50849 134739705.09849      2046.75049        49.000  

 16 04 02 12 58 57.8000000  0  3G02G25G06                                       
  22347353.56249 117436133.76249     -3320.27349        49.000  

  25662447.34449 134857068.97749       870.53549        49.000  

  25640074.60249 134739500.60549      2043.55949        49.000  

 16 04 02 12 58 57.9000000  0  3G02G25G06                                       
  22347416.78149 117436465.98849     -3324.81649        49.000  

  25662430.77349 134856981.93049       869.51649        49.000  

  25640035.72749 134739296.32449      2041.41849        49.000  

 16 04 02 12 58 58.0000000  0  3G02G25G06                                       
  22347480.10249 117436798.69549     -3329.52049        49.000  

  25662414.24249 134856895.07449       867.81649        49.000  

  25639996.93049 134739092.30949      2038.96149        49.000  

 16 04 02 12 58 58.1000000  0  3G02G25G06                                       
  22347543.50849 117437131.89149     -3334.23449        49.000  

  25662397.73449 134856808.33249       866.68849        49.000  

  25639958.14149 134738888.50449      2036.91849        49.000  

 16 04 02 12 58 58.2000000  0  3G02G25G06                                       
  22347607.02349 117437465.60949     -3339.75049        49.000  

  25662381.26649 134856721.80949       864.36749        49.000  

  25639919.42249 134738685.02049      2033.47349        49.000  

 16 04 02 12 58 58.3000000  0  3G02G25G06                                       
  22347670.63349 117437799.89849     -3345.47349        49.000  

  25662364.85249 134856635.49649       862.09849        49.000  

  25639880.75849 134738481.84049      2030.25049        49.000  

 16 04 02 12 58 58.4000000  0  3G02G25G06                                       
  22347734.32849 117438134.62549     -3350.02349        49.000  

  25662348.45349 134856549.31649       860.80949        49.000  

  25639842.14149 134738278.87949      2028.17649        49.000  

 16 04 02 12 58 58.5000000  0  3G02G25G06                                       
  22347798.12549 117438469.89149     -3355.25049        49.000  

  25662332.10249 134856463.33649       858.93049        49.000  

  25639803.57849 134738076.21149      2025.38349        49.000  

 16 04 02 12 58 58.6000000  0  3G02G25G06                                       
  22347862.00849 117438805.62949     -3359.89549        49.000  

  25662315.76649 134856377.50049       857.52049        49.000  

  25639765.06249 134737873.78149      2022.98049        49.000  

 16 04 02 12 58 58.7000000  0  3G02G25G06                                       
  22347925.99249 117439141.86749     -3364.96949        49.000  

  25662299.45349 134856291.83649       855.75849        49.000  

  25639726.59449 134737671.61749      2020.28149        49.000  

 16 04 02 12 58 58.8000000  0  3G02G25G06                                       
  22347990.09449 117439478.67649     -3370.60249        49.000  

  25662283.19549 134856206.40249       853.31249        49.000  

  25639688.18849 134737469.78149      2016.89149        49.000  

 16 04 02 12 58 58.9000000  0  3G02G25G06                                       
  22348054.26649 117439815.92249     -3375.09049        49.000  

  25662266.96149 134856121.07849       852.30549        49.000  

  25639649.82049 134737268.14549      2014.82849        49.000  

 16 04 02 12 58 59.0000000  0  3G02G25G06                                       
  22348118.53949 117440153.68049     -3380.05149        49.000  

  25662250.75849 134856035.93049       850.59449        49.000  

  25639611.48449 134737066.77349      2012.32449        49.000  

 16 04 02 12 58 59.1000000  0  3G02G25G06                                       
  22348182.91449 117440491.96149     -3385.38749        49.000  

  25662234.57049 134855950.98049       848.57449        49.000  

  25639573.22749 134736865.69149      2009.39149        49.000  

 16 04 02 12 58 59.2000000  0  3G02G25G06                                       
  22348247.38349 117440830.77049     -3390.70749        49.000  

  25662218.44549 134855866.23449       846.52349        49.000  

  25639535.01649 134736664.91449      2006.40249        49.000  

 16 04 02 12 58 59.3000000  0  3G02G25G06                                       
  22348311.95349 117441170.09049     -3395.89149        49.000  

  25662202.35249 134855781.66049       844.70749        49.000  

  25639496.85249 134736464.39549      2003.70349        49.000  

 16 04 02 12 58 59.4000000  0  3G02G25G06                                       
  22348376.62549 117441509.93049     -3400.82049        49.000  

  25662186.29749 134855697.28549       842.92249        49.000  

  25639458.75849 134736264.17249      2000.95349        49.000  

 16 04 02 12 58 59.5000000  0  3G02G25G06                                       
  22348441.37549 117441850.21949     -3405.41049        49.000  

  25662170.25849 134855613.00849       841.88749        49.000  

  25639420.69549 134736064.14849      1998.82049        49.000  

 16 04 02 12 58 59.6000000  0  3G02G25G06                                       
  22348506.23449 117442191.05949     -3411.02749        49.000  

  25662154.26649 134855528.97349       839.29749        49.000  

  25639382.70349 134735864.43449      1995.77749        49.000  

 16 04 02 12 58 59.7000000  0  3G02G25G06                                       
  22348571.19549 117442532.43849     -3416.31249        49.000  

  25662138.28949 134855445.12949       837.58649        49.000  

  25639344.75849 134735665.02749      1992.72749        49.000  

 16 04 02 12 58 59.8000000  0  3G02G25G06                                       
  22348636.23449 117442874.25449     -3420.56249        49.000  

  25662122.35249 134855361.39549       836.45349        49.000  

  25639306.84449 134735465.82449      1990.78949        49.000  

 16 04 02 12 58 59.9000000  0  3G02G25G06                                       
  22348701.38349 117443216.60549     -3426.10549        49.000  

  25662106.46949 134855277.85949       834.49649        49.000  

  25639268.99249 134735266.90249      1987.85249        49.000  

 16 04 02 12 59  0.0000000  0  3G02G25G06                                       
  22348766.63349 117443559.48449     -3431.39149        49.000  

  25662090.60949 134855194.53149       832.47349        49.000  

  25639231.18049 134735068.28949      1984.87549        49.000  

 16 04 02 12 59  0.1000000  0  3G02G25G06                                       
  22348831.96149 117443902.80549     -3435.78549        49.000  

  25662074.78149 134855111.32849       831.21949        49.000  

  25639193.42249 134734869.87149      1982.89149        49.000  

 16 04 02 12 59  0.2000000  0  3G02G25G06                                       
  22348897.39849 117444246.61749     -3440.41049        49.000  

  25662058.97749 134855028.25449       829.98049        49.000  

  25639155.70349 134734671.70749      1980.41049        49.000  

 16 04 02 12 59  0.3000000  0  3G02G25G06                                       
  22348962.92249 117444590.95349     -3446.11749        49.000  

  25662043.22749 134854945.39149       827.64849        49.000  

  25639118.04749 134734473.82449      1977.25049        49.000  

 16 04 02 12 59  0.4000000  0  3G02G25G06                                       
  22349028.53949 117444935.86349     -3451.85549        49.000  

  25662027.50849 134854862.77049       825.21949        49.000  

  25639080.47749 134734276.29349      1973.89549        49.000  

 16 04 02 12 59  0.5000000  0  3G02G25G06                                       
  22349094.27349 117445281.31249     -3457.24249        49.000  

  25662011.80549 134854780.35549       823.12949        49.000  

  25639042.94549 134734079.05549      1970.82849        49.000  

 16 04 02 12 59  0.6000000  0  3G02G25G06                                       
  22349160.10949 117445627.26249     -3462.09849        49.000  

  25661996.15649 134854698.10949       821.52349        49.000  

  25639005.46149 134733882.07849      1968.37549        49.000  

 16 04 02 12 59  0.7000000  0  3G02G25G06                                       
  22349226.03149 117445973.68849     -3466.94949        49.000  

  25661980.53149 134854616.01249       819.96549        49.000  

  25638968.02349 134733685.34449      1965.74649        49.000  

 16 04 02 12 59  0.8000000  0  3G02G25G06                                       
  22349292.07049 117446320.65649     -3472.20349        49.000  

  25661964.95349 134854534.12549       818.06649        49.000  

  25638930.64149 134733488.90649      1963.02049        49.000  

 16 04 02 12 59  0.9000000  0  3G02G25G06                                       
  22349358.18849 117446668.11349     -3477.00449        49.000  

  25661949.39849 134854452.38349       816.56249        49.000  

  25638893.30549 134733292.70749      1960.64549        49.000  

 16 04 02 12 59  1.0000000  0  3G02G25G06                                       
  22349424.38349 117447015.96549     -3480.89849        49.000  

  25661933.85949 134854370.73049       815.90649        49.000  

  25638855.99249 134733096.69149      1959.05149        49.000  

 16 04 02 12 59  1.1000000  0  3G02G25G06                                       
  22349490.67249 117447364.33649     -3486.18849        49.000  

  25661918.35949 134854289.24649       813.95749        49.000  

  25638818.74249 134732900.94149      1956.15649        49.000  

 16 04 02 12 59  1.2000000  0  3G02G25G06                                       
  22349557.09449 117447713.28949     -3492.13349        49.000  

  25661902.90649 134854208.02349       811.32449        49.000  

  25638781.54749 134732705.54749      1952.54749        49.000  

 16 04 02 12 59  1.3000000  0  3G02G25G06                                       
  22349623.59449 117448062.75849     -3497.39149        49.000  

  25661887.48449 134854126.98449       809.39549        49.000  

  25638744.42249 134732510.42649      1949.69549        49.000  

 16 04 02 12 59  1.4000000  0  3G02G25G06                                       
  22349690.16449 117448412.69549     -3501.95749        49.000  

  25661872.08649 134854046.08249       808.17649        49.000  

  25638707.31249 134732315.52349      1947.60949        49.000  

 16 04 02 12 59  1.5000000  0  3G02G25G06                                       
  22349756.85249 117448763.16849     -3507.50849        49.000  

  25661856.71949 134853965.38749       805.84449        49.000  

  25638670.28949 134732120.93849      1944.39549        49.000  

 16 04 02 12 59  1.6000000  0  3G02G25G06                                       
  22349823.63349 117449114.14149     -3512.16049        49.000  

  25661841.39849 134853884.86349       804.41849        49.000  

  25638633.29749 134731926.60949      1941.96149        49.000  

 16 04 02 12 59  1.7000000  0  3G02G25G06                                       
  22349890.50849 117449465.59849     -3517.31649        49.000  

  25661826.09449 134853804.47349       802.83249        49.000  

  25638596.35949 134731732.52049      1939.36349        49.000  

 16 04 02 12 59  1.8000000  0  3G02G25G06                                       
  22349957.49249 117449817.57049     -3522.36749        49.000  

  25661810.83649 134853724.30149       800.86349        49.000  

  25638559.46949 134731538.71949      1936.66049        49.000  

 16 04 02 12 59  1.9000000  0  3G02G25G06                                       
  22350024.57049 117450170.07049     -3527.50449        49.000  

  25661795.61749 134853644.30549       799.00049        49.000  

  25638522.64149 134731345.19549      1933.81249        49.000  

 16 04 02 12 59  2.0000000  0  3G02G25G06                                       
  22350091.75849 117450523.07049     -3532.66449        49.000  

  25661780.43049 134853564.47749       797.28549        49.000  

  25638485.85949 134731151.94149      1931.12949        49.000  

 16 04 02 12 59  2.1000000  0  3G02G25G06                                       
  22350159.02349 117450876.56249     -3537.51249        49.000  

  25661765.27349 134853484.81249       795.75049        49.000  

  25638449.13349 134730958.93449      1928.71949        49.000  

 16 04 02 12 59  2.2000000  0  3G02G25G06                                       
  22350226.37549 117451230.53549     -3542.20749        49.000  

  25661750.14149 134853405.30549       794.14849        49.000  

  25638412.46149 134730766.18449      1926.23849        49.000  

 16 04 02 12 59  2.3000000  0  3G02G25G06                                       
  22350293.83649 117451585.02349     -3547.26249        49.000  

  25661735.06249 134853325.96949       792.66049        49.000  

  25638375.82849 134730573.69549      1923.75049        49.000  

 16 04 02 12 59  2.4000000  0  3G02G25G06                                       
  22350361.38349 117451939.94949     -3551.83649        49.000  

  25661719.98449 134853246.75849       791.16049        49.000  

  25638339.25049 134730381.42249      1921.30949        49.000  

 16 04 02 12 59  2.5000000  0  3G02G25G06                                       
  22350429.03949 117452295.48049     -3557.77049        49.000  

  25661704.95349 134853167.80949       788.69549        49.000  

  25638302.72749 134730189.50849      1917.90649        49.000  

 16 04 02 12 59  2.6000000  0  3G02G25G06                                       
  22350496.78149 117452651.50449     -3562.77349        49.000  

  25661689.96149 134853089.02049       787.03149        49.000  

  25638266.25849 134729997.84849      1915.19149        49.000  

 16 04 02 12 59  2.7000000  0  3G02G25G06                                       
  22350564.60949 117453007.94149     -3566.96149        49.000  

  25661674.98449 134853010.32849       786.07449        49.000  

  25638229.82049 134729806.37149      1913.39549        49.000  

 16 04 02 12 59  2.8000000  0  3G02G25G06                                       
  22350632.54749 117453364.93849     -3572.28949        49.000  

  25661660.04749 134852931.85249       784.07449        49.000  

  25638193.42249 134729615.20749      1910.42249        49.000  

 16 04 02 12 59  2.9000000  0  3G02G25G06                                       
  22350700.56249 117453722.39149     -3577.05949        49.000  

  25661645.14149 134852853.51249       782.57049        49.000  

  25638157.09449 134729424.27349      1908.00849        49.000  

 16 04 02 12 59  3.0000000  0  3G02G25G06                                       
  22350768.69549 117454080.37549     -3582.43449        49.000  

  25661630.26649 134852775.35549       780.48849        49.000  

  25638120.81249 134729233.61349      1905.05949        49.000  

 16 04 02 12 59  3.1000000  0  3G02G25G06                                       
  22350836.91449 117454438.87549     -3587.60249        49.000  

  25661615.42249 134852697.40649       778.60549        49.000  

  25638084.58649 134729043.24649      1902.26649        49.000  

 16 04 02 12 59  3.2000000  0  3G02G25G06                                       
  22350905.23449 117454797.88749     -3592.77749        49.000  

  25661600.61749 134852619.62549       776.77049        49.000  

  25638048.40649 134728853.14149      1899.62949        49.000  

 16 04 02 12 59  3.3000000  0  3G02G25G06                                       
  22350973.64149 117455157.38349     -3597.60249        49.000  

  25661585.84449 134852542.00049       775.28549        49.000  

  25638012.28149 134728663.29749      1897.10249        49.000  

 16 04 02 12 59  3.4000000  0  3G02G25G06                                       
  22351042.14849 117455517.40649     -3602.89849        49.000  

  25661571.10949 134852464.57849       773.23049        49.000  

  25637976.20349 134728473.74249      1894.03149        49.000  

 16 04 02 12 59  3.5000000  0  3G02G25G06                                       
  22351110.76649 117455877.97349     -3608.12149        49.000  

  25661556.42249 134852387.35549       771.37549        49.000  

  25637940.18849 134728284.48449      1891.14149        49.000  

 16 04 02 12 59  3.6000000  0  3G02G25G06                                       
  22351179.47749 117456239.06249     -3613.53549        49.000  

  25661541.76649 134852310.33249       769.17649        49.000  

  25637904.22749 134728095.51649      1888.19149        49.000  

 16 04 02 12 59  3.7000000  0  3G02G25G06                                       
  22351248.27349 117456600.59449     -3617.82049        49.000  

  25661527.13349 134852233.42649       768.21149        49.000  

  25637868.31249 134727906.75049      1886.36749        49.000  

 16 04 02 12 59  3.8000000  0  3G02G25G06                                       
  22351317.18049 117456962.57849     -3622.15649        49.000  

  25661512.52349 134852156.63749       767.18449        49.000  

  25637832.40649 134727718.19949      1884.29349        49.000  

 16 04 02 12 59  3.9000000  0  3G02G25G06                                       
  22351386.16449 117457325.09449     -3627.58649        49.000  

  25661497.95349 134852080.05149       765.07449        49.000  

  25637796.58649 134727529.95349      1881.25449        49.000  

 16 04 02 12 59  4.0000000  0  3G02G25G06                                       
  22351455.24249 117457688.11749     -3632.84449        49.000  

  25661483.41449 134852003.64549       763.08249        49.000  

  25637760.81249 134727341.96949      1878.34449        49.000  

 16 04 02 12 59  4.1000000  0  3G02G25G06                                       
  22351524.43849 117458051.71149     -3638.56249        49.000  

  25661468.92249 134851927.47349       760.73449        49.000  

  25637725.10249 134727154.30949      1875.05949        49.000  

 16 04 02 12 59  4.2000000  0  3G02G25G06                                       
  22351593.71149 117458415.76649     -3643.11749        49.000  

  25661454.45349 134851851.43449       759.43449        49.000  

  25637689.44549 134726966.87949      1872.89549        49.000  

 16 04 02 12 59  4.3000000  0  3G02G25G06                                       
  22351663.07849 117458780.29749     -3647.83649        49.000  

  25661440.00849 134851775.53949       758.13749        49.000  

  25637653.82849 134726779.68849      1870.60249        49.000  

 16 04 02 12 59  4.4000000  0  3G02G25G06                                       
  22351732.55549 117459145.33249     -3652.77049        49.000  

  25661425.60249 134851699.82049       756.33249        49.000  

  25637618.25849 134726592.76249      1868.09049        49.000  

 16 04 02 12 59  4.5000000  0  3G02G25G06                                       
  22351802.11749 117459510.88749     -3657.85249        49.000  

  25661411.21949 134851624.29349       754.57449        49.000  

  25637582.74249 134726406.12549      1865.30149        49.000  

 16 04 02 12 59  4.6000000  0  3G02G25G06                                       
  22351871.76649 117459876.91449     -3662.78149        49.000  

  25661396.87549 134851548.90249       753.02049        49.000  

  25637547.26649 134726219.71149      1862.76649        49.000  

 16 04 02 12 59  4.7000000  0  3G02G25G06                                       
  22351941.51649 117460243.44549     -3667.98049        49.000  

  25661382.55549 134851473.69149       751.12149        49.000  

  25637511.84449 134726033.56649      1859.98849        49.000  

 16 04 02 12 59  4.8000000  0  3G02G25G06                                       
  22352011.35249 117460610.47349     -3672.67249        49.000  

  25661368.27349 134851398.64549       749.63349        49.000  

  25637476.50049 134725847.69549      1857.46149        49.000  

 16 04 02 12 59  4.9000000  0  3G02G25G06                                       
  22352081.28949 117460978.00449     -3677.95749        49.000  

  25661354.02349 134851323.75849       747.98049        49.000  

  25637441.17249 134725662.06649      1854.86349        49.000  

 16 04 02 12 59  5.0000000  0  3G02G25G06                                       
  22352151.32849 117461346.05949     -3683.18849        49.000  

  25661339.82049 134851249.09449       745.70749        49.000  

  25637405.89849 134725476.74649      1851.80549        49.000  

 16 04 02 12 59  5.1000000  0  3G02G25G06                                       
  22352221.46149 117461714.63349     -3688.29349        49.000  

  25661325.67249 134851174.59449       744.06249        49.000  

  25637370.68849 134725291.69149      1849.14549        49.000  

 16 04 02 12 59  5.2000000  0  3G02G25G06                                       
  22352291.68849 117462083.68449     -3693.01649        49.000  

  25661311.52349 134851100.24649       742.59849        49.000  

  25637335.52349 134725106.88349      1846.67649        49.000  

 16 04 02 12 59  5.3000000  0  3G02G25G06                                       
  22352362.01649 117462453.27749     -3698.60249        49.000  

  25661297.41449 134851026.11749       740.26649        49.000  

  25637300.41449 134724922.37549      1843.59049        49.000  

 16 04 02 12 59  5.4000000  0  3G02G25G06                                       
  22352432.45349 117462823.37149     -3703.38349        49.000  

  25661283.34449 134850952.16049       738.66849        49.000  

  25637265.34449 134724738.14549      1840.97749        49.000  

 16 04 02 12 59  5.5000000  0  3G02G25G06                                       
  22352502.96949 117463193.93849     -3708.25449        49.000  

  25661269.29749 134850878.32849       737.38749        49.000  

  25637230.32849 134724554.12549      1838.82049        49.000  

 16 04 02 12 59  5.6000000  0  3G02G25G06                                       
  22352573.57849 117463565.00449     -3713.15249        49.000  

  25661255.28149 134850804.69149       735.55549        49.000  

  25637195.36749 134724370.39849      1836.00049        49.000  

 16 04 02 12 59  5.7000000  0  3G02G25G06                                       
  22352644.28149 117463936.57049     -3718.19149        49.000  

  25661241.28149 134850731.19549       733.98849        49.000  

  25637160.44549 134724186.89849      1833.46549        49.000  

 16 04 02 12 59  5.8000000  0  3G02G25G06                                       
  22352715.09449 117464308.70749     -3723.98049        49.000  

  25661227.34449 134850657.96949       731.40249        49.000  

  25637125.59449 134724003.76649      1829.97749        49.000  

 16 04 02 12 59  5.9000000  0  3G02G25G06                                       
  22352786.00049 117464681.35249     -3729.12949        49.000  

  25661213.44549 134850584.90649       729.57049        49.000  

  25637090.78949 134723820.88349      1827.32449        49.000  

 16 04 02 12 59  6.0000000  0  3G02G25G06                                       
  22352857.00049 117465054.46149     -3733.77749        49.000  

  25661199.56249 134850511.97749       728.28149        49.000  

  25637056.03949 134723638.22749      1825.10249        49.000  

 16 04 02 12 59  6.1000000  0  3G02G25G06                                       
  22352928.09449 117465428.05149     -3738.26649        49.000  

  25661185.71149 134850439.20349       726.94549        49.000  

  25637021.32849 134723455.82449      1822.80149        49.000  

 16 04 02 12 59  6.2000000  0  3G02G25G06                                       
  22352999.28949 117465802.16049     -3743.61349        49.000  

  25661171.89849 134850366.60949       725.04749        49.000  

  25636986.68049 134723273.69149      1819.98449        49.000  

 16 04 02 12 59  6.3000000  0  3G02G25G06                                       
  22353070.57849 117466176.79749     -3748.91049        49.000  

  25661158.13349 134850294.22349       723.00049        49.000  

  25636952.07849 134723091.86349      1816.89149        49.000  

 16 04 02 12 59  6.4000000  0  3G02G25G06                                       
  22353141.96949 117466551.93849     -3753.75849        49.000  

  25661144.39149 134850222.00849       721.44149        49.000  

  25636917.53149 134722910.28949      1814.55149        49.000  

 16 04 02 12 59  6.5000000  0  3G02G25G06                                       
  22353213.44549 117466927.54749     -3758.68449        49.000  

  25661130.68849 134850149.93049       719.82849        49.000  

  25636883.02349 134722728.94949      1812.04749        49.000  

 16 04 02 12 59  6.6000000  0  3G02G25G06                                       
  22353285.02349 117467303.67649     -3763.61749        49.000  

  25661117.00849 134850078.03949       718.14849        49.000  

  25636848.57849 134722547.89849      1809.39849        49.000  

 16 04 02 12 59  6.7000000  0  3G02G25G06                                       
  22353356.68049 117467680.24249     -3768.45349        49.000  

  25661103.35249 134850006.25449       716.71949        49.000  

  25636814.16449 134722367.03949      1806.90249        49.000  

 16 04 02 12 59  6.8000000  0  3G02G25G06                                       
  22353428.45349 117468057.37549     -3773.61349        49.000  

  25661089.74249 134849934.70749       714.82849        49.000  

  25636779.81249 134722186.51249      1804.21549        49.000  

 16 04 02 12 59  6.9000000  0  3G02G25G06                                       
  22353500.31249 117468434.98449     -3778.71949        49.000  

  25661076.15649 134849863.32049       712.93849        49.000  

  25636745.50849 134722006.22749      1801.37149        49.000  

 16 04 02 12 59  7.0000000  0  3G02G25G06                                       
  22353572.27349 117468813.14149     -3784.07049        49.000  

  25661062.60949 134849792.14149       710.91049        49.000  

  25636711.26649 134721826.25049      1798.39149        49.000  

 16 04 02 12 59  7.1000000  0  3G02G25G06                                       
  22353644.32849 117469191.79349     -3789.15249        49.000  

  25661049.11749 134849721.12149       709.14849        49.000  

  25636677.06249 134721646.52349      1795.73049        49.000  

 16 04 02 12 59  7.2000000  0  3G02G25G06                                       
  22353716.48449 117469570.94149     -3793.98849        49.000  

  25661035.64149 134849650.27749       707.49249        49.000  

  25636642.92249 134721467.07049      1793.15249        49.000  

 16 04 02 12 59  7.3000000  0  3G02G25G06                                       
  22353788.73449 117469950.65249     -3799.54349        49.000  

  25661022.20349 134849579.65249       705.41449        49.000  

  25636608.83649 134721287.93049      1790.13349        49.000  

 16 04 02 12 59  7.4000000  0  3G02G25G06                                       
  22353861.06249 117470330.78549     -3803.75849        49.000  

  25661008.78949 134849509.13749       704.49249        49.000  

  25636574.78149 134721108.97349      1788.29349        49.000  

 16 04 02 12 59  7.5000000  0  3G02G25G06                                       
  22353933.50049 117470711.44149     -3809.16049        49.000  

  25660995.39149 134849438.80949       702.32049        49.000  

  25636540.78949 134720930.31249      1785.27049        49.000  

 16 04 02 12 59  7.6000000  0  3G02G25G06                                       
  22354006.03149 117471092.62149     -3814.35949        49.000  

  25660982.03949 134849368.66449       700.52749        49.000  

  25636506.85249 134720751.93049      1782.37949        49.000  

 16 04 02 12 59  7.7000000  0  3G02G25G06                                       
  22354078.65649 117471474.27749     -3819.19949        49.000  

  25660968.72749 134849298.68449       698.80149        49.000  

  25636472.95349 134720573.79349      1779.85949        49.000  

 16 04 02 12 59  7.8000000  0  3G02G25G06                                       
  22354151.39849 117471856.48049     -3824.64549        49.000  

  25660955.45349 134849228.91449       696.66049        49.000  

  25636439.10949 134720395.96149      1776.80549        49.000  

 16 04 02 12 59  7.9000000  0  3G02G25G06                                       
  22354224.21949 117472239.14849     -3829.10249        49.000  

  25660942.18849 134849159.27049       695.58249        49.000  

  25636405.31249 134720218.35549      1774.83249        49.000  

 16 04 02 12 59  8.0000000  0  3G02G25G06                                       
  22354297.12549 117472622.28549     -3833.78149        49.000  

  25660928.96949 134849089.77349       694.20349        49.000  

  25636371.55549 134720040.99249      1772.38749        49.000  

 16 04 02 12 59  8.1000000  0  3G02G25G06                                       
  22354370.13349 117473005.94549     -3839.01249        49.000  

  25660915.78149 134849020.46549       692.25849        49.000  

  25636337.85949 134719863.89149      1769.73049        49.000  

 16 04 02 12 59  8.2000000  0  3G02G25G06                                       
  22354443.24249 117473390.14849     -3844.59049        49.000  

  25660902.63349 134848951.37149       690.05949        49.000  

  25636304.21949 134719687.12149      1766.37149        49.000  

 16 04 02 12 59  8.3000000  0  3G02G25G06                                       
  22354516.43049 117473774.77049     -3848.65249        49.000  

  25660889.52349 134848882.37949       689.16849        49.000  

  25636270.60949 134719510.51249      1764.77049        49.000  

 16 04 02 12 59  8.4000000  0  3G02G25G06                                       
  22354589.71949 117474159.89549     -3853.66049        49.000  

  25660876.42249 134848813.54349       687.44949        49.000  

  25636237.03949 134719334.18449      1762.02349        49.000  

 16 04 02 12 59  8.5000000  0  3G02G25G06                                       
  22354663.10949 117474545.56249     -3859.20749        49.000  

  25660863.35249 134848744.91849       685.41049        49.000  

  25636203.54749 134719158.15249      1758.98849        49.000  

 16 04 02 12 59  8.6000000  0  3G02G25G06                                       
  22354736.57849 117474931.67649     -3863.69949        49.000  

  25660850.31249 134848676.42649       683.91849        49.000  

  25636170.08649 134718982.33249      1756.82849        49.000  

 16 04 02 12 59  8.7000000  0  3G02G25G06                                       
  22354810.14849 117475318.30549     -3868.87949        49.000  

  25660837.32049 134848608.10949       682.23049        49.000  

  25636136.68049 134718806.78949      1754.08649        49.000  

 16 04 02 12 59  8.8000000  0  3G02G25G06                                       
  22354883.82849 117475705.50849     -3874.40649        49.000  

  25660824.35949 134848540.03549       680.00449        49.000  

  25636103.33649 134718631.58649      1750.80949        49.000  

 16 04 02 12 59  8.9000000  0  3G02G25G06                                       
  22354957.57849 117476093.10249     -3878.66849        49.000  

  25660811.42249 134848472.03549       678.92649        49.000  

  25636070.03149 134718456.53549      1748.99649        49.000  

 16 04 02 12 59  9.0000000  0  3G02G25G06                                       
  22355031.44549 117476481.28549     -3884.39149        49.000  

  25660798.52349 134848404.28149       676.70749        49.000  

  25636036.78949 134718281.83649      1745.66449        49.000  

 16 04 02 12 59  9.1000000  0  3G02G25G06                                       
  22355105.39849 117476869.92249     -3889.00849        49.000  

  25660785.67249 134848336.65249       675.47749        49.000  

  25636003.58649 134718107.34849      1743.46549        49.000  

 16 04 02 12 59  9.2000000  0  3G02G25G06                                       
  22355179.45349 117477259.10249     -3894.27349        49.000  

  25660772.84449 134848269.25049       673.21949        49.000  

  25635970.45349 134717933.18849      1740.39549        49.000  

 16 04 02 12 59  9.3000000  0  3G02G25G06                                       
  22355253.60949 117477648.79749     -3899.55149        49.000  

  25660760.03949 134848202.02049       671.25449        49.000  

  25635937.35949 134717759.27349      1737.53949        49.000  

 16 04 02 12 59  9.4000000  0  3G02G25G06                                       
  22355327.85249 117478038.91049     -3903.79349        49.000  

  25660747.26649 134848134.88749       670.33249        49.000  

  25635904.29749 134717585.57049      1735.59049        49.000  

 16 04 02 12 59  9.5000000  0  3G02G25G06                                       
  22355402.19549 117478429.61349     -3909.38749        49.000  

  25660734.53949 134848068.01249       668.08649        49.000  

  25635871.31249 134717412.19549      1732.44149        49.000  

 16 04 02 12 59  9.6000000  0  3G02G25G06                                       
  22355476.63349 117478820.76649     -3914.01249        49.000  

  25660721.83649 134848001.25449       666.65649        49.000  

  25635838.35249 134717239.04349      1730.16049        49.000  

 16 04 02 12 59  9.7000000  0  3G02G25G06                                       
  22355551.16449 117479212.42249     -3919.02349        49.000  

  25660709.17249 134847934.67249       665.00449        49.000  

  25635805.45349 134717066.15649      1727.57049        49.000  

 16 04 02 12 59  9.8000000  0  3G02G25G06                                       
  22355625.78149 117479604.55549     -3924.01649        49.000  

  25660696.53149 134847868.22749       663.33249        49.000  

  25635772.59449 134716893.50849      1724.93049        49.000  

 16 04 02 12 59  9.9000000  0  3G02G25G06                                       
  22355700.51649 117479997.25449     -3929.43049        49.000  

  25660683.93849 134847802.04349       660.94949        49.000  

  25635739.80549 134716721.18449      1721.84449        49.000  

 16 04 02 12 59 10.0000000  0  3G02G25G06                                       
  22355775.32849 117480390.40249     -3934.12149        49.000  

  25660671.35949 134847735.94949       659.85949        49.000  

  25635707.04749 134716549.08649      1719.57849        49.000  

 16 04 02 12 59 10.1000000  0  3G02G25G06                                       
  22355850.23449 117480784.03149     -3938.59449        49.000  

  25660658.81249 134847670.02349       658.71549        49.000  

  25635674.34449 134716377.22349      1717.51649        49.000  

 16 04 02 12 59 10.2000000  0  3G02G25G06                                       
  22355925.24249 117481178.20749     -3944.45749        49.000  

  25660646.30549 134847604.31649       656.03549        49.000  

  25635641.69549 134716205.66849      1713.95349        49.000  

 16 04 02 12 59 10.3000000  0  3G02G25G06                                       
  22356000.35249 117481572.89149     -3949.26249        49.000  

  25660633.82849 134847538.78149       654.54349        49.000  

  25635609.10249 134716034.38349      1711.55949        49.000  

 16 04 02 12 59 10.4000000  0  3G02G25G06                                       
  22356075.54749 117481968.05549     -3954.29749        49.000  

  25660621.38349 134847473.39549       652.82449        49.000  

  25635576.55549 134715863.33649      1708.93049        49.000  

 16 04 02 12 59 10.5000000  0  3G02G25G06                                       
  22356150.85249 117482363.77749     -3959.73849        49.000  

  25660609.00849 134847408.24649       650.68049        49.000  

  25635544.07049 134715692.61749      1705.91849        49.000  

 16 04 02 12 59 10.6000000  0  3G02G25G06                                       
  22356226.23449 117482759.94549     -3964.31649        49.000  

  25660596.62549 134847343.20349       649.43849        49.000  

  25635511.62549 134715522.10949      1703.63749        49.000  

 16 04 02 12 59 10.7000000  0  3G02G25G06                                       
  22356301.71949 117483156.64149     -3969.50449        49.000  

  25660584.29749 134847278.37149       647.35549        49.000  

  25635479.22749 134715351.88749      1700.84049        49.000  

 16 04 02 12 59 10.8000000  0  3G02G25G06                                       
  22356377.32049 117483553.86349     -3974.79349        49.000  

  25660571.99249 134847213.72349       645.53949        49.000  

  25635446.89849 134715181.95349      1697.92249        49.000  

 16 04 02 12 59 10.9000000  0  3G02G25G06                                       
  22356453.00049 117483951.54349     -3979.26249        49.000  

  25660559.71949 134847149.21949       644.28549        49.000  

  25635414.60249 134715012.25049      1695.81649        49.000  

 16 04 02 12 59 11.0000000  0  3G02G25G06                                       
  22356528.76649 117484349.71949     -3984.32049        49.000  

  25660547.46949 134847084.86349       642.64549        49.000  

  25635382.35949 134714842.80149      1693.09849        49.000  

 16 04 02 12 59 11.1000000  0  3G02G25G06                                       
  22356604.63349 117484748.43449     -3989.32449        49.000  

  25660535.26649 134847020.73449       640.82849        49.000  

  25635350.17249 134714673.64549      1690.53149        49.000  

 16 04 02 12 59 11.2000000  0  3G02G25G06                                       
  22356680.59449 117485147.59849     -3994.28949        49.000  

  25660523.08649 134846956.71149       639.07449        49.000  

  25635318.01649 134714504.71149      1687.86349        49.000  

 16 04 02 12 59 11.3000000  0  3G02G25G06                                       
  22356756.64849 117485547.29349     -3999.46149        49.000  

  25660510.93849 134846892.89849       637.33649        49.000  

  25635285.93049 134714336.06649      1685.07049        49.000  

 16 04 02 12 59 11.4000000  0  3G02G25G06                                       
  22356832.81249 117485947.50849     -4004.92249        49.000  

  25660498.82849 134846829.27749       635.07449        49.000  

  25635253.88349 134714167.70749      1682.03149        49.000  

 16 04 02 12 59 11.5000000  0  3G02G25G06                                       
  22356909.07049 117486348.25449     -4009.93449        49.000  

  25660486.77349 134846765.85549       633.48049        49.000  

  25635221.90649 134713999.63749      1679.48049        49.000  

 16 04 02 12 59 11.6000000  0  3G02G25G06                                       
  22356985.41449 117486749.43449     -4014.48849        49.000  

  25660474.72749 134846702.53549       632.07449        49.000  

  25635189.96149 134713831.77349      1677.18049        49.000  

 16 04 02 12 59 11.7000000  0  3G02G25G06                                       
  22357061.86749 117487151.18849     -4020.09849        49.000  

  25660462.71949 134846639.44949       630.01249        49.000  

  25635158.07849 134713664.23049      1673.98449        49.000  

 16 04 02 12 59 11.8000000  0  3G02G25G06                                       
  22357138.39849 117487553.38349     -4024.37549        49.000  

  25660450.74249 134846576.50449       628.76649        49.000  

  25635126.24249 134713496.91449      1671.78149        49.000  

 16 04 02 12 59 11.9000000  0  3G02G25G06                                       
  22357215.03149 117487956.08649     -4029.48849        49.000  

  25660438.79749 134846513.71549       627.06249        49.000  

  25635094.44549 134713329.84449      1669.35549        49.000  

 16 04 02 12 59 12.0000000  0  3G02G25G06                                       
  22357291.75849 117488359.30549     -4034.68449        49.000  

  25660426.89149 134846451.12549       625.05549        49.000  

  25635062.70349 134713163.07049      1666.33249        49.000  

 16 04 02 12 59 12.1000000  0  3G02G25G06                                       
  22357368.57849 117488762.99249     -4039.32049        49.000  

  25660415.01649 134846388.66849       623.71949        49.000  

  25635031.00849 134712996.52349      1664.16449        49.000  

 16 04 02 12 59 12.2000000  0  3G02G25G06                                       
  22357445.50849 117489167.24249     -4045.26249        49.000  

  25660403.17249 134846326.43049       621.15649        49.000  

  25634999.37549 134712830.28949      1660.73449        49.000  

 16 04 02 12 59 12.3000000  0  3G02G25G06                                       
  22357522.53149 117489571.99649     -4050.02349        49.000  

  25660391.37549 134846264.39549       619.60549        49.000  

  25634967.78949 134712664.33649      1658.24649        49.000  

 16 04 02 12 59 12.4000000  0  3G02G25G06                                       
  22357599.64849 117489977.20349     -4054.84449        49.000  

  25660379.59449 134846202.46149       618.26649        49.000  

  25634936.25049 134712498.59849      1655.88749        49.000  

 16 04 02 12 59 12.5000000  0  3G02G25G06                                       
  22357676.85249 117490382.93849     -4059.88749        49.000  

  25660367.83649 134846140.74649       616.28549        49.000  

  25634904.77349 134712333.15249      1653.04749        49.000  

 16 04 02 12 59 12.6000000  0  3G02G25G06                                       
  22357754.14849 117490789.11749     -4064.31249        49.000  

  25660356.10949 134846079.12949       615.27749        49.000  

  25634873.32049 134712167.91049      1651.08649        49.000  

 16 04 02 12 59 12.7000000  0  3G02G25G06                                       
  22357831.53949 117491195.81649     -4069.43049        49.000  

  25660344.43049 134846017.71149       613.43849        49.000  

  25634841.93049 134712002.96149      1648.18849        49.000  

 16 04 02 12 59 12.8000000  0  3G02G25G06                                       
  22357909.03949 117491603.03149     -4074.59849        49.000  

  25660332.78149 134845956.47749       611.52749        49.000  

  25634810.57849 134711838.27049      1645.53949        49.000  

 16 04 02 12 59 12.9000000  0  3G02G25G06                                       
  22357986.62549 117492010.75449     -4079.76249        49.000  

  25660321.16449 134845895.42249       609.62549        49.000  

  25634779.28949 134711673.85249      1642.73449        49.000  

 16 04 02 12 59 13.0000000  0  3G02G25G06                                       
  22358064.32049 117492418.98849     -4084.90249        49.000  

  25660309.57849 134845834.55149       607.82049        49.000  

  25634748.05549 134711509.72349      1639.89149        49.000  

 16 04 02 12 59 13.1000000  0  3G02G25G06                                       
  22358142.08649 117492827.64849     -4089.21949        49.000  

  25660298.00849 134845773.78149       606.78549        49.000  

  25634716.85949 134711345.78149      1638.01249        49.000  

 16 04 02 12 59 13.2000000  0  3G02G25G06                                       
  22358219.95349 117493236.86749     -4094.66049        49.000  

  25660286.48449 134845713.22749       604.59049        49.000  

  25634685.72749 134711182.14849      1634.86749        49.000  

 16 04 02 12 59 13.3000000  0  3G02G25G06                                       
  22358297.92249 117493646.59849     -4099.90249        49.000  

  25660275.00049 134845652.86749       602.57849        49.000  

  25634654.64149 134711018.80149      1632.02749        49.000  

 16 04 02 12 59 13.4000000  0  3G02G25G06                                       
  22358376.00049 117494056.90249     -4105.63749        49.000  

  25660263.56249 134845592.74649       600.30949        49.000  

  25634623.61749 134710855.78949      1628.70349        49.000  

 16 04 02 12 59 13.5000000  0  3G02G25G06                                       
  22358454.17249 117494467.67249     -4110.25849        49.000  

  25660252.14149 134845532.76249       598.97749        49.000  

  25634592.64149 134710692.99649      1626.53549        49.000  

 16 04 02 12 59 13.6000000  0  3G02G25G06                                       
  22358532.42249 117494878.93049     -4115.25449        49.000  

  25660240.75849 134845472.93849       597.14849        49.000  

  25634561.70349 134710530.46549      1623.80949        49.000  

 16 04 02 12 59 13.7000000  0  3G02G25G06                                       
  22358610.78149 117495290.73049     -4120.44549        49.000  

  25660229.41449 134845413.33649       595.19549        49.000  

  25634530.83649 134710368.24249      1621.06249        49.000  

 16 04 02 12 59 13.8000000  0  3G02G25G06                                       
  22358689.24249 117495703.03949     -4125.75849        49.000  

  25660218.10249 134845353.91049       593.23849        49.000  

  25634500.00049 134710206.28549      1618.11349        49.000  

 16 04 02 12 59 13.9000000  0  3G02G25G06                                       
  22358767.79749 117496115.84849     -4130.84849        49.000  

  25660206.81249 134845294.63349       591.73049        49.000  

  25634469.22749 134710044.59049      1615.34049        49.000  

 16 04 02 12 59 14.0000000  0  3G02G25G06                                       
  22358846.43849 117496529.12549     -4135.20749        49.000  

  25660195.56249 134845235.52749       590.35549        49.000  

  25634438.49249 134709883.12949      1613.25449        49.000  

 16 04 02 12 59 14.1000000  0  3G02G25G06                                       
  22358925.18049 117496942.90249     -4140.22349        49.000  

  25660184.35249 134845176.57049       588.73849        49.000  

  25634407.82049 134709721.93449      1610.60549        49.000  

 16 04 02 12 59 14.2000000  0  3G02G25G06                                       
  22359004.01649 117497357.19149     -4145.47749        49.000  

  25660173.16449 134845117.80949       586.72749        49.000  

  25634377.19549 134709560.99649      1607.90649        49.000  

 16 04 02 12 59 14.3000000  0  3G02G25G06                                       
  22359082.95349 117497772.03949     -4150.92249        49.000  

  25660162.02349 134845059.27749       584.53149        49.000  

  25634346.64149 134709400.39849      1604.77349        49.000  

 16 04 02 12 59 14.4000000  0  3G02G25G06                                       
  22359161.99249 117498187.32449     -4155.66449        49.000  

  25660150.90649 134845000.84849       583.16849        49.000  

  25634316.10949 134709240.00049      1602.31649        49.000  

 16 04 02 12 59 14.5000000  0  3G02G25G06                                       
  22359241.11749 117498603.12149     -4160.42649        49.000  

  25660139.82049 134844942.60549       581.63349        49.000  

  25634285.64149 134709079.85949      1600.12149        49.000  

 16 04 02 12 59 14.6000000  0  3G02G25G06                                       
  22359320.33649 117499019.42249     -4165.63349        49.000  

  25660128.77349 134844884.53549       579.76649        49.000  

  25634255.20349 134708920.01249      1597.05949        49.000  

 16 04 02 12 59 14.7000000  0  3G02G25G06                                       
  22359399.64849 117499436.21949     -4170.58249        49.000  

  25660117.75849 134844826.63749       578.04749        49.000  

  25634224.83649 134708760.41049      1594.55949        49.000  

 16 04 02 12 59 14.8000000  0  3G02G25G06                                       
  22359479.05549 117499853.48449     -4175.24249        49.000  

  25660106.76649 134844768.86349       576.78949        49.000  

  25634194.51649 134708601.03149      1592.44549        49.000  

 16 04 02 12 59 14.9000000  0  3G02G25G06                                       
  22359558.56249 117500271.31649     -4181.00849        49.000  

  25660095.82849 134844711.35549       574.18449        49.000  

  25634164.25049 134708441.99649      1588.91449        49.000  

 16 04 02 12 59 15.0000000  0  3G02G25G06                                       
  22359638.16449 117500689.61349     -4185.51649        49.000  

  25660084.90649 134844653.96149       572.99249        49.000  

  25634134.03149 134708283.19149      1586.74249        49.000  

 16 04 02 12 59 15.1000000  0  3G02G25G06                                       
  22359717.85249 117501108.37549     -4190.16849        49.000  

  25660074.00849 134844596.70749       571.66049        49.000  

  25634103.85249 134708124.61349      1584.42649        49.000  

 16 04 02 12 59 15.2000000  0  3G02G25G06                                       
  22359797.66449 117501527.74249     -4196.20749        49.000  

  25660063.16449 134844539.73049       568.86349        49.000  

  25634073.73449 134707966.37949      1580.89549        49.000  

 16 04 02 12 59 15.3000000  0  3G02G25G06                                       
  22359877.55549 117501947.56649     -4200.81649        49.000  

  25660052.33649 134844482.88349       567.66449        49.000  

  25634043.67249 134707808.38749      1578.66449        49.000  

 16 04 02 12 59 15.4000000  0  3G02G25G06                                       
  22359957.53149 117502367.85249     -4205.43449        49.000  

  25660041.54749 134844426.17649       566.17249        49.000  

  25634013.65649 134707650.62149      1576.22349        49.000  

 16 04 02 12 59 15.5000000  0  3G02G25G06                                       
  22360037.60949 117502788.64849     -4210.43449        49.000  

  25660030.78149 134844369.64849       564.35249        49.000  

  25633983.68849 134707493.12149      1573.63349        49.000  

 16 04 02 12 59 15.6000000  0  3G02G25G06                                       
  22360117.77349 117503209.89549     -4214.68849        49.000  

  25660020.03949 134844313.21949       563.70349        49.000  

  25633953.75849 134707335.83249      1571.85549        49.000  

 16 04 02 12 59 15.7000000  0  3G02G25G06                                       
  22360198.03949 117503631.68049     -4220.46949        49.000  

  25660009.33649 134844257.03549       560.94549        49.000  

  25633923.89149 134707178.86349      1568.27749        49.000  

 16 04 02 12 59 15.8000000  0  3G02G25G06                                       
  22360278.40649 117504054.00049     -4225.72749        49.000  

  25659998.68049 134844201.02749       559.17249        49.000  

  25633894.06249 134707022.16449      1565.56249        49.000  

 16 04 02 12 59 15.9000000  0  3G02G25G06                                       
  22360358.85949 117504476.78949     -4230.59849        49.000  

  25659988.05549 134844145.17649       557.47749        49.000  

  25633864.28949 134706865.71149      1563.10249        49.000  

 16 04 02 12 59 16.0000000  0  3G02G25G06                                       
  22360439.42249 117504900.11749     -4235.78149        49.000  

  25659977.46949 134844089.53149       555.58249        49.000  

  25633834.57849 134706709.56649      1560.18049        49.000  

 16 04 02 12 59 16.1000000  0  3G02G25G06                                       
  22360520.06249 117505323.88349     -4240.25049        49.000  

  25659966.89849 134844034.00449       554.41449        49.000  

  25633804.89849 134706553.62949      1557.93849        49.000  

 16 04 02 12 59 16.2000000  0  3G02G25G06                                       
  22360600.80549 117505748.19949     -4245.64549        49.000  

  25659956.37549 134843978.68849       552.25049        49.000  

  25633775.28949 134706397.98049      1555.11749        49.000  

 16 04 02 12 59 16.3000000  0  3G02G25G06                                       
  22360681.64149 117506173.02349     -4250.99649        49.000  

  25659945.88349 134843923.55549       550.27349        49.000  

  25633745.72749 134706242.62549      1552.02349        49.000  

 16 04 02 12 59 16.4000000  0  3G02G25G06                                       
  22360762.58649 117506598.36749     -4255.91449        49.000  

  25659935.42249 134843868.61749       548.48049        49.000  

  25633716.21149 134706087.52749      1549.57449        49.000  

 16 04 02 12 59 16.5000000  0  3G02G25G06                                       
  22360843.60949 117507024.15649     -4260.35949        49.000  

  25659925.00049 134843813.78149       547.45349        49.000  

  25633686.74249 134705932.66449      1547.43449        49.000  

 16 04 02 12 59 16.6000000  0  3G02G25G06                                       
  22360924.73449 117507450.45349     -4265.48849        49.000  

  25659914.60249 134843759.14149       545.62149        49.000  

  25633657.32049 134705778.06249      1544.77049        49.000  

 16 04 02 12 59 16.7000000  0  3G02G25G06                                       
  22361005.96149 117507877.31649     -4271.19149        49.000  

  25659904.23449 134843704.72749       543.16449        49.000  

  25633627.96149 134705623.79349      1541.25449        49.000  

 16 04 02 12 59 16.8000000  0  3G02G25G06                                       
  22361087.28949 117508304.69949     -4276.57049        49.000  

  25659893.91449 134843650.51649       541.08649        49.000  

  25633598.66449 134705469.79349      1538.49649        49.000  

 16 04 02 12 59 16.9000000  0  3G02G25G06                                       
  22361168.71149 117508732.57849     -4281.30149        49.000  

  25659883.62549 134843596.45749       539.74249        49.000  

  25633569.40649 134705316.07849      1535.83649        49.000  

 16 04 02 12 59 17.0000000  0  3G02G25G06                                       
  22361250.21149 117509160.92249     -4286.04349        49.000  

  25659873.36749 134843542.55149       538.10249        49.000  

  25633540.19549 134705162.57849      1533.50849        49.000  

 16 04 02 12 59 17.1000000  0  3G02G25G06                                       
  22361331.80549 117509589.69549     -4290.00849        49.000  

  25659863.12549 134843488.74249       537.45349        49.000  

  25633511.01649 134705009.25049      1532.17649        49.000  

 16 04 02 12 59 17.2000000  0  3G02G25G06                                       
  22361413.49249 117510018.94949     -4294.91449        49.000  

  25659852.91449 134843435.07849       535.83649        49.000  

  25633481.89849 134704856.20349      1529.40249        49.000  

 16 04 02 12 59 17.3000000  0  3G02G25G06                                       
  22361495.28949 117510448.78549     -4300.85249        49.000  

  25659842.75049 134843381.66049       533.30949        49.000  

  25633452.83649 134704703.46949      1525.91049        49.000  

 16 04 02 12 59 17.4000000  0  3G02G25G06                                       
  22361577.18849 117510879.13349     -4306.21549        49.000  

  25659832.62549 134843328.44949       531.07849        49.000  

  25633423.82049 134704551.02749      1522.78949        49.000  

 16 04 02 12 59 17.5000000  0  3G02G25G06                                       
  22361659.18849 117511310.01649     -4311.52749        49.000  

  25659822.53949 134843275.43049       529.16049        49.000  

  25633394.86749 134704398.87949      1520.03949        49.000  

 16 04 02 12 59 17.6000000  0  3G02G25G06                                       
  22361741.26649 117511741.37949     -4316.39849        49.000  

  25659812.47749 134843222.55549       527.69949        49.000  

  25633365.96149 134704246.97349      1517.48049        49.000  

 16 04 02 12 59 17.7000000  0  3G02G25G06                                       
  22361823.46149 117512173.28149     -4321.65649        49.000  

  25659802.45349 134843169.90649       525.61349        49.000  

  25633337.10949 134704095.36749      1514.66449        49.000  

 16 04 02 12 59 17.8000000  0  3G02G25G06                                       
  22361905.75049 117512605.74249     -4327.24249        49.000  

  25659792.47749 134843117.48849       523.18849        49.000  

  25633308.32849 134703944.10549      1511.21949        49.000  

 16 04 02 12 59 17.9000000  0  3G02G25G06                                       
  22361988.13349 117513038.68849     -4332.00849        49.000  

  25659782.53149 134843065.20749       521.86349        49.000  

  25633279.57849 134703793.06249      1508.93449        49.000  

 16 04 02 12 59 18.0000000  0  3G02G25G06                                       
  22362070.60949 117513472.14549     -4337.19949        49.000  

  25659772.62549 134843013.13749       519.71549        49.000  

  25633250.89849 134703642.31649      1506.02749        49.000  

 16 04 02 12 59 18.1000000  0  3G02G25G06                                       
  22362153.18849 117513906.09049     -4342.09849        49.000  

  25659762.73449 134842961.21949       518.24249        49.000  

  25633222.25849 134703491.80949      1503.54749        49.000  

 16 04 02 12 59 18.2000000  0  3G02G25G06                                       
  22362235.86749 117514340.55149     -4347.16449        49.000  

  25659752.89149 134842909.46949       516.45349        49.000  

  25633193.67249 134703341.57449      1500.88749        49.000  

 16 04 02 12 59 18.3000000  0  3G02G25G06                                       
  22362318.64149 117514775.51649     -4352.16049        49.000  

  25659743.07049 134842857.91449       514.66049        49.000  

  25633165.14149 134703191.62149      1498.20749        49.000  

 16 04 02 12 59 18.4000000  0  3G02G25G06                                       
  22362401.50049 117515210.92249     -4356.57849        49.000  

  25659733.28149 134842806.46149       513.66049        49.000  

  25633136.64149 134703041.86749      1496.20749        49.000  

 16 04 02 12 59 18.5000000  0  3G02G25G06                                       
  22362484.45349 117515646.85249     -4361.90249        49.000  

  25659723.53149 134842755.21149       511.59449        49.000  

  25633108.19549 134702892.39549      1493.40249        49.000  

 16 04 02 12 59 18.6000000  0  3G02G25G06                                       
  22362567.49249 117516083.26649     -4366.51249        49.000  

  25659713.80549 134842704.11349       510.18849        49.000  

  25633079.79749 134702743.18449      1490.90249        49.000  

 16 04 02 12 59 18.7000000  0  3G02G25G06                                       
  22362650.62549 117516520.12549     -4371.00049        49.000  

  25659704.11749 134842653.14549       508.87549        49.000  

  25633051.44549 134702594.17649      1488.83649        49.000  

 16 04 02 12 59 18.8000000  0  3G02G25G06                                       
  22362733.86749 117516957.53149     -4376.48849        49.000  

  25659694.45349 134842602.37949       506.73849        49.000  

  25633023.14849 134702445.46949      1485.77749        49.000  

 16 04 02 12 59 18.9000000  0  3G02G25G06                                       
  22362817.19549 117517395.45349     -4381.62149        49.000  

  25659684.82049 134842551.80149       504.98849        49.000  

  25632994.90649 134702297.05549      1482.94149        49.000  

 16 04 02 12 59 19.0000000  0  3G02G25G06                                       
  22362900.62549 117517833.86349     -4386.77749        49.000  

  25659675.22749 134842501.38749       503.19549        49.000  

  25632966.71149 134702148.87149      1480.30149        49.000  

 16 04 02 12 59 19.1000000  0  3G02G25G06                                       
  22362984.14849 117518272.78549     -4391.81649        49.000  

  25659665.67249 134842451.15249       501.33649        49.000  

  25632938.57049 134702000.98849      1477.42249        49.000  

 16 04 02 12 59 19.2000000  0  3G02G25G06                                       
  22363067.77349 117518712.18049     -4396.65649        49.000  

  25659656.14149 134842401.07449       499.71949        49.000  

  25632910.46949 134701853.32449      1475.07049        49.000  

 16 04 02 12 59 19.3000000  0  3G02G25G06                                       
  22363151.48449 117519152.09049     -4401.65649        49.000  

  25659646.64149 134842351.17649       498.05149        49.000  

  25632882.42249 134701705.93849      1472.57049        49.000  

 16 04 02 12 59 19.4000000  0  3G02G25G06                                       
  22363235.27349 117519592.47749     -4406.27749        49.000  

  25659637.18049 134842301.42649       496.68049        49.000  

  25632854.42249 134701558.80949      1470.09849        49.000  

 16 04 02 12 59 19.5000000  0  3G02G25G06                                       
  22363319.18049 117520033.37549     -4411.55949        49.000  

  25659627.73449 134842251.84849       494.84449        49.000  

  25632826.46949 134701411.93849      1467.34849        49.000  

 16 04 02 12 59 19.6000000  0  3G02G25G06                                       
  22363403.18049 117520474.80549     -4416.84849        49.000  

  25659618.34449 134842202.50049       492.64849        49.000  

  25632798.57849 134701265.37549      1464.34449        49.000  

 16 04 02 12 59 19.7000000  0  4G02G25G05G06                                    
  22363487.28149 117520916.75449     -4422.18049        49.000  

  25659608.99249 134842153.31649       490.77049        49.000  

  22726189.03949 119426928.02759      8331.40249        49.000  

  25632770.74249 134701119.08649      1461.38749        49.000  

 16 04 02 12 59 19.8000000  0  4G02G25G05G06                                    
  22363571.47749 117521359.18449     -4426.83249        49.000  

  25659599.66449 134842104.30549       489.23049        49.000  

  22726030.54749 119426095.15249      8325.36749        49.000  

  25632742.95349 134700973.04349      1459.03949        49.000  

 16 04 02 12 59 19.9000000  0  4G02G25G05G06                                    
  22363655.75849 117521802.08649     -4431.54349        49.000  

  25659590.35949 134842055.42649       487.83249        49.000  

  22725872.21949 119425262.89549      8319.27349        49.000  

  25632715.20349 134700827.23449      1456.65649        49.000  

 16 04 02 12 59 20.0000000  0  4G02G25G05G06                                    
  22363740.14149 117522245.58249     -4437.48049        49.000  

  25659581.11749 134842006.82849       485.08249        49.000  

  22725713.98449 119424431.36749      8311.93449        49.000  

  25632687.52349 134700681.78949      1453.08649        49.000  

 16 04 02 12 59 20.1000000  0  4G02G25G05G06                                    
  22363824.62549 117522689.54349     -4442.14849        49.000  

  25659571.88349 134841958.34449       483.86349        49.000  

  22725555.87549 119423600.43449      8305.95349        49.000  

  25632659.88349 134700536.56249      1450.79349        49.000  

 16 04 02 12 59 20.2000000  0  4G02G25G05G06                                    
  22363909.20349 117523134.04349     -4447.64549        49.000  

  25659562.70349 134841910.07449       481.78149        49.000  

  22725397.88349 119422770.16849      8299.23849        49.000  

  25632632.31249 134700391.63349      1447.80149        49.000  

 16 04 02 12 59 20.3000000  0  4G02G25G05G06                                    
  22363993.87549 117523578.98449     -4452.03549        49.000  

  25659553.53949 134841861.93849       480.48049        49.000  

  22725239.98449 119421940.50049      8293.41849        49.000  

  25632604.78149 134700246.93049      1445.69549        49.000  

 16 04 02 12 59 20.4000000  0  4G02G25G05G06                                    
  22364078.65649 117524024.46949     -4457.19949        49.000  

  25659544.41449 134841814.00449       478.65649        49.000  

  22725082.23449 119421111.52049      8286.73049        49.000  

  25632577.28949 134700102.51649      1443.00449        49.000  

 16 04 02 12 59 20.5000000  0  4G02G25G05G06                                    
  22364163.51649 117524470.40649     -4461.96549        49.000  

  25659535.33649 134841766.19949       477.12949        49.000  

  22724924.51649 119420283.10949      8280.74649        49.000  

  25632549.85249 134699958.32849      1440.52749        49.000  

 16 04 02 12 59 20.6000000  0  4G02G25G05G06                                    
  22364248.46949 117524916.85549     -4467.01249        49.000  

  25659526.27349 134841718.56649       475.49649        49.000  

  22724767.00049 119419455.36349      8274.28949        49.000  

  25632522.46149 134699814.40649      1437.90649        49.000  

 16 04 02 12 59 20.7000000  0  4G02G25G05G06                                    
  22364333.52349 117525363.81649     -4472.22349        49.000  

  25659517.23449 134841671.14549       473.18049        49.000  

  22724609.63349 119418628.26649      8267.52049        49.000  

  25632495.13349 134699670.77749      1434.85249        49.000  

 16 04 02 12 59 20.8000000  0  4G02G25G05G06                                    
  22364418.66449 117525811.28549     -4477.16449        49.000  

  25659508.24249 134841623.86349       472.03549        49.000  

  22724452.35949 119417801.79749      8261.56649        49.000  

  25632467.85949 134699527.39849      1432.57049        49.000  

 16 04 02 12 59 20.9000000  0  4G02G25G05G06                                    
  22364503.90649 117526259.23849     -4482.15249        49.000  

  25659499.27349 134841576.76649       469.99649        49.000  

  22724295.21149 119416975.96949      8254.89549        49.000  

  25632440.62549 134699384.28149      1429.70749        49.000  

 16 04 02 12 59 21.0000000  0  4G02G25G05G06                                    
  22364589.24249 117526707.68849     -4486.96549        49.000  

  25659490.34449 134841529.84449       468.40249        49.000  

  22724138.18849 119416150.76649      8248.77749        49.000  

  25632413.44549 134699241.43049      1427.19949        49.000  

 16 04 02 12 59 21.1000000  0  4G02G25G05G06                                    
  22364674.68849 117527156.67649     -4492.51649        49.000  

  25659481.44549 134841483.09849       466.49249        49.000  

  22723981.28149 119415326.23449      8241.97349        49.000  

  25632386.32049 134699098.85549      1424.31649        49.000  

 16 04 02 12 59 21.2000000  0  4G02G25G05G06                                    
  22364760.21949 117527606.12549     -4497.15649        49.000  

  25659472.57849 134841436.52049       464.97349        49.000  

  22723824.49249 119414502.31649      8235.84449        49.000  

  25632359.22749 134698956.52349      1421.91849        49.000  

 16 04 02 12 59 21.3000000  0  4G02G25G05G06                                    
  22364845.85249 117528056.12149     -4502.50849        49.000  

  25659463.76649 134841390.15649       462.68849        49.000  

  22723667.83649 119413679.08249      8229.01249        49.000  

  25632332.20349 134698814.50849      1418.78549        49.000  

 16 04 02 12 59 21.4000000  0  4G02G25G05G06                                    
  22364931.57049 117528506.56249     -4506.90249        49.000  

  25659454.96149 134841343.89149       461.72749        49.000  

  22723511.28949 119412856.42649      8223.17649        49.000  

  25632305.21149 134698672.68449      1416.84449        49.000  

 16 04 02 12 59 21.5000000  0  4G02G25G05G06                                    
  22365017.38349 117528957.51649     -4512.04749        49.000  

  25659446.19549 134841297.82049       459.87549        49.000  

  22723354.88349 119412034.40649      8216.82849        49.000  

  25632278.28149 134698531.14849      1414.05949        49.000  

 16 04 02 12 59 21.6000000  0  4G02G25G05G06                                    
  22365103.29749 117529408.99649     -4517.35549        49.000  

  25659437.46149 134841251.95749       457.74249        49.000  

  22723198.58649 119411213.07449      8210.02349        49.000  

  25632251.39849 134698389.89149      1411.23449        49.000  

 16 04 02 12 59 21.7000000  0  4G02G25G05G06                                    
  22365189.31249 117529861.00849     -4522.76649        49.000  

  25659428.78149 134841206.28949       455.60949        49.000  

  22723042.38349 119410392.39549      8203.36749        49.000  

  25632224.57849 134698248.94549      1408.05549        49.000  

 16 04 02 12 59 21.8000000  0  4G02G25G05G06                                    
  22365275.42249 117530313.52349     -4527.95349        49.000  

  25659420.12549 134841160.78549       453.95749        49.000  

  22722886.33649 119409572.36349      8196.79749        49.000  

  25632197.80549 134698108.25449      1405.27049        49.000  

 16 04 02 12 59 21.9000000  0  4G02G25G05G06                                    
  22365361.62549 117530766.50849     -4532.32049        49.000  

  25659411.49249 134841115.44949       452.55149        49.000  

  22722730.37549 119408752.94549      8191.00049        49.000  

  25632171.07849 134697967.80949      1403.14149        49.000  

 16 04 02 12 59 22.0000000  0  4G02G25G05G06                                    
  22365447.93049 117531220.03149     -4537.86349        49.000  

  25659402.89849 134841070.30149       450.46949        49.000  

  22722574.57049 119407934.19149      8184.13749        49.000  

  25632144.40649 134697827.64149      1400.28549        49.000  

 16 04 02 12 59 22.1000000  0  4G02G25G05G06                                    
  22365534.32849 117531674.05949     -4543.03149        49.000  

  25659394.34449 134841025.33649       448.62549        49.000  

  22722418.89149 119407116.09049      8177.65249        49.000  

  25632117.78149 134697687.75449      1397.45349        49.000  

 16 04 02 12 59 22.2000000  0  4G02G25G05G06                                    
  22365620.82049 117532128.54749     -4547.54749        49.000  

  25659385.82049 134840980.52049       447.12549        49.000  

  22722263.32849 119406298.59049      8171.54349        49.000  

  25632091.21149 134697548.11349      1394.91849        49.000  

 16 04 02 12 59 22.3000000  0  4G02G25G05G06                                    
  22365707.41449 117532583.59449     -4552.73849        49.000  

  25659377.32849 134840935.91849       445.25049        49.000  

  22722107.90649 119405481.78549      8164.91049        49.000  

  25632064.69549 134697408.76649      1392.18849        49.000  

 16 04 02 12 59 22.4000000  0  4G02G25G05G06                                    
  22365794.09449 117533039.09849     -4557.74649        49.000  

  25659368.86749 134840891.43849       443.90249        49.000  

  22721952.57849 119404665.56249      8158.72349        49.000  

  25632038.22749 134697269.64549      1389.82449        49.000  

 16 04 02 12 59 22.5000000  0  4G02G25G05G06                                    
  22365880.87549 117533495.12549     -4562.91049        49.000  

  25659360.43849 134840847.16849       441.75449        49.000  

  22721797.41449 119403850.02349      8152.06649        49.000  

  25632011.81249 134697130.82049      1386.82849        49.000  

 16 04 02 12 59 22.6000000  0  4G02G25G05G06                                    
  22365967.75049 117533951.65249     -4567.84449        49.000  

  25659352.04749 134840803.07449       439.94949        49.000  

  22721642.34449 119403035.10949      8145.72349        49.000  

  25631985.43849 134696992.25849      1384.14849        49.000  

 16 04 02 12 59 22.7000000  0  4G02G25G05G06                                    
  22366054.72749 117534408.71149     -4573.25049        49.000  

  25659343.68849 134840759.18049       438.07049        49.000  

  22721487.43849 119402220.87949      8138.86749        49.000  

  25631959.12549 134696853.98449      1381.27749        49.000  

 16 04 02 12 59 22.8000000  0  4G02G25G05G06                                    
  22366141.80549 117534866.31649     -4578.54349        49.000  

  25659335.37549 134840715.51249       435.78549        49.000  

  22721332.61749 119401407.31649      8132.23849        49.000  

  25631932.88349 134696716.03549      1378.03949        49.000  

 16 04 02 12 59 22.9000000  0  4G02G25G05G06                                    
  22366228.96949 117535324.37949     -4583.05549        49.000  

  25659327.08649 134840671.94149       434.74649        49.000  

  22721177.93049 119400594.34849      8126.39549        49.000  

  25631906.66449 134696578.27749      1376.21949        49.000  

 16 04 02 12 59 23.0000000  0  4G02G25G05G06                                    
  22366316.21949 117535782.90649     -4587.67649        49.000  

  25659318.82849 134840628.53149       433.35549        49.000  

  22721023.34449 119399781.99249      8120.34849        49.000  

  25631880.50049 134696440.75849      1373.98449        49.000  

 16 04 02 12 59 23.1000000  0  4G02G25G05G06                                    
  22366403.58649 117536242.02349     -4593.76249        49.000  

  25659310.61749 134840585.38349       430.59049        49.000  

  22720868.93049 119398970.35549      8112.95749        49.000  

  25631854.39849 134696303.60249      1370.25049        49.000  

 16 04 02 12 59 23.2000000  0  4G02G25G05G06                                    
  22366491.04749 117536701.59849     -4598.20349        49.000  

  25659302.43049 134840542.37149       429.27349        49.000  

  22720714.59449 119398159.34049      8106.98449        49.000  

  25631828.34449 134696166.68049      1367.93849        49.000  

 16 04 02 12 59 23.3000000  0  4G02G25G05G06                                    
  22366578.58649 117537161.61749     -4602.61349        49.000  

  25659294.27349 134840499.46549       428.25849        49.000  

  22720560.36749 119397348.88349      8101.30949        49.000  

  25631802.32049 134696029.93049      1366.23849        49.000  

 16 04 02 12 59 23.4000000  0  4G02G25G05G06                                    
  22366666.21149 117537622.11749     -4607.52049        49.000  

  25659286.14149 134840456.72749       426.50849        49.000  

  22720406.25849 119396539.06249      8094.96949        49.000  

  25631776.35249 134695893.45749      1363.59049        49.000  

 16 04 02 12 59 23.5000000  0  4G02G25G05G06                                    
  22366753.94549 117538083.16849     -4612.93049        49.000  

  25659278.04749 134840414.19149       424.45749        49.000  

  22720252.27349 119395729.91449      8088.20749        49.000  

  25631750.43849 134695757.29749      1360.33249        49.000  

 16 04 02 12 59 23.6000000  0  4G02G25G05G06                                    
  22366841.78949 117538544.73849     -4618.17249        49.000  

  25659269.99249 134840371.85949       422.47749        49.000  

  22720098.42249 119394921.43449      8081.41849        49.000  

  25631724.57849 134695621.39549      1357.61749        49.000  

 16 04 02 12 59 23.7000000  0  4G02G25G05G06                                    
  22366929.71149 117539006.76249     -4622.85249        49.000  

  25659261.96949 134840329.65649       421.07849        49.000  

  22719944.72749 119394113.55549      8075.50449        49.000  

  25631698.76649 134695485.74249      1355.17249        49.000  

 16 04 02 12 59 23.8000000  0  4G02G25G05G06                                    
  22367017.73449 117539469.34449     -4628.52049        49.000  

  25659253.97749 134840287.66849       418.82849        49.000  

  22719791.11749 119393306.35249      8068.53949        49.000  

  25631673.00849 134695350.38749      1351.92649        49.000  

 16 04 02 12 59 23.9000000  0  4G02G25G05G06                                    
  22367105.85949 117539932.41849     -4633.21149        49.000  

  25659246.01649 134840245.86749       417.28949        49.000  

  22719637.62549 119392499.80149      8062.30549        49.000  

  25631647.29749 134695215.29749      1349.57049        49.000  

 16 04 02 12 59 24.0000000  0  4G02G25G05G06                                    
  22367194.07049 117540395.96549     -4637.87949        49.000  

  25659238.08649 134840204.19949       415.90249        49.000  

  22719484.25849 119391693.85249      8056.14549        49.000  

  25631621.64149 134695080.43849      1347.29349        49.000  

 16 04 02 12 59 24.1000000  0  4G02G25G05G06                                    
  22367282.35949 117540859.95749     -4642.46149        49.000  

  25659230.18049 134840162.63749       414.82049        49.000  

  22719330.97749 119390888.47749      8050.49249        49.000  

  25631596.01649 134694945.78149      1345.27349        49.000  

 16 04 02 12 59 24.2000000  0  4G02G25G05G06                                    
  22367370.75849 117541324.48449     -4647.80549        49.000  

  25659222.31249 134840121.30949       412.46149        49.000  

  22719177.85249 119390083.79749      8043.53949        49.000  

  25631570.44549 134694811.44149      1342.11749        49.000  

 16 04 02 12 59 24.3000000  0  4G02G25G05G06                                    
  22367459.25849 117541789.56649     -4653.52049        49.000  

  25659214.48449 134840080.19949       410.05949        49.000  

  22719024.88349 119389279.80949      8036.37949        49.000  

  25631544.93849 134694677.41449      1338.75449        49.000  

 16 04 02 12 59 24.4000000  0  4G02G25G05G06                                    
  22367547.85249 117542255.13349     -4658.28149        49.000  

  25659206.68849 134840039.23849       408.57449        49.000  

  22718872.00849 119388476.43449      8030.30149        49.000  

  25631519.48449 134694543.63749      1336.34849        49.000  

 16 04 02 12 59 24.5000000  0  4G02G25G05G06                                    
  22367636.53949 117542721.20349     -4663.27349        49.000  

  25659198.93049 134839998.46149       406.90649        49.000  

  22718719.25849 119387673.69949      8024.01249        49.000  

  25631494.07849 134694410.12149      1333.80949        49.000  

 16 04 02 12 59 24.6000000  0  4G02G25G05G06                                    
  22367725.32049 117543187.73849     -4667.75449        49.000  

  25659191.19549 134839957.81249       405.66849        49.000  

  22718566.61749 119386871.57449      8018.04749        49.000  

  25631468.71949 134694276.83649      1331.51649        49.000  

 16 04 02 12 59 24.7000000  0  4G02G25G05G06                                    
  22367814.18049 117543654.71949     -4672.13349        49.000  

  25659183.48449 134839917.28949       404.48049        49.000  

  22718414.10249 119386070.03949      8012.26649        49.000  

  25631443.39849 134694143.76249      1329.59049        49.000  

 16 04 02 12 59 24.8000000  0  4G02G25G05G06                                    
  22367903.14849 117544122.23049     -4677.48049        49.000  

  25659175.81249 134839876.98049       402.31249        49.000  

  22718261.70349 119385269.18449      8005.37549        49.000  

  25631418.12549 134694010.98449      1326.48049        49.000  

 16 04 02 12 59 24.9000000  0  4G02G25G05G06                                    
  22367992.21949 117544590.31249     -4683.32449        49.000  

  25659168.19549 134839836.89149       399.98049        49.000  

  22718109.42249 119384469.01649      7998.31649        49.000  

  25631392.92249 134693878.53549      1323.18849        49.000  

 16 04 02 12 59 25.0000000  0  4G02G25G05G06                                    
  22368081.37549 117545058.82849     -4687.58249        49.000  

  25659160.58649 134839796.92249       398.91449        49.000  

  22717957.26649 119383669.43449      7992.55549        49.000  

  25631367.76649 134693746.29349      1321.14549        49.000  

 16 04 02 12 59 25.1000000  0  4G02G25G05G06                                    
  22368170.62549 117545527.83249     -4692.45749        49.000  

  25659153.00849 134839757.11349       397.30149        49.000  

  22717805.22749 119382870.47749      7986.47349        49.000  

  25631342.64149 134693614.29749      1318.65649        49.000  

 16 04 02 12 59 25.2000000  0  4G02G25G05G06                                    
  22368259.97749 117545997.38349     -4697.97349        49.000  

  25659145.47749 134839717.52349       395.04349        49.000  

  22717653.32049 119382072.20749      7979.51649        49.000  

  25631317.58649 134693482.60549      1315.54749        49.000  

 16 04 02 12 59 25.3000000  0  4G02G25G05G06                                    
  22368349.42249 117546467.44949     -4703.32049        49.000  

  25659137.98449 134839678.12149       393.00849        49.000  

  22717501.52349 119381274.59449      7972.68449        49.000  

  25631292.57849 134693351.19549      1312.66849        49.000  

 16 04 02 12 59 25.4000000  0  4G02G25G05G06                                    
  22368438.96149 117546937.96549     -4707.68849        49.000  

  25659130.50849 134839638.83249       392.01649        49.000  

  22717349.85249 119380477.55949      7967.00849        49.000  

  25631267.60949 134693220.00049      1310.61349        49.000  

 16 04 02 12 59 25.5000000  0  4G02G25G05G06                                    
  22368528.60249 117547409.01649     -4713.02349        49.000  

  25659123.07849 134839599.76649       389.70749        49.000  

  22717198.31249 119379681.21549      7960.18449        49.000  

  25631242.70349 134693089.10549      1307.59449        49.000  

 16 04 02 12 59 25.6000000  0  4G02G25G05G06                                    
  22368618.33649 117547880.56649     -4718.01249        49.000  

  25659115.67249 134839560.87149       388.06649        49.000  

  22717046.89849 119378885.51249      7953.71549        49.000  

  25631217.84449 134692958.48449      1304.89149        49.000  

 16 04 02 12 59 25.7000000  0  4G02G25G05G06                                    
  22368708.17249 117548352.65249     -4723.54749        49.000  

  25659108.31249 134839522.18049       385.91449        49.000  

  22716895.59449 119378090.46949      7946.96149        49.000  

  25631193.03949 134692828.14849      1301.91849        49.000  

 16 04 02 12 59 25.8000000  0  4G02G25G05G06                                    
  22368798.10249 117548825.21949     -4728.15249        49.000  

  25659100.97749 134839483.62549       384.59849        49.000  

  22716744.42249 119377296.04749      7940.90249        49.000  

  25631168.28149 134692698.05949      1299.48849        49.000  

 16 04 02 12 59 25.9000000  0  4G02G25G05G06                                    
  22368888.11749 117549298.26649     -4732.84049        49.000  

  25659093.67249 134839445.26249       382.98449        49.000  

  22716593.35949 119376502.26249      7934.70749        49.000  

  25631143.57049 134692568.21549      1297.16849        49.000  

 16 04 02 12 59 26.0000000  0  4G02G25G05G06                                    
  22368978.22749 117549771.79749     -4737.77049        49.000  

  25659086.39849 134839407.02749       381.57049        49.000  

  22716442.42249 119375709.08649      7928.53149        49.000  

  25631118.91449 134692438.61749      1294.69949        49.000  

 16 04 02 12 59 26.1000000  0  4G02G25G05G06                                    
  22369068.43049 117550245.84849     -4742.98049        49.000  

  25659079.15649 134839368.98849       379.59849        49.000  

  22716291.60949 119374916.57449      7921.87949        49.000  

  25631094.30549 134692309.31249      1291.77349        49.000  

 16 04 02 12 59 26.2000000  0  4G02G25G05G06                                    
  22369158.74249 117550720.41449     -4748.32449        49.000  

  25659071.95349 134839331.14849       377.44949        49.000  

  22716140.92249 119374124.72749      7915.10249        49.000  

  25631069.75849 134692180.28149      1288.85549        49.000  

 16 04 02 12 59 26.3000000  0  4G02G25G05G06                                    
  22369249.14849 117551195.46549     -4753.13749        49.000  

  25659064.78949 134839293.46549       375.75449        49.000  

  22715990.35949 119373333.50049      7908.84449        49.000  

  25631045.25049 134692051.50049      1286.33249        49.000  

 16 04 02 12 59 26.4000000  0  4G02G25G05G06                                    
  22369339.65649 117551671.07849     -4758.76649        49.000  

  25659057.65649 134839256.00849       373.51649        49.000  

  22715839.93049 119372542.96949      7901.87949        49.000  

  25631020.79749 134691923.04349      1283.06249        49.000  

 16 04 02 12 59 26.5000000  0  4G02G25G05G06                                    
  22369430.25049 117552147.15249     -4763.18849        49.000  

  25659050.55549 134839218.68849       372.41049        49.000  

  22715689.61749 119371753.04349      7896.03549        49.000  

  25630996.39849 134691794.80949      1281.03549        49.000  

 16 04 02 12 59 26.6000000  0  4G02G25G05G06                                    
  22369520.93849 117552623.75049     -4768.52049        49.000  

  25659043.49249 134839181.55549       370.41449        49.000  

  22715539.43049 119370963.77749      7889.31249        49.000  

  25630972.04749 134691666.85949      1278.16049        49.000  

 16 04 02 12 59 26.7000000  0  4G02G25G05G06                                    
  22369611.72749 117553100.85549     -4773.67649        49.000  

  25659036.46149 134839144.62549       368.36349        49.000  

  22715389.35949 119370175.16449      7882.83649        49.000  

  25630947.75049 134691539.18849      1275.34049        49.000  

 16 04 02 12 59 26.8000000  0  4G02G25G05G06                                    
  22369702.60249 117553578.42249     -4778.17249        49.000  

  25659029.46149 134839107.81249       367.20749        49.000  

  22715239.40649 119369387.14849      7876.88749        49.000  

  25630923.50849 134691411.73849      1273.24249        49.000  

 16 04 02 12 59 26.9000000  0  4G02G25G05G06                                    
  22369793.56249 117554056.42649     -4782.52049        49.000  

  25659022.48449 134839071.11749       366.15649        49.000  

  22715089.58649 119368599.71949      7871.12149        49.000  

  25630899.29749 134691284.50449      1271.07849        49.000  

 16 04 02 12 59 27.0000000  0  4G02G25G05G06                                    
  22369884.63349 117554534.98049     -4787.91849        49.000  

  25659015.54749 134839034.64549       364.00449        49.000  

  22714939.87549 119367812.98049      7864.12549        49.000  

  25630875.14149 134691157.56649      1268.06249        49.000  

 16 04 02 12 59 27.1000000  0  4G02G25G05G06                                    
  22369975.80549 117555014.08249     -4793.51249        49.000  

  25659008.64849 134838998.39149       361.57049        49.000  

  22714790.28949 119367026.92249      7857.24649        49.000  

  25630851.03949 134691030.94149      1264.85249        49.000  

 16 04 02 12 59 27.2000000  0  4G02G25G05G06                                    
  22370067.05549 117555493.61749     -4797.83649        49.000  

  25659001.76649 134838962.23849       360.68449        49.000  

  22714640.82049 119366241.44549      7851.45749        49.000  

  25630826.98449 134690904.52349      1262.85949        49.000  

 16 04 02 12 59 27.3000000  0  4G02G25G05G06                                    
  22370158.40649 117555973.66849     -4803.09049        49.000  

  25658994.93849 134838926.28949       358.57049        49.000  

  22714491.48449 119365456.61349      7844.96149        49.000  

  25630802.98449 134690778.37949      1260.01649        49.000  

 16 04 02 12 59 27.4000000  0  4G02G25G05G06                                    
  22370249.85249 117556454.24249     -4808.30949        49.000  

  25658988.13349 134838890.52349       356.62949        49.000  

  22714342.26649 119364672.44949      7838.23049        49.000  

  25630779.02349 134690652.51649      1257.20349        49.000  

 16 04 02 12 59 27.5000000  0  4G02G25G05G06                                    
  22370341.38349 117556935.24649     -4812.50849        49.000  

  25658981.34449 134838854.85949       355.71549        49.000  

  22714193.14149 119363888.86349      7832.56649        49.000  

  25630755.11749 134690526.85549      1255.31249        49.000  

 16 04 02 12 59 27.6000000  0  4G02G25G05G06                                    
  22370433.01649 117557416.78549     -4817.87949        49.000  

  25658974.59449 134838819.40649       353.78149        49.000  

  22714044.15649 119363105.93849      7825.97349        49.000  

  25630731.25849 134690401.49249      1252.27049        49.000  

 16 04 02 12 59 27.7000000  0  4G02G25G05G06                                    
  22370524.75049 117557898.84849     -4823.28549        49.000  

  25658967.89149 134838784.16849       351.32849        49.000  

  22713895.26649 119362323.69949      7819.03149        49.000  

  25630707.46149 134690276.41849      1249.28149        49.000  

 16 04 02 12 59 27.8000000  0  4G02G25G05G06                                    
  22370616.57849 117558381.39849     -4828.10949        49.000  

  25658961.21149 134838749.05949       350.12949        49.000  

  22713746.53149 119361542.07049      7812.86349        49.000  

  25630683.70349 134690151.59449      1246.80149        49.000  

 16 04 02 12 59 27.9000000  0  4G02G25G05G06                                    
  22370708.49249 117558864.43049     -4833.02349        49.000  

  25658954.56249 134838714.12549       348.33649        49.000  

  22713597.91449 119360761.07049      7806.55949        49.000  

  25630659.99249 134690027.01649      1244.23849        49.000  

 16 04 02 12 59 28.0000000  0  4G02G25G05G06                                    
  22370800.51649 117559347.98049     -4838.03949        49.000  

  25658947.95349 134838679.38749       346.54349        49.000  

  22713449.42249 119359980.74649      7800.00449        49.000  

  25630636.33649 134689902.71949      1241.62549        49.000  

 16 04 02 12 59 28.1000000  0  4G02G25G05G06                                    
  22370892.62549 117559832.02349     -4842.78949        49.000  

  25658941.37549 134838644.80149       345.07449        49.000  

  22713301.04749 119359201.02749      7793.95349        49.000  

  25630612.72749 134689778.68049      1239.22349        49.000  

 16 04 02 12 59 28.2000000  0  4G02G25G05G06                                    
  22370984.83649 117560316.55949     -4848.10249        49.000  

  25658934.82849 134838610.38749       343.07449        49.000  

  22713152.79749 119358421.95349      7787.19549        49.000  

  25630589.18049 134689654.89549      1236.34849        49.000  

 16 04 02 12 59 28.3000000  0  4G02G25G05G06                                    
  22371077.14849 117560801.66049     -4853.52749        49.000  

  25658928.31249 134838576.21949       340.77349        49.000  

  22713004.65649 119357643.59449      7780.25049        49.000  

  25630565.68849 134689531.44949      1233.15249        49.000  

 16 04 02 12 59 28.4000000  0  4G02G25G05G06                                    
  22371169.54749 117561287.22749     -4858.43049        49.000  

  25658921.83649 134838542.17649       339.18849        49.000  

  22712856.65649 119356865.83649      7774.00049        49.000  

  25630542.23449 134689408.21949      1230.65649        49.000  

 16 04 02 12 59 28.5000000  0  4G02G25G05G06                                    
  22371262.06249 117561773.37549     -4864.14549        49.000  

  25658915.41449 134838508.40249       336.78549        49.000  

  22712708.77349 119356088.80149      7766.96149        49.000  

  25630518.85949 134689285.34849      1227.32049        49.000  

 16 04 02 12 59 28.6000000  0  4G02G25G05G06                                    
  22371354.66449 117562260.00449     -4868.88749        49.000  

  25658909.01649 134838474.75849       335.41849        49.000  

  22712561.03149 119355312.37949      7760.82849        49.000  

  25630495.52349 134689162.71549      1224.93449        49.000  

 16 04 02 12 59 28.7000000  0  4G02G25G05G06                                    
  22371447.34449 117562747.07449     -4873.22749        49.000  

  25658902.64149 134838441.25449       334.13349        49.000  

  22712413.39149 119354536.54749      7755.06249        49.000  

  25630472.22749 134689040.28149      1222.89549        49.000  

 16 04 02 12 59 28.8000000  0  4G02G25G05G06                                    
  22371540.13349 117563234.65649     -4878.22749        49.000  

  25658896.29749 134838407.92649       332.48849        49.000  

  22712265.88349 119353761.37149      7748.59049        49.000  

  25630448.98449 134688918.13749      1220.20749        49.000  

 16 04 02 12 59 28.9000000  0  4G02G25G05G06                                    
  22371633.00849 117563722.69949     -4882.93849        49.000  

  25658889.98449 134838374.72349       331.21549        49.000  

  22712118.50049 119352986.79749      7742.50049        49.000  

  25630425.78149 134688796.20349      1217.99249        49.000  

 16 04 02 12 59 29.0000000  0  4G02G25G05G06                                    
  22371725.96949 117564211.23049     -4887.65649        49.000  

  25658883.70349 134838341.70349       329.53149        49.000  

  22711971.22749 119352212.84849      7736.46949        49.000  

  25630402.62549 134688674.53949      1215.55149        49.000  

 16 04 02 12 59 29.1000000  0  4G02G25G05G06                                    
  22371819.03149 117564700.24249     -4892.87549        49.000  

  25658877.44549 134838308.82449       327.73449        49.000  

  22711824.07049 119351439.53149      7729.70349        49.000  

  25630379.51649 134688553.10249      1212.77049        49.000  

 16 04 02 12 59 29.2000000  0  4G02G25G05G06                                    
  22371912.19549 117565189.86349     -4898.68049        49.000  

  25658871.23449 134838276.21549       325.24649        49.000  

  22711677.04749 119350666.94549      7722.57849        49.000  

  25630356.47749 134688432.04749      1209.26249        49.000  

 16 04 02 12 59 29.3000000  0  4G02G25G05G06                                    
  22372005.44549 117565679.90649     -4903.02049        49.000  

  25658865.05549 134838243.72349       323.97349        49.000  

  22711530.13349 119349894.93849      7716.73049        49.000  

  25630333.47749 134688311.17249      1207.38349        49.000  

 16 04 02 12 59 29.4000000  0  4G02G25G05G06                                    
  22372098.79749 117566170.45349     -4908.03549        49.000  

  25658858.90649 134838211.40649       322.28949        49.000  

  22711383.35249 119349123.57849      7710.35549        49.000  

  25630310.51649 134688190.57449      1204.66049        49.000  

 16 04 02 12 59 29.5000000  0  4G02G25G05G06                                    
  22372192.24249 117566661.52049     -4913.28549        49.000  

  25658852.78949 134838179.27349       320.18049        49.000  

  22711236.68849 119348352.87149      7703.65649        49.000  

  25630287.62549 134688070.25849      1201.69949        49.000  

 16 04 02 12 59 29.6000000  0  4G02G25G05G06                                    
  22372285.79749 117567153.11349     -4918.50849        49.000  

  25658846.71149 134838147.34449       318.33249        49.000  

  22711090.15649 119347582.84449      7696.96949        49.000  

  25630264.78949 134687950.23449      1198.76249        49.000  

 16 04 02 12 59 29.7000000  0  4G02G25G05G06                                    
  22372379.43049 117567645.13749     -4922.82049        49.000  

  25658840.66449 134838115.52049       317.32449        49.000  

  22710943.72749 119346813.37949      7691.22749        49.000  

  25630241.99249 134687830.40649      1196.90249        49.000  

 16 04 02 12 59 29.8000000  0  4G02G25G05G06                                    
  22372473.14849 117568137.68449     -4928.00049        49.000  

  25658834.64149 134838083.89549       315.32449        49.000  

  22710797.43049 119346044.58249      7684.71149        49.000  

  25630219.24249 134687710.85249      1194.14549        49.000  

 16 04 02 12 59 29.9000000  0  4G02G25G05G06                                    
  22372566.98449 117568630.78949     -4933.67649        49.000  

  25658828.67249 134838052.48849       313.08249        49.000  

  22710651.26649 119345276.48049      7677.62149        49.000  

  25630196.55549 134687591.63349      1190.78149        49.000  

 16 04 02 12 59 30.0000000  0  4G02G25G05G06                                    
  22372660.89849 117569124.31249     -4937.84049        49.000  

  25658822.71949 134838021.19949       312.00449        49.000  

  22710505.20349 119344508.94949      7671.93849        49.000  

  25630173.90649 134687472.59449      1188.99249        49.000  

 16 04 02 12 59 30.1000000  0  4G02G25G05G06                                    
  22372754.91449 117569618.36749     -4942.96149        49.000  

  25658816.79749 134837990.09049       310.29349        49.000  

  22710359.26649 119343742.09049      7665.40649        49.000  

  25630151.31249 134687353.85549      1186.21549        49.000  

 16 04 02 12 59 30.2000000  0  4G02G25G05G06                                    
  22372849.03149 117570112.96549     -4948.69549        49.000  

  25658810.91449 134837959.19949       307.72349        49.000  

  22710213.46149 119342975.89149      7658.38749        49.000  

  25630128.76649 134687235.40249      1182.95349        49.000  

 16 04 02 12 59 30.3000000  0  4G02G25G05G06                                    
  22372943.24249 117570608.04749     -4953.48849        49.000  

  25658805.07849 134837928.48049       306.21149        49.000  

  22710067.78149 119342210.35249      7652.03149        49.000  

  25630106.27349 134687117.22349      1180.39849        49.000  

 16 04 02 12 59 30.4000000  0  4G02G25G05G06                                    
  22373037.55549 117571103.67649     -4959.01249        49.000  

  25658799.26649 134837897.96949       304.01249        49.000  

  22709922.23449 119341445.48449      7645.08649        49.000  

  25630083.83649 134686999.34449      1177.14849        49.000  

 16 04 02 12 59 30.5000000  0  4G02G25G05G06                                    
  22373131.96149 117571599.78949     -4963.70749        49.000  

  25658793.50049 134837867.62949       302.36349        49.000  

  22709776.81249 119340681.25049      7638.92249        49.000  

  25630061.45349 134686881.71549      1174.84049        49.000  

 16 04 02 12 59 30.6000000  0  4G02G25G05G06                                    
  22373226.46949 117572096.40249     -4968.64849        49.000  

  25658787.75849 134837837.44549       300.91449        49.000  

  22709631.50049 119339917.65649      7632.61349        49.000  

  25630039.11749 134686764.35549      1172.22349        49.000  

 16 04 02 12 59 30.7000000  0  4G02G25G05G06                                    
  22373321.07049 117572593.52349     -4973.78949        49.000  

  25658782.04749 134837807.46149       298.93849        49.000  

  22709486.32049 119339154.70749      7626.04349        49.000  

  25630016.83649 134686647.25849      1169.54749        49.000  

 16 04 02 12 59 30.8000000  0  4G02G25G05G06                                    
  22373415.77349 117573091.17649     -4978.99649        49.000  

  25658776.38349 134837777.66849       297.14149        49.000  

  22709341.26649 119338392.43449      7619.54349        49.000  

  25629994.60949 134686530.45749      1166.74249        49.000  

 16 04 02 12 59 30.9000000  0  4G02G25G05G06                                    
  22373510.55549 117573589.26649     -4983.69149        49.000  

  25658770.73449 134837748.00049       295.64849        49.000  

  22709196.33649 119337630.75049      7613.25049        49.000  

  25629972.42249 134686413.87149      1164.29349        49.000  

 16 04 02 12 59 31.0000000  0  4G02G25G05G06                                    
  22373605.43849 117574087.91049     -4988.91449        49.000  

  25658765.13349 134837718.55949       293.49649        49.000  

  22709051.52349 119336869.75049      7606.69149        49.000  

  25629950.29749 134686297.59049      1161.49649        49.000  

 16 04 02 12 59 31.1000000  0  4G02G25G05G06                                    
  22373700.42249 117574587.07849     -4994.33249        49.000  

  25658759.56249 134837689.29749       291.53949        49.000  

  22708906.82049 119336109.42249      7599.78549        49.000  

  25629928.21949 134686181.59849      1158.43049        49.000  

 16 04 02 12 59 31.2000000  0  4G02G25G05G06                                    
  22373795.50049 117575086.73049     -4999.24649        49.000  

  25658754.03149 134837660.20349       289.94549        49.000  

  22708762.25849 119335349.71949      7593.52049        49.000  

  25629906.19549 134686065.85549      1155.92649        49.000  

 16 04 02 12 59 31.3000000  0  4G02G25G05G06                                    
  22373890.67249 117575586.87549     -5003.85949        49.000  

  25658748.53149 134837631.28549       288.40249        49.000  

  22708617.81249 119334590.65249      7587.41049        49.000  

  25629884.21949 134685950.37949      1153.53149        49.000  

 16 04 02 12 59 31.4000000  0  4G02G25G05G06                                    
  22373985.93049 117576087.49649     -5008.70349        49.000  

  25658743.04749 134837602.50049       287.07849        49.000  

  22708473.48449 119333832.19949      7581.20749        49.000  

  25629862.28949 134685835.13749      1151.01649        49.000  

 16 04 02 12 59 31.5000000  0  4G02G25G05G06                                    
  22374081.28949 117576588.59849     -5013.24649        49.000  

  25658737.60249 134837573.87149       285.66449        49.000  

  22708329.28949 119333074.37149      7575.28149        49.000  

  25629840.40649 134685720.12949      1149.06649        49.000  

 16 04 02 12 59 31.6000000  0  4G02G25G05G06                                    
  22374176.73449 117577090.16049     -5018.06249        49.000  

  25658732.18849 134837545.40249       283.89149        49.000  

  22708185.19549 119332317.16049      7568.85249        49.000  

  25629818.57049 134685605.37149      1146.35949        49.000  

 16 04 02 12 59 31.7000000  0  4G02G25G05G06                                    
  22374272.28149 117577592.27749     -5023.55549        49.000  

  25658726.80549 134837517.12949       281.97349        49.000  

  22708041.21949 119331560.62549      7562.13349        49.000  

  25629796.78949 134685490.90649      1143.41449        49.000  

 16 04 02 12 59 31.8000000  0  4G02G25G05G06                                    
  22374367.92249 117578094.85949     -5028.36349        49.000  

  25658721.45349 134837489.01649       280.18849        49.000  

  22707897.37549 119330804.71549      7555.78149        49.000  

  25629775.04749 134685376.68849      1140.79349        49.000  

 16 04 02 12 59 31.9000000  0  4G02G25G05G06                                    
  22374463.66449 117578597.96949     -5033.59849        49.000  

  25658716.14149 134837461.09849       278.39849        49.000  

  22707753.64849 119330049.45349      7549.35549        49.000  

  25629753.36749 134685262.74649      1138.09849        49.000  

 16 04 02 12 59 32.0000000  0  4G02G25G05G06                                    
  22374559.48449 117579101.54349     -5038.48849        49.000  

  25658710.85249 134837433.32449       276.49649        49.000  

  22707610.05549 119329294.83249      7542.68849        49.000  

  25629731.72749 134685149.05149      1135.33249        49.000  

 16 04 02 12 59 32.1000000  0  4G02G25G05G06                                    
  22374655.41449 117579605.65249     -5043.53149        49.000  

  25658705.60949 134837405.75449       274.96949        49.000  

  22707466.57049 119328540.86749      7536.43849        49.000  

  25629710.14849 134685035.65649      1132.71949        49.000  

 16 04 02 12 59 32.2000000  0  4G02G25G05G06                                    
  22374751.42249 117580110.18449     -5047.96949        49.000  

  25658700.38349 134837378.27349       273.62149        49.000  

  22707323.20349 119327787.46549      7530.44149        49.000  

  25629688.60949 134684922.42649      1130.70349        49.000  

 16 04 02 12 59 32.3000000  0  4G02G25G05G06                                    
  22374847.54749 117580615.30949     -5053.80549        49.000  

  25658695.19549 134837351.07449       271.05549        49.000  

  22707180.00049 119327034.80949      7523.19949        49.000  

  25629667.13349 134684809.57449      1127.14149        49.000  

 16 04 02 12 59 32.4000000  0  4G02G25G05G06                                    
  22374943.75049 117581120.89149     -5058.32449        49.000  

  25658690.04749 134837323.99249       269.90249        49.000  

  22707036.88349 119326282.74649      7517.25049        49.000  

  25629645.69549 134684696.92649      1125.06649        49.000  

 16 04 02 12 59 32.5000000  0  4G02G25G05G06                                    
  22375040.03949 117581626.88749     -5062.46549        49.000  

  25658684.92249 134837297.00449       269.03149        49.000  

  22706893.86749 119325531.24649      7511.66449        49.000  

  25629624.29749 134684584.47749      1123.17249        49.000  

 16 04 02 12 59 32.6000000  0  4G02G25G05G06                                    
  22375136.44549 117582133.50849     -5068.65649        49.000  

  25658679.84449 134837270.32049       266.03149        49.000  

  22706751.00849 119324780.51249      7504.09049        49.000  

  25629602.96949 134684472.40249      1119.41049        49.000  

 16 04 02 12 59 32.7000000  0  4G02G25G05G06                                    
  22375232.93849 117582640.59849     -5073.57449        49.000  

  25658674.78949 134837243.77049       264.49249        49.000  

  22706608.26649 119324030.38749      7497.78549        49.000  

  25629581.68849 134684360.56249      1116.99649        49.000  

 16 04 02 12 59 32.8000000  0  4G02G25G05G06                                    
  22375329.52349 117583148.15249     -5078.01249        49.000  

  25658669.76649 134837217.36349       263.21549        49.000  

  22706465.64149 119323280.87549      7491.75449        49.000  

  25629560.45349 134684248.96149      1114.75449        49.000  

 16 04 02 12 59 32.9000000  0  4G02G25G05G06                                    
  22375426.20349 117583656.21949     -5083.09049        49.000  

  25658664.76649 134837191.13749       261.49649        49.000  

  22706323.13349 119322532.00849      7485.32049        49.000  

  25629539.26649 134684137.62549      1112.02049        49.000  

 16 04 02 12 59 33.0000000  0  4G02G25G05G06                                    
  22375522.98449 117584164.78149     -5088.22349        49.000  

  25658659.81249 134837165.08649       259.61749        49.000  

  22706180.75049 119321783.78149      7478.92649        49.000  

  25629518.12549 134684026.55149      1109.39849        49.000  

 16 04 02 12 59 33.1000000  0  4G02G25G05G06                                    
  22375619.85949 117584673.88749     -5093.65249        49.000  

  25658654.89849 134837139.25049       257.43049        49.000  

  22706038.49249 119321036.25449      7471.91049        49.000  

  25629497.04749 134683915.79349      1106.23049        49.000  

 16 04 02 12 59 33.2000000  0  4G02G25G05G06                                    
  22375716.82849 117585183.46149     -5098.18449        49.000  

  25658650.00849 134837113.57449       255.92649        49.000  

  22705896.35249 119320289.33649      7465.85549        49.000  

  25629476.02349 134683805.27749      1103.79749        49.000  

 16 04 02 12 59 33.3000000  0  4G02G25G05G06                                    
  22375813.89849 117585693.57049     -5103.37549        49.000  

  25658645.16449 134837088.08249       254.16449        49.000  

  22705754.35249 119319543.09049      7459.33249        49.000  

  25629455.04749 134683695.03549      1101.18849        49.000  

 16 04 02 12 59 33.4000000  0  4G02G25G05G06                                    
  22375911.06249 117586204.16049     -5108.52349        49.000  

  25658640.34449 134837062.75849       252.27049        49.000  

  22705612.46149 119318797.47349      7452.80549        49.000  

  25629434.10949 134683585.05549      1098.27349        49.000  

 16 04 02 12 59 33.5000000  0  4G02G25G05G06                                    
  22376008.32849 117586715.28149     -5113.68449        49.000  

  25658635.56249 134837037.63749       250.27349        49.000  

  22705470.70349 119318052.52749      7446.08649        49.000  

  25629413.23449 134683475.35949      1095.52049        49.000  

 16 04 02 12 59 33.6000000  0  4G02G25G05G06                                    
  22376105.68049 117587226.92649     -5119.11349        49.000  

  25658630.82049 134837012.71149       248.29749        49.000  

  22705329.07049 119317308.24649      7439.39549        49.000  

  25629392.42249 134683365.95749      1092.58249        49.000  

 16 04 02 12 59 33.7000000  0  4G02G25G05G06                                    
  22376203.14149 117587739.05949     -5123.93049        49.000  

  25658626.10949 134836987.94149       246.71549        49.000  

  22705187.57049 119316564.59449      7433.10249        49.000  

  25629371.64849 134683256.79749      1090.18049        49.000  

 16 04 02 12 59 33.8000000  0  4G02G25G05G06                                    
  22376300.66449 117588251.61349     -5128.11749        49.000  

  25658621.42249 134836963.28549       245.67249        49.000  

  22705046.16449 119315821.50849      7427.54349        49.000  

  25629350.91449 134683147.84849      1088.17649        49.000  

 16 04 02 12 59 33.9000000  0  4G02G25G05G06                                    
  22376398.29749 117588764.66849     -5132.94949        49.000  

  25658616.75849 134836938.79349       244.09049        49.000  

  22704904.88349 119315079.09049      7421.02049        49.000  

  25629330.23449 134683039.15249      1085.69949        49.000  

 16 04 02 12 59 34.0000000  0  4G02G25G05G06                                    
  22376496.03149 117589278.25449     -5138.23049        49.000  

  25658612.13349 134836914.50049       242.14549        49.000  

  22704763.72749 119314337.31249      7414.59049        49.000  

  25629309.60249 134682930.74249      1082.85949        49.000  

 16 04 02 12 59 34.1000000  0  4G02G25G05G06                                    
  22376593.85249 117589792.31649     -5143.19149        49.000  

  25658607.53949 134836890.35949       240.48449        49.000  

  22704622.69549 119313596.16849      7408.11749        49.000  

  25629289.02349 134682822.58649      1080.17249        49.000  

 16 04 02 12 59 34.2000000  0  4G02G25G05G06                                    
  22376691.78149 117590306.93449     -5148.77749        49.000  

  25658602.99249 134836866.45749       238.07449        49.000  

  22704481.79749 119312855.72749      7401.05949        49.000  

  25629268.49249 134682714.74249      1076.98449        49.000  

 16 04 02 12 59 34.3000000  0  4G02G25G05G06                                    
  22376789.80549 117590822.04749     -5153.79349        49.000  

  25658598.47749 134836842.72349       236.34449        49.000  

  22704341.02349 119312115.92249      7394.61749        49.000  

  25629248.02349 134682607.16049      1074.29349        49.000  

 16 04 02 12 59 34.4000000  0  4G02G25G05G06                                    
  22376887.93049 117591337.65249     -5158.79749        49.000  

  25658593.99249 134836819.14849       234.65649        49.000  

  22704200.36749 119311376.75849      7388.11749        49.000  

  25629227.60249 134682499.83649      1071.65249        49.000  

 16 04 02 12 59 34.5000000  0  4G02G25G05G06                                    
  22376986.15649 117591853.83249     -5164.49649        49.000  

  25658589.54749 134836795.82849       232.14849        49.000  

  22704059.84449 119310638.29749      7381.08249        49.000  

  25629207.24249 134682392.85249      1068.37949        49.000  

 16 04 02 12 59 34.6000000  0  4G02G25G05G06                                    
  22377084.46149 117592370.45749     -5168.92249        49.000  

  25658585.13349 134836772.62549       231.05949        49.000  

  22703919.43849 119309900.44549      7375.14149        49.000  

  25629186.92249 134682286.07449      1066.28949        49.000  

 16 04 02 12 59 34.7000000  0  4G02G25G05G06                                    
  22377182.87549 117592887.63749     -5174.44549        49.000  

  25658580.75849 134836749.65249       228.70749        49.000  

  22703779.15649 119309163.27349      7368.25049        49.000  

  25629166.66449 134682179.61349      1063.11349        49.000  

 16 04 02 12 59 34.8000000  0  4G02G25G05G06                                    
  22377281.39149 117593405.30949     -5179.09049        49.000  

  25658576.41449 134836726.84849       227.27049        49.000  

  22703639.00049 119308426.75049      7362.24249        49.000  

  25629146.45349 134682073.41849      1060.77349        49.000  

 16 04 02 12 59 34.9000000  0  4G02G25G05G06                                    
  22377379.98449 117593923.43449     -5183.77049        49.000  

  25658572.09449 134836704.16449       226.05149        49.000  

  22703498.95349 119307690.82449      7356.00849        49.000  

  25629126.28149 134681967.43049      1058.53549        49.000  

 16 04 02 12 59 35.0000000  0  4G02G25G05G06                                    
  22377478.67249 117594442.05549     -5188.69149        49.000  

  25658567.81249 134836681.65249       224.36349        49.000  

  22703359.03149 119306955.53549      7349.69549        49.000  

  25629106.16449 134681861.71149      1055.98849        49.000  

 16 04 02 12 59 35.1000000  0  4G02G25G05G06                                    
  22377577.46149 117594961.18849     -5193.76649        49.000  

  25658563.57049 134836659.33649       222.28549        49.000  

  22703219.24249 119306220.90249      7342.99649        49.000  

  25629086.10249 134681756.27049      1052.97349        49.000  

 16 04 02 12 59 35.2000000  0  4G02G25G05G06                                    
  22377676.32849 117595480.77349     -5198.49249        49.000  

  25658559.34449 134836637.15649       220.79349        49.000  

  22703079.56249 119305486.87149      7336.81249        49.000  

  25629066.07849 134681651.05149      1050.69549        49.000  

 16 04 02 12 59 35.3000000  0  4G02G25G05G06                                    
  22377775.30549 117596000.89549     -5203.69549        49.000  

  25658555.15649 134836615.16449       219.03549        49.000  

  22702940.00849 119304753.51249      7330.36749        49.000  

  25629046.10949 134681546.12149      1048.00049        49.000  

 16 04 02 12 59 35.4000000  0  4G02G25G05G06                                    
  22377874.36749 117596521.49649     -5208.57049        49.000  

  25658551.00049 134836593.32449       217.41449        49.000  

  22702800.57049 119304020.77749      7324.08649        49.000  

  25629026.19549 134681441.43049      1045.53949        49.000  

 16 04 02 12 59 35.5000000  0  4G02G25G05G06                                    
  22377973.53149 117597042.61749     -5213.66849        49.000  

  25658546.89149 134836571.70349       215.33649        49.000  

  22702661.28149 119303288.72349      7317.26649        49.000  

  25629006.32849 134681337.04349      1042.53549        49.000  

 16 04 02 12 59 35.6000000  0  4G02G25G05G06                                    
  22378072.80549 117597564.30949     -5219.47349        49.000  

  25658542.82049 134836550.30949       212.96949        49.000  

  22702522.10249 119302557.35949      7310.27349        49.000  

  25628986.53149 134681232.96949      1039.30549        49.000  

 16 04 02 12 59 35.7000000  0  4G02G25G05G06                                    
  22378172.16449 117598086.44149     -5224.03549        49.000  

  25658538.78149 134836529.03149       211.67249        49.000  

  22702383.03949 119301826.59849      7304.11349        49.000  

  25628966.76649 134681129.11349      1037.04349        49.000  

 16 04 02 12 59 35.8000000  0  4G02G25G05G06                                    
  22378271.61749 117598609.10249     -5228.94149        49.000  

  25658534.76649 134836507.96149       209.88349        49.000  

  22702244.10949 119301096.50849      7297.69549        49.000  

  25628947.06249 134681025.55549      1034.41449        49.000  

 16 04 02 12 59 35.9000000  0  4G02G25G05G06                                    
  22378371.17249 117599132.27349     -5234.35249        49.000  

  25658530.79749 134836487.06649       207.96549        49.000  

  22702105.31249 119300367.05949      7291.03149        49.000  

  25628927.40649 134680922.26249      1031.48449        49.000  

 16 04 02 12 59 36.0000000  0  4G02G25G05G06                                    
  22378470.81249 117599655.90249     -5238.82049        49.000  

  25658526.84449 134836466.31249       206.66049        49.000  

  22701966.62549 119299638.22349      7285.03949        49.000  

  25628907.78949 134680819.19149      1029.33249        49.000  

 16 04 02 12 59 36.1000000  0  4G02G25G05G06                                    
  22378570.54749 117600180.00849     -5243.35949        49.000  

  25658522.93049 134836445.71549       205.29749        49.000  

  22701828.03949 119298910.02049      7278.91849        49.000  

  25628888.21949 134680716.37149      1027.11749        49.000  

 16 04 02 12 59 36.2000000  0  4G02G25G05G06                                    
  22378670.36749 117600704.55949     -5247.98049        49.000  

  25658519.03149 134836425.23049       204.02349        49.000  

  22701689.57849 119298182.39149      7273.02349        49.000  

  25628868.69549 134680613.75849      1024.88749        49.000  

 16 04 02 12 59 36.3000000  0  4G02G25G05G06                                    
  22378770.28949 117601229.66049     -5253.43849        49.000  

  25658515.18049 134836404.96949       201.72349        49.000  

  22701551.24249 119297455.45749      7266.05949        49.000  

  25628849.22749 134680511.46149      1021.68849        49.000  

 16 04 02 12 59 36.4000000  0  4G02G25G05G06                                    
  22378870.31249 117601755.28549     -5258.75849        49.000  

  25658511.35949 134836384.91449       199.67249        49.000  

  22701413.03949 119296729.19149      7259.30549        49.000  

  25628829.81249 134680409.44549      1018.78949        49.000  

 16 04 02 12 59 36.5000000  0  4G02G25G05G06                                    
  22378970.42249 117602281.37149     -5263.45749        49.000  

  25658507.56249 134836364.98849       198.18449        49.000  

  22701274.94549 119296003.53549      7253.22749        49.000  

  25628810.44549 134680307.66049      1016.41049        49.000  

 16 04 02 12 59 36.6000000  0  4G02G25G05G06                                    
  22379070.62549 117602807.94549     -5268.20349        49.000  

  25658503.80549 134836345.21949       196.78149        49.000  

  22701136.98449 119295278.52349      7246.68849        49.000  

  25628791.12549 134680206.12549      1013.97349        49.000  

 16 04 02 12 59 36.7000000  0  4G02G25G05G06                                    
  22379170.93849 117603335.07049     -5273.85249        49.000  

  25658500.08649 134836325.68049       194.40249        49.000  

  22700999.14849 119294554.18449      7239.89149        49.000  

  25628771.86749 134680104.91049      1010.73849        49.000  

 16 04 02 12 59 36.8000000  0  4G02G25G05G06                                    
  22379271.34449 117603862.68049     -5278.75049        49.000  

  25658496.39849 134836306.30549       192.76649        49.000  

  22700861.43849 119293830.47749      7233.65249        49.000  

  25628752.64849 134680003.93849      1008.36749        49.000  

 16 04 02 12 59 36.9000000  0  4G02G25G05G06                                    
  22379371.83649 117604390.78149     -5283.53149        49.000  

  25658492.75049 134836287.09449       191.17649        49.000  

  22700723.84449 119293107.42249      7227.21549        49.000  

  25628733.48449 134679903.23049      1005.76249        49.000  

 16 04 02 12 59 37.0000000  0  4G02G25G05G06                                    
  22379472.43049 117604919.41849     -5288.91849        49.000  

  25658489.13349 134836268.09049       189.25449        49.000  

  22700586.37549 119292385.03949      7220.59449        49.000  

  25628714.37549 134679802.81249      1002.92249        49.000  

 16 04 02 12 59 37.1000000  0  4G02G25G05G06                                    
  22379573.11749 117605448.54749     -5293.87549        49.000  

  25658485.54749 134836249.25849       187.30149        49.000  

  22700449.04749 119291663.30149      7213.90249        49.000  

  25628695.32049 134679702.67249       999.95349        49.000  

 16 04 02 12 59 37.2000000  0  4G02G25G05G06                                    
  22379673.89849 117605978.15249     -5298.62949        49.000  

  25658481.99249 134836230.57449       185.89849        49.000  

  22700311.82049 119290942.16849      7207.98449        49.000  

  25628676.30549 134679602.74649       997.82449        49.000  

 16 04 02 12 59 37.3000000  0  4G02G25G05G06                                    
  22379774.76649 117606508.21149     -5302.92249        49.000  

  25658478.46149 134836212.02049       184.91849        49.000  

  22700174.69549 119290221.64849      7202.21949        49.000  

  25628657.33649 134679503.05149       995.87949        49.000  

 16 04 02 12 59 37.4000000  0  5G02G09G25G05G06                                 
  22379875.72749 117607038.76649     -5308.00849        49.000  

  26393277.07049 138697606.47759    -28287.60249        49.000  

  25658474.96149 134836193.63749       183.00449        49.000  

  22700037.71149 119289501.77749      7195.53949        49.000  

  25628638.41449 134679403.62949       992.98049        49.000  

 16 04 02 12 59 37.5000000  0  6G02G29G09G25G05G06                              
  22379976.78949 117607569.84849     -5313.13349        49.000  

  24532133.36749 128917230.95759    -20259.05549        50.000  

  26393815.39149 138700435.39149    -28290.55149        49.000  

  25658471.50849 134836175.46149       180.98849        49.000  

  22699900.85249 119288782.56249      7188.95749        49.000  

  25628619.54749 134679304.48449       990.20349        49.000  

 16 04 02 12 59 37.6000000  0  6G02G29G09G25G05G06                              
  22380077.94549 117608101.42249     -5318.37549        49.000  

  24532518.91449 128919256.99649    -20261.71949        50.000  

  26394353.78949 138703264.59449    -28293.73449        49.000  

  25658468.07849 134836157.44549       179.02349        49.000  

  22699764.10949 119288063.98849      7182.28549        49.000  

  25628600.73449 134679205.59849       987.29749        49.000  

 16 04 02 12 59 37.7000000  0  6G02G29G09G25G05G06                              
  22380179.20349 117608633.52049     -5323.71549        49.000  

  24532904.53149 128921283.31249    -20264.53549        50.000  

  26394892.21949 138706094.08649    -28296.72349        49.000  

  25658464.68849 134836139.62149       177.16049        49.000  

  22699627.50049 119287346.08249      7175.55149        49.000  

  25628581.96949 134679107.00049       984.48049        49.000  

 16 04 02 12 59 37.8000000  0  6G02G29G09G25G05G06                              
  22380280.54749 117609166.11749     -5328.44149        49.000  

  24533290.17249 128923309.87949    -20266.85249        50.000  

  26395430.67249 138708923.88749    -28299.47749        49.000  

  25658461.32849 134836121.98449       175.55149        49.000  

  22699491.01649 119286628.82049      7169.37549        49.000  

  25628563.25849 134679008.66449       982.07849        49.000  

 16 04 02 12 59 37.9000000  0  6G02G29G09G25G05G06                              
  22380381.98449 117609699.17649     -5333.32049        49.000  

  24533675.86749 128925336.66449    -20269.17249        50.000  

  26395969.21949 138711753.93849    -28302.28949        49.000  

  25658458.00049 134836104.48449       173.85549        49.000  

  22699354.64849 119285912.17649      7162.99649        49.000  

  25628544.59449 134678910.56649       979.41849        49.000  

 16 04 02 12 59 38.0000000  0  6G02G29G09G25G05G06                              
  22380483.53149 117610232.79349     -5338.53149        49.000  

  24534061.60949 128927363.75449    -20272.01649        50.000  

  26396507.85249 138714584.31649    -28305.30549        49.000  

  25658454.71149 134836087.20349       171.88349        49.000  

  22699218.40649 119285196.21949      7156.22749        49.000  

  25628525.98449 134678812.77349       976.61749        49.000  

 16 04 02 12 59 38.1000000  0  6G02G29G09G25G05G06                              
  22380585.15649 117610766.84449     -5343.23449        49.000  

  24534447.37549 128929391.03949    -20274.24249        50.000  

  26397046.50849 138717414.94949    -28308.06649        49.000  

  25658451.45349 134836070.05149       170.39849        49.000  

  22699082.28149 119284480.85949      7150.14149        49.000  

  25628507.42249 134678715.20749       974.21949        49.000  

 16 04 02 12 59 38.2000000  0  6G02G29G09G25G05G06                              
  22380686.89149 117611301.43849     -5348.28149        49.000  

  24534833.21149 128931418.61349    -20276.85549        50.000  

  26397585.22749 138720245.87549    -28310.79749        49.000  

  25658448.22749 134836053.10549       168.62549        49.000  

  22698946.28149 119283766.17649      7143.61749        49.000  

  25628488.91449 134678617.92649       971.53149        49.000  

 16 04 02 12 59 38.3000000  0  6G02G29G09G25G05G06                              
  22380788.71149 117611836.50849     -5353.14849        49.000  

  24535219.08649 128933446.40649    -20279.08649        50.000  

  26398123.99249 138723077.08249    -28313.50049        49.000  

  25658445.03149 134836036.30549       167.15649        49.000  

  22698810.39149 119283052.11349      7137.33649        49.000  

  25628470.45349 134678520.88749       969.06249        49.000  

 16 04 02 12 59 38.4000000  0  6G02G29G09G25G05G06                              
  22380890.61749 117612372.05149     -5358.02349        49.000  

  24535605.00049 128935474.42649    -20281.41849        50.000  

  26398662.77349 138725908.53949    -28316.24649        49.000  

  25658441.86749 134836019.65649       165.56649        49.000  

  22698674.62549 119282338.67249      7131.09449        49.000  

  25628452.03149 134678424.08649       966.55549        49.000  

 16 04 02 12 59 38.5000000  0  6G02G29G09G25G05G06                              
  22380992.63349 117612908.13749     -5363.31249        49.000  

  24535990.97749 128937502.75049    -20284.24249        50.000  

  26399201.64149 138728740.32849    -28319.43449        49.000  

  25658438.73449 134836003.22749       163.43849        49.000  

  22698538.99249 119281625.93049      7124.19149        49.000  

  25628433.66449 134678327.60249       963.54749        49.000  

 16 04 02 12 59 38.6000000  0  6G02G29G09G25G05G06                              
  22381094.73449 117613444.71149     -5368.33249        49.000  

  24536377.00049 128939531.31249    -20286.82049        50.000  

  26399740.60949 138731572.40249    -28322.19149        49.000  

  25658435.64149 134835986.96149       161.78549        49.000  

  22698403.47749 119280913.79749      7117.89549        49.000  

  25628415.35949 134678231.36749       960.91049        49.000  

 16 04 02 12 59 38.7000000  0  6G02G29G09G25G05G06                              
  22381196.93849 117613981.79749     -5373.47749        49.000  

  24536763.07049 128941560.12949    -20289.43049        50.000  

  26400279.58649 138734404.76649    -28325.25849        49.000  

  25658432.57849 134835970.87949       159.87949        49.000  

  22698268.10249 119280202.34049      7111.17249        49.000  

  25628397.09449 134678135.40249       958.16449        49.000  

 16 04 02 12 59 38.8000000  0  6G02G29G09G25G05G06                              
  22381299.24249 117614519.41449     -5378.83249        49.000  

  24537149.20349 128943589.24649    -20292.44549        50.000  

  26400818.68849 138737237.46549    -28328.67249        49.000  

  25658429.56249 134835955.01649       157.66049        49.000  

  22698132.84449 119279491.57049      7104.30949        49.000  

  25628378.89149 134678039.74649       955.08649        49.000  

 16 04 02 12 59 38.9000000  0  6G02G29G09G25G05G06                              
  22381401.65649 117615057.61349     -5384.72349        49.000  

  24537535.39149 128945618.68449    -20295.84849        50.000  

  26401357.79749 138740070.51649    -28332.26249        49.000  

  25658426.59449 134835939.40249       155.00049        49.000  

  22697997.72749 119278781.51249      7096.96149        49.000  

  25628360.75049 134677944.43449       951.58649        49.000  

 16 04 02 12 59 39.0000000  0  6G02G29G09G25G05G06                              
  22381504.17249 117615596.29749     -5389.46549        49.000  

  24537921.62549 128947648.36349    -20298.18849        50.000  

  26401896.98449 138742903.85549    -28335.10549        49.000  

  25658423.64849 134835923.94949       153.43449        49.000  

  22697862.72749 119278072.08649      7090.75849        49.000  

  25628342.65649 134677849.36749       949.12949        49.000  

 16 04 02 12 59 39.1000000  0  6G02G29G09G25G05G06                              
  22381606.78149 117616135.50449     -5394.69149        49.000  

  24538307.92249 128949678.30949    -20300.79749        50.000  

  26402436.20349 138745737.47749    -28337.95749        49.000  

  25658420.74249 134835908.68449       151.53549        49.000  

  22697727.84449 119277363.32449      7084.15649        49.000  

  25628324.62549 134677754.58649       946.30549        49.000  

 16 04 02 12 59 39.2000000  0  6G02G29G09G25G05G06                              
  22381709.48449 117616675.22349     -5399.80549        49.000  

  24538694.25849 128951708.52749    -20303.43449        50.000  

  26402975.51649 138748571.42649    -28341.04349        49.000  

  25658417.87549 134835893.61349       149.78149        49.000  

  22697593.10249 119276655.23449      7077.49249        49.000  

  25628306.63349 134677660.08649       943.64149        49.000  

 16 04 02 12 59 39.3000000  0  6G02G29G09G25G05G06                              
  22381812.30549 117617215.52049     -5405.66049        49.000  

  24539080.65649 128953739.06649    -20306.79749        50.000  

  26403514.86749 138751405.72349    -28344.69949        49.000  

  25658415.06249 134835878.79749       147.12549        49.000  

  22697458.48449 119275947.85549      7070.21149        49.000  

  25628288.71949 134677565.92249       940.08649        49.000  

 16 04 02 12 59 39.4000000  0  6G02G29G09G25G05G06                              
  22381915.21149 117617756.32449     -5410.75849        49.000  

  24539467.10249 128955769.87149    -20309.32849        50.000  

  26404054.29749 138754240.30949    -28347.58249        49.000  

  25658412.27349 134835864.16849       145.28949        49.000  

  22697324.00049 119275241.13749      7063.72749        49.000  

  25628270.85249 134677472.04349       937.34049        49.000  

 16 04 02 12 59 39.5000000  0  6G02G29G09G25G05G06                              
  22382018.22749 117618297.69149     -5416.55949        49.000  

  24539853.57049 128957800.99649    -20312.77049        50.000  

  26404593.77349 138757075.27049    -28351.53149        49.000  

  25658409.53149 134835849.77049       142.70349        49.000  

  22697189.64849 119274535.12149      7056.41849        49.000  

  25628253.04749 134677378.48449       933.84849        49.000  

 16 04 02 12 59 39.6000000  0  6G02G29G09G25G05G06                              
  22382121.35949 117618839.59849     -5421.83249        49.000  

  24540240.13349 128959832.40249    -20315.47349        50.000  

  26405133.28949 138759910.53549    -28354.53949        49.000  

  25658406.83649 134835835.59049       140.67649        49.000  

  22697055.43049 119273829.80549      7049.53949        49.000  

  25628235.30549 134677285.23449       930.92649        49.000  

 16 04 02 12 59 39.7000000  0  6G02G29G09G25G05G06                              
  22382224.60949 117619382.15249     -5428.47349        49.000  

  24540626.78149 128961864.21549    -20319.60249        50.000  

  26405672.90649 138762746.24249    -28358.98849        49.000  

  25658404.20349 134835821.73449       137.25449        49.000  

  22696921.35949 119273125.27049      7041.61349        49.000  

  25628217.64149 134677192.39149       926.73849        49.000  

 16 04 02 12 59 39.8000000  0  6G02G29G09G25G05G06                              
  22382327.95349 117619925.24249     -5433.84049        49.000  

  24541013.47749 128963896.30949    -20322.55149        50.000  

  26406212.58649 138765582.27049    -28362.25449        49.000  

  25658401.60249 134835808.07849       135.27049        49.000  

  22696787.42249 119272421.42249      7034.82449        49.000  

  25628200.03149 134677099.84449       923.73449        49.000  

 16 04 02 12 59 39.9000000  0  6G02G29G09G25G05G06                              
  22382431.40649 117620468.89149     -5439.26249        49.000  

  24541400.22749 128965928.71949    -20325.55949        50.000  

  26406752.32849 138768418.64149    -28365.59849        49.000  

  25658399.05549 134835794.67249       132.91449        49.000  

  22696653.61749 119271718.27749      7027.84449        49.000  

  25628182.48449 134677007.64149       920.46949        49.000  

 16 04 02 12 59 40.0000000  0  6G02G29G09G25G05G06                              
  22382534.96949 117621013.09849     -5444.89549        49.000  

  24541787.03949 128967961.42649    -20328.57849        50.000  

  26407292.13349 138771255.35549    -28369.05549        49.000  

  25658396.54749 134835781.48849       130.55949        49.000  

  22696519.94549 119271015.82849      7020.76249        49.000  

  25628165.00049 134676915.73849       917.27049        49.000  

 16 04 02 12 59 40.1000000  0  6G02G29G09G25G05G06                              
  22382638.61749 117621557.78549     -5449.62949        49.000  

  24542173.90649 128969994.37949    -20330.97349        50.000  

  26407831.99249 138774092.34049    -28371.74249        49.000  

  25658394.06249 134835768.46149       129.13349        49.000  

  22696386.41449 119270314.02349      7014.47349        49.000  

  25628147.55549 134676824.09449       914.80149        49.000  

 16 04 02 12 59 40.2000000  0  6G02G29G09G25G05G06                              
  22382742.38349 117622103.07849     -5455.55149        49.000  

  24542560.83649 128972027.68449    -20334.35549        50.000  

  26408371.94549 138776929.71549    -28375.35549        49.000  

  25658391.64149 134835755.72349       126.44149        49.000  

  22696253.00849 119269612.96149      7007.12549        49.000  

  25628130.18849 134676732.81649       911.28949        49.000  

 16 04 02 12 59 40.3000000  0  6G02G29G09G25G05G06                              
  22382846.25049 117622648.89549     -5461.16449        49.000  

  24542947.80549 128974061.26249    -20337.32449        50.000  

  26408911.93849 138779767.39849    -28378.81649        49.000  

  25658389.25849 134835743.17249       124.16849        49.000  

  22696119.71949 119268912.56249      7000.23849        49.000  

  25628112.87549 134676641.82449       908.13749        49.000  

 16 04 02 12 59 40.4000000  0  6G02G29G09G25G05G06                              
  22382950.22749 117623195.31649     -5467.02749        49.000  

  24543334.85249 128976095.21149    -20340.95349        50.000  

  26409452.00049 138782605.48049    -28382.69549        49.000  

  25658386.93049 134835730.90649       121.52349        49.000  

  22695986.57849 119268212.93049      6992.67649        49.000  

  25628095.63349 134676551.21949       904.41449        49.000  

 16 04 02 12 59 40.5000000  0  6G02G29G09G25G05G06                              
  22383054.30549 117623742.23449     -5471.96149        49.000  

  24543721.96149 128978129.39549    -20343.26249        50.000  

  26409992.12549 138785443.84849    -28385.52049        49.000  

  25658384.63349 134835718.82849       119.68849        49.000  

  22695853.57049 119267513.93849      6986.25049        49.000  

  25628078.43849 134676460.85949       902.00049        49.000  

 16 04 02 12 59 40.6000000  0  6G02G29G09G25G05G06                              
  22383158.48449 117624289.73449     -5477.71949        49.000  

  24544109.11749 128980163.91049    -20346.47349        50.000  

  26410532.33649 138788282.57449    -28389.05149        49.000  

  25658382.38349 134835706.98849       117.23049        49.000  

  22695720.69549 119266815.66449      6979.20349        49.000  

  25628061.31249 134676370.85249       898.55149        49.000  

 16 04 02 12 59 40.7000000  0  6G02G29G09G25G05G06                              
  22383262.76649 117624837.71549     -5482.49249        49.000  

  24544496.32049 128982198.66049    -20348.81249        50.000  

  26411072.57849 138791121.56249    -28391.52349        49.000  

  25658380.14849 134835695.30549       115.78949        49.000  

  22695587.93849 119266118.02049      6972.91449        49.000  

  25628044.22749 134676281.07849       896.13349        49.000  

 16 04 02 12 59 40.8000000  0  6G02G29G09G25G05G06                              
  22383367.14849 117625386.23849     -5487.93449        49.000  

  24544883.57849 128984233.71549    -20351.95349        50.000  

  26411612.89149 138793960.89849    -28394.96949        49.000  

  25658377.96949 134835683.84849       113.53949        49.000  

  22695455.32049 119265421.07449      6965.99649        49.000  

  25628027.21149 134676191.63749       892.94949        49.000  

 16 04 02 12 59 40.9000000  0  6G02G29G09G25G05G06                              
  22383471.63349 117625935.34049     -5493.80949        49.000  

  24545270.89149 128986269.08249    -20355.12549        50.000  

  26412153.25849 138796800.57449    -28398.63349        49.000  

  25658375.83649 134835672.64149       110.98449        49.000  

  22695322.82849 119264724.84449      6958.78149        49.000  

  25628010.25049 134676102.51249       889.59449        49.000  

 16 04 02 12 59 41.0000000  0  6G02G29G09G25G05G06                              
  22383576.23449 117626484.97349     -5499.16049        49.000  

  24545658.26649 128988304.73449    -20358.00449        50.000  

  26412693.70349 138799640.57849    -28401.86349        49.000  

  25658373.74249 134835661.62949       108.87949        49.000  

  22695190.46949 119264029.29349      6951.76249        49.000  

  25627993.35249 134676013.69949       886.44949        49.000  

 16 04 02 12 59 41.1000000  0  6G02G29G09G25G05G06                              
  22383680.93049 117627035.18849     -5504.97349        49.000  

  24546045.71149 128990340.73449    -20361.49649        50.000  

  26413234.21149 138802480.96149    -28405.63749        49.000  

  25658371.70349 134835650.89849       106.09049        49.000  

  22695058.24249 119263334.46949      6944.59449        49.000  

  25627976.51649 134675925.23449       882.93449        49.000  

 16 04 02 12 59 41.2000000  0  6G02G29G09G25G05G06                              
  22383785.73449 117627585.90249     -5509.91849        49.000  

  24546433.18849 128992376.96949    -20363.81249        50.000  

  26413774.80549 138805321.62549    -28408.47749        49.000  

  25658369.68849 134835640.32849       104.50049        49.000  

  22694926.14849 119262640.29749      6938.14549        49.000  

  25627959.73449 134675837.03149       880.34449        49.000  

 16 04 02 12 59 41.3000000  0  6G02G29G09G25G05G06                              
  22383890.64149 117628137.21549     -5515.86349        49.000  

  24546820.77349 128994413.55949    -20367.30549        50.000  

  26414315.43849 138808162.66449    -28412.25049        49.000  

  25658367.73449 134835630.03149       101.82449        49.000  

  22694794.18049 119261946.87149      6930.73049        49.000  

  25627943.01649 134675749.18849       876.88349        49.000  

 16 04 02 12 59 41.4000000  0  6G02G29G09G25G05G06                              
  22383995.64149 117628688.99249     -5520.59449        49.000  

  24547208.35949 128996450.37149    -20369.50849        50.000  

  26414856.11749 138811003.95349    -28414.72749        49.000  

  25658365.80549 134835619.87549       100.43049        49.000  

  22694662.34449 119261254.05149      6924.61349        49.000  

  25627926.35249 134675661.57449       874.57049        49.000  

 16 04 02 12 59 41.5000000  0  6G02G29G09G25G05G06                              
  22384100.75849 117629241.37149     -5526.58649        49.000  

  24547596.01649 128998487.53549    -20373.08649        50.000  

  26415396.87549 138813845.64549    -28418.82849        49.000  

  25658363.92249 134835610.00049        97.53949        49.000  

  22694530.64149 119260561.99249      6916.96149        49.000  

  25627909.75049 134675574.34049       870.64549        49.000  

 16 04 02 12 59 41.6000000  0  6G02G29G09G25G05G06                              
  22384205.98449 117629794.32449     -5532.32849        49.000  

  24547983.73449 129000525.02049    -20376.23449        50.000  

  26415937.70349 138816687.67249    -28422.01249        49.000  

  25658362.08649 134835600.37149        95.12949        49.000  

  22694399.08649 119259870.64549      6909.91049        49.000  

  25627893.21149 134675487.42649       867.50049        49.000  

 16 04 02 12 59 41.7000000  0  6G02G29G09G25G05G06                              
  22384311.31249 117630347.79349     -5537.48449        49.000  

  24548371.48449 129002562.77749    -20379.03949        50.000  

  26416478.58649 138819530.02349    -28425.22749        49.000  

  25658360.28949 134835590.94149        93.17249        49.000  

  22694267.65649 119259179.95749      6903.18449        49.000  

  25627876.72749 134675400.80149       864.65649        49.000  

 16 04 02 12 59 41.8000000  0  6G02G29G09G25G05G06                              
  22384416.74249 117630901.83249     -5543.03949        49.000  

  24548759.31249 129004600.85949    -20382.15249        50.000  

  26417019.54749 138822372.71549    -28428.63749        49.000  

  25658358.53949 134835581.74649        90.91049        49.000  

  22694136.35949 119258489.98849      6896.22349        49.000  

  25627860.31249 134675314.52049       861.39849        49.000  

 16 04 02 12 59 41.9000000  0  6G02G29G09G25G05G06                              
  22384522.25849 117631456.34849     -5547.95349        49.000  

  24549147.18849 129006639.14849    -20384.32049        50.000  

  26417560.53949 138825215.67649    -28431.44549        49.000  

  25658356.82049 134835572.70749        89.24249        49.000  

  22694005.17249 119257800.64549      6889.78949        49.000  

  25627843.93849 134675228.46949       858.88749        49.000  

 16 04 02 12 59 42.0000000  0  6G02G29G09G25G05G06                              
  22384627.88349 117632011.43449     -5553.55549        49.000  

  24549535.12549 129008677.78149    -20387.58649        50.000  

  26418101.59449 138828058.99649    -28434.87549        49.000  

  25658355.14849 134835563.91449        86.84449        49.000  

  22693874.12549 119257112.02049      6882.74249        49.000  

  25627827.63349 134675142.76249       855.58249        49.000  

 16 04 02 12 59 42.1000000  0  6G02G29G09G25G05G06                              
  22384733.59449 117632566.96149     -5558.00449        49.000  

  24549923.10249 129010716.59449    -20389.48449        50.000  

  26418642.70349 138830902.53549    -28437.11349        49.000  

  25658353.49249 134835555.23849        85.71149        49.000  

  22693743.19549 119256423.98049      6876.87549        49.000  

  25627811.36749 134675057.25449       853.48849        49.000  

 16 04 02 12 59 42.2000000  0  6G02G29G09G25G05G06                              
  22384839.43049 117633123.07849     -5563.81249        49.000  

  24550311.14149 129012755.76249    -20392.94149        50.000  

  26419183.92249 138833746.46149    -28440.87549        49.000  

  25658351.89149 134835546.83249        82.98849        49.000  

  22693612.40649 119255736.68849      6869.47349        49.000  

  25627795.16449 134674972.10949       849.95349        49.000  

 16 04 02 12 59 42.3000000  0  6G02G29G09G25G05G06                              
  22384945.36749 117633679.78149     -5569.78949        49.000  

  24550699.25049 129014795.25849    -20396.41449        50.000  

  26419725.17249 138836590.75449    -28444.63349        49.000  

  25658350.35249 134835538.68849        80.32849        49.000  

  22693481.75049 119255050.11749      6862.12149        49.000  

  25627779.02349 134674887.32049       846.20749        49.000  

 16 04 02 12 59 42.4000000  0  6G02G29G09G25G05G06                              
  22385051.39849 117634236.99249     -5574.95349        49.000  

  24551087.40649 129016835.01249    -20399.05549        50.000  

  26420266.48449 138839435.33649    -28447.86749        49.000  

  25658348.82849 134835530.71549        78.37949        49.000  

  22693351.22749 119254364.21149      6855.34049        49.000  

  25627762.93849 134674802.78549       843.55949        49.000  

 16 04 02 12 59 42.5000000  0  6G02G29G09G25G05G06                              
  22385157.53949 117634794.77049     -5580.51249        49.000  

  24551475.60949 129018875.08249    -20402.11749        50.000  

  26420807.85949 138842280.26249    -28451.03549        49.000  

  25658347.36749 134835522.98849        76.22349        49.000  

  22693220.83649 119253678.99649      6848.51649        49.000  

  25627746.91449 134674718.59449       840.39849        49.000  

 16 04 02 12 59 42.6000000  0  6G02G29G09G25G05G06                              
  22385263.77349 117635353.04349     -5585.35249        49.000  

  24551863.86749 129020915.41449    -20404.63349        50.000  

  26421349.27349 138845125.48849    -28453.87949        49.000  

  25658345.93049 134835515.45349        74.42249        49.000  

  22693090.57049 119252994.46149      6842.00449        49.000  

  25627730.94549 134674634.66849       837.85549        49.000  

 16 04 02 12 59 42.7000000  0  6G02G29G09G25G05G06                              
  22385370.10949 117635911.87149     -5591.00849        49.000  

  24552252.18049 129022956.03149    -20407.52049        50.000  

  26421890.76649 138847971.04349    -28457.30549        49.000  

  25658344.53149 134835508.12549        72.15649        49.000  

  22692960.43049 119252310.60549      6834.97349        49.000  

  25627715.03149 134674551.04749       834.60549        49.000  

 16 04 02 12 59 42.8000000  0  6G02G29G09G25G05G06                              
  22385476.55549 117636471.25849     -5596.57049        49.000  

  24552640.56249 129024996.96949    -20410.69949        50.000  

  26422432.31249 138850816.94149    -28460.65249        49.000  

  25658343.18849 134835501.03949        69.86349        49.000  

  22692830.43049 119251627.46149      6827.95749        49.000  

  25627699.18849 134674467.76249       831.37149        49.000  

 16 04 02 12 59 42.9000000  0  6G02G29G09G25G05G06                              
  22385583.10249 117637031.15649     -5601.69949        49.000  

  24553029.00049 129027038.17249    -20413.41849        50.000  

  26422973.92249 138853663.14549    -28463.73449        49.000  

  25658341.88349 134835494.14849        67.79349        49.000  

  22692700.55549 119250944.96949      6821.43449        49.000  

  25627683.39149 134674384.77749       828.23849        49.000  

 16 04 02 12 59 43.0000000  0  6G02G29G09G25G05G06                              
  22385689.73449 117637591.53149     -5606.28149        49.000  

  24553417.47749 129029079.60549    -20415.57849        50.000  

  26423515.59449 138856509.59449    -28466.18449        49.000  

  25658340.59449 134835487.39149        66.55149        49.000  

  22692570.79749 119250263.10549      6815.25849        49.000  

  25627667.64149 134674301.98049       826.34849        49.000  

 16 04 02 12 59 43.1000000  0  6G02G29G09G25G05G06                              
  22385796.46149 117638152.37949     -5611.07849        49.000  

  24553805.97749 129031121.25449    -20417.65649        50.000  

  26424057.30549 138859356.30949    -28468.63749        49.000  

  25658339.33649 134835480.80149        65.05149        49.000  

  22692441.15649 119249581.87949      6808.89849        49.000  

  25627651.93049 134674219.45349       823.94549        49.000  

 16 04 02 12 59 43.2000000  0  6G02G29G09G25G05G06                              
  22385903.30549 117638713.82049     -5617.05149        49.000  

  24554194.55549 129033163.25049    -20421.18849        50.000  

  26424599.10949 138862203.41849    -28472.63749        49.000  

  25658338.13349 134835474.46949        62.37549        49.000  

  22692311.65649 119248901.37149      6801.59049        49.000  

  25627636.28949 134674137.28949       820.32849        49.000  

 16 04 02 12 59 43.3000000  0  6G02G29G09G25G05G06                              
  22386010.23449 117639275.74649     -5622.03949        49.000  

  24554583.19549 129035205.47749    -20423.65249        50.000  

  26425140.94549 138865050.77049    -28475.34449        49.000  

  25658336.96149 134835468.30149        60.54749        49.000  

  22692182.28949 119248221.49249      6795.30149        49.000  

  25627620.70349 134674055.36349       817.62549        49.000  

 16 04 02 12 59 43.4000000  0  6G02G29G09G25G05G06                              
  22386117.26649 117639838.23849     -5627.65249        49.000  

  24554971.88349 129037248.03949    -20426.96149        50.000  

  26425682.83649 138867898.50049    -28478.96149        49.000  

  25658335.83649 134835462.38349        58.12149        49.000  

  22692053.04749 119247542.34449      6788.02749        49.000  

  25627605.18049 134673973.78549       814.28149        49.000  

 16 04 02 12 59 43.5000000  0  6G02G29G09G25G05G06                              
  22386224.39849 117640401.20749     -5632.31649        49.000  

  24555360.62549 129039290.81649    -20429.14149        50.000  

  26426224.78949 138870746.47749    -28481.51649        49.000  

  25658334.73449 134835456.62149        56.55549        49.000  

  22691923.92249 119246863.81649      6781.91049        49.000  

  25627589.70349 134673892.43049       812.05549        49.000  

 16 04 02 12 59 43.6000000  0  6G02G29G09G25G05G06                              
  22386331.61749 117640964.67249     -5637.20349        49.000  

  24555749.39849 129041333.83649    -20431.45349        50.000  

  26426766.80549 138873594.72349    -28484.18049        49.000  

  25658333.66449 134835451.00049        55.14549        49.000  

  22691794.93049 119246185.92649      6775.54349        49.000  

  25627574.27349 134673811.34049       809.44549        49.000  

 16 04 02 12 59 43.7000000  0  6G02G29G09G25G05G06                              
  22386438.94549 117641528.65649     -5642.32049        49.000  

  24556138.22749 129043377.14149    -20434.24249        50.000  

  26427308.86749 138876443.29349    -28487.20349        49.000  

  25658332.64149 134835445.60549        53.08249        49.000  

  22691666.06249 119245508.71949      6768.78949        49.000  

  25627558.89849 134673730.54749       806.62149        49.000  

 16 04 02 12 59 43.8000000  0  6G02G29G09G25G05G06                              
  22386546.37549 117642093.23449     -5648.65649        49.000  

  24556527.11749 129045420.78149    -20437.89849        50.000  

  26427851.02349 138879292.23049    -28491.39549        49.000  

  25658331.66449 134835440.46549        50.19149        49.000  

  22691537.33649 119244832.24249      6761.07449        49.000  

  25627543.58649 134673650.10249       802.77049        49.000  

 16 04 02 12 59 43.9000000  0  6G02G29G09G25G05G06                              
  22386653.91449 117642658.38349     -5654.09049        49.000  

  24556916.07049 129047464.73449    -20440.88749        50.000  

  26428393.22749 138882141.53149    -28494.48449        49.000  

  25658330.73449 134835435.58249        47.79749        49.000  

  22691408.75049 119244156.48849      6754.13349        49.000  

  25627528.34449 134673569.99649       799.58649        49.000  

 16 04 02 12 59 44.0000000  0  6G02G29G09G25G05G06                              
  22386761.54749 117643223.96949     -5658.65249        49.000  

  24557305.06249 129049508.89549    -20442.99649        50.000  

  26428935.49249 138884991.05149    -28497.12949        49.000  

  25658329.82849 134835430.80549        46.68449        49.000  

  22691280.26649 119243481.31249      6748.14149        49.000  

  25627513.13349 134673490.09049       797.47749        49.000  

 16 04 02 12 59 44.4000000  0  6G02G29G09G25G05G06                              
  19697884.52349 103513079.86749     -5679.69149        49.000  

  21869578.25849 114925409.10249    -20453.76649        50.000  

  23741835.50849 124764185.31649    -28509.11749        49.000  

  22969008.28949 120702950.71549        38.90649        49.000  

  20001437.93049 105108264.41849      6721.03949        49.000  

  22938133.29749 120540703.68849       786.06249        49.000  

 16 04 02 12 59 44.5000000  0  6G02G29G09G25G05G06                              
  19697992.64849 103513648.06649     -5684.47749        49.000  

  21869967.49249 114927454.59049    -20456.05949        50.000  

  23742378.03949 124767036.33649    -28511.71549        49.000  

  22969007.57049 120702946.90649        37.25449        49.000  

  20001310.07049 105107592.60549      6714.75449        49.000  

  22938118.36749 120540625.20749       783.45349        49.000  

 16 04 02 12 59 44.6000000  0  6G02G29G09G25G05G06                              
  19698100.85949 103514216.71949     -5688.93449        49.000  

  21870356.78149 114929500.29349    -20458.07849        50.000  

  23742920.63349 124769887.60949    -28514.07049        49.000  

  22969006.86749 120702943.21549        36.09849        49.000  

  20001182.34449 105106921.40649      6708.75849        49.000  

  22938103.46949 120540546.92249       781.52349        49.000  

 16 04 02 12 59 44.7000000  0  6G02G29G09G25G05G06                              
  19698209.14149 103514785.77749     -5693.08649        49.000  

  21870746.08649 114931546.15649    -20459.64549        50.000  

  23743463.25049 124772739.07049    -28516.08649        49.000  

  22969006.18849 120702939.61749        35.11349        49.000  

  20001054.71949 105106250.75449      6703.24249        49.000  

  22938088.60949 120540468.83649       779.69549        49.000  

 16 04 02 12 59 44.8000000  0  6G02G29G09G25G05G06                              
  19698317.53149 103515355.35949     -5698.19949        49.000  

  21871135.45349 114933592.29349    -20462.38749        50.000  

  23744005.92249 124775590.85249    -28519.03549        49.000  

  22969005.53949 120702936.21949        33.28949        49.000  

  20000927.22749 105105580.78549      6696.43449        49.000  

  22938073.80549 120540391.03549       776.82449        49.000  

 16 04 02 12 59 44.9000000  0  6G02G29G09G25G05G06                              
  19698426.00049 103515925.35549     -5702.21949        49.000  

  21871524.85249 114935638.59449    -20463.92649        50.000  

  23744548.63349 124778442.82049    -28520.79749        49.000  

  22969004.91449 120702932.91049        32.56649        49.000  

  20000799.83649 105104911.37149      6691.04749        49.000  

  22938059.03149 120540313.40649       775.24249        49.000  

 16 04 02 12 59 45.0000000  0  6G02G29G09G25G05G06                              
  19698534.53949 103516495.76649     -5706.53949        49.000  

  21871914.28149 114937685.05549    -20465.71149        50.000  

  23745091.35949 124781294.98449    -28523.00449        49.000  

  22969004.29749 120702929.68449        31.58649        49.000  

  20000672.55549 105104242.51649      6685.22349        49.000  

  22938044.29749 120540235.96549       773.25849        49.000  

 16 04 02 12 59 45.1000000  0  6G02G29G09G25G05G06                              
  19698643.18049 103517066.64849     -5711.24649        49.000  

  21872303.75849 114939731.75049    -20468.01649        50.000  

  23745634.15649 124784147.41449    -28525.66849        49.000  

  22969003.71949 120702926.62949        29.91849        49.000  

  20000545.39849 105103574.28949      6679.06649        49.000  

  22938029.60249 120540158.77049       770.72749        49.000  

 16 04 02 12 59 45.2000000  0  6G02G29G09G25G05G06                              
  19698751.90649 103517638.05549     -5716.57449        49.000  

  21872693.28149 114941778.70749    -20470.75849        50.000  

  23746176.99249 124787000.13349    -28528.70349        49.000  

  22969003.16449 120702923.74649        27.89549        49.000  

  20000418.36749 105102906.73049      6672.28149        49.000  

  22938014.96149 120540081.84449       767.87149        49.000  

 16 04 02 12 59 45.3000000  0  6G02G29G09G25G05G06                              
  19698860.74249 103518209.98049     -5721.77349        49.000  

  21873082.85249 114943825.95349    -20473.62549        50.000  

  23746719.90649 124789853.18449    -28531.90249        49.000  

  22969002.65649 120702921.08249        25.77349        49.000  

  20000291.45349 105102239.84849      6665.44149        49.000  

  22938000.37549 120540005.21149       765.01649        49.000  

 16 04 02 12 59 45.4000000  0  6G02G29G09G25G05G06                              
  19698969.67249 103518782.41449     -5726.99649        49.000  

  21873472.46949 114945873.43449    -20476.19549        50.000  

  23747262.89149 124792706.50049    -28534.87149        49.000  

  22969002.18049 120702918.58249        24.04349        49.000  

  20000164.67249 105101573.60249      6658.89849        49.000  

  22937985.84449 120539928.85249       762.11349        49.000  

 16 04 02 12 59 45.5000000  0  6G02G29G09G25G05G06                              
  19699078.69549 103519355.33249     -5731.76649        49.000  

  21873862.13349 114947921.16449    -20478.54749        50.000  

  23747805.90649 124795560.09049    -28537.43449        49.000  

  22969001.74249 120702916.25449        22.30949        49.000  

  20000038.01649 105100908.01249      6652.52749        49.000  

  22937971.35949 120539852.73449       759.70349        49.000  

 16 04 02 12 59 45.6000000  0  6G02G29G09G25G05G06                              
  19699187.81249 103519928.75449     -5736.75049        49.000  

  21874251.85249 114949969.14149    -20480.93849        50.000  

  23748348.98449 124798413.97749    -28540.31649        49.000  

  22969001.32849 120702914.10249        20.65649        49.000  

  19999911.47749 105100243.05949      6646.10949        49.000  

  22937956.93849 120539776.89849       757.02349        49.000  

 16 04 02 12 59 45.7000000  0  6G02G29G09G25G05G06                              
  19699297.03149 103520502.67649     -5741.86349        49.000  

  21874641.61749 114952017.37949    -20483.58649        50.000  

  23748892.10949 124801268.14149    -28543.21149        49.000  

  22969000.95349 120702912.11749        18.84049        49.000  

  19999785.07049 105099578.75849      6639.59849        49.000  

  22937942.55549 120539701.32449       754.32849        49.000  

 16 04 02 12 59 45.8000000  0  6G02G29G09G25G05G06                              
  19699406.34449 103521077.10549     -5746.96149        49.000  

  21875031.43049 114954065.87149    -20486.19149        50.000  

  23749435.31249 124804122.60249    -28546.26249        49.000  

  22969000.61749 120702910.34049        16.81649        49.000  

  19999658.78149 105098915.12149      6632.91449        49.000  

  22937928.21949 120539626.02349       751.54349        49.000  

 16 04 02 12 59 45.9000000  0  6G02G29G09G25G05G06                              
  19699515.74249 103521651.99649     -5751.61349        49.000  

  21875421.28949 114956114.58249    -20488.44149        50.000  

  23749978.53949 124806977.30549    -28548.81649        49.000  

  22969000.29749 120702908.68849        15.31249        49.000  

  19999532.60949 105098252.08649      6626.69949        49.000  

  22937913.93849 120539550.94549       749.23049        49.000  

 16 04 02 12 59 46.0000000  0  6G02G29G09G25G05G06                              
  19699625.25049 103522227.48049     -5757.39549        49.000  

  21875811.20349 114958163.62949    -20491.68049        50.000  

  23750521.85249 124809832.38349    -28552.34049        49.000  

  22969000.03149 120702907.29749        12.98049        49.000  

  19999406.58649 105097589.79749      6619.52749        49.000  

  22937899.72749 120539476.23449       745.80149        49.000  

 16 04 02 12 59 46.1000000  0  6G02G29G09G25G05G06                              
  19699734.86749 103522803.48449     -5762.74649        49.000  

  21876201.18849 114960212.94549    -20494.48449        50.000  

  23751065.21949 124812687.77049    -28555.55949        49.000  

  22968999.79749 120702906.11749        10.80149        49.000  

  19999280.67249 105096928.18449      6612.63349        49.000  

  22937885.55549 120539401.80149       742.82449        49.000  

 16 04 02 12 59 46.2000000  0  6G02G29G09G25G05G06                              
  19699844.55549 103523379.94149     -5767.34449        49.000  

  21876591.19549 114962262.47749    -20496.66449        50.000  

  23751608.63349 124815543.38349    -28557.87149        49.000  

  22968999.59449 120702905.05149         9.48449        49.000  

  19999154.88349 105096267.16049      6606.60549        49.000  

  22937871.43849 120539327.59449       740.46149        49.000  

 16 04 02 12 59 46.3000000  0  6G02G29G09G25G05G06                              
  19699954.36749 103523957.00849     -5773.26649        49.000  

  21876981.28149 114964312.34849    -20500.01649        50.000  

  23752152.10949 124818399.39149    -28561.64149        49.000  

  22968999.44549 120702904.27349         6.80949        49.000  

  19999029.24249 105095606.89549      6599.17249        49.000  

  22937857.38349 120539253.74649       737.09049        49.000  

 16 04 02 12 59 46.4000000  0  6G02G29G09G25G05G06                              
  19700064.26649 103524534.50849     -5777.73449        49.000  

  21877371.39849 114966362.41849    -20502.09049        50.000  

  23752695.63349 124821255.62149    -28564.03549        49.000  

  22968999.32049 120702903.61749         5.53149        49.000  

  19998903.71149 105094947.21549      6593.21149        49.000  

  22937843.37549 120539180.11749       734.68449        49.000  

 16 04 02 12 59 46.5000000  0  6G02G29G09G25G05G06                              
  19700174.26649 103525112.55949     -5783.24649        49.000  

  21877761.57849 114968412.79349    -20505.04349        50.000  

  23753239.21949 124824112.18849    -28567.27749        49.000  

  22968999.23449 120702903.18849         3.29749        49.000  

  19998778.31249 105094288.24249      6586.20749        49.000  

  22937829.42249 120539106.78949       731.75049        49.000  

 16 04 02 12 59 46.6000000  0  6G02G29G09G25G05G06                              
  19700284.35949 103525691.05549     -5787.50849        49.000  

  21878151.78949 114970463.35549    -20506.77749        50.000  

  23753782.83649 124826968.98049    -28569.34849        49.000  

  22968999.18049 120702902.87149         2.34049        49.000  

  19998653.02349 105093629.85949      6580.48449        49.000  

  22937815.50849 120539033.68449       729.83649        49.000  

 16 04 02 12 59 46.7000000  0  6G02G29G09G25G05G06                              
  19700394.53949 103526270.07049     -5792.75449        49.000  

  21878542.03949 114972514.19549    -20509.63749        50.000  

  23754326.52349 124829826.08249    -28572.58649        49.000  

  22968999.15649 120702902.75849         0.18449        49.000  

  19998527.85949 105092972.14549      6573.68049        49.000  

  22937801.65649 120538960.86749       726.72749        49.000  

 16 04 02 12 59 46.8000000  0  6G02G29G09G25G05G06                              
  19700504.82049 103526849.57449     -5797.55949        49.000  

  21878932.34449 114974565.27049    -20511.84849        50.000  

  23754870.27349 124832683.44549    -28575.05149        49.000  

  22968999.16449 120702902.80549        -1.30949        49.000  

  19998402.82049 105092315.07049      6567.37149        49.000  

  22937787.83649 120538888.28949       724.45349        49.000  

 16 04 02 12 59 46.9000000  0  6G02G29G09G25G05G06                              
  19700615.18849 103527429.56649     -5802.47749        49.000  

  21879322.70349 114976616.59849    -20514.49249        50.000  

  23755414.06249 124835541.08649    -28578.00049        49.000  

  22968999.20349 120702903.02349        -3.09849        49.000  

  19998277.91449 105091658.63349      6560.91449        49.000  

  22937774.07849 120538815.97349       721.77049        49.000  

 16 04 02 12 59 47.0000000  0  6G02G29G09G25G05G06                              
  19700725.67249 103528010.16449     -5808.51649        49.000  

  21879713.12549 114978668.25049    -20517.87149        50.000  

  23755957.93049 124838399.10549    -28581.73449        49.000  

  22968999.29749 120702903.50849        -5.83249        49.000  

  19998153.14149 105091002.93849      6553.48449        49.000  

  22937760.38349 120538744.02049       718.15249        49.000  

 16 04 02 12 59 47.1000000  0  6G02G29G09G25G05G06                              
  19700836.24249 103528591.22349     -5813.46149        49.000  

  21880103.57849 114980720.14549    -20520.35949        50.000  

  23756501.84449 124841257.38349    -28584.42249        49.000  

  22968999.41449 120702904.13749        -7.37949        49.000  

  19998028.47749 105090347.86749      6547.19149        49.000  

  22937746.73449 120538672.30549       715.53949        49.000  

 16 04 02 12 59 47.2000000  0  6G02G29G09G25G05G06                              
  19700946.92249 103529172.82449     -5818.68049        49.000  

  21880494.10249 114982772.32849    -20523.16049        50.000  

  23757045.83649 124844115.98849    -28587.71149        49.000  

  22968999.57849 120702905.00449        -9.61349        49.000  

  19997903.95349 105089693.50049      6540.15249        49.000  

  22937733.14849 120538600.90249       712.61349        49.000  

 16 04 02 12 59 47.3000000  0  6G02G29G09G25G05G06                              
  19701057.68849 103529754.89549     -5823.16849        49.000  

  21880884.64849 114984824.71949    -20525.05149        50.000  

  23757589.85249 124846974.82849    -28589.72349        49.000  

  22968999.77349 120702905.99249       -10.72349        49.000  

  19997779.54749 105089039.72749      6534.37549        49.000  

  22937719.60249 120538529.72349       710.57849        49.000  

 16 04 02 12 59 47.4000000  0  6G02G29G09G25G05G06                              
  19701168.53149 103530337.39149     -5827.42649        49.000  

  21881275.24249 114986877.29749    -20526.96149        50.000  

  23758133.91449 124849833.90249    -28592.17649        49.000  

  22968999.98449 120702907.09449       -11.77049        49.000  

  19997655.25049 105088386.54749      6528.46149        49.000  

  22937706.09449 120538458.75449       708.32049        49.000  

 16 04 02 12 59 47.5000000  0  6G02G29G09G25G05G06                              
  19701279.48449 103530920.46149     -5833.27049        49.000  

  21881665.89849 114988930.18449    -20530.10549        50.000  

  23758678.03949 124852693.30149    -28595.63749        49.000  

  22969000.24249 120702908.43849       -14.31649        49.000  

  19997531.09449 105087734.07049      6521.29749        49.000  

  22937692.64849 120538388.09049       705.23049        49.000  

 16 04 02 12 59 47.6000000  0  6G02G29G09G25G05G06                              
  19701390.53949 103531504.05549     -5838.68849        49.000  

  21882056.60949 114990983.36749    -20533.10949        50.000  

  23759222.22749 124855553.04349    -28599.10949        49.000  

  22969000.53949 120702909.99649       -16.60949        49.000  

  19997407.06249 105087082.28949      6514.28549        49.000  

  22937679.26649 120538317.74649       701.93449        49.000  

 16 04 02 12 59 47.7000000  0  6G02G29G09G25G05G06                              
  19701501.71149 103532088.27049     -5844.84849        49.000  

  21882447.37549 114993036.90649    -20536.81649        50.000  

  23759766.49249 124858413.15649    -28602.84849        49.000  

  22969000.88349 120702911.84449       -19.56249        49.000  

  19997283.18049 105086431.25849      6506.74249        49.000  

  22937665.94549 120538247.77349       698.21949        49.000  

 16 04 02 12 59 47.8000000  0  6G02G29G09G25G05G06                              
  19701612.96149 103532672.88749     -5849.03949        49.000  

  21882838.18849 114995090.61349    -20538.54349        50.000  

  23760310.81249 124861273.47749    -28605.01249        49.000  

  22969001.25049 120702913.77049       -20.51249        49.000  

  19997159.39849 105085780.80149      6500.87549        49.000  

  22937652.66449 120538177.97349       696.22349        49.000  

 16 04 02 12 59 47.9000000  0  6G02G29G09G25G05G06                              
  19701724.32049 103533258.08649     -5854.66049        49.000  

  21883229.04749 114997144.63349    -20541.51649        50.000  

  23760855.18049 124864134.14549    -28608.32049        49.000  

  22969001.66449 120702915.95349       -22.85549        49.000  

  19997035.75849 105085131.06649      6493.79749        49.000  

  22937639.44549 120538108.52049       693.04749        49.000  

 16 04 02 12 59 48.0000000  0  6G02G29G09G25G05G06                              
  19701835.76649 103533843.74649     -5859.23449        49.000  

  21883619.96149 114999198.87949    -20543.61749        50.000  

  23761399.60949 124866995.06249    -28610.84049        49.000  

  22969002.10949 120702918.28149       -24.27049        49.000  

  19996912.23449 105084481.93449      6487.79349        49.000  

  22937626.27349 120538039.29749       690.84049        49.000  

 16 04 02 12 59 48.1000000  0  6G02G29G09G25G05G06                              
  19701947.31249 103534429.91849     -5864.27049        49.000  

  21884010.92249 115001253.38349    -20546.24249        50.000  

  23761944.08649 124869856.28149    -28613.68049        49.000  

  22969002.59449 120702920.79349       -26.05149        49.000  

  19996788.83649 105083833.47349      6481.23849        49.000  

  22937613.15649 120537970.34849       688.05149        49.000  

 16 04 02 12 59 48.2000000  0  6G02G29G09G25G05G06                              
  19702058.95349 103535016.59449     -5869.25449        49.000  

  21884401.93049 115003308.14849    -20548.75849        50.000  

  23762488.60949 124872717.77749    -28616.52049        49.000  

  22969003.10249 120702923.48849       -27.83249        49.000  

  19996665.56249 105083185.66849      6474.70749        49.000  

  22937600.08649 120537901.66849       685.45749        49.000  

 16 04 02 12 59 48.3000000  0  6G02G29G09G25G05G06                              
  19702170.69549 103535603.78949     -5874.51249        49.000  

  21884793.00849 115005363.16849    -20551.45749        50.000  

  23763033.18849 124875579.58249    -28619.60249        49.000  

  22969003.65649 120702926.37549       -29.88349        49.000  

  19996542.42249 105082538.52049      6467.95749        49.000  

  22937587.07049 120537833.27749       682.53149        49.000  

 16 04 02 12 59 48.4000000  0  6G02G29G09G25G05G06                              
  19702282.52349 103536191.46149     -5879.34049        49.000  

  21885184.10949 115007418.43449    -20553.90249        50.000  

  23763577.83649 124878441.64849    -28622.23849        49.000  

  22969004.23449 120702929.42249       -31.44549        49.000  

  19996419.39149 105081892.01249      6461.67649        49.000  

  22937574.10249 120537765.13349       680.00849        49.000  

 16 04 02 12 59 48.5000000  0  6G02G29G09G25G05G06                              
  19702394.46949 103536779.72749     -5885.30549        49.000  

  21885575.28949 115009474.03149    -20557.30949        50.000  

  23764122.53149 124881304.07849    -28626.00449        49.000  

  22969004.85949 120702932.72749       -34.13749        49.000  

  19996296.50049 105081246.23049      6454.32849        49.000  

  22937561.19549 120537697.33249       676.41849        49.000  

 16 04 02 12 59 48.6000000  0  6G02G29G09G25G05G06                              
  19702506.51649 103537368.50849     -5890.62549        49.000  

  21885966.50849 115011529.89549    -20560.06649        50.000  

  23764667.30549 124884166.81649    -28629.10249        49.000  

  22969005.53149 120702936.23449       -36.18049        49.000  

  19996173.74249 105080601.13749      6447.34049        49.000  

  22937548.35249 120537629.82449       673.57049        49.000  

 16 04 02 12 59 48.7000000  0  6G02G29G09G25G05G06                              
  19702618.63349 103537957.69549     -5894.44149        49.000  

  21886357.75849 115013585.93049    -20561.52749        50.000  

  23765212.10249 124887029.75049    -28630.79349        49.000  

  22969006.21149 120702939.81649       -36.66849        49.000  

  19996051.08649 105079956.57849      6442.16049        49.000  

  22937535.53949 120537562.48049       672.10549        49.000  

 16 04 02 12 59 48.8000000  0  6G02G29G09G25G05G06                              
  19702730.85249 103538547.41449     -5899.83249        49.000  

  21886749.06249 115015642.23449    -20564.28949        50.000  

  23765756.96949 124889892.98449    -28634.01649        49.000  

  22969006.93849 120702943.62549       -38.96949        49.000  

  19995928.57049 105079312.72349      6435.09849        49.000  

  22937522.78149 120537495.45749       668.78549        49.000  

 16 04 02 12 59 48.9000000  0  6G02G29G09G25G05G06                              
  19702843.18049 103539137.68449     -5905.20349        49.000  

  21887140.42249 115017698.84449    -20567.28949        50.000  

  23766301.89149 124892756.55949    -28637.11749        49.000  

  22969007.69549 120702947.64549       -41.06649        49.000  

  19995806.17249 105078669.54349      6428.52349        49.000  

  22937510.08649 120537428.72749       665.94549        49.000  

 16 04 02 12 59 49.0000000  0  6G02G29G09G25G05G06                              
  19702955.58649 103539728.40649     -5909.81249        49.000  

  21887531.82049 115019755.65249    -20569.30549        50.000  

  23766846.86749 124895620.36749    -28639.62149        49.000  

  22969008.49249 120702951.79749       -42.44149        49.000  

  19995683.89849 105078026.99249      6422.13749        49.000  

  22937497.42249 120537362.22349       663.67649        49.000  

 16 04 02 12 59 49.1000000  0  6G02G29G09G25G05G06                              
  19703068.09449 103540319.64149     -5915.12549        49.000  

  21887923.26649 115021812.72749    -20572.04749        50.000  

  23767391.89149 124898484.47349    -28642.75449        49.000  

  22969009.31249 120702956.14149       -44.48449        49.000  

  19995561.74249 105077385.09049      6415.53549        49.000  

  22937484.82049 120537295.98849       660.83649        49.000  

 16 04 02 12 59 49.2000000  0  6G02G29G09G25G05G06                              
  19703180.71149 103540911.44549     -5920.75849        49.000  

  21888314.77349 115023870.11749    -20575.24249        50.000  

  23767936.96149 124901348.91449    -28646.21149        49.000  

  22969010.18849 120702960.73049       -46.98449        49.000  

  19995439.72749 105076743.90649      6408.39149        49.000  

  22937472.28149 120537230.09849       657.50849        49.000  

 16 04 02 12 59 49.3000000  0  6G02G29G09G25G05G06                              
  19703293.42249 103541503.75049     -5925.85249        49.000  

  21888706.32049 115025927.77049    -20577.87149        50.000  

  23768482.10949 124904213.66049    -28649.12149        49.000  

  22969011.10249 120702965.50049       -48.80149        49.000  

  19995317.84449 105076103.38749      6401.51249        49.000  

  22937459.79749 120537164.48849       654.56249        49.000  

 16 04 02 12 59 49.4000000  0  6G02G29G09G25G05G06                              
  19703406.22749 103542096.52349     -5930.28949        49.000  

  21889097.92249 115027985.64149    -20579.93449        50.000  

  23769027.28949 124907078.65249    -28651.52749        49.000  

  22969012.03949 120702970.41449       -49.99249        49.000  

  19995196.07049 105075463.48049      6395.60549        49.000  

  22937447.35249 120537099.09849       652.56649        49.000  

 16 04 02 12 59 49.5000000  0  6G02G29G09G25G05G06                              
  19703519.13349 103542689.86349     -5935.97749        49.000  

  21889489.58649 115030043.82049    -20583.03149        50.000  

  23769572.53949 124909943.98049    -28654.78549        49.000  

  22969013.01649 120702975.57449       -52.59849        49.000  

  19995074.43849 105074824.27749      6388.57449        49.000  

  22937434.97749 120537034.03949       649.15649        49.000  

 16 04 02 12 59 49.6000000  0  6G02G29G09G25G05G06                              
  19703632.12549 103543283.67249     -5940.58249        49.000  

  21889881.28149 115032102.22349    -20585.20349        50.000  

  23770117.85249 124912809.57049    -28657.46549        49.000  

  22969014.02349 120702980.87549       -53.84449        49.000  

  19994952.93049 105074185.71149      6382.34849        49.000  

  22937422.64149 120536969.21549       646.95749        49.000  

 16 04 02 12 59 49.7000000  0  6G02G29G09G25G05G06                              
  19703745.21949 103543877.96949     -5945.83249        49.000  

  21890273.03149 115034160.86749    -20587.85549        50.000  

  23770663.20349 124915675.42649    -28660.47749        49.000  

  22969015.06249 120702986.34049       -55.82049        49.000  

  19994831.53149 105073547.77349      6375.68049        49.000  

  22937410.35249 120536904.64849       643.98849        49.000  

 16 04 02 12 59 49.8000000  0  6G02G29G09G25G05G06                              
  19703858.42249 103544472.87549     -5951.62149        49.000  

  21890664.84449 115036219.87549    -20591.41849        50.000  

  23771208.64149 124918541.68849    -28664.17649        49.000  

  22969016.15649 120702992.10549       -58.68449        49.000  

  19994710.28149 105072910.60549      6368.15649        49.000  

  22937398.13349 120536840.46149       640.34449        49.000  

 16 04 02 12 59 49.9000000  0  6G02G29G09G25G05G06                              
  19703971.71949 103545068.25849     -5956.47349        49.000  

  21891056.70349 115038279.08649    -20593.45749        50.000  

  23771754.11749 124921408.18049    -28666.60249        49.000  

  22969017.27349 120702997.99649       -59.96149        49.000  

  19994589.14849 105072274.04749      6362.11749        49.000  

  22937385.96149 120536776.49649       638.17649        49.000  

 16 04 02 12 59 50.0000000  0  6G02G29G09G25G05G06                              
  19704085.11749 103545664.14549     -5961.66849        49.000  

  21891448.60949 115040338.57449    -20596.27049        50.000  

  23772299.65649 124924274.98049    -28669.84049        49.000  

  22969018.43849 120703004.08649       -61.99249        49.000  

  19994468.14149 105071638.15249      6355.31249        49.000  

  22937373.84449 120536712.82049       635.16449        49.000  

 16 04 02 12 59 50.1000000  0  6G02G29G09G25G05G06                              
  19704198.60249 103546260.53549     -5966.44949        49.000  

  21891840.55549 115042398.30549    -20598.54749        50.000  

  23772845.24249 124927142.05149    -28672.22349        49.000  

  22969019.62549 120703010.35249       -63.54749        49.000  

  19994347.25849 105071002.91449      6348.99249        49.000  

  22937361.78149 120536649.41049       632.71549        49.000  

 16 04 02 12 59 50.2000000  0  6G02G29G09G25G05G06                              
  19704312.18049 103546857.36749     -5970.99249        49.000  

  21892232.54749 115044458.24649    -20600.65649        50.000  

  23773390.87549 124930009.35549    -28674.62149        49.000  

  22969020.84449 120703016.75049       -64.94149        49.000  

  19994226.49249 105070368.27049      6343.00449        49.000  

  22937349.75049 120536586.19949       630.66849        49.000  

 16 04 02 12 59 50.3000000  0  6G02G29G09G25G05G06                              
  19704425.85249 103547454.73049     -5976.12149        49.000  

  21892624.60249 115046518.45349    -20603.15649        50.000  

  23773936.57049 124932876.97349    -28677.52349        49.000  

  22969022.09449 120703023.34449       -66.76249        49.000  

  19994105.84449 105069734.30549      6336.42249        49.000  

  22937337.78149 120536523.30149       627.75449        49.000  

 16 04 02 12 59 50.4000000  0  6G02G29G09G25G05G06                              
  19704539.63349 103548052.60249     -5981.29749        49.000  

  21893016.69549 115048578.91449    -20605.81249        50.000  

  23774482.30549 124935744.87149    -28680.57049        49.000  

  22969023.38349 120703030.12549       -68.71949        49.000  

  19993985.32849 105069101.00049      6329.71549        49.000  

  22937325.86749 120536460.67249       624.94549        49.000  

 16 04 02 12 59 50.5000000  0  6G02G29G09G25G05G06                              
  19704653.50849 103548651.02349     -5986.70749        49.000  

  21893408.85249 115050639.68849    -20608.88749        50.000  

  23775028.11749 124938613.10549    -28683.87949        49.000  

  22969024.71949 120703037.12949       -70.92249        49.000  

  19993864.93849 105068468.39549      6322.62549        49.000  

  22937314.00849 120536398.35249       621.75049        49.000  

 16 04 02 12 59 50.6000000  0  6G02G29G09G25G05G06                              
  19704767.46949 103549249.88349     -5991.33649        49.000  

  21893801.03949 115052700.64849    -20611.02349        50.000  

  23775573.96149 124941481.55949    -28686.24649        49.000  

  22969026.07849 120703044.25449       -72.29749        49.000  

  19993744.67249 105067836.37949      6316.59049        49.000  

  22937302.18849 120536336.24249       619.62549        49.000  

 16 04 02 12 59 50.7000000  0  6G02G29G09G25G05G06                              
  19704881.51649 103549849.18849     -5995.57849        49.000  

  21894193.26649 115054761.80949    -20612.75849        50.000  

  23776119.85249 124944350.25049    -28688.44949        49.000  

  22969027.45349 120703051.50849       -73.39549        49.000  

  19993624.51649 105067204.96549      6310.80149        49.000  

  22937290.40649 120536274.34849       617.58649        49.000  

 16 04 02 12 59 50.8000000  0  6G02G29G09G25G05G06                              
  19704995.67249 103550449.07049     -6001.27749        49.000  

  21894585.55549 115056823.28549    -20615.87549        50.000  

  23776665.81249 124947219.29349    -28691.82849        49.000  

  22969028.88349 120703059.00849       -75.85249        49.000  

  19993504.50049 105066574.27349      6303.64149        49.000  

  22937278.68849 120536212.78549       614.22349        49.000  

 16 04 02 12 59 50.9000000  0  6G02G29G09G25G05G06                              
  19705109.92249 103551049.46149     -6006.58649        49.000  

  21894977.89849 115058885.03149    -20618.88749        50.000  

  23777211.82849 124950088.62549    -28695.14149        49.000  

  22969030.35249 120703066.69149       -77.90249        49.000  

  19993384.60949 105065944.24649      6296.64849        49.000  

  22937267.03149 120536151.50849       611.26249        49.000  

 16 04 02 12 59 51.0000000  0  6G02G29G09G25G05G06                              
  19705224.27349 103551650.40249     -6012.07049        49.000  

  21895370.28949 115060947.05949    -20621.62149        50.000  

  23777757.89849 124952958.27749    -28698.06649        49.000  

  22969031.85249 120703074.59849       -80.03549        49.000  

  19993264.85249 105065314.90649      6289.95349        49.000  

  22937255.43049 120536090.53149       608.34049        49.000  

 16 04 02 12 59 51.1000000  0  6G02G29G09G25G05G06                              
  19705338.71149 103552251.75049     -6016.07849        49.000  

  21895762.71949 115063009.27349    -20623.34449        50.000  

  23778304.01649 124955828.14849    -28700.14149        49.000  

  22969033.38349 120703082.61749       -81.04749        49.000  

  19993145.21149 105064686.15249      6284.16449        49.000  

  22937243.86749 120536029.75449       606.42649        49.000  

 16 04 02 12 59 51.2000000  0  6G02G29G09G25G05G06                              
  19705453.24249 103552853.62549     -6021.21949        49.000  

  21896155.19549 115065071.73849    -20625.80549        50.000  

  23778850.20349 124958698.29349    -28702.96549        49.000  

  22969034.93849 120703090.80549       -82.73449        49.000  

  19993025.68849 105064058.04749      6277.71149        49.000  

  22937232.35249 120535969.24249       603.75049        49.000  

 16 04 02 12 59 51.3000000  0  6G02G29G09G25G05G06                              
  19705567.86749 103553456.00049     -6026.30949        49.000  

  21896547.71149 115067134.46949    -20628.53149        50.000  

  23779396.43049 124961568.72749    -28705.99249        49.000  

  22969036.53149 120703099.19149       -84.87949        49.000  

  19992906.28949 105063430.60949      6271.00849        49.000  

  22937220.89149 120535909.01649       600.81649        49.000  

 16 04 02 12 59 51.4000000  0  6G02G29G09G25G05G06                              
  19705682.59449 103554058.89549     -6031.56649        49.000  

  21896940.28149 115069197.46949    -20631.30949        50.000  

  23779942.71149 124964439.48049    -28709.14849        49.000  

  22969038.16449 120703107.77049       -86.84449        49.000  

  19992787.01649 105062803.84049      6264.16049        49.000  

  22937209.48449 120535849.07049       597.91849        49.000  

 16 04 02 12 59 51.5000000  0  6G02G29G09G25G05G06                              
  19705797.41449 103554662.28549     -6036.53549        49.000  

  21897332.91449 115071260.70749    -20633.66049        50.000  

  23780489.04749 124967310.49649    -28711.68449        49.000  

  22969039.82849 120703116.50849       -88.35949        49.000  

  19992667.85949 105062177.70349      6257.82449        49.000  

  22937198.12549 120535789.37949       595.43449        49.000  

 16 04 02 12 59 51.6000000  0  6G02G29G09G25G05G06                              
  19705912.32849 103555266.16449     -6041.53949        49.000  

  21897725.58649 115073324.19949    -20636.26249        50.000  

  23781035.43049 124970181.78949    -28714.72749        49.000  

  22969041.53149 120703125.43849       -90.27349        49.000  

  19992548.83649 105061552.22749      6251.25049        49.000  

  22937186.81249 120535729.94549       592.74649        49.000  

 16 04 02 12 59 51.7000000  0  6G02G29G09G25G05G06                              
  19706027.34449 103555870.56649     -6046.65249        49.000  

  21898118.28149 115075387.95749    -20638.90649        50.000  

  23781581.87549 124973053.39149    -28717.70349        49.000  

  22969043.26649 120703134.56249       -92.28149        49.000  

  19992429.93849 105060927.43449      6244.43049        49.000  

  22937175.56249 120535670.81649       589.81249        49.000  

 16 04 02 12 59 51.8000000  0  6G02G29G09G25G05G06                              
  19706142.46949 103556475.56249     -6052.55549        49.000  

  21898511.06249 115077452.04749    -20642.13749        50.000  

  23782128.39849 124975925.34449    -28721.26649        49.000  

  22969045.04749 120703143.94149       -94.72349        49.000  

  19992311.17249 105060303.34449      6237.44149        49.000  

  22937164.37549 120535612.02049       586.58249        49.000  

 16 04 02 12 59 51.9000000  0  6G02G29G09G25G05G06                              
  19706257.68849 103557081.05149     -6057.80949        49.000  

  21898903.90649 115079516.39849    -20645.02049        50.000  

  23782674.96949 124978797.59049    -28724.32049        49.000  

  22969046.86749 120703153.50849       -96.82849        49.000  

  19992192.55549 105059679.94149      6230.28949        49.000  

  22937153.24249 120535553.51249       583.43449        49.000  

 16 04 02 12 59 52.0000000  0  6G02G29G09G25G05G06                              
  19706373.00849 103557687.07849     -6062.84849        49.000  

  21899296.79749 115081581.02749    -20647.60949        50.000  

  23783221.58649 124981670.14549    -28727.21949        49.000  

  22969048.72749 120703163.27049       -98.65649        49.000  

  19992074.04749 105059057.21549      6223.78149        49.000  

  22937142.16449 120535495.28549       580.81249        49.000  

 16 04 02 12 59 52.1000000  0  6G02G29G09G25G05G06                              
  19706488.42249 103558293.57449     -6067.51249        49.000  

  21899689.72749 115083645.87949    -20649.73449        50.000  

  23783768.26649 124984542.96149    -28729.67249        49.000  

  22969050.61749 120703173.19949      -100.17649        49.000  

  19991955.66449 105058435.09449      6217.78949        49.000  

  22937131.12549 120535437.30149       578.53149        49.000  

 16 04 02 12 59 52.2000000  0  6G02G29G09G25G05G06                              
  19706603.92249 103558900.51649     -6072.05549        49.000  

  21900082.69549 115085710.92649    -20651.68449        50.000  

  23784314.99249 124987416.00449    -28731.91849        49.000  

  22969052.52349 120703183.24649      -101.50449        49.000  

  19991837.39849 105057813.59849      6211.41849        49.000  

  22937120.13349 120535379.53549       576.31649        49.000  

 16 04 02 12 59 52.3000000  0  6G02G29G09G25G05G06                              
  19706719.53149 103559508.05549     -6078.06249        49.000  

  21900475.72749 115087776.32049    -20655.16449        50.000  

  23784861.78149 124990289.40649    -28735.73449        49.000  

  22969054.49249 120703193.55549      -104.10249        49.000  

  19991719.25849 105057192.81649      6204.24649        49.000  

  22937109.21149 120535322.12949       572.56249        49.000  

 16 04 02 12 59 52.4000000  0  6G02G29G09G25G05G06                              
  19706835.23449 103560116.07849     -6082.92249        49.000  

  21900868.80549 115089841.95749    -20657.69549        50.000  

  23785408.64149 124993163.09049    -28738.46149        49.000  

  22969056.48449 120703204.04349      -105.82049        49.000  

  19991601.25849 105056572.69549      6197.73849        49.000  

  22937098.32849 120535264.97349       570.07449        49.000  

 16 04 02 12 59 52.5000000  0  6G02G29G09G25G05G06                              
  19706951.03149 103560724.59049     -6087.50849        49.000  

  21901261.93049 115091907.81649    -20659.69549        50.000  

  23785955.53149 124996037.03949    -28740.76649        49.000  

  22969058.51649 120703214.69149      -107.19149        49.000  

  19991483.37549 105055953.20749      6191.68049        49.000  

  22937087.50049 120535208.06249       567.89149        49.000  

 16 04 02 12 59 52.6000000  0  6G02G29G09G25G05G06                              
  19707066.91449 103561333.59449     -6092.74249        49.000  

  21901655.09449 115093973.93049    -20662.44149        50.000  

  23786502.49249 124998911.26649    -28743.90249        49.000  

  22969060.57049 120703225.50049      -109.23849        49.000  

  19991365.61749 105055334.36749      6184.85949        49.000  

  22937076.71949 120535151.42649       564.83249        49.000  

 16 04 02 12 59 52.7000000  0  6G02G29G09G25G05G06                              
  19707182.90649 103561943.11749     -6098.00849        49.000  

  21902048.32849 115096040.31249    -20665.18049        50.000  

  23787049.49249 125001785.78549    -28746.89149        49.000  

  22969062.67249 120703236.52049      -111.21549        49.000  

  19991247.97749 105054716.19549      6178.09849        49.000  

  22937066.00049 120535095.06649       562.07849        49.000  

 16 04 02 12 59 52.8000000  0  6G02G29G09G25G05G06                              
  19707298.99249 103562553.17649     -6103.46949        49.000  

  21902441.60249 115098106.98449    -20668.17649        50.000  

  23787596.57049 125004660.63349    -28750.21949        49.000  

  22969064.81249 120703247.75049      -113.57449        49.000  

  19991130.47749 105054098.71949      6171.12549        49.000  

  22937055.33649 120535039.01649       558.85549        49.000  

 16 04 02 12 59 52.9000000  0  6G02G29G09G25G05G06                              
  19707415.18049 103563163.75049     -6108.27049        49.000  

  21902834.93049 115100173.91049    -20670.53149        50.000  

  23788143.69549 125007535.76649    -28752.91849        49.000  

  22969066.98449 120703259.16449      -115.04349        49.000  

  19991013.10249 105053481.89549      6164.83649        49.000  

  22937044.71949 120534983.23049       556.47749        49.000  

 16 04 02 12 59 53.0000000  0  6G02G29G09G25G05G06                              
  19707531.46149 103563774.76649     -6112.76249        49.000  

  21903228.28949 115102241.03549    -20672.52349        50.000  

  23788690.84449 125010411.11749    -28755.24249        49.000  

  22969069.18049 120703270.70749      -116.39149        49.000  

  19990895.83649 105052865.67249      6158.76649        49.000  

  22937034.14849 120534927.67249       554.11749        49.000  

 16 04 02 12 59 53.1000000  0  6G02G29G09G25G05G06                              
  19707647.85249 103564386.39149     -6118.71949        49.000  

  21903621.72749 115104308.51649    -20675.97749        50.000  

  23789238.07849 125013286.85949    -28758.85549        49.000  

  22969071.43049 120703282.52749      -119.09449        49.000  

  19990778.71949 105052250.20749      6151.31649        49.000  

  22937023.64149 120534872.47749       550.59849        49.000  

 16 04 02 12 59 53.2000000  0  6G02G29G09G25G05G06                              
  19707764.32849 103564998.51249     -6124.03949        49.000  

  21904015.20349 115106376.25449    -20678.86749        50.000  

  23789785.36749 125016162.89149    -28762.07049        49.000  

  22969073.71149 120703294.53149      -121.27749        49.000  

  19990661.71949 105051635.39849      6144.30949        49.000  

  22937013.18849 120534817.54749       547.55149        49.000  

 16 04 02 12 59 53.3000000  0  6G02G29G09G25G05G06                              
  19707880.91449 103565611.17249     -6129.38749        49.000  

  21904408.73449 115108444.26649    -20681.54349        50.000  

  23790332.71949 125019039.23049    -28765.19149        49.000  

  22969076.03149 120703306.74249      -123.25449        49.000  

  19990544.85249 105051021.26649      6137.70349        49.000  

  22937002.79749 120534762.93049       544.53949        49.000  

 16 04 02 12 59 53.4000000  0  6G02G29G09G25G05G06                              
  19707997.58649 103566224.30149     -6133.65249        49.000  

  21904802.31249 115110512.50849    -20683.53949        50.000  

  23790880.10949 125021915.82049    -28767.31649        49.000  

  22969078.39149 120703319.10949      -124.50449        49.000  

  19990428.10249 105050407.77349      6131.62149        49.000  

  22936992.44549 120534708.54349       542.58249        49.000  

 16 04 02 12 59 53.5000000  0  6G02G29G09G25G05G06                              
  19708114.35949 103566837.91449     -6138.80549        49.000  

  21905195.92249 115112580.96949    -20685.93849        50.000  

  23791427.56249 125024792.67249    -28770.23849        49.000  

  22969080.76649 120703331.62549      -126.20349        49.000  

  19990311.48449 105049794.89149      6125.24249        49.000  

  22936982.14149 120534654.39549       539.99649        49.000  

 16 04 02 12 59 53.6000000  0  6G02G29G09G25G05G06                              
  19708231.22749 103567452.07049     -6144.03149        49.000  

  21905589.60249 115114649.74649    -20688.84049        50.000  

  23791975.07849 125027669.85549    -28773.21149        49.000  

  22969083.18849 120703344.38349      -128.32449        49.000  

  19990194.99249 105049182.74249      6118.30149        49.000  

  22936971.90649 120534600.57449       537.05149        49.000  

 16 04 02 12 59 53.7000000  0  6G02G29G09G25G05G06                              
  19708348.19549 103568066.73049     -6149.58249        49.000  

  21905983.32849 115116718.77049    -20691.77049        50.000  

  23792522.64149 125030547.32449    -28776.63349        49.000  

  22969085.64849 120703357.31249      -130.62949        49.000  

  19990078.62549 105048571.22749      6111.28149        49.000  

  22936961.71149 120534547.02049       533.73849        49.000  

