     2.10           OBSERVATION DATA    G (GPS)             RINEX VERSION / TYPE
Convert v1.8.0                          07-Jun-2016 18:56   PGM / RUN BY / DATE 
Signal Strength values S1,S2 are in dBHz                    COMMENT             
                                                            MARKER NAME         
                                                            MARKER NUMBER       
                                                            OBSERVER / AGENCY   
                    NovAtel GPSCard                         REC # / TYPE / VERS 
                                                            ANT # / TYPE        
0.0000        0.0000        0.0000                          APPROX POSITION XYZ 
        0.0000        0.0000        0.0000                  ANTENNA: DELTA H/E/N
     1     1                                                WAVELENGTH FACT L1/2
     1     1     5   G01   G10   G14   G17   G28            WAVELENGTH FACT L1/2
                                                            COMMENT             
                                                            COMMENT             
                                                            COMMENT             
                                                            COMMENT             
                                                            COMMENT             
                                                            COMMENT             
     4    C1    L1    D1    S1                              # / TYPES OF OBSERV 
     0.100                                                  INTERVAL            
  2016    04    02    13    36     7.2000000    GPS         TIME OF FIRST OBS   
  2016    04    02    13    39    29.2000000    GPS         TIME OF LAST OBS    
Leap Seconds Unknown                                        COMMENT             
                                                            END OF HEADER       
 16 04 02 13 36  7.2000000  0  1G28                                             
  21689083.28949 113976901.46959     -1233.04349        49.000  
 16 04 02 13 36  7.3000000  0  1G28                                             
  21689106.78949 113977024.94149     -1236.24249        49.000  
 16 04 02 13 36  7.4000000  0  1G28                                             
  21689130.35249 113977148.80549     -1240.30949        49.000  
 16 04 02 13 36  7.5000000  0  1G28                                             
  21689153.98449 113977273.00049     -1243.58649        49.000  
 16 04 02 13 36  7.6000000  0  1G28                                             
  21689177.67249 113977397.49249     -1246.54749        49.000  
 16 04 02 13 36  7.7000000  0  1G28                                             
  21689201.40649 113977522.24249     -1248.84449        49.000  
 16 04 02 13 36  7.8000000  0  1G28                                             
  21689225.20349 113977647.35549     -1252.63349        49.000  
 16 04 02 13 36  7.9000000  0  1G28                                             
  21689249.07849 113977772.80149     -1255.96149        49.000  
 16 04 02 13 36  8.0000000  0  1G28                                             
  21689272.98449 113977898.49649     -1258.48049        49.000  
 16 04 02 13 36  8.1000000  0  1G28                                             
  21689296.96149 113978024.46149     -1260.96949        49.000  
 16 04 02 13 36  8.2000000  0  1G28                                             
  21689321.00849 113978150.79749     -1264.92649        49.000  
 16 04 02 13 36  8.3000000  0  1G28                                             
  21689345.10249 113978277.40649     -1267.44149        49.000  
 16 04 02 13 36  8.4000000  0  1G28                                             
  21689369.25049 113978404.30149     -1270.36349        49.000  
 16 04 02 13 36  8.5000000  0  1G28                                             
  21689393.46149 113978531.53149     -1273.88749        49.000  
 16 04 02 13 36  8.6000000  0  1G28                                             
  21689417.74249 113978659.07849     -1276.96149        49.000  
 16 04 02 13 36  8.7000000  0  1G28                                             
  21689442.07849 113978786.96149     -1280.21149        49.000  
 16 04 02 13 36  8.8000000  0  1G28                                             
  21689466.46949 113978915.12549     -1283.35549        49.000  
 16 04 02 13 36  8.9000000  0  1G28                                             
  21689490.93049 113979043.65649     -1287.18449        49.000  
 16 04 02 13 36  9.0000000  0  1G28                                             
  21689515.46149 113979172.54749     -1290.53549        49.000  
 16 04 02 13 36  9.1000000  0  1G28                                             
  21689540.03149 113979301.66449     -1292.85549        49.000  
 16 04 02 13 36  9.2000000  0  1G28                                             
  21689564.68049 113979431.18449     -1296.53549        49.000  
 16 04 02 13 36  9.3000000  0  1G28                                             
  21689589.37549 113979560.96149     -1299.44549        49.000  
 16 04 02 13 36  9.4000000  0  1G28                                             
  21689614.13349 113979691.02749     -1302.34049        49.000  
 16 04 02 13 36  9.5000000  0  1G28                                             
  21689638.94549 113979821.39849     -1305.26649        49.000  
 16 04 02 13 36  9.6000000  0  1G28                                             
  21689663.82849 113979952.11349     -1308.73049        49.000  
 16 04 02 13 36  9.7000000  0  1G28                                             
  21689688.76649 113980083.18449     -1312.45349        49.000  
 16 04 02 13 36  9.8000000  0  1G28                                             
  21689713.76649 113980214.58649     -1315.37549        49.000  
 16 04 02 13 36  9.9000000  0  1G28                                             
  21689738.81249 113980346.19949     -1317.59049        49.000  
 16 04 02 13 36 10.0000000  0  1G28                                             
  21689763.92249 113980478.15649     -1320.93449        49.000  
 16 04 02 13 36 10.1000000  0  1G28                                             
  21689789.08649 113980610.41849     -1324.10949        49.000  
 16 04 02 13 36 10.2000000  0  1G28                                             
  21689814.32849 113980743.03549     -1327.58649        49.000  
 16 04 02 13 36 10.3000000  0  1G28                                             
  21689839.60949 113980875.88349     -1330.18849        49.000  
 16 04 02 13 36 10.4000000  0  1G28                                             
  21689864.96149 113981009.11749     -1333.85549        49.000  
 16 04 02 13 36 10.5000000  0  1G28                                             
  21689890.38349 113981142.68449     -1337.34849        49.000  
 16 04 02 13 36 10.6000000  0  1G28                                             
  21689915.84449 113981276.54349     -1340.21149        49.000  
 16 04 02 13 36 10.7000000  0  1G28                                             
  21689941.39149 113981410.78949     -1344.02349        49.000  
 16 04 02 13 36 10.8000000  0  1G28                                             
  21689966.98449 113981545.31249     -1346.80949        49.000  
 16 04 02 13 36 10.9000000  0  1G28                                             
  21689992.64849 113981680.18449     -1350.45349        49.000  
 16 04 02 13 36 11.0000000  0  1G28                                             
  21690018.38349 113981815.41449     -1353.84849        49.000  
 16 04 02 13 36 11.1000000  0  1G28                                             
  21690044.15649 113981950.85249     -1355.89549        49.000  
 16 04 02 13 36 11.2000000  0  1G28                                             
  21690069.98449 113982086.61749     -1358.98449        49.000  
 16 04 02 13 36 11.3000000  0  1G28                                             
  21690095.87549 113982222.66449     -1361.86749        49.000  
 16 04 02 13 36 11.4000000  0  1G28                                             
  21690121.82849 113982359.03149     -1365.15649        49.000  
 16 04 02 13 36 11.5000000  0  1G28                                             
  21690147.84449 113982495.73449     -1368.56249        49.000  
 16 04 02 13 36 11.6000000  0  1G28                                             
  21690173.90649 113982632.75049     -1371.91049        49.000  
 16 04 02 13 36 11.7000000  0  1G28                                             
  21690200.03949 113982770.07449     -1374.63749        49.000  
 16 04 02 13 36 11.8000000  0  1G28                                             
  21690226.22749 113982907.73049     -1378.03949        49.000  
 16 04 02 13 36 11.9000000  0  1G28                                             
  21690252.48449 113983045.72749     -1381.45349        49.000  
 16 04 02 13 36 12.0000000  0  1G28                                             
  21690278.80549 113983184.00049     -1384.24649        49.000  
 16 04 02 13 36 12.1000000  0  1G28                                             
  21690305.16449 113983322.53949     -1386.89149        49.000  
 16 04 02 13 36 12.2000000  0  1G28                                             
  21690331.60249 113983461.43449     -1390.32049        49.000  
 16 04 02 13 36 12.3000000  0  1G28                                             
  21690358.09449 113983600.66049     -1393.99649        49.000  
 16 04 02 13 36 12.4000000  0  1G28                                             
  21690384.65649 113983740.27349     -1397.79349        49.000  
 16 04 02 13 36 12.5000000  0  1G28                                             
  21690411.28149 113983880.17649     -1400.72349        49.000  
 16 04 02 13 36 12.6000000  0  1G28                                             
  21690437.96949 113984020.33249     -1402.83649        49.000  
 16 04 02 13 36 12.7000000  0  1G28                                             
  21690464.69549 113984160.78949     -1406.02349        49.000  
 16 04 02 13 36 12.8000000  0  1G28                                             
  21690491.49249 113984301.57849     -1409.23049        49.000  
 16 04 02 13 36 12.9000000  0  1G28                                             
  21690518.34449 113984442.70349     -1412.73449        49.000  
 16 04 02 13 36 13.0000000  0  1G28                                             
  21690545.25849 113984584.13749     -1415.87949        49.000  
 16 04 02 13 36 13.1000000  0  1G28                                             
  21690572.21949 113984725.82049     -1418.26249        49.000  
 16 04 02 13 36 13.2000000  0  1G28                                             
  21690599.25049 113984867.85549     -1421.81649        49.000  
 16 04 02 13 36 13.3000000  0  1G28                                             
  21690626.33649 113985010.20349     -1424.94149        49.000  
 16 04 02 13 36 13.4000000  0  1G28                                             
  21690653.48449 113985152.80549     -1427.52349        49.000  
 16 04 02 13 36 13.5000000  0  1G28                                             
  21690680.68849 113985295.75849     -1430.98449        49.000  
 16 04 02 13 36 13.6000000  0  1G28                                             
  21690707.95349 113985439.02049     -1434.16449        49.000  
 16 04 02 13 36 13.7000000  0  1G28                                             
  21690735.27349 113985582.57049     -1437.36749        49.000  
 16 04 02 13 36 13.8000000  0  1G28                                             
  21690762.67249 113985726.54749     -1441.26249        49.000  
 16 04 02 13 36 13.9000000  0  1G28                                             
  21690790.10949 113985870.76649     -1444.02749        49.000  
 16 04 02 13 36 14.0000000  0  1G28                                             
  21690817.63349 113986015.38349     -1447.66849        49.000  
 16 04 02 13 36 14.1000000  0  1G28                                             
  21690845.19549 113986160.22349     -1449.91049        49.000  
 16 04 02 13 36 14.2000000  0  1G28                                             
  21690872.82849 113986305.41049     -1453.34849        49.000  
 16 04 02 13 36 14.3000000  0  1G28                                             
  21690900.51649 113986450.92249     -1456.50449        49.000  
 16 04 02 13 36 14.4000000  0  1G28                                             
  21690928.24249 113986596.68449     -1459.26249        49.000  
 16 04 02 13 36 14.5000000  0  1G28                                             
  21690956.05549 113986742.81649     -1462.68849        49.000  
 16 04 02 13 36 14.6000000  0  1G28                                             
  21690983.91449 113986889.23849     -1465.86349        49.000  
 16 04 02 13 36 14.7000000  0  1G28                                             
  21691011.84449 113987036.01249     -1469.30549        49.000  
 16 04 02 13 36 14.8000000  0  1G28                                             
  21691039.82849 113987183.09449     -1472.28549        49.000  
 16 04 02 13 36 14.9000000  0  1G28                                             
  21691067.86749 113987330.45349     -1475.14549        49.000  
 16 04 02 13 36 15.0000000  0  1G28                                             
  21691095.95349 113987478.13349     -1478.25449        49.000  
 16 04 02 13 36 15.1000000  0  1G28                                             
  21691124.11749 113987626.10949     -1481.27049        49.000  
 16 04 02 13 36 15.2000000  0  1G28                                             
  21691152.34449 113987774.42649     -1484.70349        49.000  
 16 04 02 13 36 15.3000000  0  1G28                                             
  21691180.63349 113987923.09849     -1488.35549        49.000  
 16 04 02 13 36 15.4000000  0  1G28                                             
  21691208.98449 113988072.05149     -1491.02349        49.000  
 16 04 02 13 36 15.5000000  0  1G28                                             
  21691237.38349 113988221.27049     -1493.85549        49.000  
 16 04 02 13 36 15.6000000  0  1G28                                             
  21691265.85249 113988370.89549     -1497.66449        49.000  
 16 04 02 13 36 15.7000000  0  1G28                                             
  21691294.36749 113988520.77349     -1500.42649        49.000  
 16 04 02 13 36 15.8000000  0  1G28                                             
  21691322.96149 113988671.01249     -1504.08649        49.000  
 16 04 02 13 36 15.9000000  0  1G28                                             
  21691351.60949 113988821.56249     -1507.13349        49.000  
 16 04 02 13 36 16.0000000  0  1G28                                             
  21691380.32049 113988972.43049     -1510.14549        49.000  
 16 04 02 13 36 16.1000000  0  1G28                                             
  21691409.07849 113989123.56249     -1512.89549        49.000  
 16 04 02 13 36 16.2000000  0  1G28                                             
  21691437.89849 113989275.03949     -1516.12949        49.000  
 16 04 02 13 36 16.3000000  0  1G28                                             
  21691466.78149 113989426.81649     -1519.33249        49.000  
 16 04 02 13 36 16.4000000  0  1G28                                             
  21691495.73449 113989578.92649     -1522.44549        49.000  
 16 04 02 13 36 16.5000000  0  1G28                                             
  21691524.73449 113989731.32849     -1525.57849        49.000  
 16 04 02 13 36 16.6000000  0  1G28                                             
  21691553.79749 113989884.02749     -1528.39549        49.000  
 16 04 02 13 36 16.7000000  0  1G28                                             
  21691582.90649 113990037.00849     -1531.30949        49.000  
 16 04 02 13 36 16.8000000  0  1G28                                             
  21691612.08649 113990190.34849     -1534.83649        49.000  
 16 04 02 13 36 16.9000000  0  1G28                                             
  21691641.32849 113990344.01649     -1538.27349        49.000  
 16 04 02 13 36 17.0000000  0  1G28                                             
  21691670.63349 113990498.00449     -1541.40249        49.000  
 16 04 02 13 36 17.1000000  0  1G28                                             
  21691699.98449 113990652.25849     -1544.21149        49.000  
 16 04 02 13 36 17.2000000  0  1G28                                             
  21691729.39849 113990806.85949     -1547.49649        49.000  
 16 04 02 13 36 17.3000000  0  1G28                                             
  21691758.88349 113990961.78949     -1550.92249        49.000  
 16 04 02 13 36 17.4000000  0  1G28                                             
  21691788.42249 113991117.00449     -1553.69949        49.000  
 16 04 02 13 36 17.5000000  0  1G28                                             
  21691818.01649 113991272.50849     -1556.48049        49.000  
 16 04 02 13 36 17.6000000  0  1G28                                             
  21691847.67249 113991428.32449     -1559.58249        49.000  
 16 04 02 13 36 17.7000000  0  1G28                                             
  21691877.38349 113991584.44549     -1562.57449        49.000  
 16 04 02 13 36 17.8000000  0  1G28                                             
  21691907.15649 113991740.89849     -1566.11749        49.000  
 16 04 02 13 36 17.9000000  0  1G28                                             
  21691936.99249 113991897.69549     -1569.55149        49.000  
 16 04 02 13 36 18.0000000  0  1G28                                             
  21691966.89149 113992054.77749     -1572.39549        49.000  
 16 04 02 13 36 18.1000000  0  1G28                                             
  21691996.83649 113992212.18049     -1575.58249        49.000  
 16 04 02 13 36 18.2000000  0  1G28                                             
  21692026.85249 113992369.91449     -1578.84449        49.000  
 16 04 02 13 36 18.3000000  0  1G28                                             
  21692056.92249 113992527.91049     -1581.58649        49.000  
 16 04 02 13 36 18.4000000  0  1G28                                             
  21692087.05549 113992686.27349     -1585.13749        49.000  
 16 04 02 13 36 18.5000000  0  1G28                                             
  21692117.25049 113992844.94149     -1588.33649        49.000  
 16 04 02 13 36 18.6000000  0  1G28                                             
  21692147.50049 113993003.93449     -1591.34849        49.000  
 16 04 02 13 36 18.7000000  0  1G28                                             
  21692177.81249 113993163.21949     -1594.37149        49.000  
 16 04 02 13 36 18.8000000  0  1G28                                             
  21692208.18849 113993322.82449     -1597.49249        49.000  
 16 04 02 13 36 18.9000000  0  1G28                                             
  21692238.61749 113993482.75849     -1600.78949        49.000  
 16 04 02 13 36 19.0000000  0  1G28                                             
  21692269.10249 113993642.95349     -1603.36349        49.000  
 16 04 02 13 36 19.1000000  0  1G28                                             
  21692299.64849 113993803.45349     -1606.48849        49.000  
 16 04 02 13 36 19.2000000  0  1G28                                             
  21692330.24249 113993964.25049     -1609.39849        49.000  
 16 04 02 13 36 19.3000000  0  1G28                                             
  21692360.90649 113994125.39849     -1613.10549        49.000  
 16 04 02 13 36 19.4000000  0  2G17G28                                          
  21955345.82049 115376120.29759    -16269.23049        49.000  
  21692391.62549 113994286.84849     -1616.04349        49.000  
 16 04 02 13 36 19.5000000  0  2G17G28                                          
  21955655.44549 115377747.38349    -16272.23849        49.000  
  21692422.41449 113994448.64549     -1619.53149        49.000  
 16 04 02 13 36 19.6000000  0  2G17G28                                          
  21955965.11749 115379374.75849    -16275.05949        49.000  
  21692453.26649 113994610.76649     -1622.80149        49.000  
 16 04 02 13 36 19.7000000  0  2G17G28                                          
  21956274.83649 115381002.33249    -16277.14549        49.000  
  21692484.15649 113994773.12949     -1625.24249        49.000  
 16 04 02 13 36 19.8000000  0  2G17G28                                          
  21956584.63349 115382630.24249    -16280.22349        49.000  
  21692515.12549 113994935.86349     -1628.65649        49.000  
 16 04 02 13 36 19.9000000  0  2G17G28                                          
  21956894.46149 115384258.40649    -16283.11349        49.000  
  21692546.14849 113995098.89849     -1632.01649        49.000  
 16 04 02 13 36 20.0000000  0  2G17G28                                          
  21957204.30549 115385886.80949    -16285.19549        49.000  
  21692577.22749 113995262.20749     -1634.44149        49.000  
 16 04 02 13 36 20.1000000  0  2G17G28                                          
  21957514.21949 115387515.44149    -16287.72749        49.000  
  21692608.35249 113995425.79749     -1637.40649        49.000  
 16 04 02 13 36 20.2000000  0  2G17G28                                          
  21957824.21949 115389144.45349    -16291.45749        49.000  
  21692639.56249 113995589.78949     -1641.40649        49.000  
 16 04 02 13 36 20.3000000  0  2G17G28                                          
  21958134.25849 115390773.69549    -16293.89149        49.000  
  21692670.82049 113995754.06649     -1644.42249        49.000  
 16 04 02 13 36 20.4000000  0  2G17G28                                          
  21958444.36749 115392403.14549    -16295.87149        49.000  
  21692702.13349 113995918.59049     -1646.69149        49.000  
 16 04 02 13 36 20.5000000  0  2G17G28                                          
  21958754.48449 115394032.83249    -16297.97349        49.000  
  21692733.49249 113996083.39549     -1649.28149        49.000  
 16 04 02 13 36 20.6000000  0  2G17G28                                          
  21959064.68849 115395662.85949    -16301.64549        49.000  
  21692764.92249 113996248.57049     -1653.38349        49.000  
 16 04 02 13 36 20.7000000  0  2G17G28                                          
  21959374.91449 115397293.11749    -16304.00049        49.000  
  21692796.40649 113996414.02349     -1656.07049        49.000  
 16 04 02 13 36 20.8000000  0  2G17G28                                          
  21959685.22749 115398923.66449    -16306.66049        49.000  
  21692827.95349 113996579.80549     -1659.17249        49.000  
 16 04 02 13 36 20.9000000  0  2G17G28                                          
  21959995.56249 115400554.51249    -16309.99649        49.000  
  21692859.56249 113996745.92249     -1662.76249        49.000  
 16 04 02 13 36 21.0000000  0  2G17G28                                          
  21960305.96149 115402185.63349    -16312.57449        49.000  
  21692891.23449 113996912.37149     -1665.94949        49.000  
 16 04 02 13 36 21.1000000  0  2G17G28                                          
  21960616.39149 115403816.96549    -16314.55149        49.000  
  21692922.95349 113997079.06249     -1668.35949        49.000  
 16 04 02 13 36 21.2000000  0  2G17G28                                          
  21960926.87549 115405448.65649    -16318.14549        49.000  
  21692954.75049 113997246.14549     -1672.28949        49.000  
 16 04 02 13 36 21.3000000  0  2G17G28                                          
  21961237.42249 115407080.57449    -16320.57849        49.000  
  21692986.59449 113997413.50049     -1675.08249        49.000  
 16 04 02 13 36 21.4000000  0  2G17G28                                          
  21961547.99249 115408712.72749    -16322.85549        49.000  
  21693018.50849 113997581.14149     -1677.89149        49.000  
 16 04 02 13 36 21.5000000  0  2G17G28                                          
  21961858.64149 115410345.21949    -16326.50049        49.000  
  21693050.47749 113997749.14849     -1681.71549        49.000  
 16 04 02 13 36 21.6000000  0  2G17G28                                          
  21962169.34449 115411977.95349    -16328.80949        49.000  
  21693082.49249 113997917.44149     -1684.56249        49.000  
 16 04 02 13 36 21.7000000  0  2G17G28                                          
  21962480.10249 115413610.98049    -16331.51249        49.000  
  21693114.58649 113998086.07449     -1687.72749        49.000  
 16 04 02 13 36 21.8000000  0  2G17G28                                          
  21962790.93049 115415244.21149    -16333.70749        49.000  
  21693146.72749 113998254.94949     -1690.37149        49.000  
 16 04 02 13 36 21.9000000  0  2G17G28                                          
  21963101.78149 115416877.73849    -16336.42249        49.000  
  21693178.92249 113998424.15649     -1693.39149        49.000  
 16 04 02 13 36 22.0000000  0  2G17G28                                          
  21963412.68049 115418511.50849    -16338.88749        49.000  
  21693211.17249 113998593.66049     -1696.40249        49.000  
 16 04 02 13 36 22.1000000  0  2G17G28                                          
  21963723.62549 115420145.56249    -16341.76249        49.000  
  21693243.48449 113998763.46549     -1699.40649        49.000  
 16 04 02 13 36 22.2000000  0  2G17G28                                          
  21964034.62549 115421779.91849    -16345.04749        49.000  
  21693275.86749 113998933.64549     -1703.35949        49.000  
 16 04 02 13 36 22.3000000  0  2G17G28                                          
  21964345.68849 115423414.56649    -16347.88749        49.000  
  21693308.31249 113999104.13349     -1706.49249        49.000  
 16 04 02 13 36 22.4000000  0  2G17G28                                          
  21964656.77349 115425049.44549    -16350.05149        49.000  
  21693340.79749 113999274.89849     -1709.16849        49.000  
 16 04 02 13 36 22.5000000  0  2G17G28                                          
  21964967.94549 115426684.63749    -16353.27049        49.000  
  21693373.36749 113999446.01649     -1712.69149        49.000  
 16 04 02 13 36 22.6000000  0  2G17G28                                          
  21965279.16449 115428320.10549    -16356.20749        49.000  
  21693405.99249 113999617.46949     -1716.20749        49.000  
 16 04 02 13 36 22.7000000  0  2G17G28                                          
  21965590.44549 115429955.87549    -16359.05549        49.000  
  21693438.68049 113999789.23449     -1719.31249        49.000  
 16 04 02 13 36 22.8000000  0  2G17G28                                          
  21965901.75049 115431591.90249    -16361.75449        49.000  
  21693471.43049 113999961.33249     -1722.63749        49.000  
 16 04 02 13 36 22.9000000  0  2G17G28                                          
  21966213.13349 115433228.20349    -16364.33649        49.000  
  21693504.23449 114000133.71549     -1725.40649        49.000  
 16 04 02 13 36 23.0000000  0  2G17G28                                          
  21966524.53949 115434864.73449    -16366.56249        49.000  
  21693537.08649 114000306.37949     -1728.11349        49.000  
 16 04 02 13 36 23.1000000  0  2G17G28                                          
  21966836.00849 115436501.52349    -16369.32049        49.000  
  21693570.00049 114000479.33649     -1731.20749        49.000  
 16 04 02 13 36 23.2000000  0  2G17G28                                          
  21967147.53949 115438138.64149    -16372.57049        49.000  
  21693602.98449 114000652.68049     -1734.96149        49.000  
 16 04 02 13 36 23.3000000  0  2G17G28                                          
  21967459.10949 115439775.95349    -16374.35549        49.000  
  21693636.00849 114000826.24249     -1737.12549        49.000  
 16 04 02 13 36 23.4000000  0  2G17G28                                          
  21967770.72749 115441413.54749    -16377.30549        49.000  
  21693669.10249 114001000.14149     -1740.52049        49.000  
 16 04 02 13 36 23.5000000  0  2G17G28                                          
  21968082.41449 115443051.47349    -16380.56249        49.000  
  21693702.25849 114001174.41049     -1744.22349        49.000  
 16 04 02 13 36 23.6000000  0  2G17G28                                          
  21968394.14849 115444689.63749    -16383.18449        49.000  
  21693735.47749 114001348.95349     -1747.19549        49.000  
 16 04 02 13 36 23.7000000  0  2G17G28                                          
  21968705.93049 115446328.05549    -16385.19949        49.000  
  21693768.74249 114001523.78149     -1749.45349        49.000  
 16 04 02 13 36 23.8000000  0  2G17G28                                          
  21969017.73449 115447966.62949    -16387.03949        49.000  
  21693802.05549 114001698.83649     -1752.07049        49.000  
 16 04 02 13 36 23.9000000  0  2G17G28                                          
  21969329.61749 115449605.57449    -16390.78149        49.000  
  21693835.43849 114001874.28149     -1755.89849        49.000  
 16 04 02 13 36 24.0000000  0  2G17G28                                          
  21969641.53949 115451244.82049    -16393.87549        49.000  
  21693868.89149 114002050.06249     -1759.32449        49.000  
 16 04 02 13 36 24.1000000  0  2G17G28                                          
  21969953.52349 115452884.28549    -16396.13749        49.000  
  21693902.39849 114002226.12949     -1762.28949        49.000  
 16 04 02 13 36 24.2000000  0  2G17G28                                          
  21970265.56249 115454524.05149    -16399.00849        49.000  
  21693935.96949 114002402.52349     -1765.48449        49.000  
 16 04 02 13 36 24.3000000  0  2G17G28                                          
  21970577.65649 115456164.09849    -16401.80949        49.000  
  21693969.59449 114002579.23049     -1768.59849        49.000  
 16 04 02 13 36 24.4000000  0  2G17G28                                          
  21970889.78949 115457804.43049    -16404.68449        49.000  
  21694003.28149 114002756.28149     -1771.99249        49.000  
 16 04 02 13 36 24.5000000  0  2G17G28                                          
  21971201.98449 115459445.00449    -16407.09049        49.000  
  21694037.02349 114002933.60949     -1774.89849        50.000  
 16 04 02 13 36 24.6000000  0  2G17G28                                          
  21971514.23449 115461085.88349    -16410.09049        49.000  
  21694070.83649 114003111.27749     -1778.24649        49.000  
 16 04 02 13 36 24.7000000  0  2G17G28                                          
  21971826.53949 115462727.04349    -16413.01249        49.000  
  21694104.71149 114003289.27749     -1781.69149        49.000  
 16 04 02 13 36 24.8000000  0  2G17G28                                          
  21972138.87549 115464368.46949    -16415.58649        49.000  
  21694138.63349 114003467.57449     -1784.51649        49.000  
 16 04 02 13 36 24.9000000  0  2G17G28                                          
  21972451.28949 115466010.20749    -16418.82049        49.000  
  21694172.63349 114003646.23049     -1788.18449        49.000  
 16 04 02 13 36 25.0000000  0  2G17G28                                          
  21972763.76649 115467652.26249    -16422.13349        49.000  
  21694206.68849 114003825.23449     -1791.69149        49.000  
 16 04 02 13 36 25.1000000  0  2G17G28                                          
  21973076.26649 115469294.49249    -16423.64549        49.000  
  21694240.79749 114004004.47749     -1793.87549        49.000  
 16 04 02 13 36 25.2000000  0  2G17G28                                          
  21973388.79749 115470936.94149    -16425.64149        49.000  
  21694274.95349 114004183.96549     -1796.23049        49.000  
 16 04 02 13 36 25.3000000  0  2G17G28                                          
  21973701.40649 115472579.69149    -16428.67249        49.000  
  21694309.17249 114004363.79749     -1799.54749        49.000  
 16 04 02 13 36 25.4000000  0  2G17G28                                          
  21974014.06249 115474222.69949    -16431.33249        49.000  
  21694343.44549 114004543.93049     -1802.75849        49.000  
 16 04 02 13 36 25.5000000  0  2G17G28                                          
  21974326.76649 115475865.95349    -16433.78149        49.000  
  21694377.78149 114004724.34849     -1805.59849        50.000  
 16 04 02 13 36 25.6000000  0  2G17G28                                          
  21974639.51649 115477509.46949    -16436.41849        49.000  
  21694412.17249 114004905.07049     -1808.55549        50.000  
 16 04 02 13 36 25.7000000  0  2G17G28                                          
  21974952.32849 115479153.30549    -16439.87949        49.000  
  21694446.62549 114005086.15249     -1812.43849        50.000  
 16 04 02 13 36 25.8000000  0  2G17G28                                          
  21975265.18849 115480797.39149    -16442.28949        49.000  
  21694481.14849 114005267.53549     -1815.37149        50.000  
 16 04 02 13 36 25.9000000  0  2G17G28                                          
  21975578.09449 115482441.71549    -16444.48049        49.000  
  21694515.71949 114005449.18849     -1817.94149        49.000  
 16 04 02 13 36 26.0000000  0  2G17G28                                          
  21975891.02349 115484086.26249    -16446.80549        50.000  
  21694550.33649 114005631.11349     -1820.79349        49.000  
 16 04 02 13 36 26.1000000  0  2G17G28                                          
  21976204.03149 115485731.12549    -16449.87549        49.000  
  21694585.02349 114005813.39149     -1824.17649        50.000  
 16 04 02 13 36 26.2000000  0  2G17G28                                          
  21976517.07849 115487376.25849    -16452.53549        50.000  
  21694619.77349 114005995.98449     -1827.40649        50.000  
 16 04 02 13 36 26.3000000  0  2G17G28                                          
  21976830.18049 115489021.62549    -16454.96949        50.000  
  21694654.57049 114006178.85249     -1830.21549        50.000  
 16 04 02 13 36 26.4000000  0  2G17G28                                          
  21977143.33649 115490667.30949    -16458.12149        49.000  
  21694689.43049 114006362.06649     -1833.65649        50.000  
 16 04 02 13 36 26.5000000  0  2G17G28                                          
  21977456.54749 115492313.26649    -16460.90649        49.000  
  21694724.35949 114006545.60249     -1836.85249        50.000  
 16 04 02 13 36 26.6000000  0  2G17G28                                          
  21977769.83649 115493959.49249    -16463.59849        50.000  
  21694759.34449 114006729.45349     -1840.00449        49.000  
 16 04 02 13 36 26.7000000  0  2G17G28                                          
  21978083.15649 115495605.99249    -16466.44149        50.000  
  21694794.39149 114006913.61749     -1843.21949        49.000  
 16 04 02 13 36 26.8000000  0  2G17G28                                          
  21978396.50049 115497252.73049    -16468.55149        50.000  
  21694829.49249 114007098.06249     -1845.79749        49.000  
 16 04 02 13 36 26.9000000  0  2G17G28                                          
  21978709.91449 115498899.73849    -16471.41449        50.000  
  21694864.64849 114007282.82049     -1849.10249        50.000  
 16 04 02 13 36 27.0000000  0  2G17G28                                          
  21979023.39149 115500547.03149    -16474.32049        49.000  
  21694899.86749 114007467.89549     -1852.26249        50.000  
 16 04 02 13 36 27.1000000  0  2G17G28                                          
  21979336.89849 115502194.52349    -16476.28949        49.000  
  21694935.14149 114007653.22349     -1854.77049        50.000  
 16 04 02 13 36 27.2000000  0  2G17G28                                          
  21979650.45349 115503842.30149    -16478.86749        49.000  
  21694970.46149 114007838.87149     -1857.70349        50.000  
 16 04 02 13 36 27.3000000  0  2G17G28                                          
  21979964.06249 115505490.31249    -16481.46949        49.000  
  21695005.84449 114008024.79749     -1860.78949        50.000  
 16 04 02 13 36 27.4000000  0  2G17G28                                          
  21980277.71949 115507138.64549    -16484.68849        49.000  
  21695041.29749 114008211.09049     -1864.47349        49.000  
 16 04 02 13 36 27.5000000  0  2G17G28                                          
  21980591.43849 115508787.23849    -16487.30949        49.000  
  21695076.79749 114008397.68049     -1867.39549        49.000  
 16 04 02 13 36 27.6000000  0  2G17G28                                          
  21980905.18849 115510436.05149    -16489.41449        50.000  
  21695112.35949 114008584.53549     -1869.98049        49.000  
 16 04 02 13 36 27.7000000  0  2G17G28                                          
  21981219.00049 115512085.14549    -16492.22349        50.000  
  21695147.97749 114008771.70749     -1873.17249        49.000  
 16 04 02 13 36 27.8000000  0  2G17G28                                          
  21981532.84449 115513734.49649    -16494.76249        50.000  
  21695183.64849 114008959.18449     -1876.18849        49.000  
 16 04 02 13 36 27.9000000  0  2G17G28                                          
  21981846.76649 115515384.16049    -16497.93449        50.000  
  21695219.39149 114009147.01249     -1879.68449        50.000  
 16 04 02 13 36 28.0000000  0  2G17G28                                          
  21982160.74249 115517034.09449    -16500.69549        50.000  
  21695255.18849 114009335.15649     -1882.96949        49.000  
 16 04 02 13 36 28.1000000  0  2G17G28                                          
  21982474.75049 115518684.22749    -16502.59049        50.000  
  21695291.03149 114009523.53549     -1885.26249        49.000  
 16 04 02 13 36 28.2000000  0  2G17G28                                          
  21982788.82849 115520334.66449    -16505.66849        50.000  
  21695326.94549 114009712.25849     -1888.64149        49.000  
 16 04 02 13 36 28.3000000  0  2G17G28                                          
  21983102.94549 115521985.35949    -16508.26649        50.000  
  21695362.91449 114009901.28149     -1891.62149        49.000  
 16 04 02 13 36 28.4000000  0  2G17G28                                          
  21983417.10949 115523636.30549    -16510.77749        49.000  
  21695398.95349 114010090.61749     -1894.81649        49.000  
 16 04 02 13 36 28.5000000  0  2G17G28                                          
  21983731.32049 115525287.51649    -16513.47749        50.000  
  21695435.03149 114010280.23849     -1897.77749        49.000  
 16 04 02 13 36 28.6000000  0  2G17G28                                          
  21984045.59449 115526939.05149    -16516.71549        49.000  
  21695471.18849 114010470.23049     -1901.41449        49.000  
 16 04 02 13 36 28.7000000  0  2G17G28                                          
  21984359.90649 115528590.77749    -16518.66049        49.000  
  21695507.39149 114010660.46549     -1903.94549        49.000  
 16 04 02 13 36 28.8000000  0  2G17G28                                          
  21984674.28149 115530242.82049    -16521.70349        49.000  
  21695543.65649 114010851.04749     -1907.32049        49.000  
 16 04 02 13 36 28.9000000  0  2G17G28                                          
  21984988.69549 115531895.10249    -16524.12149        49.000  
  21695579.97749 114011041.91449     -1910.13749        49.000  
 16 04 02 13 36 29.0000000  0  2G17G28                                          
  21985303.17249 115533547.64849    -16526.44949        49.000  
  21695616.35249 114011233.08649     -1913.01249        49.000  
 16 04 02 13 36 29.1000000  0  2G17G28                                          
  21985617.69549 115535200.44949    -16529.32449        49.000  
  21695652.78949 114011424.55549     -1916.18449        49.000  
 16 04 02 13 36 29.2000000  0  2G17G28                                          
  21985932.28149 115536853.56249    -16532.52049        49.000  
  21695689.28949 114011616.37549     -1919.71549        49.000  
 16 04 02 13 36 29.3000000  0  2G17G28                                          
  21986246.91449 115538506.97349    -16535.56649        49.000  
  21695725.85949 114011808.54349     -1923.27049        49.000  
 16 04 02 13 36 29.4000000  0  2G17G28                                          
  21986561.58649 115540160.62549    -16537.90649        49.000  
  21695762.46949 114012000.99249     -1926.15249        49.000  
 16 04 02 13 36 29.5000000  0  2G17G28                                          
  21986876.31249 115541814.50049    -16540.00449        49.000  
  21695799.14149 114012193.69549     -1928.57849        50.000  
 16 04 02 13 36 29.6000000  0  2G17G28                                          
  21987191.09449 115543468.69949    -16543.29749        49.000  
  21695835.88349 114012386.78149     -1932.29349        50.000  
 16 04 02 13 36 29.7000000  0  2G17G28                                          
  21987505.92249 115545123.11749    -16545.43049        49.000  
  21695872.67249 114012580.11749     -1934.83249        50.000  
 16 04 02 13 36 29.8000000  0  2G17G28                                          
  21987820.78149 115546777.78149    -16547.92249        50.000  
  21695909.51649 114012773.74249     -1937.77749        50.000  
 16 04 02 13 36 29.9000000  0  2G17G28                                          
  21988135.70349 115548432.69949    -16550.45349        50.000  
  21695946.42249 114012967.66449     -1940.66449        50.000  
 16 04 02 13 36 30.0000000  0  2G17G28                                          
  21988450.67249 115550087.89149    -16553.14849        50.000  
  21695983.37549 114013161.89849     -1943.75449        49.000  
 16 04 02 13 36 30.1000000  0  2G17G28                                          
  21988765.69549 115551743.35949    -16556.09449        49.000  
  21696020.39849 114013356.45749     -1947.13749        49.000  
 16 04 02 13 36 30.2000000  0  2G17G28                                          
  21989080.78149 115553399.09049    -16558.54349        50.000  
  21696057.48449 114013551.32849     -1950.19949        49.000  
 16 04 02 13 36 30.3000000  0  2G17G28                                          
  21989395.89849 115555055.05549    -16560.94549        49.000  
  21696094.61749 114013746.46549     -1952.85249        50.000  
 16 04 02 13 36 30.4000000  0  2G17G28                                          
  21989711.07849 115556711.28549    -16563.51649        50.000  
  21696131.82049 114013941.90649     -1955.83249        50.000  
 16 04 02 13 36 30.5000000  0  2G17G28                                          
  21990026.29749 115558367.75849    -16566.25449        49.000  
  21696169.06249 114014137.63749     -1958.82049        50.000  
 16 04 02 13 36 30.6000000  0  2G17G28                                          
  21990341.57049 115560024.55949    -16569.26249        49.000  
  21696206.37549 114014333.73449     -1962.50049        50.000  
 16 04 02 13 36 30.7000000  0  2G17G28                                          
  21990656.89849 115561681.64149    -16572.23449        49.000  
  21696243.75849 114014530.16049     -1965.79749        49.000  
 16 04 02 13 36 30.8000000  0  2G17G28                                          
  21990972.28149 115563338.94949    -16574.51649        49.000  
  21696281.18849 114014726.85949     -1968.58649        49.000  
 16 04 02 13 36 30.9000000  0  2G17G28                                          
  21991287.70349 115564996.51249    -16576.90649        49.000  
  21696318.67249 114014923.84849     -1971.37949        49.000  
 16 04 02 13 36 31.0000000  0  2G17G28                                          
  21991603.18049 115566654.34049    -16579.57449        49.000  
  21696356.21949 114015121.14149     -1974.44949        49.000  
 16 04 02 13 36 31.1000000  0  2G17G28                                          
  21991918.70349 115568312.42649    -16582.15649        49.000  
  21696393.82049 114015318.74649     -1977.47749        49.000  
 16 04 02 13 36 31.2000000  0  2G17G28                                          
  21992234.27349 115569970.77749    -16584.79349        49.000  
  21696431.47749 114015516.64549     -1980.46149        49.000  
 16 04 02 13 36 31.3000000  0  2G17G28                                          
  21992549.91449 115571629.45749    -16588.26649        49.000  
  21696469.20349 114015714.92249     -1984.38349        49.000  
 16 04 02 13 36 31.4000000  0  2G17G28                                          
  21992865.60249 115573288.39549    -16590.69949        50.000  
  21696507.00049 114015913.50449     -1987.32849        49.000  
 16 04 02 13 36 31.5000000  0  2G17G28                                          
  21993181.31249 115574947.49649    -16592.32449        50.000  
  21696544.82849 114016112.28149     -1989.32449        49.000  
 16 04 02 13 36 31.6000000  0  2G17G28                                          
  21993497.10249 115576606.91449    -16595.29749        50.000  
  21696582.71949 114016311.42649     -1992.69949        49.000  
 16 04 02 13 36 31.7000000  0  2G17G28                                          
  21993812.93049 115578266.59449    -16598.02349        50.000  
  21696620.67249 114016510.87149     -1995.88749        49.000  
 16 04 02 13 36 31.8000000  0  2G17G28                                          
  21994128.79749 115579926.48449    -16600.25049        50.000  
  21696658.68049 114016710.57049     -1998.48449        49.000  
 16 04 02 13 36 31.9000000  0  2G17G28                                          
  21994444.71949 115581586.67249    -16603.18049        50.000  
  21696696.74249 114016910.60549     -2001.78149        49.000  
 16 04 02 13 36 32.0000000  0  2G17G28                                          
  21994760.71149 115583247.15249    -16606.00049        50.000  
  21696734.88349 114017110.98049     -2005.05549        49.000  
 16 04 02 13 36 32.1000000  0  2G17G28                                          
  21995076.74249 115584907.91049    -16609.19949        49.000  
  21696773.07049 114017311.68049     -2008.82449        49.000  
 16 04 02 13 36 32.2000000  0  2G17G28                                          
  21995392.83649 115586568.94949    -16611.78949        49.000  
  21696811.32849 114017512.69549     -2011.77349        49.000  
 16 04 02 13 36 32.3000000  0  2G17G28                                          
  21995708.96949 115588230.24249    -16614.19949        49.000  
  21696849.63349 114017714.00449     -2014.50049        49.000  
 16 04 02 13 36 32.4000000  0  2G17G28                                          
  21996025.14849 115589891.77349    -16616.57449        49.000  
  21696888.00049 114017915.59449     -2017.29349        49.000  
 16 04 02 13 36 32.5000000  0  2G17G28                                          
  21996341.37549 115591553.57049    -16619.22349        50.000  
  21696926.42249 114018117.50049     -2020.46549        49.000  
 16 04 02 13 36 32.6000000  0  2G17G28                                          
  21996657.66449 115593215.65249    -16622.30549        49.000  
  21696964.91449 114018319.73449     -2023.96549        50.000  
 16 04 02 13 36 32.7000000  0  2G17G28                                          
  21996974.00049 115594878.01249    -16624.91049        49.000  
  21697003.45349 114018522.27749     -2026.91849        50.000  
 16 04 02 13 36 32.8000000  0  2G17G28                                          
  21997290.39149 115596540.62149    -16627.41849        49.000  
  21697042.05549 114018725.12949     -2029.94949        50.000  
 16 04 02 13 36 32.9000000  0  2G17G28                                          
  21997606.83649 115598203.53949    -16630.58249        49.000  
  21697080.71949 114018928.32049     -2033.52749        50.000  
 16 04 02 13 36 33.0000000  0  2G17G28                                          
  21997923.34449 115599866.72349    -16633.16849        49.000  
  21697119.44549 114019131.81649     -2036.51249        49.000  
 16 04 02 13 36 33.1000000  0  2G17G28                                          
  21998239.88349 115601530.15249    -16635.66849        49.000  
  21697158.22749 114019335.61349     -2039.40649        49.000  
 16 04 02 13 36 33.2000000  0  2G17G28                                          
  21998556.46149 115603193.78949    -16637.53149        49.000  
  21697197.06249 114019539.66049     -2041.85249        49.000  
 16 04 02 13 36 33.3000000  0  2G17G28                                          
  21998873.09449 115604857.70749    -16640.45349        50.000  
  21697235.95349 114019744.01649     -2045.02749        50.000  
 16 04 02 13 36 33.4000000  0  2G17G28                                          
  21999189.76649 115606521.88749    -16643.05549        49.000  
  21697274.89849 114019948.69549     -2048.21549        50.000  
 16 04 02 13 36 33.5000000  0  2G17G28                                          
  21999506.49249 115608186.30549    -16645.32449        49.000  
  21697313.89849 114020153.64149     -2050.79749        50.000  
 16 04 02 13 36 33.6000000  0  2G17G28                                          
  21999823.27349 115609850.98449    -16648.01649        49.000  
  21697352.95349 114020358.89149     -2053.96149        50.000  
 16 04 02 13 36 33.7000000  0  2G17G28                                          
  22000140.10249 115611515.94549    -16651.03949        50.000  
  21697392.07049 114020564.46949     -2057.40249        50.000  
 16 04 02 13 36 33.8000000  0  2G17G28                                          
  22000456.97749 115613181.15649    -16653.56249        50.000  
  21697431.25049 114020770.34449     -2060.41449        50.000  
 16 04 02 13 36 33.9000000  0  2G17G28                                          
  22000773.90649 115614846.65249    -16656.18849        50.000  
  21697470.48449 114020976.53549     -2063.37549        50.000  
 16 04 02 13 36 34.0000000  0  2G17G28                                          
  22001090.89149 115616512.41849    -16659.00049        50.000  
  21697509.78149 114021183.05949     -2066.73449        50.000  
 16 04 02 13 36 34.1000000  0  2G17G28                                          
  22001407.92249 115618178.43849    -16661.55149        50.000  
  21697549.13349 114021389.85949     -2069.68449        50.000  
 16 04 02 13 36 34.2000000  0  2G17G28                                          
  22001725.02349 115619844.74249    -16664.24249        50.000  
  21697588.54749 114021596.99249     -2072.62549        50.000  
 16 04 02 13 36 34.3000000  0  2G17G28                                          
  22002042.14149 115621511.21549    -16666.01249        50.000  
  21697628.00849 114021804.34449     -2075.00449        50.000  
 16 04 02 13 36 34.4000000  0  2G17G28                                          
  22002359.30549 115623177.98449    -16668.91849        50.000  
  21697667.52349 114022012.03149     -2078.32849        50.000  
 16 04 02 13 36 34.5000000  0  2G17G28                                          
  22002676.53149 115624845.02049    -16671.71949        50.000  
  21697707.10249 114022220.02349     -2081.44149        50.000  
 16 04 02 13 36 34.6000000  0  2G17G28                                          
  22002993.80549 115626512.32449    -16674.25849        50.000  
  21697746.73449 114022428.33249     -2084.55149        50.000  
 16 04 02 13 36 34.7000000  0  2G17G28                                          
  22003311.12549 115628179.87549    -16676.78549        50.000  
  21697786.43049 114022636.93449     -2087.52349        50.000  
 16 04 02 13 36 34.8000000  0  2G17G28                                          
  22003628.49249 115629847.65249    -16679.02349        50.000  
  21697826.18049 114022845.79749     -2090.09449        50.000  
 16 04 02 13 36 34.9000000  0  2G17G28                                          
  22003945.92249 115631515.72749    -16682.23849        50.000  
  21697865.98449 114023054.99649     -2093.64549        50.000  
 16 04 02 13 36 35.0000000  0  2G17G28                                          
  22004263.40649 115633184.12149    -16685.35549        50.000  
  21697905.86749 114023264.57049     -2097.26249        50.000  
 16 04 02 13 36 35.1000000  0  2G17G28                                          
  22004580.93849 115634852.71949    -16687.39549        50.000  
  21697945.79749 114023474.38749     -2099.76649        50.000  
 16 04 02 13 36 35.2000000  0  2G17G28                                          
  22004898.50049 115636521.61349    -16690.17649        50.000  
  21697985.78949 114023684.54349     -2103.00449        50.000  
 16 04 02 13 36 35.3000000  0  2G17G28                                          
  22005216.14149 115638190.82049    -16693.52049        50.000  
  21698025.84449 114023895.04749     -2106.70749        50.000  
 16 04 02 13 36 35.4000000  0  2G17G28                                          
  22005533.82049 115639860.24249    -16695.40249        50.000  
  21698065.94549 114024105.81249     -2108.94949        50.000  
 16 04 02 13 36 35.5000000  0  2G17G28                                          
  22005851.54749 115641529.87149    -16697.55149        50.000  
  21698106.10249 114024316.83649     -2111.62949        50.000  
 16 04 02 13 36 35.6000000  0  2G17G28                                          
  22006169.32049 115643199.82849    -16700.79349        50.000  
  21698146.32049 114024528.22349     -2115.30549        50.000  
 16 04 02 13 36 35.7000000  0  2G17G28                                          
  22006487.15649 115644870.08249    -16704.02049        50.000  
  21698186.60949 114024739.94949     -2118.88349        50.000  
 16 04 02 13 36 35.8000000  0  2G17G28                                          
  22006805.03149 115646540.56249    -16706.18449        50.000  
  21698226.96149 114024951.96149     -2121.64549        49.000  
 16 04 02 13 36 35.9000000  0  2G17G28                                          
  22007122.96949 115648211.32449    -16708.85949        50.000  
  21698267.36749 114025164.27049     -2124.56249        50.000  
 16 04 02 13 36 36.0000000  0  2G17G28                                          
  22007440.94549 115649882.31649    -16711.15649        50.000  
  21698307.82849 114025376.87149     -2127.43049        49.000  
 16 04 02 13 36 36.1000000  0  2G17G28                                          
  22007758.96149 115651553.52749    -16713.28149        50.000  
  21698348.32849 114025589.73049     -2130.01649        50.000  
 16 04 02 13 36 36.2000000  0  2G17G28                                          
  22008077.02349 115653224.96949    -16715.65249        50.000  
  21698388.88349 114025802.85949     -2132.68449        50.000  
 16 04 02 13 36 36.3000000  0  2G17G28                                          
  22008395.14149 115654896.69149    -16718.59849        49.000  
  21698429.50849 114026016.31649     -2136.06249        50.000  
 16 04 02 13 36 36.4000000  0  2G17G28                                          
  22008713.33649 115656568.72749    -16721.56649        49.000  
  21698470.19549 114026230.13349     -2139.66449        49.000  
 16 04 02 13 36 36.5000000  0  2G17G28                                          
  22009031.54749 115658240.94549    -16723.44149        49.000  
  21698510.92249 114026444.16449     -2141.78549        49.000  
 16 04 02 13 36 36.6000000  0  2G17G28                                          
  22009349.78949 115659913.36349    -16725.33649        49.000  
  21698551.69549 114026658.44149     -2144.09849        49.000  
 16 04 02 13 36 36.7000000  0  2G17G28                                          
  22009668.10249 115661586.11749    -16728.70749        50.000  
  21698592.54749 114026873.10949     -2147.97749        49.000  
 16 04 02 13 36 36.8000000  0  2G17G28                                          
  22009986.46949 115663259.10249    -16731.13349        49.000  
  21698633.44549 114027088.04749     -2151.00449        49.000  
 16 04 02 13 36 36.9000000  0  2G17G28                                          
  22010304.88349 115664932.35249    -16733.90249        49.000  
  21698674.40649 114027303.28549     -2153.92649        49.000  
 16 04 02 13 36 37.0000000  0  2G17G28                                          
  22010623.34449 115666605.84849    -16736.25049        49.000  
  21698715.42249 114027518.81649     -2156.80949        49.000  
 16 04 02 13 36 37.1000000  0  2G17G28                                          
  22010941.84449 115668279.59849    -16738.75849        49.000  
  21698756.49249 114027734.64849     -2159.72349        49.000  
 16 04 02 13 36 37.2000000  0  2G17G28                                          
  22011260.37549 115669953.55149    -16740.64549        49.000  
  21698797.60949 114027950.71549     -2161.94549        49.000  
 16 04 02 13 36 37.3000000  0  2G17G28                                          
  22011578.96949 115671627.75449    -16743.23849        49.000  
  21698838.78949 114028167.09049     -2165.09849        49.000  
 16 04 02 13 36 37.4000000  0  2G17G28                                          
  22011897.61749 115673302.30149    -16746.75849        49.000  
  21698880.03149 114028383.84449     -2168.97349        49.000  
 16 04 02 13 36 37.5000000  0  2G17G28                                          
  22012216.32049 115674977.09049    -16749.18849        49.000  
  21698921.33649 114028600.88749     -2171.82049        49.000  
 16 04 02 13 36 37.6000000  0  2G17G28                                          
  22012535.06249 115676652.12549    -16751.75449        49.000  
  21698962.68849 114028818.21949     -2174.93049        49.000  
 16 04 02 13 36 37.7000000  0  2G17G28                                          
  22012853.85949 115678327.40249    -16753.91049        50.000  
  21699004.10249 114029035.83649     -2177.46549        49.000  
 16 04 02 13 36 37.8000000  0  2G17G28                                          
  22013172.71149 115680002.95749    -16756.83249        50.000  
  21699045.57849 114029253.77349     -2180.83649        49.000  
 16 04 02 13 36 37.9000000  0  2G17G28                                          
  22013491.60249 115681678.75449    -16759.26649        50.000  
  21699087.10249 114029471.99649     -2183.73849        50.000  
 16 04 02 13 36 38.0000000  0  2G17G28                                          
  22013810.56249 115683354.84849    -16762.21549        50.000  
  21699128.69549 114029690.55949     -2187.13749        50.000  
 16 04 02 13 36 38.1000000  0  2G17G28                                          
  22014129.55549 115685031.15649    -16764.23849        50.000  
  21699170.33649 114029909.38349     -2189.54749        50.000  
 16 04 02 13 36 38.2000000  0  2G17G28                                          
  22014448.57049 115686707.67649    -16766.50049        50.000  
  21699212.02349 114030128.44949     -2192.16049        50.000  
 16 04 02 13 36 38.3000000  0  2G17G28                                          
  22014767.66449 115688384.52049    -16769.75049        50.000  
  21699253.78949 114030347.89849     -2195.93449        50.000  
 16 04 02 13 36 38.4000000  0  2G17G28                                          
  22015086.79749 115690061.61749    -16772.20349        49.000  
  21699295.60249 114030567.64149     -2198.88749        50.000  
 16 04 02 13 36 38.5000000  0  2G17G28                                          
  22015405.97749 115691738.92649    -16774.32849        50.000  
  21699337.46949 114030787.63349     -2201.34049        50.000  
 16 04 02 13 36 38.6000000  0  2G17G28                                          
  22015725.20349 115693416.48849    -16776.83649        50.000  
  21699379.39149 114031007.92249     -2204.31249        50.000  
 16 04 02 13 36 38.7000000  0  2G17G28                                          
  22016044.49249 115695094.35949    -16780.15649        50.000  
  21699421.37549 114031228.56649     -2208.02349        50.000  
 16 04 02 13 36 38.8000000  0  2G17G28                                          
  22016363.84449 115696772.48849    -16782.66449        50.000  
  21699463.42249 114031449.51649     -2211.02749        50.000  
 16 04 02 13 36 38.9000000  0  2G17G28                                          
  22016683.22749 115698450.87949    -16785.13749        50.000  
  21699505.53149 114031670.76249     -2213.89849        49.000  
 16 04 02 13 36 39.0000000  0  2G17G28                                          
  22017002.64849 115700129.47349    -16787.35949        50.000  
  21699547.68049 114031892.26249     -2216.48449        49.000  
 16 04 02 13 36 39.1000000  0  2G17G28                                          
  22017322.13349 115701808.35249    -16790.12949        50.000  
  21699589.89149 114032114.08649     -2219.76249        49.000  
 16 04 02 13 36 39.2000000  0  2G17G28                                          
  22017641.65649 115703487.48449    -16792.57849        49.000  
  21699632.16449 114032336.21549     -2222.68049        49.000  
 16 04 02 13 36 39.3000000  0  2G17G28                                          
  22017961.21949 115705166.77349    -16794.12149        49.000  
  21699674.46949 114032558.53549     -2224.59849        49.000  
 16 04 02 13 36 39.4000000  0  2G17G28                                          
  22018280.83649 115706846.37549    -16797.34449        49.000  
  21699716.83649 114032781.21549     -2228.31649        49.000  
 16 04 02 13 36 39.5000000  0  2G17G28                                          
  22018600.50849 115708526.26249    -16800.26249        49.000  
  21699759.27349 114033004.22349     -2231.64549        49.000  
 16 04 02 13 36 39.6000000  0  2G17G28                                          
  22018920.24249 115710206.40649    -16802.82049        50.000  
  21699801.77349 114033227.53949     -2234.69949        49.000  
 16 04 02 13 36 39.7000000  0  2G17G28                                          
  22019240.02349 115711886.87949    -16805.99649        50.000  
  21699844.33649 114033451.21949     -2238.32449        50.000  
 16 04 02 13 36 39.8000000  0  2G17G28                                          
  22019559.83649 115713567.49249    -16807.41849        50.000  
  21699886.93849 114033675.08249     -2240.13349        50.000  
 16 04 02 13 36 39.9000000  0  2G17G28                                          
  22019879.71149 115715248.41849    -16810.48849        50.000  
  21699929.60249 114033899.30149     -2243.58649        49.000  
 16 04 02 13 36 40.0000000  0  2G17G28                                          
  22020199.63349 115716929.60249    -16813.05949        50.000  
  21699972.32849 114034123.84049     -2246.74649        50.000  
 16 04 02 13 36 40.1000000  0  2G17G28                                          
  22020519.60249 115718611.02749    -16815.45349        50.000  
  21700015.10249 114034348.62949     -2249.36749        50.000  
 16 04 02 13 36 40.2000000  0  2G17G28                                          
  22020839.60949 115720292.69149    -16817.82849        50.000  
  21700057.93849 114034573.72749     -2252.31249        50.000  
 16 04 02 13 36 40.3000000  0  2G17G28                                          
  22021159.66449 115721974.60549    -16820.59049        50.000  
  21700100.82049 114034799.11349     -2255.43849        50.000  
 16 04 02 13 36 40.4000000  0  2G17G28                                          
  22021479.78149 115723656.80949    -16823.35549        50.000  
  21700143.77349 114035024.83649     -2258.77349        50.000  
 16 04 02 13 36 40.5000000  0  2G17G28                                          
  22021799.94549 115725339.28149    -16826.10249        50.000  
  21700186.78949 114035250.86749     -2261.94949        50.000  
 16 04 02 13 36 40.6000000  0  2G17G28                                          
  22022120.15649 115727022.00449    -16828.53549        50.000  
  21700229.85949 114035477.19149     -2264.77349        50.000  
 16 04 02 13 36 40.7000000  0  2G17G28                                          
  22022440.40649 115728704.92249    -16830.22749        50.000  
  21700272.96949 114035703.75849     -2266.93049        49.000  
 16 04 02 13 36 40.8000000  0  2G17G28                                          
  22022760.70349 115730388.13749    -16833.30549        50.000  
  21700316.14849 114035930.66049     -2270.43449        50.000  
 16 04 02 13 36 40.9000000  0  2G17G28                                          
  22023081.05549 115732071.61349    -16836.05149        50.000  
  21700359.39149 114036157.86749     -2273.50049        50.000  
 16 04 02 13 36 41.0000000  0  2G17G28                                          
  22023401.45349 115733755.37149    -16839.02349        50.000  
  21700402.68849 114036385.40249     -2276.91049        50.000  
 16 04 02 13 36 41.1000000  0  2G17G28                                          
  22023721.90649 115735439.36349    -16841.13749        50.000  
  21700446.03949 114036613.21949     -2279.57049        50.000  
 16 04 02 13 36 41.2000000  0  2G17G28                                          
  22024042.40649 115737123.59849    -16843.68449        49.000  
  21700489.44549 114036841.31649     -2282.53549        49.000  
 16 04 02 13 36 41.3000000  0  2G17G28                                          
  22024362.96149 115738808.15249    -16846.80149        50.000  
  21700532.92249 114037069.77349     -2285.94549        49.000  
 16 04 02 13 36 41.4000000  0  2G17G28                                          
  22024683.56249 115740492.89849    -16848.82449        50.000  
  21700576.44549 114037298.48049     -2288.53549        49.000  
 16 04 02 13 36 41.5000000  0  2G17G28                                          
  22025004.21149 115742177.92649    -16851.51649        50.000  
  21700620.03149 114037527.51649     -2291.76249        50.000  
 16 04 02 13 36 41.6000000  0  2G17G28                                          
  22025324.89149 115743863.16449    -16853.52049        50.000  
  21700663.65649 114037756.78949     -2294.16449        49.000  
 16 04 02 13 36 41.7000000  0  2G17G28                                          
  22025645.62549 115745548.64849    -16855.96149        49.000  
  21700707.34449 114037986.35549     -2297.00049        49.000  
 16 04 02 13 36 41.8000000  0  2G17G28                                          
  22025966.40649 115747234.37549    -16858.51249        50.000  
  21700751.07849 114038216.21149     -2299.98449        49.000  
 16 04 02 13 36 41.9000000  0  2G17G28                                          
  22026287.25049 115748920.43849    -16861.91449        49.000  
  21700794.89849 114038446.45749     -2303.94149        50.000  
 16 04 02 13 36 42.0000000  0  2G17G28                                          
  22026608.14149 115750606.73049    -16864.32049        49.000  
  21700838.75849 114038676.95349     -2306.60949        50.000  
 16 04 02 13 36 42.1000000  0  2G17G28                                          
  22026929.07049 115752293.21949    -16865.98449        49.000  
  21700882.66449 114038907.70749     -2308.81249        50.000  
 16 04 02 13 36 42.2000000  0  2G17G28                                          
  22027250.03949 115753979.94949    -16868.35949        49.000  
  21700926.62549 114039138.74249     -2311.60949        50.000  
 16 04 02 13 36 42.3000000  0  2G17G28                                          
  22027571.06249 115755666.93849    -16871.10249        50.000  
  21700970.64849 114039370.08649     -2314.92249        50.000  
 16 04 02 13 36 42.4000000  0  2G17G28                                          
  22027892.13349 115757354.18449    -16873.65649        50.000  
  21701014.72749 114039601.71549     -2317.65249        50.000  
 16 04 02 13 36 42.5000000  0  2G17G28                                          
  22028213.24249 115759041.62949    -16875.62949        50.000  
  21701058.85249 114039833.59849     -2320.10549        50.000  
 16 04 02 13 36 42.6000000  0  2G17G28                                          
  22028534.39149 115760729.28949    -16877.74249        50.000  
  21701103.03149 114040065.74249     -2322.65649        50.000  
 16 04 02 13 36 42.7000000  0  2G17G28                                          
  22028855.58649 115762417.19949    -16880.25849        50.000  
  21701147.25849 114040298.18049     -2325.70749        50.000  
 16 04 02 13 36 42.8000000  0  2G17G28                                          
  22029176.83649 115764105.37549    -16883.00049        50.000  
  21701191.55549 114040530.92249     -2328.82449        50.000  
 16 04 02 13 36 42.9000000  0  2G17G28                                          
  22029498.13349 115765793.78549    -16885.33249        50.000  
  21701235.89849 114040763.95749     -2331.78149        50.000  
 16 04 02 13 36 43.0000000  0  2G17G28                                          
  22029819.46949 115767482.40249    -16887.22349        50.000  
  21701280.28949 114040997.23049     -2334.07449        50.000  
 16 04 02 13 36 43.1000000  0  2G17G28                                          
  22030140.85949 115769171.34049    -16890.64849        50.000  
  21701324.74249 114041230.85549     -2337.77749        50.000  
 16 04 02 13 36 43.2000000  0  2G17G28                                          
  22030462.31249 115770860.53149    -16893.36349        50.000  
  21701369.26649 114041464.80149     -2341.03149        50.000  
 16 04 02 13 36 43.3000000  0  2G17G28                                          
  22030783.80549 115772549.98449    -16895.77049        50.000  
  21701413.83649 114041699.04349     -2343.91449        50.000  
 16 04 02 13 36 43.4000000  0  2G17G28                                          
  22031105.35249 115774239.71149    -16898.61349        50.000  
  21701458.46149 114041933.60549     -2347.07049        50.000  
 16 04 02 13 36 43.5000000  0  2G17G28                                          
  22031426.94549 115775929.71549    -16901.32849        50.000  
  21701503.16449 114042168.49249     -2350.38349        50.000  
 16 04 02 13 36 43.6000000  0  2G17G28                                          
  22031748.57049 115777619.91449    -16903.02349        50.000  
  21701547.90649 114042403.60249     -2352.30149        50.000  
 16 04 02 13 36 43.7000000  0  2G17G28                                          
  22032070.25049 115779310.34849    -16905.54749        50.000  
  21701592.70349 114042639.02049     -2355.50449        50.000  
 16 04 02 13 36 43.8000000  0  2G17G28                                          
  22032391.98449 115781001.09449    -16908.64549        50.000  
  21701637.57049 114042874.77349     -2358.99649        50.000  
 16 04 02 13 36 43.9000000  0  2G17G28                                          
  22032713.77349 115782692.12549    -16911.80949        50.000  
  21701682.49249 114043110.85549     -2362.49649        50.000  
 16 04 02 13 36 44.0000000  0  2G17G28                                          
  22033035.60249 115784383.37949    -16913.73049        50.000  
  21701727.46949 114043347.21549     -2365.03949        49.000  
 16 04 02 13 36 44.1000000  0  2G17G28                                          
  22033357.48449 115786074.85549    -16916.05549        50.000  
  21701772.49249 114043583.83649     -2367.70349        50.000  
 16 04 02 13 36 44.2000000  0  2G17G28                                          
  22033679.41449 115787766.66049    -16919.32449        50.000  
  21701817.59449 114043820.82449     -2371.36349        50.000  
 16 04 02 13 36 44.3000000  0  2G17G28                                          
  22034001.39149 115789458.67649    -16921.37549        50.000  
  21701862.74249 114044058.07849     -2373.91849        50.000  
 16 04 02 13 36 44.4000000  0  2G17G28                                          
  22034323.39849 115791150.90249    -16923.40649        50.000  
  21701907.93849 114044295.58249     -2376.36749        50.000  
 16 04 02 13 36 44.5000000  0  2G17G28                                          
  22034645.47749 115792843.41449    -16926.58649        50.000  
  21701953.19549 114044533.41049     -2379.80949        50.000  
 16 04 02 13 36 44.6000000  0  2G17G28                                          
  22034967.61749 115794536.25449    -16929.68849        50.000  
  21701998.53949 114044771.62549     -2383.56649        50.000  
 16 04 02 13 36 44.7000000  0  2G17G28                                          
  22035289.78949 115796229.28149    -16931.72749        50.000  
  21702043.90649 114045010.05149     -2385.84449        50.000  
 16 04 02 13 36 44.8000000  0  2G17G28                                          
  22035612.01649 115797922.56649    -16934.11349        50.000  
  21702089.33649 114045248.80149     -2388.87949        50.000  
 16 04 02 13 36 44.9000000  0  2G17G28                                          
  22035934.28149 115799616.07849    -16936.24649        50.000  
  21702134.82049 114045487.81249     -2391.49249        50.000  
 16 04 02 13 36 45.0000000  0  2G17G28                                          
  22036256.58649 115801309.82449    -16938.62949        50.000  
  21702180.35949 114045727.10549     -2394.30149        50.000  
 16 04 02 13 36 45.1000000  0  2G17G28                                          
  22036578.95349 115803003.85949    -16941.73849        50.000  
  21702225.96149 114045966.72749     -2397.75849        50.000  
 16 04 02 13 36 45.2000000  0  2G17G28                                          
  22036901.35949 115804698.11749    -16943.63749        50.000  
  21702271.60949 114046206.61349     -2400.18849        50.000  
 16 04 02 13 36 45.3000000  0  2G17G28                                          
  22037223.80549 115806392.60949    -16946.16049        50.000  
  21702317.31249 114046446.78549     -2403.13349        50.000  
 16 04 02 13 36 45.4000000  0  2G17G28                                          
  22037546.31249 115808087.35949    -16948.62149        50.000  
  21702363.07849 114046687.26649     -2406.13749        50.000  
 16 04 02 13 36 45.5000000  0  2G17G28                                          
  22037868.85249 115809782.31649    -16950.94949        50.000  
  21702408.88349 114046927.97749     -2408.69949        50.000  
 16 04 02 13 36 45.6000000  0  2G17G28                                          
  22038191.45349 115811477.56649    -16953.64149        50.000  
  21702454.75049 114047169.03549     -2411.89549        50.000  
 16 04 02 13 36 45.7000000  0  2G17G28                                          
  22038514.10949 115813173.10549    -16956.88349        50.000  
  21702500.68849 114047410.43849     -2415.59449        50.000  
 16 04 02 13 36 45.8000000  0  2G17G28                                          
  22038836.80549 115814868.89549    -16959.30549        50.000  
  21702546.68849 114047652.12549     -2418.45749        50.000  
 16 04 02 13 36 45.9000000  0  2G17G28                                          
  22039159.55549 115816564.93049    -16961.60549        50.000  
  21702592.73449 114047894.10549     -2421.23449        50.000  
 16 04 02 13 36 46.0000000  0  2G17G28                                          
  22039482.34449 115818261.19149    -16964.07049        50.000  
  21702638.83649 114048136.35949     -2424.16449        50.000  
 16 04 02 13 36 46.1000000  0  2G17G28                                          
  22039805.19549 115819957.78949    -16967.41049        50.000  
  21702685.00849 114048378.99249     -2427.92249        50.000  
 16 04 02 13 36 46.2000000  0  2G17G28                                          
  22040128.09449 115821654.62949    -16969.79749        50.000  
  21702731.22749 114048621.90649     -2430.70749        50.000  
 16 04 02 13 36 46.3000000  0  2G17G28                                          
  22040451.03149 115823351.69549    -16971.94149        50.000  
  21702777.50849 114048865.11349     -2433.51649        50.000  
 16 04 02 13 36 46.4000000  0  2G17G28                                          
  22040774.00849 115825048.99649    -16974.09449        50.000  
  21702823.83649 114049108.56249     -2435.87549        50.000  
 16 04 02 13 36 46.5000000  0  2G17G28                                          
  22041097.04749 115826746.55949    -16977.00049        50.000  
  21702870.22749 114049352.35249     -2439.41049        50.000  
 16 04 02 13 36 46.6000000  0  2G17G28                                          
  22041420.14149 115828444.43049    -16979.86749        50.000  
  21702916.68049 114049596.47349     -2442.62949        50.000  
 16 04 02 13 36 46.7000000  0  2G17G28                                          
  22041743.26649 115830142.45349    -16981.53949        50.000  
  21702963.17249 114049840.79749     -2444.72749        50.000  
 16 04 02 13 36 46.8000000  0  2G17G28                                          
  22042066.43849 115831840.75849    -16984.19949        50.000  
  21703009.72749 114050085.44549     -2447.83249        50.000  
 16 04 02 13 36 46.9000000  0  2G17G28                                          
  22042389.65649 115833539.30149    -16986.64549        50.000  
  21703056.33649 114050330.39149     -2450.85549        50.000  
 16 04 02 13 36 47.0000000  0  2G17G28                                          
  22042712.93049 115835238.10949    -16989.20349        50.000  
  21703103.00849 114050575.62949     -2453.79749        50.000  
 16 04 02 13 36 47.1000000  0  2G17G28                                          
  22043036.25049 115836937.15649    -16991.78149        50.000  
  21703149.73449 114050821.16449     -2456.74649        50.000  
 16 04 02 13 36 47.2000000  0  2G17G28                                          
  22043359.62549 115838636.45749    -16994.29349        50.000  
  21703196.50849 114051066.98849     -2459.66049        50.000  
 16 04 02 13 36 47.3000000  0  2G17G28                                          
  22043683.03949 115840336.02349    -16996.88749        50.000  
  21703243.34449 114051313.12149     -2462.80949        50.000  
 16 04 02 13 36 47.4000000  0  2G17G28                                          
  22044006.51649 115842035.84849    -16999.48049        50.000  
  21703290.23449 114051559.57049     -2465.90649        50.000  
 16 04 02 13 36 47.5000000  0  2G17G28                                          
  22044330.02349 115843735.89149    -17001.67649        50.000  
  21703337.18049 114051806.26649     -2468.43849        50.000  
 16 04 02 13 36 47.6000000  0  2G17G28                                          
  22044653.57849 115845436.20749    -17004.37549        50.000  
  21703384.18849 114052053.28949     -2471.62149        50.000  
 16 04 02 13 36 47.7000000  0  2G17G28                                          
  22044977.18049 115847136.72749    -17006.54349        50.000  
  21703431.24249 114052300.55549     -2474.20749        50.000  
 16 04 02 13 36 47.8000000  0  2G17G28                                          
  22045300.83649 115848837.53149    -17009.25049        50.000  
  21703478.36749 114052548.16049     -2477.30549        50.000  
 16 04 02 13 36 47.9000000  0  2G17G28                                          
  22045624.53949 115850538.57449    -17011.60549        50.000  
  21703525.53149 114052796.03549     -2480.14149        50.000  
 16 04 02 13 36 48.0000000  0  2G17G28                                          
  22045948.27349 115852239.84049    -17014.01249        50.000  
  21703572.75849 114053044.19949     -2483.16449        50.000  
 16 04 02 13 36 48.1000000  0  2G17G28                                          
  22046272.07049 115853941.39849    -17016.61349        50.000  
  21703620.03949 114053292.68449     -2486.13349        50.000  
 16 04 02 13 36 48.2000000  0  2G17G28                                          
  22046595.89849 115855643.12549    -17018.51649        50.000  
  21703667.36749 114053541.38749     -2488.53949        50.000  
 16 04 02 13 36 48.3000000  0  2G17G28                                          
  22046919.79749 115857345.21949    -17022.06249        50.000  
  21703714.77349 114053790.49649     -2492.41849        50.000  
 16 04 02 13 36 48.4000000  0  2G17G28                                          
  22047243.75049 115859047.58649    -17025.07849        50.000  
  21703762.23449 114054039.93049     -2495.93849        50.000  
 16 04 02 13 36 48.5000000  0  2G17G28                                          
  22047567.73449 115860750.16849    -17027.06649        50.000  
  21703809.75049 114054289.62549     -2498.42649        50.000  
 16 04 02 13 36 48.6000000  0  2G17G28                                          
  22047891.77349 115862452.99649    -17029.60949        50.000  
  21703857.32049 114054539.60549     -2501.30949        50.000  
 16 04 02 13 36 48.7000000  0  2G17G28                                          
  22048215.85249 115864156.02749    -17031.35549        50.000  
  21703904.93849 114054789.83249     -2503.53549        50.000  
 16 04 02 13 36 48.8000000  0  2G17G28                                          
  22048539.97749 115865859.30949    -17034.05549        50.000  
  21703952.60949 114055040.36349     -2506.69149        50.000  
 16 04 02 13 36 48.9000000  0  2G17G28                                          
  22048864.14149 115867562.79749    -17035.91449        50.000  
  21704000.32849 114055291.13749     -2509.00449        50.000  
 16 04 02 13 36 49.0000000  0  2G17G28                                          
  22049188.36749 115869266.59449    -17039.25449        50.000  
  21704048.12549 114055542.27749     -2512.84049        50.000  
 16 04 02 13 36 49.1000000  0  2G17G28                                          
  22049512.63349 115870970.64849    -17041.79749        50.000  
  21704095.96949 114055793.69949     -2515.73849        50.000  
 16 04 02 13 36 49.2000000  0  2G17G28                                          
  22049836.95349 115872674.95349    -17044.38749        50.000  
  21704143.87549 114056045.43449     -2518.81249        49.000  
 16 04 02 13 36 49.3000000  0  2G17G28                                          
  22050161.31249 115874379.46149    -17046.41449        50.000  
  21704191.82049 114056297.41849     -2521.32849        49.000  
 16 04 02 13 36 49.4000000  0  2G17G28                                          
  22050485.72749 115876084.27349    -17049.23449        50.000  
  21704239.83649 114056549.74249     -2524.59049        50.000  
 16 04 02 13 36 49.5000000  0  2G17G28                                          
  22050810.18049 115877789.30149    -17051.58249        50.000  
  21704287.89849 114056802.32849     -2527.24649        50.000  
 16 04 02 13 36 49.6000000  0  2G17G28                                          
  22051134.69549 115879494.59449    -17054.09049        50.000  
  21704336.03149 114057055.23449     -2530.43449        50.000  
 16 04 02 13 36 49.7000000  0  2G17G28                                          
  22051459.24249 115881200.10249    -17056.44549        50.000  
  21704384.20349 114057308.37949     -2533.00849        50.000  
 16 04 02 13 36 49.8000000  0  2G17G28                                          
  22051783.84449 115882905.87549    -17059.07449        50.000  
  21704432.43849 114057561.85949     -2536.18849        50.000  
 16 04 02 13 36 49.9000000  0  2G17G28                                          
  22052108.50049 115884611.95349    -17062.15249        50.000  
  21704480.74249 114057815.67649     -2539.70749        50.000  
 16 04 02 13 36 50.0000000  0  2G17G28                                          
  22052433.18849 115886318.21949    -17063.89149        50.000  
  21704529.08649 114058069.72749     -2541.97349        50.000  
 16 04 02 13 36 50.1000000  0  2G17G28                                          
  22052757.93049 115888024.71949    -17066.14149        50.000  
  21704577.48449 114058324.06249     -2544.75049        50.000  
 16 04 02 13 36 50.2000000  0  2G17G28                                          
  22053082.71949 115889731.51649    -17069.14849        50.000  
  21704625.94549 114058578.73449     -2548.08649        50.000  
 16 04 02 13 36 50.3000000  0  2G17G28                                          
  22053407.55549 115891438.53149    -17071.29749        50.000  
  21704674.46149 114058833.67249     -2550.74649        50.000  
 16 04 02 13 36 50.4000000  0  2G17G28                                          
  22053732.44549 115893145.77749    -17073.67249        50.000  
  21704723.02349 114059088.88749     -2553.52049        50.000  
 16 04 02 13 36 50.5000000  0  2G17G28                                          
  22054057.36749 115894853.28949    -17076.17649        50.000  
  21704771.64849 114059344.40649     -2556.43849        50.000  
 16 04 02 13 36 50.6000000  0  2G17G28                                          
  22054382.33649 115896561.02749    -17078.78949        50.000  
  21704820.32849 114059600.21149     -2559.55549        50.000  
 16 04 02 13 36 50.7000000  0  2G17G28                                          
  22054707.36749 115898269.06649    -17081.59049        50.000  
  21704869.07049 114059856.35549     -2562.83649        50.000  
 16 04 02 13 36 50.8000000  0  2G17G28                                          
  22055032.44549 115899977.33649    -17083.94949        50.000  
  21704917.86749 114060112.77049     -2565.63749        50.000  
 16 04 02 13 36 50.9000000  0  2G17G28                                          
  22055357.57049 115901685.87949    -17086.59849        50.000  
  21704966.71949 114060369.50049     -2568.71149        50.000  
 16 04 02 13 36 51.0000000  0  2G17G28                                          
  22055682.72749 115903394.60249    -17088.50049        50.000  
  21705015.61749 114060626.46949     -2571.09849        50.000  
 16 04 02 13 36 51.1000000  0  2G17G28                                          
  22056007.93049 115905103.58249    -17090.92649        50.000  
  21705064.57849 114060883.73449     -2573.91049        50.000  
 16 04 02 13 36 51.2000000  0  2G17G28                                          
  22056333.19549 115906812.88349    -17094.39149        50.000  
  21705113.59449 114061141.35949     -2577.80149        50.000  
 16 04 02 13 36 51.3000000  0  2G17G28                                          
  22056658.51649 115908522.44549    -17097.05149        50.000  
  21705162.68049 114061399.30149     -2581.03949        50.000  
 16 04 02 13 36 51.4000000  0  2G17G28                                          
  22056983.88349 115910232.24249    -17099.14849        50.000  
  21705211.82049 114061657.52349     -2583.57849        50.000  
 16 04 02 13 36 51.5000000  0  2G17G28                                          
  22057309.28949 115911942.25849    -17101.50049        50.000  
  21705261.00849 114061916.00449     -2586.36349        50.000  
 16 04 02 13 36 51.6000000  0  2G17G28                                          
  22057634.74249 115913652.54349    -17103.97349        50.000  
  21705310.25849 114062174.80549     -2589.39149        50.000  
 16 04 02 13 36 51.7000000  0  2G17G28                                          
  22057960.24249 115915363.05149    -17106.27049        50.000  
  21705359.55549 114062433.86749     -2592.05549        50.000  
 16 04 02 13 36 51.8000000  0  2G17G28                                          
  22058285.78949 115917073.84049    -17109.09049        50.000  
  21705408.92249 114062693.26249     -2595.34849        50.000  
 16 04 02 13 36 51.9000000  0  2G17G28                                          
  22058611.39849 115918784.90249    -17111.85949        50.000  
  21705458.33649 114062952.97349     -2598.54749        50.000  
 16 04 02 13 36 52.0000000  0  2G17G28                                          
  22058937.02349 115920496.11749    -17113.42649        50.000  
  21705507.79749 114063212.88349     -2600.59049        50.000  
 16 04 02 13 36 52.1000000  0  2G17G28                                          
  22059262.71949 115922207.67649    -17116.69149        50.000  
  21705557.32849 114063473.17649     -2604.15249        50.000  
 16 04 02 13 36 52.2000000  0  2G17G28                                          
  22059588.44549 115923919.39849    -17118.36349        50.000  
  21705606.89849 114063733.68449     -2606.37149        50.000  
 16 04 02 13 36 52.3000000  0  2G17G28                                          
  22059914.22749 115925631.41449    -17121.46949        50.000  
  21705656.53149 114063994.53149     -2609.93849        50.000  
 16 04 02 13 36 52.4000000  0  2G17G28                                          
  22060240.07049 115927343.70349    -17124.07049        50.000  
  21705706.23449 114064255.69949     -2613.07849        50.000  
 16 04 02 13 36 52.5000000  0  2G17G28                                          
  22060565.95349 115929056.23049    -17126.38749        50.000  
  21705755.98449 114064517.14549     -2615.87949        50.000  
 16 04 02 13 36 52.6000000  0  2G17G28                                          
  22060891.88349 115930768.98449    -17128.91849        50.000  
  21705805.79749 114064778.86749     -2618.75449        50.000  
 16 04 02 13 36 52.7000000  0  2G17G28                                          
  22061217.85949 115932482.01249    -17131.55149        49.000  
  21705855.66449 114065040.91049     -2621.96549        50.000  
 16 04 02 13 36 52.8000000  0  2G17G28                                          
  22061543.89849 115934195.32449    -17134.44549        50.000  
  21705905.58649 114065303.27749     -2625.14849        50.000  
 16 04 02 13 36 52.9000000  0  2G17G28                                          
  22061869.97749 115935908.87149    -17136.68049        50.000  
  21705955.56249 114065565.92249     -2627.73449        50.000  
 16 04 02 13 36 53.0000000  0  2G17G28                                          
  22062196.09449 115937622.60549    -17138.58649        50.000  
  21706005.59449 114065828.81249     -2630.16849        50.000  
 16 04 02 13 36 53.1000000  0  2G17G28                                          
  22062522.25049 115939336.57849    -17140.73849        50.000  
  21706055.67249 114066091.98049     -2632.91049        50.000  
 16 04 02 13 36 53.2000000  0  2G17G28                                          
  22062848.45349 115941050.78949    -17143.35549        50.000  
  21706105.79749 114066355.43849     -2635.92249        50.000  
 16 04 02 13 36 53.3000000  0  2G17G28                                          
  22063174.71149 115942765.26649    -17145.99249        50.000  
  21706155.99249 114066619.20349     -2639.11349        50.000  
 16 04 02 13 36 53.4000000  0  2G17G28                                          
  22063501.02349 115944480.02349    -17148.56249        50.000  
  21706206.25049 114066883.29749     -2642.20749        50.000  
 16 04 02 13 36 53.5000000  0  2G17G28                                          
  22063827.37549 115946195.02749    -17151.36349        50.000  
  21706256.56249 114067147.67649     -2645.32049        50.000  
 16 04 02 13 36 53.6000000  0  2G17G28                                          
  22064153.77349 115947910.25849    -17153.55949        50.000  
  21706306.92249 114067412.32449     -2647.83649        50.000  
 16 04 02 13 36 53.7000000  0  2G17G28                                          
  22064480.21949 115949625.72749    -17155.71949        50.000  
  21706357.34449 114067677.27349     -2650.73049        50.000  
 16 04 02 13 36 53.8000000  0  2G17G28                                          
  22064806.71149 115951341.44549    -17158.42649        50.000  
  21706407.81249 114067942.48849     -2653.60549        50.000  
 16 04 02 13 36 53.9000000  0  2G17G28                                          
  22065133.25049 115953057.42649    -17160.98449        50.000  
  21706458.34449 114068208.04749     -2656.89849        50.000  
 16 04 02 13 36 54.0000000  0  2G17G28                                          
  22065459.83649 115954773.61349    -17163.24249        50.000  
  21706508.92249 114068473.84049     -2659.44549        50.000  
 16 04 02 13 36 54.1000000  0  2G17G28                                          
  22065786.46149 115956490.05549    -17165.66849        50.000  
  21706559.56249 114068739.93849     -2662.38749        50.000  
 16 04 02 13 36 54.2000000  0  2G17G28                                          
  22066113.14149 115958206.77749    -17168.23849        50.000  
  21706610.25849 114069006.35549     -2665.34849        50.000  
 16 04 02 13 36 54.3000000  0  2G17G28                                          
  22066439.85249 115959923.65649    -17169.91449        49.000  
  21706660.99249 114069272.97349     -2667.46149        50.000  
 16 04 02 13 36 54.4000000  0  2G17G28                                          
  22066766.60249 115961640.74649    -17172.03949        49.000  
  21706711.78149 114069539.85949     -2670.21549        50.000  
 16 04 02 13 36 54.5000000  0  2G17G28                                          
  22067093.41449 115963358.16449    -17175.44949        49.000  
  21706762.64149 114069807.12549     -2674.12949        50.000  
 16 04 02 13 36 54.6000000  0  2G17G28                                          
  22067420.27349 115965075.85249    -17178.37949        50.000  
  21706813.55549 114070074.66849     -2677.08249        50.000  
 16 04 02 13 36 54.7000000  0  2G17G28                                          
  22067747.18049 115966793.74649    -17180.18849        50.000  
  21706864.52349 114070342.52049     -2679.80549        50.000  
 16 04 02 13 36 54.8000000  0  2G17G28                                          
  22068074.12549 115968511.86349    -17182.32849        49.000  
  21706915.53949 114070610.59849     -2682.26249        50.000  
 16 04 02 13 36 54.9000000  0  2G17G28                                          
  22068401.12549 115970230.24249    -17185.24249        50.000  
  21706966.60949 114070879.00449     -2685.51649        50.000  
 16 04 02 13 36 55.0000000  0  2G17G28                                          
  22068728.16449 115971948.86749    -17187.26249        49.000  
  21707017.74249 114071147.69549     -2688.26649        50.000  
 16 04 02 13 36 55.1000000  0  2G17G28                                          
  22069055.24249 115973667.65649    -17189.07449        50.000  
  21707068.91449 114071416.59849     -2690.41049        50.000  
 16 04 02 13 36 55.2000000  0  2G17G28                                          
  22069382.37549 115975386.71549    -17191.78549        50.000  
  21707120.14149 114071685.80949     -2693.46149        50.000  
 16 04 02 13 36 55.3000000  0  2G17G28                                          
  22069709.55549 115977106.03949    -17194.60249        50.000  
  21707171.43049 114071955.34849     -2697.02749        50.000  
 16 04 02 13 36 55.4000000  0  2G17G28                                          
  22070036.77349 115978825.63749    -17197.23849        50.000  
  21707222.78149 114072225.19949     -2700.05149        50.000  
 16 04 02 13 36 55.5000000  0  2G17G28                                          
  22070364.06249 115980545.53149    -17200.23849        50.000  
  21707274.19549 114072495.36349     -2703.07849        50.000  
 16 04 02 13 36 55.6000000  0  2G17G28                                          
  22070691.37549 115982265.58249    -17201.85949        50.000  
  21707325.65649 114072765.78149     -2705.64149        50.000  
 16 04 02 13 36 55.7000000  0  2G17G28                                          
  22071018.74249 115983985.87549    -17204.15649        50.000  
  21707377.16449 114073036.46149     -2708.30549        50.000  
 16 04 02 13 36 55.8000000  0  2G17G28                                          
  22071346.16449 115985706.49649    -17207.46149        50.000  
  21707428.74249 114073307.51649     -2712.01249        50.000  
 16 04 02 13 36 55.9000000  0  2G17G28                                          
  22071673.61749 115987427.25849    -17208.76249        50.000  
  21707480.35949 114073578.75449     -2713.77049        50.000  
 16 04 02 13 36 56.0000000  0  2G17G28                                          
  22072001.10949 115989148.27049    -17211.25849        50.000  
  21707532.03149 114073850.28949     -2716.64549        50.000  
 16 04 02 13 36 56.1000000  0  2G17G28                                          
  22072328.64849 115990869.48849    -17213.27049        49.000  
  21707583.75049 114074122.09049     -2719.23849        50.000  
 16 04 02 13 36 56.2000000  0  2G17G28                                          
  22072656.25049 115992591.05549    -17216.98849        50.000  
  21707635.54749 114074394.27049     -2723.35949        50.000  
 16 04 02 13 36 56.3000000  0  2G17G28                                          
  22072983.89149 115994312.84049    -17219.20749        50.000  
  21707687.39149 114074666.72349     -2726.01649        50.000  
 16 04 02 13 36 56.4000000  0  2G17G28                                          
  22073311.59449 115996034.88749    -17221.93849        50.000  
  21707739.29749 114074939.47349     -2729.03149        50.000  
 16 04 02 13 36 56.5000000  0  2G17G28                                          
  22073639.34449 115997757.23049    -17224.98849        50.000  
  21707791.26649 114075212.57849     -2732.68049        50.000  
 16 04 02 13 36 56.6000000  0  2G17G28                                          
  22073967.14849 115999479.81249    -17227.05149        49.000  
  21707843.28149 114075485.96549     -2735.24649        50.000  
 16 04 02 13 36 56.7000000  0  2G17G28                                          
  22074294.98449 116001202.60949    -17229.16449        49.000  
  21707895.35949 114075759.61349     -2737.82049        50.000  
 16 04 02 13 36 56.8000000  0  2G17G28                                          
  22074622.86749 116002925.61749    -17231.19149        49.000  
  21707947.47749 114076033.52349     -2740.42649        50.000  
 16 04 02 13 36 56.9000000  0  2G17G28                                          
  22074950.79749 116004648.88349    -17233.78549        49.000  
  21707999.65649 114076307.73049     -2743.32049        50.000  
 16 04 02 13 36 57.0000000  0  2G17G28                                          
  22075278.75849 116006372.37549    -17235.98849        50.000  
  21708051.89149 114076582.20349     -2746.02349        50.000  
 16 04 02 13 36 57.1000000  0  2G17G28                                          
  22075606.76649 116008096.06249    -17238.13349        50.000  
  21708104.16449 114076856.92649     -2748.58649        50.000  
 16 04 02 13 36 57.2000000  0  2G17G28                                          
  22075934.82049 116009819.97749    -17240.30549        50.000  
  21708156.50049 114077131.93849     -2751.39849        50.000  
 16 04 02 13 36 57.3000000  0  2G17G28                                          
  22076262.92249 116011544.18849    -17243.36349        50.000  
  21708208.89849 114077407.26249     -2754.72349        50.000  
 16 04 02 13 36 57.4000000  0  2G17G28                                          
  22076591.07049 116013268.63349    -17245.65249        50.000  
  21708261.33649 114077682.89149     -2757.66449        50.000  
 16 04 02 13 36 57.5000000  0  2G17G28                                          
  22076919.27349 116014993.35249    -17248.48049        50.000  
  21708313.85249 114077958.83249     -2760.93449        50.000  
 16 04 02 13 36 57.6000000  0  2G17G28                                          
  22077247.52349 116016718.30149    -17250.85949        50.000  
  21708366.41449 114078235.04749     -2763.71549        50.000  
 16 04 02 13 36 57.7000000  0  2G17G28                                          
  22077575.80549 116018443.44149    -17252.63349        50.000  
  21708419.01649 114078511.49649     -2765.93849        50.000  
 16 04 02 13 36 57.8000000  0  2G17G28                                          
  22077904.14849 116020168.85249    -17255.16449        50.000  
  21708471.68849 114078788.27049     -2769.04749        50.000  
 16 04 02 13 36 57.9000000  0  2G17G28                                          
  22078232.53149 116021894.54349    -17258.22749        50.000  
  21708524.42249 114079065.36349     -2772.41049        50.000  
 16 04 02 13 36 58.0000000  0  2G17G28                                          
  22078560.96149 116023620.44549    -17260.43849        50.000  
  21708577.19549 114079342.71549     -2775.02049        50.000  
 16 04 02 13 36 58.1000000  0  2G17G28                                          
  22078889.43049 116025346.56649    -17262.24649        50.000  
  21708630.03149 114079620.34849     -2777.53549        50.000  
 16 04 02 13 36 58.2000000  0  2G17G28                                          
  22079217.94549 116027072.94949    -17265.09049        50.000  
  21708682.91449 114079898.27049     -2780.66049        50.000  
 16 04 02 13 36 58.3000000  0  2G17G28                                          
  22079546.51649 116028799.59049    -17267.65649        50.000  
  21708735.85949 114080176.50049     -2783.77749        50.000  
 16 04 02 13 36 58.4000000  0  2G17G28                                          
  22079875.13349 116030526.48049    -17270.00049        49.000  
  21708788.86749 114080455.03949     -2786.73049        50.000  
 16 04 02 13 36 58.5000000  0  2G17G28                                          
  22080203.79749 116032253.63749    -17272.86749        49.000  
  21708841.93049 114080733.87149     -2789.91849        50.000  
 16 04 02 13 36 58.6000000  0  2G17G28                                          
  22080532.50049 116033981.00449    -17274.82049        50.000  
  21708895.03949 114081012.96949     -2792.27049        50.000  
 16 04 02 13 36 58.7000000  0  2G17G28                                          
  22080861.24249 116035708.57849    -17276.76649        50.000  
  21708948.20349 114081292.32849     -2794.85949        50.000  
 16 04 02 13 36 58.8000000  0  2G17G28                                          
  22081190.04749 116037436.43049    -17279.69149        50.000  
  21709001.42249 114081572.00449     -2798.11349        50.000  
 16 04 02 13 36 58.9000000  0  2G17G28                                          
  22081518.88349 116039164.48849    -17281.73449        50.000  
  21709054.68849 114081851.92649     -2800.56649        50.000  
 16 04 02 13 36 59.0000000  0  2G17G28                                          
  22081847.78149 116040892.84049    -17284.78549        50.000  
  21709108.02349 114082132.19949     -2804.15649        50.000  
 16 04 02 13 36 59.1000000  0  2G17G28                                          
  22082176.71949 116042621.41849    -17286.85549        50.000  
  21709161.40649 114082412.73449     -2806.68449        50.000  
 16 04 02 13 36 59.2000000  0  2G17G28                                          
  22082505.70349 116044350.23049    -17289.54749        50.000  
  21709214.85249 114082693.56649     -2809.88349        50.000  
 16 04 02 13 36 59.3000000  0  2G17G28                                          
  22082834.73449 116046079.30549    -17292.08249        50.000  
  21709268.35249 114082974.69949     -2812.86749        50.000  
 16 04 02 13 36 59.4000000  0  2G17G28                                          
  22083163.82049 116047808.66849    -17294.82849        50.000  
  21709321.91449 114083256.16449     -2816.02049        50.000  
 16 04 02 13 36 59.5000000  0  2G17G28                                          
  22083492.93849 116049538.22349    -17296.85249        50.000  
  21709375.51649 114083537.87149     -2818.58249        50.000  
 16 04 02 13 36 59.6000000  0  2G17G28                                          
  22083822.10949 116051268.01249    -17299.02049        50.000  
  21709429.18849 114083819.85949     -2821.16049        50.000  
 16 04 02 13 36 59.7000000  0  2G17G28                                          
  22084151.32049 116052998.03549    -17301.60249        50.000  
  21709482.89849 114084102.12149     -2824.16849        50.000  
 16 04 02 13 36 59.8000000  0  2G17G28                                          
  22084480.60249 116054728.39149    -17304.76249        50.000  
  21709536.68049 114084384.76649     -2827.78949        50.000  
 16 04 02 13 36 59.9000000  0  2G17G28                                          
  22084809.90649 116056458.91849    -17306.60949        50.000  
  21709590.50849 114084667.63749     -2830.30549        50.000  
 16 04 02 13 37  0.0000000  0  2G17G28                                          
  22085139.25049 116058189.67649    -17308.73449        50.000  
  21709644.39849 114084950.79349     -2832.91849        50.000  
 16 04 02 13 37  0.1000000  0  2G17G28                                          
  22085468.66449 116059920.72749    -17311.69949        50.000  
  21709698.33649 114085234.25049     -2835.99649        50.000  
 16 04 02 13 37  0.2000000  0  2G17G28                                          
  22085798.09449 116061651.90649    -17313.00049        50.000  
  21709752.31249 114085517.90649     -2837.94949        50.000  
 16 04 02 13 37  0.3000000  0  2G17G28                                          
  22086127.57849 116063383.37149    -17315.84849        50.000  
  21709806.35949 114085801.91049     -2841.28549        50.000  
 16 04 02 13 37  0.4000000  0  2G17G28                                          
  22086457.10249 116065115.05949    -17318.02349        50.000  
  21709860.45349 114086086.17249     -2843.98849        50.000  
 16 04 02 13 37  0.5000000  0  2G17G28                                          
  22086786.68849 116066847.02049    -17320.69549        50.000  
  21709914.60949 114086370.75849     -2847.22349        50.000  
 16 04 02 13 37  0.6000000  0  2G17G28                                          
  22087116.31249 116068579.19949    -17322.94149        50.000  
  21709968.80549 114086655.58649     -2849.60549        50.000  
 16 04 02 13 37  0.7000000  0  2G17G28                                          
  22087445.99249 116070311.69549    -17326.25449        50.000  
  21710023.07849 114086940.79749     -2853.59049        50.000  
 16 04 02 13 37  0.8000000  0  2G17G28                                          
  22087775.71949 116072044.37949    -17328.31649        50.000  
  21710077.39849 114087226.25049     -2856.22749        50.000  
 16 04 02 13 37  0.9000000  0  2G17G28                                          
  22088105.49249 116073777.36349    -17331.02049        50.000  
  21710131.78149 114087512.02749     -2859.17249        50.000  
 16 04 02 13 37  1.0000000  0  2G17G28                                          
  22088435.31249 116075510.57449    -17333.36349        50.000  
  21710186.21149 114087798.08249     -2861.93049        50.000  
 16 04 02 13 37  1.1000000  0  2G17G28                                          
  22088765.16449 116077243.95749    -17335.14849        50.000  
  21710240.69549 114088084.37949     -2864.52349        50.000  
 16 04 02 13 37  1.2000000  0  2G17G28                                          
  22089095.07849 116078977.67649    -17338.33649        50.000  
  21710295.25049 114088371.04349     -2868.11749        50.000  
 16 04 02 13 37  1.3000000  0  2G17G28                                          
  22089425.02349 116080711.58249    -17340.30949        50.000  
  21710349.84449 114088657.94949     -2870.58249        50.000  
 16 04 02 13 37  1.4000000  0  2G17G28                                          
  22089755.03149 116082445.78149    -17343.28149        50.000  
  21710404.50049 114088945.18049     -2873.78949        50.000  
 16 04 02 13 37  1.5000000  0  2G17G28                                          
  22090085.09449 116084180.24649    -17345.77749        50.000  
  21710459.21949 114089232.72749     -2876.83249        50.000  
 16 04 02 13 37  1.6000000  0  2G17G28                                          
  22090415.18849 116085914.89549    -17347.79349        50.000  
  21710513.97749 114089520.51249     -2879.30149        50.000  
 16 04 02 13 37  1.7000000  0  2G17G28                                          
  22090745.32849 116087649.79749    -17350.23449        50.000  
  21710568.79749 114089808.59849     -2882.27349        50.000  
 16 04 02 13 37  1.8000000  0  2G17G28                                          
  22091075.52349 116089384.99249    -17353.06649        50.000  
  21710623.68049 114090097.01649     -2885.53149        50.000  
 16 04 02 13 37  1.9000000  0  2G17G28                                          
  22091405.75849 116091120.39849    -17355.47349        50.000  
  21710678.61749 114090385.69949     -2888.33649        50.000  
 16 04 02 13 37  2.0000000  0  2G17G28                                          
  22091736.03949 116092856.06649    -17357.95749        50.000  
  21710733.61749 114090674.68849     -2891.27749        50.000  
 16 04 02 13 37  2.1000000  0  2G17G28                                          
  22092066.35949 116094591.90249    -17359.51649        50.000  
  21710788.64849 114090963.89849     -2893.43449        50.000  
 16 04 02 13 37  2.2000000  0  2G17G28                                          
  22092396.73449 116096328.00049    -17362.02749        50.000  
  21710843.73449 114091253.40249     -2896.30949        50.000  
 16 04 02 13 37  2.3000000  0  2G17G28                                          
  22092727.14849 116098064.32449    -17364.50049        50.000  
  21710898.88349 114091543.19949     -2899.37149        50.000  
 16 04 02 13 37  2.4000000  0  2G17G28                                          
  22093057.60949 116099800.93849    -17367.32049        50.000  
  21710954.08649 114091833.31649     -2902.59449        50.000  
 16 04 02 13 37  2.5000000  0  2G17G28                                          
  22093388.13349 116101537.81249    -17370.05149        50.000  
  21711009.35949 114092123.75049     -2905.83649        50.000  
 16 04 02 13 37  2.6000000  0  2G17G28                                          
  22093718.68049 116103274.87149    -17371.80549        50.000  
  21711064.66449 114092414.41849     -2908.14549        50.000  
 16 04 02 13 37  2.7000000  0  2G17G28                                          
  22094049.27349 116105012.16449    -17373.98849        50.000  
  21711120.03149 114092705.35949     -2910.72749        50.000  
 16 04 02 13 37  2.8000000  0  2G17G28                                          
  22094379.92249 116106749.75449    -17376.90649        50.000  
  21711175.46149 114092996.65649     -2914.23849        50.000  
 16 04 02 13 37  2.9000000  0  2G17G28                                          
  22094710.60949 116108487.52349    -17378.89149        50.000  
  21711230.93849 114093288.16049     -2916.44949        50.000  
 16 04 02 13 37  3.0000000  0  2G17G28                                          
  22095041.34449 116110225.55149    -17381.33649        50.000  
  21711286.46949 114093579.98849     -2919.53549        50.000  
 16 04 02 13 37  3.1000000  0  2G17G28                                          
  22095372.12549 116111963.84049    -17383.98049        50.000  
  21711342.05549 114093872.10949     -2922.56249        50.000  
 16 04 02 13 37  3.2000000  0  2G17G28                                          
  22095702.95349 116113702.36349    -17386.46549        50.000  
  21711397.69549 114094164.52349     -2925.60249        50.000  
 16 04 02 13 37  3.3000000  0  2G17G28                                          
  22096033.82049 116115441.08249    -17388.28549        50.000  
  21711453.38349 114094457.17249     -2927.75049        50.000  
 16 04 02 13 37  3.4000000  0  2G17G28                                          
  22096364.75049 116117180.09449    -17391.50449        50.000  
  21711509.14149 114094750.17249     -2931.47749        50.000  
 16 04 02 13 37  3.5000000  0  2G17G28                                          
  22096695.71149 116118919.30949    -17393.40649        50.000  
  21711564.93849 114095043.41049     -2933.85949        50.000  
 16 04 02 13 37  3.6000000  0  2G17G28                                          
  22097026.71949 116120658.77349    -17395.79749        50.000  
  21711620.79749 114095336.95349     -2936.72349        50.000  
 16 04 02 13 37  3.7000000  0  2G17G28                                          
  22097357.77349 116122398.46949    -17398.18449        50.000  
  21711676.71149 114095630.77749     -2939.60549        50.000  
 16 04 02 13 37  3.8000000  0  2G17G28                                          
  22097688.86749 116124138.41049    -17400.60949        50.000  
  21711732.67249 114095924.88749     -2942.46549        50.000  
 16 04 02 13 37  3.9000000  0  2G17G28                                          
  22098020.01649 116125878.61349    -17403.21549        50.000  
  21711788.70349 114096219.31249     -2945.68049        50.000  
 16 04 02 13 37  4.0000000  0  2G17G28                                          
  22098351.21949 116127619.07049    -17405.73049        50.000  
  21711844.78949 114096514.02749     -2948.58649        50.000  
 16 04 02 13 37  4.1000000  0  2G17G28                                          
  22098682.46949 116129359.79349    -17408.54349        50.000  
  21711900.93049 114096809.05949     -2951.81249        50.000  
 16 04 02 13 37  4.2000000  0  2G17G28                                          
  22099013.75049 116131100.70749    -17410.50849        50.000  
  21711957.12549 114097104.34049     -2954.30949        50.000  
 16 04 02 13 37  4.3000000  0  2G17G28                                          
  22099345.07849 116132841.85249    -17412.32049        50.000  
  21712013.35949 114097399.89149     -2956.58249        50.000  
 16 04 02 13 37  4.4000000  0  2G17G28                                          
  22099676.45349 116134583.23849    -17414.98049        50.000  
  21712069.66449 114097695.73049     -2959.74249        50.000  
 16 04 02 13 37  4.5000000  0  2G17G28                                          
  22100007.86749 116136324.82049    -17416.87949        50.000  
  21712126.00049 114097991.81249     -2962.06649        50.000  
 16 04 02 13 37  4.6000000  0  2G17G28                                          
  22100339.34449 116138066.70749    -17420.05549        50.000  
  21712182.41449 114098288.25449     -2965.78949        50.000  
 16 04 02 13 37  4.7000000  0  2G17G28                                          
  22100670.84449 116139808.78149    -17421.92649        50.000  
  21712238.86749 114098584.91849     -2968.00449        50.000  
 16 04 02 13 37  4.8000000  0  2G17G28                                          
  22101002.39849 116141551.10549    -17424.35249        50.000  
  21712295.37549 114098881.89549     -2971.10249        50.000  
 16 04 02 13 37  4.9000000  0  2G17G28                                          
  22101333.99249 116143293.66049    -17426.88749        50.000  
  21712351.94549 114099179.14149     -2974.00849        50.000  
 16 04 02 13 37  5.0000000  0  2G17G28                                          
  22101665.64149 116145036.49249    -17429.62949        50.000  
  21712408.57049 114099476.71149     -2977.18049        50.000  
 16 04 02 13 37  5.1000000  0  2G17G28                                          
  22101997.33649 116146779.53549    -17431.64549        50.000  
  21712465.25049 114099774.53549     -2979.77749        50.000  
 16 04 02 13 37  5.2000000  0  2G17G28                                          
  22102329.07849 116148522.86349    -17434.50449        50.000  
  21712521.98449 114100072.69949     -2983.09449        50.000  
 16 04 02 13 37  5.3000000  0  2G17G28                                          
  22102660.87549 116150266.44949    -17437.22749        50.000  
  21712578.78149 114100371.16449     -2986.15649        50.000  
 16 04 02 13 37  5.4000000  0  2G17G28                                          
  22102992.71149 116152010.27049    -17439.51649        50.000  
  21712635.63349 114100669.91449     -2989.00049        50.000  
 16 04 02 13 37  5.5000000  0  2G17G28                                          
  22103324.58649 116153754.31649    -17441.78949        50.000  
  21712692.53949 114100968.94149     -2991.82849        50.000  
 16 04 02 13 37  5.6000000  0  2G17G28                                          
  22103656.51649 116155498.55949    -17443.45349        50.000  
  21712749.48449 114101268.21149     -2993.92649        50.000  
 16 04 02 13 37  5.7000000  0  2G17G28                                          
  22103988.49249 116157243.13749    -17447.10949        50.000  
  21712806.50849 114101567.85949     -2997.98049        50.000  
 16 04 02 13 37  5.8000000  0  2G17G28                                          
  22104320.51649 116158987.95349    -17449.57449        50.000  
  21712863.58649 114101867.79349     -3000.95749        50.000  
 16 04 02 13 37  5.9000000  0  2G17G28                                          
  22104652.60249 116160733.07449    -17452.52049        50.000  
  21712920.72749 114102168.07849     -3004.37549        50.000  
 16 04 02 13 37  6.0000000  0  2G17G28                                          
  22104984.72749 116162478.38749    -17454.25049        50.000  
  21712977.92249 114102468.60949     -3006.68049        50.000  
 16 04 02 13 37  6.1000000  0  2G17G28                                          
  22105316.89149 116164223.93449    -17456.77049        50.000  
  21713035.15649 114102769.41049     -3009.50449        50.000  
 16 04 02 13 37  6.2000000  0  2G17G28                                          
  22105649.09449 116165969.68449    -17458.52749        50.000  
  21713092.46149 114103070.48449     -3011.94149        50.000  
 16 04 02 13 37  6.3000000  0  2G17G28                                          
  22105981.33649 116167715.64149    -17460.74249        50.000  
  21713149.79749 114103371.78549     -3014.32849        50.000  
 16 04 02 13 37  6.4000000  0  2G17G28                                          
  22106313.62549 116169461.82849    -17462.98849        50.000  
  21713207.18849 114103673.38349     -3017.27749        50.000  
 16 04 02 13 37  6.5000000  0  2G17G28                                          
  22106645.96149 116171208.28949    -17465.80549        50.000  
  21713264.64149 114103975.30549     -3020.67249        50.000  
 16 04 02 13 37  6.6000000  0  2G17G28                                          
  22106978.34449 116172954.97349    -17467.95749        50.000  
  21713322.14149 114104277.47749     -3023.04749        50.000  
 16 04 02 13 37  6.7000000  0  2G17G28                                          
  22107310.77349 116174701.89849    -17470.49249        50.000  
  21713379.70349 114104579.96549     -3026.20349        50.000  
 16 04 02 13 37  6.8000000  0  2G17G28                                          
  22107643.25049 116176449.09049    -17473.00449        50.000  
  21713437.32049 114104882.73849     -3029.14149        50.000  
 16 04 02 13 37  6.9000000  0  2G17G28                                          
  22107975.77349 116178196.53549    -17475.64149        50.000  
  21713495.00049 114105185.83649     -3032.30149        50.000  
 16 04 02 13 37  7.0000000  0  2G17G28                                          
  22108308.35949 116179944.23449    -17478.15249        50.000  
  21713552.72749 114105489.22749     -3035.29349        50.000  
 16 04 02 13 37  7.1000000  0  2G17G28                                          
  22108640.96949 116181692.11749    -17480.19149        50.000  
  21713610.50849 114105792.84849     -3037.77349        50.000  
 16 04 02 13 37  7.2000000  0  2G17G28                                          
  22108973.64149 116183440.32849    -17483.27049        50.000  
  21713668.35249 114106096.84049     -3041.25449        50.000  
 16 04 02 13 37  7.3000000  0  2G17G28                                          
  22109306.33649 116185188.65249    -17484.51249        50.000  
  21713726.23449 114106401.00849     -3043.10549        50.000  
 16 04 02 13 37  7.4000000  0  2G17G28                                          
  22109639.08649 116186937.29349    -17487.62949        50.000  
  21713784.18049 114106705.52749     -3046.74249        50.000  
 16 04 02 13 37  7.5000000  0  2G17G28                                          
  22109971.89149 116188686.19549    -17490.31249        50.000  
  21713842.18849 114107010.35949     -3049.81249        50.000  
 16 04 02 13 37  7.6000000  0  2G17G28                                          
  22110304.73449 116190435.29349    -17492.18049        50.000  
  21713900.24249 114107315.43449     -3052.06649        50.000  
 16 04 02 13 37  7.7000000  0  2G17G28                                          
  22110637.62549 116192184.65649    -17494.69949        50.000  
  21713958.35949 114107620.82049     -3055.06249        50.000  
 16 04 02 13 37  7.8000000  0  2G17G28                                          
  22110970.57049 116193934.27349    -17497.47749        50.000  
  21714016.52349 114107926.51249     -3058.37149        50.000  
 16 04 02 13 37  7.9000000  0  2G17G28                                          
  22111303.56249 116195684.13749    -17499.86349        50.000  
  21714074.75049 114108232.49649     -3061.25449        50.000  
 16 04 02 13 37  8.0000000  0  2G17G28                                          
  22111636.58649 116197434.18849    -17501.66049        50.000  
  21714133.03149 114108538.72749     -3063.59849        50.000  
 16 04 02 13 37  8.1000000  0  2G17G28                                          
  22111969.64849 116199184.47749    -17504.05149        50.000  
  21714191.35249 114108845.22749     -3066.37949        50.000  
 16 04 02 13 37  8.2000000  0  2G17G28                                          
  22112302.78149 116200935.04749    -17506.98049        50.000  
  21714249.75049 114109152.07449     -3069.90249        50.000  
 16 04 02 13 37  8.3000000  0  2G17G28                                          
  22112635.95349 116202685.89849    -17509.87549        50.000  
  21714308.19549 114109459.23049     -3073.14849        50.000  
 16 04 02 13 37  8.4000000  0  2G17G28                                          
  22112969.16449 116204436.94149    -17511.86349        50.000  
  21714366.69549 114109766.64149     -3075.73449        50.000  
 16 04 02 13 37  8.5000000  0  2G17G28                                          
  22113302.43049 116206188.26649    -17514.25849        50.000  
  21714425.25049 114110074.35949     -3078.39849        50.000  
 16 04 02 13 37  8.6000000  0  2G17G28                                          
  22113635.74249 116207939.79349    -17516.65249        50.000  
  21714483.85949 114110382.35549     -3081.37149        50.000  
 16 04 02 13 37  8.7000000  0  2G17G28                                          
  22113969.09449 116209691.57449    -17518.86349        50.000  
  21714542.52349 114110690.64549     -3084.26249        50.000  
 16 04 02 13 37  8.8000000  0  2G17G28                                          
  22114302.48449 116211443.55149    -17520.93449        50.000  
  21714601.23449 114110999.16449     -3086.51249        50.000  
 16 04 02 13 37  8.9000000  0  2G17G28                                          
  22114635.92249 116213195.80149    -17523.65649        50.000  
  21714660.00849 114111308.02049     -3089.83249        50.000  
 16 04 02 13 37  9.0000000  0  2G17G28                                          
  22114969.41449 116214948.30149    -17526.33649        50.000  
  21714718.83649 114111617.17649     -3093.03949        50.000  
 16 04 02 13 37  9.1000000  0  2G17G28                                          
  22115302.96149 116216701.09449    -17529.05949        50.000  
  21714777.72749 114111926.66449     -3096.32849        50.000  
 16 04 02 13 37  9.2000000  0  2G17G28                                          
  22115636.53949 116218454.04349    -17530.81249        50.000  
  21714836.65649 114112236.34449     -3098.29749        50.000  
 16 04 02 13 37  9.3000000  0  2G17G28                                          
  22115970.16449 116220207.24649    -17533.09849        50.000  
  21714895.65649 114112546.35949     -3101.33249        50.000  
 16 04 02 13 37  9.4000000  0  2G17G28                                          
  22116303.82049 116221960.65249    -17535.27349        50.000  
  21714954.68849 114112856.60249     -3103.85549        50.000  
 16 04 02 13 37  9.5000000  0  2G17G28                                          
  22116637.55549 116223714.40649    -17538.91049        50.000  
  21715013.79749 114113167.24649     -3107.91449        50.000  
 16 04 02 13 37  9.6000000  0  2G17G28                                          
  22116971.33649 116225468.43449    -17541.64149        50.000  
  21715072.97749 114113478.21549     -3111.30549        50.000  
 16 04 02 13 37  9.7000000  0  2G17G28                                          
  22117305.16449 116227222.68849    -17543.98049        50.000  
  21715132.20349 114113789.44949     -3113.93849        50.000  
 16 04 02 13 37  9.8000000  0  2G17G28                                          
  22117639.03949 116228977.23449    -17546.72349        50.000  
  21715191.49249 114114101.03949     -3117.30149        50.000  
 16 04 02 13 37  9.9000000  0  2G17G28                                          
  22117972.96149 116230732.00849    -17548.94549        50.000  
  21715250.83649 114114412.88749     -3119.98049        50.000  
 16 04 02 13 37 10.0000000  0  2G17G28                                          
  22118306.92249 116232486.96549    -17550.68449        50.000  
  21715310.22749 114114724.97749     -3122.18849        50.000  
 16 04 02 13 37 10.1000000  0  2G17G28                                          
  22118640.92249 116234242.14849    -17552.89849        50.000  
  21715369.66449 114115037.34049     -3124.73849        50.000  
 16 04 02 13 37 10.2000000  0  2G17G28                                          
  22118974.97749 116235997.60949    -17555.91049        50.000  
  21715429.16449 114115350.03149     -3128.32049        50.000  
 16 04 02 13 37 10.3000000  0  2G17G28                                          
  22119309.07849 116237753.31249    -17558.20749        50.000  
  21715488.72749 114115663.01249     -3131.20349        50.000  
 16 04 02 13 37 10.4000000  0  2G17G28                                          
  22119643.21949 116239509.23049    -17560.37949        50.000  
  21715548.33649 114115976.25449     -3133.78549        50.000  
 16 04 02 13 37 10.5000000  0  2G17G28                                          
  22119977.40649 116241265.41049    -17562.98049        50.000  
  21715608.00049 114116289.79749     -3136.81249        50.000  
 16 04 02 13 37 10.6000000  0  2G17G28                                          
  22120311.64149 116243021.82449    -17565.35549        50.000  
  21715667.71949 114116603.64549     -3139.82449        50.000  
 16 04 02 13 37 10.7000000  0  2G17G28                                          
  22120645.92249 116244778.48449    -17567.80549        50.000  
  21715727.50049 114116917.77349     -3142.77349        50.000  
 16 04 02 13 37 10.8000000  0  2G17G28                                          
  22120980.24249 116246535.36749    -17570.07849        50.000  
  21715787.32049 114117232.16449     -3145.36749        50.000  
 16 04 02 13 37 10.9000000  0  2G17G28                                          
  22121314.60949 116248292.48449    -17572.37149        50.000  
  21715847.21149 114117546.85249     -3148.29749        50.000  
 16 04 02 13 37 11.0000000  0  2G17G28                                          
  22121649.02349 116250049.83649    -17574.62149        50.000  
  21715907.14149 114117861.81649     -3150.95749        50.000  
 16 04 02 13 37 11.1000000  0  2G17G28                                          
  22121983.48449 116251807.43449    -17577.08249        50.000  
  21715967.13349 114118177.07849     -3153.98049        50.000  
 16 04 02 13 37 11.2000000  0  2G17G28                                          
  22122317.98449 116253565.23449    -17579.09049        50.000  
  21716027.17249 114118492.59449     -3156.46949        50.000  
 16 04 02 13 37 11.3000000  0  2G17G28                                          
  22122652.53949 116255323.30949    -17581.94549        50.000  
  21716087.27349 114118808.41449     -3159.62149        50.000  
 16 04 02 13 37 11.4000000  0  2G17G28                                          
  22122987.13349 116257081.59849    -17584.16049        50.000  
  21716147.42249 114119124.52049     -3162.48049        50.000  
 16 04 02 13 37 11.5000000  0  2G17G28                                          
  22123321.77349 116258840.16049    -17586.83249        50.000  
  21716207.63349 114119440.92649     -3165.45349        50.000  
 16 04 02 13 37 11.6000000  0  2G17G28                                          
  22123656.47749 116260599.01649    -17589.77049        50.000  
  21716267.91449 114119757.69549     -3168.95349        50.000  
 16 04 02 13 37 11.7000000  0  2G17G28                                          
  22123991.20349 116262358.03149    -17591.30549        50.000  
  21716328.23449 114120074.66449     -3171.15249        50.000  
 16 04 02 13 37 11.8000000  0  2G17G28                                          
  22124325.98449 116264117.29749    -17593.90249        50.000  
  21716388.60949 114120391.92249     -3173.98849        50.000  
 16 04 02 13 37 11.9000000  0  2G17G28                                          
  22124660.81249 116265876.80949    -17596.30949        50.000  
  21716449.03949 114120709.49249     -3177.02049        50.000  
 16 04 02 13 37 12.0000000  0  2G17G28                                          
  22124995.67249 116267636.54349    -17598.66449        50.000  
  21716509.51649 114121027.32449     -3179.86349        50.000  
 16 04 02 13 37 12.1000000  0  2G17G28                                          
  22125330.58649 116269396.52749    -17601.14549        50.000  
  21716570.05549 114121345.44549     -3182.71549        50.000  
 16 04 02 13 37 12.2000000  0  2G17G28                                          
  22125665.54749 116271156.73849    -17603.24249        50.000  
  21716630.64849 114121663.85949     -3185.40649        50.000  
 16 04 02 13 37 12.3000000  0  2G17G28                                          
  22126000.54749 116272917.17649    -17605.49649        50.000  
  21716691.28949 114121982.53949     -3188.03549        50.000  
 16 04 02 13 37 12.4000000  0  2G17G28                                          
  22126335.59449 116274677.85949    -17608.09849        50.000  
  21716751.99249 114122301.50849     -3191.15649        50.000  
 16 04 02 13 37 12.5000000  0  2G17G28                                          
  22126670.68049 116276438.78149    -17610.32449        50.000  
  21716812.75049 114122620.78149     -3193.95749        50.000  
 16 04 02 13 37 12.6000000  0  2G17G28                                          
  22127005.83649 116278199.99249    -17613.24649        50.000  
  21716873.56249 114122940.37549     -3197.30549        50.000  
 16 04 02 13 37 12.7000000  0  2G17G28                                          
  22127341.02349 116279961.41049    -17615.20749        50.000  
  21716934.43049 114123260.23449     -3199.84049        50.000  
 16 04 02 13 37 12.8000000  0  2G17G28                                          
  22127676.23449 116281722.99649    -17617.11749        50.000  
  21716995.34449 114123580.31649     -3202.19549        50.000  
 16 04 02 13 37 12.9000000  0  2G17G28                                          
  22128011.51649 116283484.91049    -17620.03149        50.000  
  21717056.32049 114123900.75049     -3205.53949        50.000  
 16 04 02 13 37 13.0000000  0  2G17G28                                          
  22128346.83649 116285246.99249    -17621.99649        50.000  
  21717117.34449 114124221.42649     -3208.10549        50.000  
 16 04 02 13 37 13.1000000  0  2G17G28                                          
  22128682.19549 116287009.32449    -17624.41449        50.000  
  21717178.42249 114124542.38749     -3210.90249        50.000  
 16 04 02 13 37 13.2000000  0  2G17G28                                          
  22129017.60249 116288771.87149    -17626.45749        50.000  
  21717239.54749 114124863.62149     -3213.56249        50.000  
 16 04 02 13 37 13.3000000  0  2G17G28                                          
  22129353.03949 116290534.59449    -17628.32049        50.000  
  21717300.71949 114125185.06649     -3215.73449        50.000  
 16 04 02 13 37 13.4000000  0  2G17G28                                          
  22129688.53149 116292297.61349    -17631.45349        50.000  
  21717361.96149 114125506.87149     -3219.48449        50.000  
 16 04 02 13 37 13.5000000  0  2G17G28                                          
  22130024.06249 116294060.87149    -17633.71149        50.000  
  21717423.25049 114125828.95349     -3222.25049        50.000  
 16 04 02 13 37 13.6000000  0  2G17G28                                          
  22130359.64849 116295824.38349    -17636.46549        50.000  
  21717484.60249 114126151.34049     -3225.38749        50.000  
 16 04 02 13 37 13.7000000  0  2G17G28                                          
  22130695.27349 116297588.07849    -17638.10949        50.000  
  21717545.99249 114126473.96149     -3227.61349        50.000  
 16 04 02 13 37 13.8000000  0  2G17G28                                          
  22131030.95349 116299352.11749    -17641.65249        50.000  
  21717607.46149 114126796.97349     -3231.60549        50.000  
 16 04 02 13 37 13.9000000  0  2G17G28                                          
  22131366.68049 116301116.37949    -17643.77349        50.000  
  21717668.98449 114127120.25849     -3234.31649        50.000  
 16 04 02 13 37 14.0000000  0  2G17G28                                          
  22131702.44549 116302880.82049    -17645.65649        50.000  
  21717730.54749 114127443.77049     -3236.55149        50.000  
 16 04 02 13 37 14.1000000  0  2G17G28                                          
  22132038.25049 116304645.48049    -17647.44549        50.000  
  21717792.15649 114127767.55149     -3238.82449        50.000  
 16 04 02 13 37 14.2000000  0  2G17G28                                          
  22132374.09449 116306410.37949    -17650.13349        50.000  
  21717853.82849 114128091.61349     -3241.98449        50.000  
 16 04 02 13 37 14.3000000  0  2G17G28                                          
  22132710.00049 116308175.54749    -17652.78549        50.000  
  21717915.55549 114128416.00049     -3245.19949        50.000  
 16 04 02 13 37 14.4000000  0  2G17G28                                          
  22133045.92249 116309940.88349    -17654.63349        50.000  
  21717977.32849 114128740.60249     -3247.52049        50.000  
 16 04 02 13 37 14.5000000  0  2G17G28                                          
  22133381.91449 116311706.52049    -17657.41849        50.000  
  21718039.16449 114129065.55549     -3250.84449        50.000  
 16 04 02 13 37 14.6000000  0  2G17G28                                          
  22133717.93849 116313472.30949    -17658.97349        50.000  
  21718101.03949 114129390.70749     -3252.93049        50.000  
 16 04 02 13 37 14.7000000  0  2G17G28                                          
  22134054.01649 116315238.39849    -17661.98849        50.000  
  21718162.97749 114129716.21149     -3256.35549        50.000  
 16 04 02 13 37 14.8000000  0  2G17G28                                          
  22134390.12549 116317004.69549    -17664.14549        50.000  
  21718224.96949 114130041.96549     -3258.96549        50.000  
 16 04 02 13 37 14.9000000  0  2G17G28                                          
  22134726.28949 116318771.23849    -17666.60949        50.000  
  21718287.01649 114130368.02349     -3261.98849        50.000  
 16 04 02 13 37 15.0000000  0  2G17G28                                          
  22135062.50049 116320538.03149    -17669.09049        50.000  
  21718349.11749 114130694.37549     -3264.92249        50.000  
 16 04 02 13 37 15.1000000  0  2G17G28                                          
  22135398.75049 116322305.04749    -17671.36749        50.000  
  21718411.27349 114131020.99649     -3267.64149        50.000  
 16 04 02 13 37 15.2000000  0  2G17G28                                          
  22135735.06249 116324072.35949    -17674.42649        50.000  
  21718473.50049 114131347.96149     -3271.14849        50.000  
 16 04 02 13 37 15.3000000  0  2G17G28                                          
  22136071.41449 116325839.88349    -17676.50449        50.000  
  21718535.76649 114131675.19949     -3273.77749        50.000  
 16 04 02 13 37 15.4000000  0  2G17G28                                          
  22136407.80549 116327607.66049    -17679.01249        50.000  
  21718598.09449 114132002.73049     -3276.78149        50.000  
 16 04 02 13 37 15.5000000  0  2G17G28                                          
  22136744.25049 116329375.66849    -17681.09449        50.000  
  21718660.47749 114132330.54349     -3279.36749        50.000  
 16 04 02 13 37 15.6000000  0  2G17G28                                          
  22137080.72749 116331143.88749    -17683.35949        50.000  
  21718722.90649 114132658.61749     -3282.09849        50.000  
 16 04 02 13 37 15.7000000  0  2G17G28                                          
  22137417.25849 116332912.37949    -17686.14149        50.000  
  21718785.39849 114132987.00049     -3285.28149        50.000  
 16 04 02 13 37 15.8000000  0  2G17G28                                          
  22137753.83649 116334681.08649    -17688.17249        50.000  
  21718847.93849 114133315.66849     -3287.89849        50.000  
 16 04 02 13 37 15.9000000  0  2G17G28                                          
  22138090.45349 116336450.03949    -17690.75049        50.000  
  21718910.53149 114133644.61349     -3290.95349        50.000  
 16 04 02 13 37 16.0000000  0  2G17G28                                          
  22138427.12549 116338219.25849    -17693.38349        50.000  
  21718973.19549 114133973.89149     -3294.12949        50.000  
 16 04 02 13 37 16.1000000  0  2G17G28                                          
  22138763.82849 116339988.64149    -17694.89549        50.000  
  21719035.89149 114134303.36749     -3296.03549        50.000  
 16 04 02 13 37 16.2000000  0  2G17G28                                          
  22139100.57049 116341758.21549    -17696.83249        50.000  
  21719098.63349 114134633.09049     -3298.47349        50.000  
 16 04 02 13 37 16.3000000  0  2G17G28                                          
  22139437.36749 116343528.09449    -17699.98449        50.000  
  21719161.44549 114134963.16449     -3302.06649        50.000  
 16 04 02 13 37 16.4000000  0  2G17G28                                          
  22139774.21149 116345298.23449    -17702.65649        50.000  
  21719224.32049 114135293.55149     -3305.28949        50.000  
 16 04 02 13 37 16.5000000  0  2G17G28                                          
  22140111.09449 116347068.55549    -17704.52049        50.000  
  21719287.23449 114135624.16849     -3307.70749        50.000  
 16 04 02 13 37 16.6000000  0  2G17G28                                          
  22140448.03149 116348839.18049    -17707.43449        50.000  
  21719350.21949 114135955.13349     -3310.97349        50.000  
 16 04 02 13 37 16.7000000  0  2G17G28                                          
  22140785.00049 116350609.95749    -17709.18049        50.000  
  21719413.23449 114136286.31249     -3313.26649        50.000  
 16 04 02 13 37 16.8000000  0  2G17G28                                          
  22141122.03949 116352381.09049    -17712.43449        50.000  
  21719476.33649 114136617.88749     -3317.06649        50.000  
 16 04 02 13 37 16.9000000  0  2G17G28                                          
  22141459.10249 116354152.39149    -17714.16449        50.000  
  21719539.46949 114136949.67249     -3319.21949        50.000  
 16 04 02 13 37 17.0000000  0  2G17G28                                          
  22141796.21949 116355923.90249    -17716.25049        50.000  
  21719602.66449 114137281.73049     -3321.91449        50.000  
 16 04 02 13 37 17.1000000  0  2G17G28                                          
  22142133.37549 116357695.66849    -17718.86349        50.000  
  21719665.90649 114137614.09449     -3325.01249        50.000  
 16 04 02 13 37 17.2000000  0  2G17G28                                          
  22142470.57849 116359467.68849    -17721.43849        50.000  
  21719729.21149 114137946.74649     -3328.05949        50.000  
 16 04 02 13 37 17.3000000  0  2G17G28                                          
  22142807.82049 116361239.89149    -17723.12949        50.000  
  21719792.55549 114138279.64149     -3330.27049        50.000  
 16 04 02 13 37 17.4000000  0  2G17G28                                          
  22143145.10249 116363012.33649    -17725.62949        50.000  
  21719855.96149 114138612.82849     -3333.26649        50.000  
 16 04 02 13 37 17.5000000  0  2G17G28                                          
  22143482.43849 116364785.03549    -17728.11349        50.000  
  21719919.42249 114138946.30949     -3336.17649        50.000  
 16 04 02 13 37 17.6000000  0  2G17G28                                          
  22143819.81249 116366557.96149    -17730.50049        50.000  
  21719982.93049 114139280.06649     -3339.04349        50.000  
 16 04 02 13 37 17.7000000  0  2G17G28                                          
  22144157.23449 116368331.14149    -17732.76249        50.000  
  21720046.50049 114139614.14549     -3341.96949        50.000  
 16 04 02 13 37 17.8000000  0  2G17G28                                          
  22144494.71149 116370104.54349    -17735.28149        50.000  
  21720110.12549 114139948.47349     -3344.81249        50.000  
 16 04 02 13 37 17.9000000  0  2G17G28                                          
  22144832.22749 116371878.18849    -17737.76649        50.000  
  21720173.79749 114140283.09849     -3347.73849        50.000  
 16 04 02 13 37 18.0000000  0  2G17G28                                          
  22145169.78149 116373652.07049    -17740.07849        50.000  
  21720237.53149 114140618.01249     -3350.53149        50.000  
 16 04 02 13 37 18.1000000  0  2G17G28                                          
  22145507.39149 116375426.23049    -17742.89149        50.000  
  21720301.32849 114140953.26249     -3353.92649        50.000  
 16 04 02 13 37 18.2000000  0  2G17G28                                          
  22145845.03949 116377200.56249    -17744.54749        50.000  
  21720365.16449 114141288.72749     -3356.08649        50.000  
 16 04 02 13 37 18.3000000  0  2G17G28                                          
  22146182.73449 116378975.18449    -17747.28949        50.000  
  21720429.06249 114141624.53149     -3359.20749        50.000  
 16 04 02 13 37 18.4000000  0  2G17G28                                          
  22146520.48449 116380750.03549    -17749.71949        50.000  
  21720493.02349 114141960.62149     -3362.29749        50.000  
 16 04 02 13 37 18.5000000  0  2G17G28                                          
  22146858.25849 116382525.05549    -17751.37149        50.000  
  21720557.01649 114142296.91049     -3364.27349        50.000  
 16 04 02 13 37 18.6000000  0  2G17G28                                          
  22147196.09449 116384300.37149    -17754.44149        50.000  
  21720621.07849 114142633.56649     -3368.01249        50.000  
 16 04 02 13 37 18.7000000  0  2G17G28                                          
  22147533.96949 116386075.91049    -17756.39149        50.000  
  21720685.19549 114142970.48449     -3370.49649        50.000  
 16 04 02 13 37 18.8000000  0  2G17G28                                          
  22147871.88349 116387851.66049    -17758.79749        50.000  
  21720749.35949 114143307.66049     -3373.21149        50.000  
 16 04 02 13 37 18.9000000  0  2G17G28                                          
  22148209.84449 116389627.68449    -17761.30149        50.000  
  21720813.58649 114143645.15649     -3376.22749        50.000  
 16 04 02 13 37 19.0000000  0  2G17G28                                          
  22148547.85949 116391403.95749    -17764.05549        50.000  
  21720877.86749 114143982.97349     -3379.66449        50.000  
 16 04 02 13 37 19.1000000  0  2G17G28                                          
  22148885.89849 116393180.38749    -17765.33249        50.000  
  21720942.18849 114144320.96949     -3381.25049        50.000  
 16 04 02 13 37 19.2000000  0  2G17G28                                          
  22149224.00049 116394957.10949    -17768.31249        50.000  
  21721006.57049 114144659.32049     -3384.86349        50.000  
 16 04 02 13 37 19.3000000  0  2G17G28                                          
  22149562.14849 116396734.06249    -17770.73449        50.000  
  21721071.01649 114144997.96149     -3387.84449        50.000  
 16 04 02 13 37 19.4000000  0  2G17G28                                          
  22149900.33649 116398511.27349    -17773.29349        50.000  
  21721135.50849 114145336.89149     -3390.69149        50.000  
 16 04 02 13 37 19.5000000  0  2G17G28                                          
  22150238.58649 116400288.77049    -17776.12949        50.000  
  21721200.07049 114145676.16449     -3394.13349        50.000  
 16 04 02 13 37 19.6000000  0  2G17G28                                          
  22150576.86749 116402066.46949    -17778.33249        50.000  
  21721264.68049 114146015.68849     -3396.77749        50.000  
 16 04 02 13 37 19.7000000  0  2G17G28                                          
  22150915.19549 116403844.41449    -17780.52349        50.000  
  21721329.34449 114146355.50849     -3399.53549        50.000  
 16 04 02 13 37 19.8000000  0  2G17G28                                          
  22151253.57049 116405622.56649    -17782.73049        50.000  
  21721394.06249 114146695.59049     -3402.21149        50.000  
 16 04 02 13 37 19.9000000  0  2G17G28                                          
  22151591.98449 116407400.96549    -17785.16849        50.000  
  21721458.82849 114147035.94949     -3405.01249        50.000  
 16 04 02 13 37 20.0000000  0  2G17G28                                          
  22151930.44549 116409179.57049    -17787.30549        50.000  
  21721523.64849 114147376.58649     -3407.80149        50.000  
 16 04 02 13 37 20.1000000  0  2G17G28                                          
  22152268.95349 116410958.43849    -17789.78549        50.000  
  21721588.53149 114147717.52749     -3410.69549        50.000  
 16 04 02 13 37 20.2000000  0  2G17G28                                          
  22152607.50849 116412737.54749    -17792.61349        50.000  
  21721653.46149 114148058.76249     -3413.99249        50.000  
 16 04 02 13 37 20.3000000  0  2G17G28                                          
  22152946.10949 116414516.92249    -17794.90649        50.000  
  21721718.46149 114148400.32049     -3416.99249        50.000  
 16 04 02 13 37 20.4000000  0  2G17G28                                          
  22153284.76649 116416296.54749    -17797.64149        50.000  
  21721783.50849 114148742.15649     -3420.00449        50.000  
 16 04 02 13 37 20.5000000  0  2G17G28                                          
  22153623.46149 116418076.39149    -17799.57449        50.000  
  21721848.60949 114149084.27749     -3422.52049        50.000  
 16 04 02 13 37 20.6000000  0  2G17G28                                          
  22153962.19549 116419856.45749    -17801.91449        50.000  
  21721913.76649 114149426.66449     -3425.31649        50.000  
 16 04 02 13 37 20.7000000  0  2G17G28                                          
  22154300.97749 116421636.77749    -17804.35549        50.000  
  21721978.97749 114149769.35249     -3428.22349        50.000  
 16 04 02 13 37 20.8000000  0  2G17G28                                          
  22154639.82049 116423417.35549    -17807.14549        50.000  
  21722044.25049 114150112.35549     -3431.53149        50.000  
 16 04 02 13 37 20.9000000  0  2G17G28                                          
  22154978.68849 116425198.14549    -17809.14149        50.000  
  21722109.57849 114150455.61749     -3434.09849        50.000  
 16 04 02 13 37 21.0000000  0  2G17G28                                          
  22155317.60949 116426979.14849    -17811.39549        50.000  
  21722174.94549 114150799.14849     -3436.78949        50.000  
 16 04 02 13 37 21.1000000  0  2G17G28                                          
  22155656.57849 116428760.44149    -17814.07049        50.000  
  21722240.38349 114151143.00449     -3439.98049        50.000  
 16 04 02 13 37 21.2000000  0  2G17G28                                          
  22155995.57849 116430541.90649    -17815.76649        50.000  
  21722305.85949 114151487.09849     -3442.17649        50.000  
 16 04 02 13 37 21.3000000  0  2G17G28                                          
  22156334.63349 116432323.64549    -17818.35949        50.000  
  21722371.39849 114151831.50449     -3445.35549        50.000  
 16 04 02 13 37 21.4000000  0  2G17G28                                          
  22156673.72749 116434105.60249    -17820.86349        50.000  
  21722436.99249 114152176.18449     -3448.29349        50.000  
 16 04 02 13 37 21.5000000  0  2G17G28                                          
  22157012.87549 116435887.82849    -17823.53149        50.000  
  21722502.64149 114152521.17649     -3451.37549        50.000  
 16 04 02 13 37 21.6000000  0  2G17G28                                          
  22157352.05549 116437670.23449    -17825.12149        50.000  
  21722568.32849 114152866.41049     -3453.63749        50.000  
 16 04 02 13 37 21.7000000  0  2G17G28                                          
  22157691.28149 116439452.91049    -17828.01649        50.000  
  21722634.08649 114153211.94949     -3456.82049        50.000  
 16 04 02 13 37 21.8000000  0  2G17G28                                          
  22158030.56249 116441235.83649    -17830.41049        50.000  
  21722699.89849 114153557.80149     -3459.85249        50.000  
 16 04 02 13 37 21.9000000  0  2G17G28                                          
  22158369.89149 116443019.01649    -17832.92649        50.000  
  21722765.76649 114153903.95349     -3462.84849        50.000  
 16 04 02 13 37 22.0000000  0  2G17G28                                          
  22158709.26649 116444802.43049    -17835.24249        50.000  
  21722831.69549 114154250.38749     -3465.70349        50.000  
 16 04 02 13 37 22.1000000  0  2G17G28                                          
  22159048.68049 116446586.05149    -17837.26649        50.000  
  21722897.66449 114154597.07049     -3468.19549        50.000  
 16 04 02 13 37 22.2000000  0  2G17G28                                          
  22159388.13349 116448369.87149    -17839.36349        50.000  
  21722963.68849 114154944.01649     -3470.79749        50.000  
 16 04 02 13 37 22.3000000  0  2G17G28                                          
  22159727.63349 116450153.99249    -17842.21549        50.000  
  21723029.77349 114155291.30549     -3474.16449        50.000  
 16 04 02 13 37 22.4000000  0  2G17G28                                          
  22160067.19549 116451938.36349    -17845.07049        50.000  
  21723095.92249 114155638.89849     -3477.44149        50.000  
 16 04 02 13 37 22.5000000  0  2G17G28                                          
  22160406.78949 116453722.96549    -17847.31249        50.000  
  21723162.11749 114155986.77349     -3480.23049        50.000  
 16 04 02 13 37 22.6000000  0  2G17G28                                          
  22160746.43049 116455507.81649    -17849.43849        50.000  
  21723228.37549 114156334.93449     -3482.82049        50.000  
 16 04 02 13 37 22.7000000  0  2G17G28                                          
  22161086.10249 116457292.77049    -17850.66449        50.000  
  21723294.65649 114156683.26649     -3484.52749        50.000  
 16 04 02 13 37 22.8000000  0  2G17G28                                          
  22161425.82049 116459078.03149    -17853.55149        50.000  
  21723361.00849 114157031.94949     -3488.01249        50.000  
 16 04 02 13 37 22.9000000  0  2G17G28                                          
  22161765.58649 116460863.48849    -17855.85549        50.000  
  21723427.40649 114157380.87149     -3490.71549        50.000  
 16 04 02 13 37 23.0000000  0  2G17G28                                          
  22162105.39849 116462649.21149    -17858.32049        50.000  
  21723493.85949 114157730.11749     -3493.80949        50.000  
 16 04 02 13 37 23.1000000  0  2G17G28                                          
  22162445.25849 116464435.18849    -17860.98049        50.000  
  21723560.37549 114158079.66449     -3496.84049        50.000  
 16 04 02 13 37 23.2000000  0  2G17G28                                          
  22162785.14849 116466221.35949    -17862.99249        50.000  
  21723626.94549 114158429.46149     -3499.50849        50.000  
 16 04 02 13 37 23.3000000  0  2G17G28                                          
  22163125.10249 116468007.78549    -17865.39849        50.000  
  21723693.56249 114158779.55149     -3502.23849        50.000  
 16 04 02 13 37 23.4000000  0  2G17G28                                          
  22163465.08649 116469794.44149    -17867.71549        50.000  
  21723760.24249 114159129.93049     -3505.14849        50.000  
 16 04 02 13 37 23.5000000  0  2G17G28                                          
  22163805.12549 116471581.35949    -17870.46549        50.000  
  21723826.97749 114159480.62149     -3508.38749        50.000  
 16 04 02 13 37 23.6000000  0  2G17G28                                          
  22164145.22749 116473368.56649    -17873.35249        50.000  
  21723893.77349 114159831.64549     -3511.74249        50.000  
 16 04 02 13 37 23.7000000  0  2G17G28                                          
  22164485.34449 116475155.92249    -17874.70349        50.000  
  21723960.60949 114160182.87949     -3513.67649        50.000  
 16 04 02 13 37 23.8000000  0  2G17G28                                          
  22164825.51649 116476943.51649    -17877.06249        50.000  
  21724027.50049 114160534.39549     -3516.52749        50.000  
 16 04 02 13 37 23.9000000  0  2G17G28                                          
  22165165.73449 116478731.36749    -17879.56249        50.000  
  21724094.45349 114160886.21549     -3519.47749        50.000  
 16 04 02 13 37 24.0000000  0  2G17G28                                          
  22165505.98449 116480519.37949    -17881.12549        50.000  
  21724161.44549 114161238.24249     -3521.54749        50.000  
 16 04 02 13 37 24.1000000  0  2G17G28                                          
  22165846.29749 116482307.72349    -17884.73449        50.000  
  21724228.50849 114161590.66449     -3525.65249        50.000  
 16 04 02 13 37 24.2000000  0  2G17G28                                          
  22166186.64849 116484096.28149    -17886.72349        50.000  
  21724295.61749 114161943.35249     -3528.27349        50.000  
 16 04 02 13 37 24.3000000  0  2G17G28                                          
  22166527.04749 116485885.07449    -17889.14149        50.000  
  21724362.78949 114162296.30949     -3530.98449        50.000  
 16 04 02 13 37 24.4000000  0  2G17G28                                          
  22166867.48449 116487674.09449    -17891.35549        50.000  
  21724430.00849 114162649.55149     -3533.77049        50.000  
 16 04 02 13 37 24.5000000  0  2G17G28                                          
  22167207.98449 116489463.42649    -17894.46949        50.000  
  21724497.29749 114163003.16049     -3537.43049        50.000  
 16 04 02 13 37 24.6000000  0  2G17G28                                          
  22167548.51649 116491252.90649    -17896.02749        50.000  
  21724564.61749 114163356.96549     -3539.45749        50.000  
 16 04 02 13 37 24.7000000  0  2G17G28                                          
  22167889.08649 116493042.62549    -17898.39849        50.000  
  21724632.00049 114163711.05549     -3542.27749        50.000  
 16 04 02 13 37 24.8000000  0  2G17G28                                          
  22168229.71949 116494832.63349    -17901.22349        50.000  
  21724699.44549 114164065.49249     -3545.63749        50.000  
 16 04 02 13 37 24.9000000  0  2G17G28                                          
  22168570.38349 116496622.84449    -17903.16449        50.000  
  21724766.93849 114164420.18049     -3548.18449        50.000  
 16 04 02 13 37 25.0000000  0  2G17G28                                          
  22168911.08649 116498413.24649    -17905.02749        50.000  
  21724834.47749 114164775.10249     -3550.47349        50.000  
 16 04 02 13 37 25.1000000  0  2G17G28                                          
  22169251.83649 116500203.89849    -17907.64149        50.000  
  21724902.07849 114165130.32849     -3553.52049        50.000  
 16 04 02 13 37 25.2000000  0  2G17G28                                          
  22169592.63349 116501994.79749    -17910.09449        50.000  
  21724969.73449 114165485.85549     -3556.67249        50.000  
 16 04 02 13 37 25.3000000  0  2G17G28                                          
  22169933.46949 116503785.94149    -17912.71149        50.000  
  21725037.44549 114165841.67649     -3559.60549        50.000  
 16 04 02 13 37 25.4000000  0  2G17G28                                          
  22170274.35949 116505577.33249    -17915.08649        50.000  
  21725105.21149 114166197.78949     -3562.48449        50.000  
 16 04 02 13 37 25.5000000  0  2G17G28                                          
  22170615.29749 116507368.96949    -17917.75049        50.000  
  21725173.03149 114166554.21149     -3565.81649        50.000  
 16 04 02 13 37 25.6000000  0  2G17G28                                          
  22170956.27349 116509160.79749    -17919.35249        50.000  
  21725240.90649 114166910.87149     -3567.96549        50.000  
 16 04 02 13 37 25.7000000  0  2G17G28                                          
  22171297.28949 116510952.84449    -17921.67649        50.000  
  21725308.82049 114167267.78149     -3570.54349        50.000  
 16 04 02 13 37 25.8000000  0  2G17G28                                          
  22171638.36749 116512745.21149    -17924.77349        50.000  
  21725376.81249 114167625.07849     -3574.30549        50.000  
 16 04 02 13 37 25.9000000  0  2G17G28                                          
  22171979.48449 116514537.81249    -17927.48049        50.000  
  21725444.85949 114167982.65649     -3577.43049        50.000  
 16 04 02 13 37 26.0000000  0  2G17G28                                          
  22172320.65649 116516330.64149    -17929.48849        50.000  
  21725512.96149 114168340.52749     -3580.08249        50.000  
 16 04 02 13 37 26.1000000  0  2G17G28                                          
  22172661.85949 116518123.66849    -17931.32849        50.000  
  21725581.10249 114168698.63749     -3582.35949        50.000  
 16 04 02 13 37 26.2000000  0  2G17G28                                          
  22173003.10249 116519916.89849    -17933.46549        50.000  
  21725649.29749 114169057.00049     -3585.13349        50.000  
 16 04 02 13 37 26.3000000  0  2G17G28                                          
  22173344.39149 116521710.38749    -17935.93449        50.000  
  21725717.54749 114169415.66849     -3588.03949        50.000  
 16 04 02 13 37 26.4000000  0  2G17G28                                          
  22173685.71949 116523504.09849    -17938.35549        50.000  
  21725785.85249 114169774.60249     -3590.84849        50.000  
 16 04 02 13 37 26.5000000  0  2G17G28                                          
  22174027.09449 116525298.02049    -17940.33649        50.000  
  21725854.20349 114170133.80949     -3593.43449        50.000  
 16 04 02 13 37 26.6000000  0  2G17G28                                          
  22174368.50049 116527092.14849    -17942.53149        50.000  
  21725922.60949 114170493.26649     -3596.05149        50.000  
 16 04 02 13 37 26.7000000  0  2G17G28                                          
  22174709.96949 116528886.57849    -17945.43449        50.000  
  21725991.07849 114170853.09449     -3599.64549        50.000  
 16 04 02 13 37 26.8000000  0  2G17G28                                          
  22175051.48449 116530681.23049    -17947.80149        50.000  
  21726059.60249 114171213.16049     -3602.08649        50.000  
 16 04 02 13 37 26.9000000  0  2G17G28                                          
  22175393.03949 116532476.09849    -17950.11349        50.000  
  21726128.17249 114171573.52349     -3605.21949        50.000  
 16 04 02 13 37 27.0000000  0  2G17G28                                          
  22175734.64849 116534271.28149    -17953.02349        50.000  
  21726196.81249 114171934.24649     -3608.64149        50.000  
 16 04 02 13 37 27.1000000  0  2G17G28                                          
  22176076.28949 116536066.61349    -17954.58649        50.000  
  21726265.49249 114172295.16049     -3610.59849        50.000  
 16 04 02 13 37 27.2000000  0  2G17G28                                          
  22176417.97749 116537862.20749    -17956.86749        50.000  
  21726334.23449 114172656.38349     -3613.29749        50.000  
 16 04 02 13 37 27.3000000  0  2G17G28                                          
  22176759.70349 116539657.96949    -17958.93849        50.000  
  21726403.01649 114173017.84849     -3616.04749        50.000  
 16 04 02 13 37 27.4000000  0  2G17G28                                          
  22177101.47749 116541454.03149    -17961.73449        50.000  
  21726471.86749 114173379.64549     -3619.29349        50.000  
 16 04 02 13 37 27.5000000  0  2G17G28                                          
  22177443.32049 116543250.41449    -17965.04349        50.000  
  21726540.78149 114173741.80549     -3623.09849        50.000  
 16 04 02 13 37 27.6000000  0  2G17G28                                          
  22177785.18049 116545046.93049    -17966.69149        50.000  
  21726609.74249 114174104.16849     -3625.28549        50.000  
 16 04 02 13 37 27.7000000  0  2G17G28                                          
  22178127.08649 116546843.66049    -17968.41849        50.000  
  21726678.74249 114174466.78549     -3627.47349        50.000  
 16 04 02 13 37 27.8000000  0  2G17G28                                          
  22178469.03949 116548640.62549    -17970.82049        50.000  
  21726747.80549 114174829.69949     -3630.45349        50.000  
 16 04 02 13 37 27.9000000  0  2G17G28                                          
  22178811.03949 116550437.85249    -17973.31649        50.000  
  21726816.92249 114175192.91449     -3633.47349        50.000  
 16 04 02 13 37 28.0000000  0  2G17G28                                          
  22179153.07849 116552235.26649    -17975.27349        50.000  
  21726886.08649 114175556.37149     -3635.92249        50.000  
 16 04 02 13 37 28.1000000  0  2G17G28                                          
  22179495.15649 116554032.91049    -17977.62949        50.000  
  21726955.30549 114175920.11349     -3638.86349        50.000  
 16 04 02 13 37 28.2000000  0  2G17G28                                          
  22179837.29749 116555830.83649    -17980.36749        50.000  
  21727024.58649 114176284.18449     -3642.06649        50.000  
 16 04 02 13 37 28.3000000  0  2G17G28                                          
  22180179.46949 116557628.96949    -17982.61749        50.000  
  21727093.91449 114176648.50849     -3644.74249        50.000  
 16 04 02 13 37 28.4000000  0  2G17G28                                          
  22180521.68849 116559427.33649    -17984.70749        50.000  
  21727163.28949 114177013.11749     -3647.32449        50.000  
 16 04 02 13 37 28.5000000  0  2G17G28                                          
  22180863.95349 116561225.93849    -17987.25849        50.000  
  21727232.73449 114177378.02349     -3650.53949        50.000  
 16 04 02 13 37 28.6000000  0  2G17G28                                          
  22181206.26649 116563024.80549    -17989.92649        50.000  
  21727302.22749 114177743.23449     -3653.56249        50.000  
 16 04 02 13 37 28.7000000  0  2G17G28                                          
  22181548.60949 116564823.85249    -17991.60949        50.000  
  21727371.77349 114178108.68449     -3655.87549        50.000  
 16 04 02 13 37 28.8000000  0  2G17G28                                          
  22181891.00049 116566623.10549    -17993.62149        50.000  
  21727441.35949 114178474.37549     -3658.15649        50.000  
 16 04 02 13 37 28.9000000  0  2G17G28                                          
  22182233.43849 116568422.64149    -17996.53949        50.000  
  21727511.01649 114178840.41849     -3661.75849        50.000  
 16 04 02 13 37 29.0000000  0  2G17G28                                          
  22182575.93849 116570222.46149    -17999.58649        50.000  
  21727580.73449 114179206.79749     -3665.38349        50.000  
 16 04 02 13 37 29.1000000  0  2G17G28                                          
  22182918.47749 116572022.50849    -18001.70349        50.000  
  21727650.50049 114179573.43849     -3667.82849        50.000  
 16 04 02 13 37 29.2000000  0  2G17G28                                          
  22183261.06249 116573822.81249    -18004.06649        50.000  
  21727720.33649 114179940.39849     -3670.84449        50.000  
 16 04 02 13 37 29.3000000  0  2G17G28                                          
  22183603.68849 116575623.28549    -18006.00449        50.000  
  21727790.20349 114180307.57449     -3673.23049        50.000  
 16 04 02 13 37 29.4000000  0  2G17G28                                          
  22183946.35949 116577424.03949    -18008.59849        50.000  
  21727860.14149 114180675.09049     -3676.46949        50.000  
 16 04 02 13 37 29.5000000  0  2G17G28                                          
  22184289.07849 116579225.02749    -18011.10249        50.000  
  21727930.12549 114181042.87949     -3679.28549        50.000  
 16 04 02 13 37 29.6000000  0  2G17G28                                          
  22184631.82849 116581026.22349    -18012.94549        50.000  
  21728000.17249 114181410.93849     -3681.78149        50.000  
 16 04 02 13 37 29.7000000  0  2G17G28                                          
  22184974.62549 116582827.60949    -18014.95749        50.000  
  21728070.25049 114181779.23449     -3684.27749        50.000  
 16 04 02 13 37 29.8000000  0  2G17G28                                          
  22185317.46949 116584629.29349    -18017.98449        50.000  
  21728140.40649 114182147.87549     -3687.80549        50.000  
 16 04 02 13 37 29.9000000  0  2G17G28                                          
  22185660.35949 116586431.19549    -18020.10549        50.000  
  21728210.60949 114182516.79349     -3690.49649        50.000  
 16 04 02 13 37 30.0000000  0  2G17G28                                          
  22186003.30549 116588233.37149    -18023.10949        50.000  
  21728280.86749 114182886.01649     -3693.74249        50.000  
 16 04 02 13 37 30.1000000  0  2G17G28                                          
  22186346.28149 116590035.71549    -18024.59849        50.000  
  21728351.17249 114183255.47349     -3695.89849        50.000  
 16 04 02 13 37 30.2000000  0  2G17G28                                          
  22186689.30549 116591838.33249    -18027.28549        50.000  
  21728421.54749 114183625.26649     -3699.19949        50.000  
 16 04 02 13 37 30.3000000  0  2G17G28                                          
  22187032.37549 116593641.18449    -18029.71949        50.000  
  21728491.96149 114183995.32049     -3702.00849        50.000  
 16 04 02 13 37 30.4000000  0  2G17G28                                          
  22187375.48449 116595444.23449    -18031.59449        50.000  
  21728562.43849 114184365.64549     -3704.55949        50.000  
 16 04 02 13 37 30.5000000  0  2G17G28                                          
  22187718.64149 116597247.54749    -18034.32849        50.000  
  21728632.96149 114184736.27749     -3707.71149        50.000  
 16 04 02 13 37 30.6000000  0  2G17G28                                          
  22188061.85949 116599051.12949    -18037.14549        50.000  
  21728703.55549 114185107.22749     -3711.03549        50.000  
 16 04 02 13 37 30.7000000  0  2G17G28                                          
  22188405.10949 116600854.92649    -18039.23849        50.000  
  21728774.19549 114185478.44549     -3713.70749        50.000  
 16 04 02 13 37 30.8000000  0  2G17G28                                          
  22188748.41449 116602659.00449    -18041.99649        50.000  
  21728844.90649 114185850.00449     -3717.12149        50.000  
 16 04 02 13 37 30.9000000  0  2G17G28                                          
  22189091.76649 116604463.32049    -18044.52049        50.000  
  21728915.66449 114186221.82849     -3719.89549        50.000  
 16 04 02 13 37 31.0000000  0  2G17G28                                          
  22189435.15649 116606267.84049    -18046.37549        50.000  
  21728986.46949 114186593.92649     -3722.41049        50.000  
 16 04 02 13 37 31.1000000  0  2G17G28                                          
  22189778.59449 116608072.59449    -18048.61349        50.000  
  21729057.32849 114186966.29749     -3725.02749        50.000  
 16 04 02 13 37 31.2000000  0  2G17G28                                          
  22190122.06249 116609877.54349    -18050.60949        50.000  
  21729128.24249 114187338.92649     -3727.53149        50.000  
 16 04 02 13 37 31.3000000  0  2G17G28                                          
  22190465.57849 116611682.71949    -18052.80149        50.000  
  21729199.20349 114187711.83249     -3730.36349        50.000  
 16 04 02 13 37 31.4000000  0  2G17G28                                          
  22190809.13349 116613488.14549    -18055.42649        50.000  
  21729270.21949 114188085.02749     -3733.37149        50.000  
 16 04 02 13 37 31.5000000  0  2G17G28                                          
  22191152.75049 116615293.83249    -18058.13749        50.000  
  21729341.29749 114188458.55149     -3736.66449        50.000  
 16 04 02 13 37 31.6000000  0  2G17G28                                          
  22191496.39849 116617099.70749    -18060.04749        50.000  
  21729412.41449 114188832.30549     -3739.03549        50.000  
 16 04 02 13 37 31.7000000  0  2G17G28                                          
  22191840.09449 116618905.85949    -18062.67249        50.000  
  21729483.60249 114189206.39549     -3742.27049        50.000  
 16 04 02 13 37 31.8000000  0  2G17G28                                          
  22192183.84449 116620712.26249    -18065.15249        50.000  
  21729554.84449 114189580.76649     -3745.05149        50.000  
 16 04 02 13 37 31.9000000  0  2G17G28                                          
  22192527.63349 116622518.87549    -18067.43449        50.000  
  21729626.14149 114189955.43049     -3748.07849        50.000  
 16 04 02 13 37 32.0000000  0  2G17G28                                          
  22192871.47749 116624325.75049    -18069.91049        50.000  
  21729697.49249 114190330.38349     -3750.96549        50.000  
 16 04 02 13 37 32.1000000  0  2G17G28                                          
  22193215.35949 116626132.87149    -18072.49649        50.000  
  21729768.90649 114190705.64849     -3754.10549        50.000  
 16 04 02 13 37 32.2000000  0  2G17G28                                          
  22193559.28949 116627940.25049    -18075.16449        50.000  
  21729840.37549 114191081.21549     -3757.28549        50.000  
 16 04 02 13 37 32.3000000  0  2G17G28                                          
  22193903.25849 116629747.82449    -18076.84049        50.000  
  21729911.88349 114191457.02349     -3759.45749        50.000  
 16 04 02 13 37 32.4000000  0  2G17G28                                          
  22194247.28149 116631555.65649    -18079.42649        50.000  
  21729983.46949 114191833.16049     -3762.66049        50.000  
 16 04 02 13 37 32.5000000  0  2G17G28                                          
  22194591.34449 116633363.69549    -18081.67649        50.000  
  21730055.08649 114192209.53149     -3765.23449        50.000  
 16 04 02 13 37 32.6000000  0  2G17G28                                          
  22194935.44549 116635171.98049    -18083.90649        50.000  
  21730126.76649 114192586.21149     -3767.98849        50.000  
 16 04 02 13 37 32.7000000  0  2G17G28                                          
  22195279.59449 116636980.48049    -18086.19549        50.000  
  21730198.50049 114192963.16449     -3770.93449        50.000  
 16 04 02 13 37 32.8000000  0  2G17G28                                          
  22195623.78949 116638789.24249    -18088.78949        50.000  
  21730270.28949 114193340.42249     -3773.98049        50.000  
 16 04 02 13 37 32.9000000  0  2G17G28                                          
  22195968.02349 116640598.20349    -18090.77749        50.000  
  21730342.12549 114193717.93049     -3776.50049        50.000  
 16 04 02 13 37 33.0000000  0  2G17G28                                          
  22196312.29749 116642407.35549    -18092.48449        50.000  
  21730414.00849 114194095.68449     -3778.71949        50.000  
 16 04 02 13 37 33.1000000  0  2G17G28                                          
  22196656.60949 116644216.71549    -18094.52749        50.000  
  21730485.93849 114194473.69949     -3781.34049        50.000  
 16 04 02 13 37 33.2000000  0  2G17G28                                          
  22197000.96149 116646026.28949    -18096.82449        50.000  
  21730557.92249 114194851.97349     -3784.04349        50.000  
 16 04 02 13 37 33.3000000  0  2G17G28                                          
  22197345.36749 116647836.17649    -18100.02349        50.000  
  21730629.97749 114195230.62149     -3787.89849        50.000  
 16 04 02 13 37 33.4000000  0  2G17G28                                          
  22197689.82849 116649646.32449    -18102.68849        50.000  
  21730702.09449 114195609.56649     -3790.92649        50.000  
 16 04 02 13 37 33.5000000  0  2G17G28                                          
  22198034.32849 116651456.66849    -18104.68849        50.000  
  21730774.25049 114195988.77749     -3793.57449        50.000  
 16 04 02 13 37 33.6000000  0  2G17G28                                          
  22198378.85949 116653267.23449    -18106.89149        50.000  
  21730846.46149 114196368.24649     -3796.10249        50.000  
 16 04 02 13 37 33.7000000  0  2G17G28                                          
  22198723.45349 116655078.07049    -18109.43449        50.000  
  21730918.73449 114196748.04749     -3799.25849        50.000  
 16 04 02 13 37 33.8000000  0  2G17G28                                          
  22199068.08649 116656889.14849    -18111.96949        50.000  
  21730991.06249 114197128.13749     -3802.23049        50.000  
 16 04 02 13 37 33.9000000  0  2G17G28                                          
  22199412.75849 116658700.41449    -18113.90649        50.000  
  21731063.43849 114197508.47349     -3804.83249        50.000  
 16 04 02 13 37 34.0000000  0  2G17G28                                          
  22199757.49249 116660511.98049    -18116.73049        50.000  
  21731135.88349 114197889.15649     -3808.19949        50.000  
 16 04 02 13 37 34.1000000  0  2G17G28                                          
  22200102.25849 116662323.74649    -18118.86349        50.000  
  21731208.36749 114198270.08249     -3810.71149        50.000  
 16 04 02 13 37 34.2000000  0  2G17G28                                          
  22200447.07049 116664135.70749    -18120.77349        50.000  
  21731280.90649 114198651.27049     -3813.22349        50.000  
 16 04 02 13 37 34.3000000  0  2G17G28                                          
  22200791.92249 116665947.91449    -18123.09849        50.000  
  21731353.50049 114199032.74249     -3815.95349        50.000  
 16 04 02 13 37 34.4000000  0  2G17G28                                          
  22201136.80549 116667760.32049    -18125.24649        50.000  
  21731426.14149 114199414.48049     -3818.71949        50.000  
 16 04 02 13 37 34.5000000  0  2G17G28                                          
  22201481.74249 116669572.96149    -18127.44149        50.000  
  21731498.83649 114199796.49249     -3821.35549        50.000  
 16 04 02 13 37 34.6000000  0  2G17G28                                          
  22201826.71949 116671385.80149    -18129.42249        50.000  
  21731571.57849 114200178.76249     -3823.98449        50.000  
 16 04 02 13 37 34.7000000  0  2G17G28                                          
  22202171.74249 116673198.93049    -18132.42649        50.000  
  21731644.38349 114200561.35949     -3827.39149        50.000  
 16 04 02 13 37 34.8000000  0  2G17G28                                          
  22202516.81249 116675012.30949    -18135.11349        50.000  
  21731717.24249 114200944.27049     -3830.53149        50.000  
 16 04 02 13 37 34.9000000  0  2G17G28                                          
  22202861.93049 116676825.87949    -18136.86349        50.000  
  21731790.15649 114201327.41849     -3832.80149        50.000  
 16 04 02 13 37 35.0000000  0  2G17G28                                          
  22203207.09449 116678639.74249    -18139.85549        50.000  
  21731863.14149 114201710.92649     -3836.42249        50.000  
 16 04 02 13 37 35.1000000  0  2G17G28                                          
  22203552.28149 116680453.71949    -18141.17249        50.000  
  21731936.14849 114202094.59849     -3838.29749        50.000  
 16 04 02 13 37 35.2000000  0  2G17G28                                          
  22203897.54749 116682268.08249    -18144.60249        50.000  
  21732009.23449 114202478.68449     -3842.10949        50.000  
 16 04 02 13 37 35.3000000  0  2G17G28                                          
  22204242.83649 116684082.62549    -18146.64549        50.000  
  21732082.37549 114202863.02349     -3844.78949        50.000  
 16 04 02 13 37 35.4000000  0  2G17G28                                          
  22204588.17249 116685897.35249    -18148.53949        50.000  
  21732155.55549 114203247.58649     -3847.06649        50.000  
 16 04 02 13 37 35.5000000  0  2G17G28                                          
  22204933.55549 116687712.37949    -18151.25849        50.000  
  21732228.80549 114203632.51649     -3850.53549        50.000  
 16 04 02 13 37 35.6000000  0  2G17G28                                          
  22205278.98449 116689527.63349    -18153.79349        50.000  
  21732302.10949 114204017.71149     -3853.45349        50.000  
 16 04 02 13 37 35.7000000  0  2G17G28                                          
  22205624.46149 116691343.11349    -18155.91849        50.000  
  21732375.46149 114204403.17649     -3855.91449        50.000  
 16 04 02 13 37 35.8000000  0  2G17G28                                          
  22205969.98449 116693158.82049    -18158.32049        50.000  
  21732448.86749 114204788.94549     -3859.08249        50.000  
 16 04 02 13 37 35.9000000  0  2G17G28                                          
  22206315.54749 116694974.77749    -18160.71949        50.000  
  21732522.32849 114205175.00049     -3861.93049        50.000  
 16 04 02 13 37 36.0000000  0  2G17G28                                          
  22206661.14849 116696790.88749    -18162.29749        50.000  
  21732595.82849 114205561.26249     -3864.02349        50.000  
 16 04 02 13 37 36.1000000  0  2G17G28                                          
  22207006.80549 116698607.33249    -18165.59049        50.000  
  21732669.40649 114205947.91449     -3867.90249        50.000  
 16 04 02 13 37 36.2000000  0  2G17G28                                          
  22207352.49249 116700423.94149    -18167.08649        50.000  
  21732743.03149 114206334.77749     -3869.98849        50.000  
 16 04 02 13 37 36.3000000  0  2G17G28                                          
  22207698.21949 116702240.72349    -18168.98849        50.000  
  21732816.68849 114206721.86349     -3872.32449        50.000  
 16 04 02 13 37 36.4000000  0  2G17G28                                          
  22208044.00049 116704057.82849    -18172.19549        50.000  
  21732890.42249 114207109.34049     -3876.14149        50.000  
 16 04 02 13 37 36.5000000  0  2G17G28                                          
  22208389.83649 116705875.18849    -18174.82449        50.000  
  21732964.21149 114207497.09449     -3879.00449        50.000  
 16 04 02 13 37 36.6000000  0  2G17G28                                          
  22208735.70349 116707692.74649    -18176.79349        50.000  
  21733038.04749 114207885.12149     -3881.64149        50.000  
 16 04 02 13 37 36.7000000  0  2G17G28                                          
  22209081.61749 116709510.53949    -18179.13749        50.000  
  21733111.93849 114208273.42249     -3884.44149        50.000  
 16 04 02 13 37 36.8000000  0  2G17G28                                          
  22209427.57049 116711328.53149    -18181.02049        50.000  
  21733185.88349 114208661.99649     -3886.97749        50.000  
 16 04 02 13 37 36.9000000  0  2G17G28                                          
  22209773.57849 116713146.79749    -18183.81649        50.000  
  21733259.88349 114209050.87949     -3890.23849        50.000  
 16 04 02 13 37 37.0000000  0  2G17G28                                          
  22210119.62549 116714965.25849    -18185.89849        50.000  
  21733333.93049 114209440.01249     -3892.80149        50.000  
 16 04 02 13 37 37.1000000  0  2G17G28                                          
  22210465.71949 116716784.00449    -18188.67649        50.000  
  21733408.04749 114209829.48849     -3896.11349        50.000  
 16 04 02 13 37 37.2000000  0  2G17G28                                          
  22210811.85949 116718602.98449    -18191.12549        50.000  
  21733482.21149 114210219.25049     -3899.14149        50.000  
 16 04 02 13 37 37.3000000  0  2G17G28                                          
  22211158.04749 116720422.21149    -18193.48049        50.000  
  21733556.43849 114210609.29349     -3901.91849        50.000  
 16 04 02 13 37 37.4000000  0  2G17G28                                          
  22211504.27349 116722241.62149    -18195.21149        50.000  
  21733630.70349 114210999.59049     -3904.26249        50.000  
 16 04 02 13 37 37.5000000  0  2G17G28                                          
  22211850.55549 116724061.31649    -18198.04749        50.000  
  21733705.03949 114211390.21549     -3907.66449        50.000  
 16 04 02 13 37 37.6000000  0  2G17G28                                          
  22212196.86749 116725881.21149    -18200.21549        50.000  
  21733779.42249 114211781.10249     -3910.35249        50.000  
 16 04 02 13 37 37.7000000  0  2G17G28                                          
  22212543.22749 116727701.34049    -18202.43849        50.000  
  21733853.85949 114212172.25849     -3912.95749        50.000  
 16 04 02 13 37 37.8000000  0  2G17G28                                          
  22212889.64149 116729521.72349    -18204.90249        50.000  
  21733928.35249 114212563.73049     -3916.05549        50.000  
 16 04 02 13 37 37.9000000  0  2G17G28                                          
  22213236.08649 116731342.30949    -18207.03549        50.000  
  21734002.89849 114212955.46949     -3918.75849        50.000  
 16 04 02 13 37 38.0000000  0  2G17G28                                          
  22213582.58649 116733163.18449    -18209.99649        50.000  
  21734077.50849 114213347.52749     -3922.05949        50.000  
 16 04 02 13 37 38.1000000  0  2G17G28                                          
  22213929.12549 116734984.24249    -18211.75849        50.000  
  21734152.15649 114213739.84049     -3924.48849        50.000  
 16 04 02 13 37 38.2000000  0  2G17G28                                          
  22214275.70349 116736805.53949    -18214.13349        50.000  
  21734226.86749 114214132.43449     -3927.36749        50.000  
 16 04 02 13 37 38.3000000  0  2G17G28                                          
  22214622.33649 116738627.07449    -18216.63749        50.000  
  21734301.63349 114214525.32049     -3930.40649        50.000  
 16 04 02 13 37 38.4000000  0  2G17G28                                          
  22214969.00049 116740448.84849    -18218.89149        50.000  
  21734376.45349 114214918.49649     -3933.16849        50.000  
 16 04 02 13 37 38.5000000  0  2G17G28                                          
  22215315.72749 116742270.88349    -18221.79749        50.000  
  21734451.33649 114215311.98449     -3936.46549        50.000  
 16 04 02 13 37 38.6000000  0  2G17G28                                          
  22215662.49249 116744093.16049    -18224.09449        50.000  
  21734526.26649 114215705.76649     -3939.28549        50.000  
 16 04 02 13 37 38.7000000  0  2G17G28                                          
  22216009.30549 116745915.66849    -18226.33249        50.000  
  21734601.25849 114216099.83649     -3942.18449        50.000  
 16 04 02 13 37 38.8000000  0  2G17G28                                          
  22216356.16449 116747738.38749    -18228.27749        50.000  
  21734676.30549 114216494.17649     -3944.72749        50.000  
 16 04 02 13 37 38.9000000  0  2G17G28                                          
  22216703.05549 116749561.32449    -18230.54749        50.000  
  21734751.39149 114216888.77049     -3947.35249        50.000  
 16 04 02 13 37 39.0000000  0  2G17G28                                          
  22217050.00049 116751384.50849    -18233.12149        50.000  
  21734826.53949 114217283.66849     -3950.45749        50.000  
 16 04 02 13 37 39.1000000  0  2G17G28                                          
  22217396.97749 116753207.89149    -18234.87549        50.000  
  21734901.73449 114217678.82449     -3952.81649        50.000  
 16 04 02 13 37 39.2000000  0  2G17G28                                          
  22217744.00049 116755031.51249    -18237.33649        50.000  
  21734976.98449 114218074.25849     -3955.67249        50.000  
 16 04 02 13 37 39.3000000  0  2G17G28                                          
  22218091.06249 116756855.35549    -18239.53149        50.000  
  21735052.28949 114218469.98849     -3958.65649        50.000  
 16 04 02 13 37 39.4000000  0  2G17G28                                          
  22218438.18849 116758679.47349    -18242.36749        50.000  
  21735127.64849 114218866.02749     -3961.83649        50.000  
 16 04 02 13 37 39.5000000  0  2G17G28                                          
  22218785.34449 116760503.81249    -18244.73049        50.000  
  21735203.06249 114219262.33649     -3964.62149        50.000  
 16 04 02 13 37 39.6000000  0  2G17G28                                          
  22219132.54749 116762328.36349    -18246.63749        50.000  
  21735278.53949 114219658.92649     -3967.09049        50.000  
 16 04 02 13 37 39.7000000  0  2G17G28                                          
  22219479.79749 116764153.18049    -18249.28949        50.000  
  21735354.06249 114220055.82849     -3970.40249        50.000  
 16 04 02 13 37 39.8000000  0  2G17G28                                          
  22219827.08649 116765978.19149    -18251.25449        50.000  
  21735429.64149 114220452.98449     -3973.00449        50.000  
 16 04 02 13 37 39.9000000  0  2G17G28                                          
  22220174.42249 116767803.44549    -18253.45749        50.000  
  21735505.26649 114220850.42249     -3975.59049        50.000  
 16 04 02 13 37 40.0000000  0  2G17G28                                          
  22220521.80549 116769628.94149    -18256.07049        50.000  
  21735580.95349 114221248.15649     -3978.63749        50.000  
 16 04 02 13 37 40.1000000  0  2G17G28                                          
  22220869.22749 116771454.66449    -18258.44149        50.000  
  21735656.69549 114221646.17249     -3981.56249        50.000  
 16 04 02 13 37 40.2000000  0  2G17G28                                          
  22221216.69549 116773280.62949    -18260.71549        50.000  
  21735732.49249 114222044.48049     -3984.35949        50.000  
 16 04 02 13 37 40.3000000  0  2G17G28                                          
  22221564.19549 116775106.75449    -18262.32049        50.000  
  21735808.32849 114222443.00849     -3986.61349        50.000  
 16 04 02 13 37 40.4000000  0  2G17G28                                          
  22221911.75049 116776933.14149    -18265.02349        50.000  
  21735884.22749 114222841.84449     -3989.73449        50.000  
 16 04 02 13 37 40.5000000  0  2G17G28                                          
  22222259.35949 116778759.82049    -18267.99649        50.000  
  21735960.18849 114223241.03149     -3993.29749        50.000  
 16 04 02 13 37 40.6000000  0  2G17G28                                          
  22222607.00849 116780586.74249    -18270.45349        50.000  
  21736036.20349 114223640.50049     -3996.20749        50.000  
 16 04 02 13 37 40.7000000  0  2G17G28                                          
  22222954.69549 116782413.85949    -18272.35249        50.000  
  21736112.27349 114224040.23449     -3998.77049        50.000  
 16 04 02 13 37 40.8000000  0  2G17G28                                          
  22223302.42249 116784241.15249    -18273.93449        50.000  
  21736188.38349 114224440.18449     -4000.71949        50.000  
 16 04 02 13 37 40.9000000  0  2G17G28                                          
  22223650.19549 116786068.70749    -18276.65249        50.000  
  21736264.54749 114224840.45749     -4004.03149        50.000  
 16 04 02 13 37 41.0000000  0  2G17G28                                          
  22223998.01649 116787896.52049    -18279.27349        50.000  
  21736340.77349 114225241.03149     -4007.21549        50.000  
 16 04 02 13 37 41.1000000  0  2G17G28                                          
  22224345.87549 116789724.55949    -18281.65249        50.000  
  21736417.05549 114225641.89549     -4010.06649        50.000  
 16 04 02 13 37 41.2000000  0  2G17G28                                          
  22224693.78149 116791552.77349    -18283.23849        50.000  
  21736493.38349 114226042.98049     -4012.15649        50.000  
 16 04 02 13 37 41.3000000  0  2G17G28                                          
  22225041.71949 116793381.23049    -18285.68449        50.000  
  21736569.75849 114226444.35949     -4015.17249        50.000  
 16 04 02 13 37 41.4000000  0  2G17G28                                          
  22225389.72749 116795210.00449    -18288.91049        50.000  
  21736646.21149 114226846.10549     -4018.91049        50.000  
 16 04 02 13 37 41.5000000  0  2G17G28                                          
  22225737.76649 116797038.96549    -18290.84849        50.000  
  21736722.70349 114227248.10249     -4021.39149        50.000  
 16 04 02 13 37 41.6000000  0  2G17G28                                          
  22226085.85249 116798868.15649    -18293.34449        50.000  
  21736799.25049 114227650.36349     -4024.12549        50.000  
 16 04 02 13 37 41.7000000  0  2G17G28                                          
  22226433.98449 116800697.59449    -18295.52349        50.000  
  21736875.86749 114228052.95349     -4027.19549        50.000  
 16 04 02 13 37 41.8000000  0  2G17G28                                          
  22226782.14849 116802527.21149    -18297.48849        50.000  
  21736952.51649 114228455.75849     -4029.60949        50.000  
 16 04 02 13 37 41.9000000  0  2G17G28                                          
  22227130.36749 116804357.11749    -18300.04749        50.000  
  21737029.22749 114228858.88749     -4032.57449        50.000  
 16 04 02 13 37 42.0000000  0  2G17G28                                          
  22227478.63349 116806187.23849    -18302.69149        50.000  
  21737106.00049 114229262.32049     -4035.87149        50.000  
 16 04 02 13 37 42.1000000  0  2G17G28                                          
  22227826.93849 116808017.57049    -18304.35949        50.000  
  21737182.81249 114229665.99649     -4038.09449        50.000  
 16 04 02 13 37 42.2000000  0  2G17G28                                          
  22228175.28149 116809848.10949    -18306.35249        50.000  
  21737259.68049 114230069.93849     -4040.68049        50.000  
 16 04 02 13 37 42.3000000  0  2G17G28                                          
  22228523.67249 116811678.91449    -18309.11749        50.000  
  21737336.60949 114230474.18449     -4043.78549        50.000  
 16 04 02 13 37 42.4000000  0  2G17G28                                          
  22228872.10249 116813509.96149    -18311.71149        50.000  
  21737413.59449 114230878.73849     -4046.92249        50.000  
 16 04 02 13 37 42.5000000  0  2G17G28                                          
  22229220.57049 116815341.17649    -18313.29349        50.000  
  21737490.61749 114231283.52349     -4049.19549        50.000  
 16 04 02 13 37 42.6000000  0  2G17G28                                          
  22229569.09449 116817172.68449    -18316.22349        50.000  
  21737567.71149 114231688.63349     -4052.55949        50.000  
 16 04 02 13 37 42.7000000  0  2G17G28                                          
  22229917.67249 116819004.45349    -18318.78549        50.000  
  21737644.85949 114232094.05949     -4055.63349        50.000  
 16 04 02 13 37 42.8000000  0  2G17G28                                          
  22230266.28149 116820836.41049    -18320.82049        50.000  
  21737722.06249 114232499.74249     -4058.28149        50.000  
 16 04 02 13 37 42.9000000  0  2G17G28                                          
  22230614.93849 116822668.59849    -18322.85949        50.000  
  21737799.31249 114232905.69949     -4060.89149        50.000  
 16 04 02 13 37 43.0000000  0  2G17G28                                          
  22230963.62549 116824500.97749    -18324.67249        50.000  
  21737876.60949 114233311.89549     -4063.19149        50.000  
 16 04 02 13 37 43.1000000  0  2G17G28                                          
  22231312.35249 116826333.52049    -18326.51649        50.000  
  21737953.94549 114233718.32049     -4065.52349        50.000  
 16 04 02 13 37 43.2000000  0  2G17G28                                          
  22231661.14149 116828166.40249    -18330.01249        50.000  
  21738031.36749 114234125.11749     -4069.44549        50.000  
 16 04 02 13 37 43.3000000  0  2G17G28                                          
  22232009.96149 116829999.47349    -18331.92649        50.000  
  21738108.82849 114234532.17649     -4072.02349        50.000  
 16 04 02 13 37 43.4000000  0  2G17G28                                          
  22232358.82049 116831832.75449    -18333.91849        50.000  
  21738186.33649 114234939.49649     -4074.62149        50.000  
 16 04 02 13 37 43.5000000  0  2G17G28                                          
  22232707.74249 116833666.35249    -18337.17249        50.000  
  21738263.91449 114235347.18049     -4078.27049        50.000  
 16 04 02 13 37 43.6000000  0  2G17G28                                          
  22233056.69549 116835500.11349    -18338.72349        50.000  
  21738341.53949 114235755.08249     -4080.39849        50.000  
 16 04 02 13 37 43.7000000  0  2G17G28                                          
  22233405.68849 116837334.09449    -18341.08249        50.000  
  21738419.21149 114236163.24649     -4083.18049        50.000  
 16 04 02 13 37 43.8000000  0  2G17G28                                          
  22233754.72749 116839168.29749    -18343.03549        50.000  
  21738496.93849 114236571.70349     -4085.69949        50.000  
 16 04 02 13 37 43.9000000  0  2G17G28                                          
  22234103.80549 116841002.71149    -18345.22349        50.000  
  21738574.71149 114236980.41449     -4088.50849        50.000  
 16 04 02 13 37 44.0000000  0  2G17G28                                          
  22234452.93049 116842837.37549    -18347.79349        50.000  
  21738652.54749 114237389.43449     -4091.59849        50.000  
 16 04 02 13 37 44.1000000  0  2G17G28                                          
  22234802.10249 116844672.27049    -18350.00849        50.000  
  21738730.43049 114237798.72749     -4094.26649        50.000  
 16 04 02 13 37 44.2000000  0  2G17G28                                          
  22235151.32049 116846507.43849    -18352.87549        50.000  
  21738808.38349 114238208.35249     -4097.60949        50.000  
 16 04 02 13 37 44.3000000  0  2G17G28                                          
  22235500.57849 116848342.79349    -18354.72749        50.000  
  21738886.37549 114238618.21549     -4100.00849        50.000  
 16 04 02 13 37 44.4000000  0  2G17G28                                          
  22235849.87549 116850178.36349    -18356.67249        50.000  
  21738964.42249 114239028.36749     -4102.75049        50.000  
 16 04 02 13 37 44.5000000  0  2G17G28                                          
  22236199.21149 116852014.13749    -18358.83649        50.000  
  21739042.51649 114239438.73849     -4105.19949        50.000  
 16 04 02 13 37 44.6000000  0  2G17G28                                          
  22236548.60949 116853850.20749    -18361.77749        50.000  
  21739120.68049 114239849.48849     -4108.78549        50.000  
 16 04 02 13 37 44.7000000  0  2G17G28                                          
  22236898.03149 116855686.46149    -18363.74649        50.000  
  21739198.88349 114240260.46549     -4111.18449        50.000  
 16 04 02 13 37 44.8000000  0  2G17G28                                          
  22237247.50849 116857522.97349    -18366.28149        50.000  
  21739277.14849 114240671.75049     -4114.25049        50.000  
 16 04 02 13 37 44.9000000  0  2G17G28                                          
  22237597.03149 116859359.74249    -18369.01249        50.000  
  21739355.47749 114241083.35949     -4117.63749        50.000  
 16 04 02 13 37 45.0000000  0  2G17G28                                          
  22237946.60949 116861196.74649    -18371.09849        50.000  
  21739433.85249 114241495.23449     -4120.10949        50.000  
 16 04 02 13 37 45.1000000  0  2G17G28                                          
  22238296.21949 116863033.98849    -18373.76249        50.000  
  21739512.28949 114241907.41849     -4123.36749        50.000  
 16 04 02 13 37 45.2000000  0  2G17G28                                          
  22238645.88349 116864871.48049    -18376.02349        50.000  
  21739590.78149 114242319.89549     -4126.19149        50.000  
 16 04 02 13 37 45.3000000  0  2G17G28                                          
  22238995.58649 116866709.18049    -18378.24649        50.000  
  21739669.32849 114242732.64149     -4128.90249        50.000  
 16 04 02 13 37 45.4000000  0  2G17G28                                          
  22239345.32849 116868547.05949    -18379.84049        50.000  
  21739747.91449 114243145.61749     -4131.05549        50.000  
 16 04 02 13 37 45.5000000  0  2G17G28                                          
  22239695.10249 116870385.13749    -18381.70349        50.000  
  21739826.54749 114243558.83649     -4133.36349        50.000  
 16 04 02 13 37 45.6000000  0  2G17G28                                          
  22240044.91449 116872223.41049    -18383.95749        50.000  
  21739905.22749 114243972.32049     -4136.25449        50.000  
 16 04 02 13 37 45.7000000  0  2G17G28                                          
  22240394.78149 116874061.94949    -18386.46149        50.000  
  21739983.96949 114244386.11749     -4139.23849        50.000  
 16 04 02 13 37 45.8000000  0  2G17G28                                          
  22240744.70349 116875900.80949    -18389.88749        50.000  
  21740062.78149 114244800.28149     -4143.15649        50.000  
 16 04 02 13 37 45.9000000  0  2G17G28                                          
  22241094.66449 116877739.86749    -18391.85949        50.000  
  21740141.64849 114245214.69949     -4145.67649        50.000  
 16 04 02 13 37 46.0000000  0  2G17G28                                          
  22241444.65649 116879579.10249    -18393.49649        50.000  
  21740220.55549 114245629.35249     -4147.84449        50.000  
 16 04 02 13 37 46.1000000  0  2G17G28                                          
  22241794.69549 116881418.58249    -18395.93849        50.000  
  21740299.51649 114246044.30949     -4150.87949        50.000  
 16 04 02 13 37 46.2000000  0  2G17G28                                          
  22242144.78949 116883258.34049    -18398.94949        50.000  
  21740378.54749 114246459.59049     -4154.44549        50.000  
 16 04 02 13 37 46.3000000  0  2G17G28                                          
  22242494.93049 116885098.34849    -18401.14549        50.000  
  21740457.62549 114246875.16849     -4157.14149        50.000  
 16 04 02 13 37 46.4000000  0  2G17G28                                          
  22242845.10949 116886938.52049    -18402.82849        50.000  
  21740536.75049 114247290.96549     -4159.34049        50.000  
 16 04 02 13 37 46.5000000  0  2G17G28                                          
  22243195.32849 116888778.93049    -18405.12949        50.000  
  21740615.93049 114247707.05949     -4162.15249        50.000  
 16 04 02 13 37 46.6000000  0  2G17G28                                          
  22243545.59449 116890619.61749    -18408.08249        50.000  
  21740695.18049 114248123.48449     -4165.67649        50.000  
 16 04 02 13 37 46.7000000  0  2G17G28                                          
  22243895.91449 116892460.53949    -18410.37149        50.000  
  21740774.47749 114248540.19149     -4168.50849        50.000  
 16 04 02 13 37 46.8000000  0  2G17G28                                          
  22244246.26649 116894301.68849    -18412.69549        50.000  
  21740853.82049 114248957.19149     -4171.46549        50.000  
 16 04 02 13 37 46.9000000  0  2G17G28                                          
  22244596.67249 116896143.07049    -18415.02749        50.000  
  21740933.22749 114249374.46149     -4174.09849        50.000  
 16 04 02 13 37 47.0000000  0  2G17G28                                          
  22244947.11749 116897984.66449    -18416.99649        50.000  
  21741012.68849 114249792.00449     -4176.68049        50.000  
 16 04 02 13 37 47.1000000  0  2G17G28                                          
  22245297.59449 116899826.44149    -18418.99249        50.000  
  21741092.18849 114250209.78949     -4179.23849        50.000  
 16 04 02 13 37 47.2000000  0  2G17G28                                          
  22245648.13349 116901668.52049    -18421.83649        50.000  
  21741171.75049 114250627.91849     -4182.50449        50.000  
 16 04 02 13 37 47.3000000  0  2G17G28                                          
  22245998.71149 116903510.82849    -18424.25049        50.000  
  21741251.37549 114251046.34049     -4185.62549        50.000  
 16 04 02 13 37 47.4000000  0  2G17G28                                          
  22246349.32849 116905353.33249    -18426.28949        50.000  
  21741331.03949 114251465.00849     -4188.19549        50.000  
 16 04 02 13 37 47.5000000  0  2G17G28                                          
  22246699.99249 116907196.09449    -18428.70349        50.000  
  21741410.77349 114251883.98049     -4191.00049        50.000  
 16 04 02 13 37 47.6000000  0  2G17G28                                          
  22247050.70349 116909039.06649    -18430.91849        50.000  
  21741490.55549 114252303.23449     -4193.97349        50.000  
 16 04 02 13 37 47.7000000  0  2G17G28                                          
  22247401.44549 116910882.23449    -18432.67649        50.000  
  21741570.37549 114252722.72349     -4196.08249        50.000  
 16 04 02 13 37 47.8000000  0  2G17G28                                          
  22247752.23449 116912725.62549    -18435.01649        50.000  
  21741650.25849 114253142.49249     -4199.00049        50.000  
 16 04 02 13 37 47.9000000  0  2G17G28                                          
  22248103.06249 116914569.25849    -18437.44949        50.000  
  21741730.19549 114253562.55949     -4202.03949        50.000  
 16 04 02 13 37 48.0000000  0  2G17G28                                          
  22248453.94549 116916413.12949    -18439.94549        50.000  
  21741810.18049 114253982.91049     -4204.94549        50.000  
 16 04 02 13 37 48.1000000  0  2G17G28                                          
  22248804.85949 116918257.19949    -18441.94149        50.000  
  21741890.22749 114254403.52049     -4207.63349        50.000  
 16 04 02 13 37 48.2000000  0  2G17G28                                          
  22249155.82049 116920101.52349    -18444.55549        50.000  
  21741970.32049 114254824.43449     -4210.58649        50.000  
 16 04 02 13 37 48.3000000  0  2G17G28                                          
  22249506.82049 116921946.05149    -18446.53949        50.000  
  21742050.46949 114255245.60949     -4213.18849        50.000  
 16 04 02 13 37 48.4000000  0  2G17G28                                          
  22249857.86749 116923790.82849    -18448.86749        50.000  
  21742130.67249 114255667.09449     -4216.21149        50.000  
 16 04 02 13 37 48.5000000  0  2G17G28                                          
  22250208.96949 116925635.88349    -18451.83649        50.000  
  21742210.94549 114256088.89549     -4219.50849        50.000  
 16 04 02 13 37 48.6000000  0  2G17G28                                          
  22250560.12549 116927481.18849    -18454.21149        50.000  
  21742291.26649 114256511.01249     -4222.62549        50.000  
 16 04 02 13 37 48.7000000  0  2G17G28                                          
  22250911.33649 116929326.79349    -18457.29349        50.000  
  21742371.65649 114256933.46549     -4226.07049        50.000  
 16 04 02 13 37 48.8000000  0  2G17G28                                          
  22251262.56249 116931172.50849    -18458.37549        50.000  
  21742452.08649 114257356.09849     -4227.68849        50.000  
 16 04 02 13 37 48.9000000  0  2G17G28                                          
  22251613.83649 116933018.47749    -18460.75449        50.000  
  21742532.57049 114257779.03549     -4230.59849        50.000  
 16 04 02 13 37 49.0000000  0  2G17G28                                          
  22251965.14849 116934864.61349    -18462.42649        50.000  
  21742613.09449 114258202.19549     -4232.91049        50.000  
 16 04 02 13 37 49.1000000  0  2G17G28                                          
  22252316.50049 116936710.98049    -18464.76649        50.000  
  21742693.67249 114258625.63749     -4235.66849        50.000  
 16 04 02 13 37 49.2000000  0  2G17G28                                          
  22252667.89849 116938557.60949    -18467.59449        50.000  
  21742774.31249 114259049.39849     -4239.06249        50.000  
 16 04 02 13 37 49.3000000  0  2G17G28                                          
  22253019.35249 116940404.52349    -18470.38749        50.000  
  21742855.01649 114259473.49249     -4242.49249        50.000  
 16 04 02 13 37 49.4000000  0  2G17G28                                          
  22253370.85249 116942251.66449    -18472.68449        50.000  
  21742935.76649 114259897.87149     -4245.27349        50.000  
 16 04 02 13 37 49.5000000  0  2G17G28                                          
  22253722.39149 116944099.01649    -18474.84849        50.000  
  21743016.57849 114260322.50849     -4247.93049        50.000  
 16 04 02 13 37 49.6000000  0  2G17G28                                          
  22254073.98449 116945946.64849    -18477.55949        50.000  
  21743097.44549 114260747.49649     -4251.36349        50.000  
 16 04 02 13 37 49.7000000  0  2G17G28                                          
  22254425.62549 116947794.54349    -18480.18049        50.000  
  21743178.37549 114261172.78549     -4254.39849        50.000  
 16 04 02 13 37 49.8000000  0  2G17G28                                          
  22254777.31249 116949642.64849    -18482.09049        50.000  
  21743259.35949 114261598.33649     -4256.78149        50.000  
 16 04 02 13 37 49.9000000  0  2G17G28                                          
  22255129.03149 116951490.94549    -18484.03949        50.000  
  21743340.39149 114262024.14149     -4259.31249        50.000  
 16 04 02 13 37 50.0000000  0  2G17G28                                          
  22255480.78949 116953339.47749    -18486.25049        50.000  
  21743421.46949 114262450.23449     -4262.12149        50.000  
 16 04 02 13 37 50.1000000  0  2G17G28                                          
  22255832.59449 116955188.21549    -18488.44149        50.000  
  21743502.60249 114262876.57849     -4264.78949        50.000  
 16 04 02 13 37 50.2000000  0  2G17G28                                          
  22256184.46149 116957037.25049    -18491.61349        50.000  
  21743583.80549 114263303.28149     -4268.48449        50.000  
 16 04 02 13 37 50.3000000  0  2G17G28                                          
  22256536.35249 116958886.47349    -18493.67649        50.000  
  21743665.04749 114263730.23049     -4271.01249        50.000  
 16 04 02 13 37 50.4000000  0  2G17G28                                          
  22256888.31249 116960736.00449    -18496.51649        50.000  
  21743746.36749 114264157.53949     -4274.44949        50.000  
 16 04 02 13 37 50.5000000  0  2G17G28                                          
  22257240.30549 116962585.75049    -18498.81249        50.000  
  21743827.72749 114264585.11749     -4277.30949        50.000  
 16 04 02 13 37 50.6000000  0  2G17G28                                          
  22257592.34449 116964435.73849    -18500.96149        50.000  
  21743909.14849 114265012.98449     -4280.03149        50.000  
 16 04 02 13 37 50.7000000  0  2G17G28                                          
  22257944.42249 116966285.90249    -18502.65649        50.000  
  21743990.60949 114265441.07849     -4282.18849        50.000  
 16 04 02 13 37 50.8000000  0  2G17G28                                          
  22258296.53949 116968136.31249    -18505.17249        50.000  
  21744072.13349 114265869.48449     -4285.30149        50.000  
 16 04 02 13 37 50.9000000  0  2G17G28                                          
  22258648.70349 116969986.93449    -18507.38349        50.000  
  21744153.71149 114266298.15249     -4288.04349        50.000  
 16 04 02 13 37 51.0000000  0  2G17G28                                          
  22259000.91449 116971837.81249    -18509.83249        50.000  
  21744235.34449 114266727.13349     -4291.13349        50.000  
 16 04 02 13 37 51.1000000  0  2G17G28                                          
  22259353.14849 116973688.81649    -18511.01249        50.000  
  21744317.00849 114267156.28549     -4292.71149        50.000  
 16 04 02 13 37 51.2000000  0  2G17G28                                          
  22259705.43849 116975540.10249    -18513.86349        50.000  
  21744398.74249 114267585.78549     -4296.27049        50.000  
 16 04 02 13 37 51.3000000  0  2G17G28                                          
  22260057.77349 116977391.65649    -18516.79349        50.000  
  21744480.53149 114268015.59449     -4299.51649        50.000  
 16 04 02 13 37 51.4000000  0  2G17G28                                          
  22260410.16449 116979243.44949    -18519.14849        50.000  
  21744562.38349 114268445.70349     -4302.55549        50.000  
 16 04 02 13 37 51.5000000  0  2G17G28                                          
  22260762.58649 116981095.44149    -18521.20749        50.000  
  21744644.27349 114268876.06249     -4305.09449        50.000  
 16 04 02 13 37 51.6000000  0  2G17G28                                          
  22261115.05549 116982947.72349    -18523.87549        50.000  
  21744726.23449 114269306.76649     -4308.19149        50.000  
 16 04 02 13 37 51.7000000  0  2G17G28                                          
  22261467.57049 116984800.18849    -18525.82049        50.000  
  21744808.24249 114269737.71549     -4310.87149        50.000  
 16 04 02 13 37 51.8000000  0  2G17G28                                          
  22261820.14149 116986652.95349    -18528.90249        50.000  
  21744890.31249 114270169.00449     -4314.33249        50.000  
 16 04 02 13 37 51.9000000  0  2G17G28                                          
  22262172.73449 116988505.87149    -18530.36749        50.000  
  21744972.43049 114270600.51249     -4316.51249        50.000  
 16 04 02 13 37 52.0000000  0  2G17G28                                          
  22262525.37549 116990359.01649    -18532.51649        50.000  
  21745054.59449 114271032.29749     -4319.14549        50.000  
 16 04 02 13 37 52.1000000  0  2G17G28                                          
  22262878.06249 116992212.37149    -18534.62949        50.000  
  21745136.81249 114271464.34049     -4321.69149        50.000  
 16 04 02 13 37 52.2000000  0  2G17G28                                          
  22263230.78149 116994065.93849    -18536.75449        50.000  
  21745219.07849 114271896.66049     -4324.53149        50.000  
 16 04 02 13 37 52.3000000  0  2G17G28                                          
  22263583.55549 116995919.78149    -18539.55149        50.000  
  21745301.40649 114272329.30949     -4327.80549        50.000  
 16 04 02 13 37 52.4000000  0  2G17G28                                          
  22263936.37549 116997773.85549    -18541.94149        50.000  
  21745383.78949 114272762.23849     -4330.74649        50.000  
 16 04 02 13 37 52.5000000  0  2G17G28                                          
  22264289.23449 116999628.12949    -18544.02349        50.000  
  21745466.22749 114273195.42249     -4333.33649        50.000  
 16 04 02 13 37 52.6000000  0  2G17G28                                          
  22264642.14849 117001482.69149    -18546.77349        50.000  
  21745548.71949 114273628.95349     -4336.67249        50.000  
 16 04 02 13 37 52.7000000  0  2G17G28                                          
  22264995.08649 117003337.39549    -18548.13749        50.000  
  21745631.25849 114274062.66849     -4338.50449        50.000  
 16 04 02 13 37 52.8000000  0  2G17G28                                          
  22265348.07849 117005192.37549    -18551.03149        50.000  
  21745713.85249 114274496.72749     -4342.02049        50.000  
 16 04 02 13 37 52.9000000  0  2G17G28                                          
  22265701.10949 117007047.58649    -18553.18049        50.000  
  21745796.50849 114274931.06649     -4344.68849        50.000  
 16 04 02 13 37 53.0000000  0  2G17G28                                          
  22266054.18849 117008903.00049    -18555.30949        50.000  
  21745879.20349 114275365.66449     -4347.37149        50.000  
 16 04 02 13 37 53.1000000  0  2G17G28                                          
  22266407.31249 117010758.68449    -18558.05549        50.000  
  21745961.96949 114275800.57849     -4350.60549        50.000  
 16 04 02 13 37 53.2000000  0  2G17G28                                          
  22266760.48449 117012614.62549    -18560.60549        50.000  
  21746044.78949 114276235.80949     -4353.73849        50.000  
 16 04 02 13 37 53.3000000  0  2G17G28                                          
  22267113.70349 117014470.80149    -18562.93849        50.000  
  21746127.67249 114276671.33249     -4356.58649        50.000  
 16 04 02 13 37 53.4000000  0  2G17G28                                          
  22267466.96149 117016327.16449    -18564.84449        50.000  
  21746210.59449 114277107.09849     -4359.10949        50.000  
 16 04 02 13 37 53.5000000  0  2G17G28                                          
  22267820.26649 117018183.77349    -18567.18449        50.000  
  21746293.57049 114277543.16049     -4361.99249        50.000  
 16 04 02 13 37 53.6000000  0  2G17G28                                          
  22268173.60249 117020040.59449    -18569.20749        50.000  
  21746376.60249 114277979.48849     -4364.51249        50.000  
 16 04 02 13 37 53.7000000  0  2G17G28                                          
  22268526.99249 117021897.64549    -18571.57849        50.000  
  21746459.68849 114278416.09849     -4367.37949        50.000  
 16 04 02 13 37 53.8000000  0  2G17G28                                          
  22268880.43049 117023754.96149    -18574.25049        50.000  
  21746542.83649 114278853.03149     -4370.64549        50.000  
 16 04 02 13 37 53.9000000  0  2G17G28                                          
  22269233.89849 117025612.46549    -18576.34849        50.000  
  21746626.02349 114279290.21149     -4373.25449        50.000  
 16 04 02 13 37 54.0000000  0  2G17G28                                          
  22269587.42249 117027470.23449    -18578.61349        50.000  
  21746709.27349 114279727.69949     -4376.07849        50.000  
 16 04 02 13 37 54.1000000  0  2G17G28                                          
  22269940.96949 117029328.11749    -18579.82849        50.000  
  21746792.56249 114280165.37149     -4377.87549        50.000  
 16 04 02 13 37 54.2000000  0  2G17G28                                          
  22270294.55549 117031186.24649    -18582.25849        50.000  
  21746875.89849 114280603.32449     -4380.79749        50.000  
 16 04 02 13 37 54.3000000  0  2G17G28                                          
  22270648.18849 117033044.60549    -18584.52049        50.000  
  21746959.29749 114281041.58649     -4383.75449        50.000  
 16 04 02 13 37 54.4000000  0  2G17G28                                          
  22271001.85949 117034903.12549    -18586.31649        50.000  
  21747042.73449 114281480.04349     -4385.91049        50.000  
 16 04 02 13 37 54.5000000  0  2G17G28                                          
  22271355.57849 117036761.93849    -18589.24649        50.000  
  21747126.24249 114281918.85549     -4389.51249        50.000  
 16 04 02 13 37 54.6000000  0  2G17G28                                          
  22271709.33649 117038620.94949    -18591.30949        50.000  
  21747209.78949 114282357.91849     -4392.02049        50.000  
 16 04 02 13 37 54.7000000  0  2G17G28                                          
  22272063.14849 117040480.23449    -18594.03149        50.000  
  21747293.39849 114282797.30949     -4395.37949        50.000  
 16 04 02 13 37 54.8000000  0  2G17G28                                          
  22272416.99249 117042339.69949    -18595.69149        50.000  
  21747377.05549 114283236.93849     -4397.66449        50.000  
 16 04 02 13 37 54.9000000  0  2G17G28                                          
  22272770.88349 117044199.42249    -18598.39549        50.000  
  21747460.77349 114283676.86349     -4400.75449        50.000  
 16 04 02 13 37 55.0000000  0  2G17G28                                          
  22273124.82049 117046059.34849    -18600.47349        50.000  
  21747544.54749 114284117.07449     -4403.56249        50.000  
 16 04 02 13 37 55.1000000  0  2G17G28                                          
  22273478.80549 117047919.55949    -18603.46149        50.000  
  21747628.37549 114284557.59449     -4406.77349        50.000  
 16 04 02 13 37 55.2000000  0  2G17G28                                          
  22273832.82849 117049779.96549    -18605.16449        50.000  
  21747712.25049 114284998.38349     -4409.19949        50.000  
 16 04 02 13 37 55.3000000  0  2G17G28                                          
  22274186.89149 117051640.57849    -18607.25449        50.000  
  21747796.18049 114285439.43849     -4411.85549        50.000  
 16 04 02 13 37 55.4000000  0  2G17G28                                          
  22274541.00049 117053501.42249    -18609.54749        50.000  
  21747880.16449 114285880.77049     -4414.67249        50.000  
 16 04 02 13 37 55.5000000  0  2G17G28                                          
  22274895.14149 117055362.46149    -18611.56249        50.000  
  21747964.19549 114286322.35549     -4417.28149        50.000  
 16 04 02 13 37 55.6000000  0  2G17G28                                          
  22275249.33649 117057223.78149    -18614.33249        50.000  
  21748048.28949 114286764.26249     -4420.46949        50.000  
 16 04 02 13 37 55.7000000  0  2G17G28                                          
  22275603.57049 117059085.26649    -18616.18449        50.000  
  21748132.42249 114287206.41449     -4423.05549        50.000  
 16 04 02 13 37 55.8000000  0  2G17G28                                          
  22275957.85949 117060947.10249    -18619.46549        50.000  
  21748216.63349 114287648.94949     -4426.69949        50.000  
 16 04 02 13 37 55.9000000  0  2G17G28                                          
  22276312.18849 117062809.07849    -18621.06249        50.000  
  21748300.88349 114288091.68849     -4428.88749        50.000  
 16 04 02 13 37 56.0000000  0  2G17G28                                          
  22276666.55549 117064671.27749    -18623.18449        50.000  
  21748385.18849 114288534.70349     -4431.61349        50.000  
 16 04 02 13 37 56.1000000  0  2G17G28                                          
  22277020.96949 117066533.74249    -18625.77049        50.000  
  21748469.55549 114288978.03949     -4434.71149        50.000  
 16 04 02 13 37 56.2000000  0  2G17G28                                          
  22277375.43849 117068396.48449    -18628.58649        50.000  
  21748553.98449 114289421.70749     -4438.01649        50.000  
 16 04 02 13 37 56.3000000  0  2G17G28                                          
  22277729.95349 117070259.48449    -18631.34849        50.000  
  21748638.46949 114289865.68849     -4441.28149        50.000  
 16 04 02 13 37 56.4000000  0  2G17G28                                          
  22278084.51649 117072122.71149    -18633.53549        50.000  
  21748723.00849 114290309.94149     -4444.03149        50.000  
 16 04 02 13 37 56.5000000  0  2G17G28                                          
  22278439.10949 117073986.14549    -18635.62149        50.000  
  21748807.60249 114290754.47749     -4446.79749        50.000  
 16 04 02 13 37 56.6000000  0  2G17G28                                          
  22278793.75049 117075849.79349    -18637.57049        50.000  
  21748892.24249 114291199.27049     -4449.27049        50.000  
 16 04 02 13 37 56.7000000  0  2G17G28                                          
  22279148.44549 117077713.71949    -18640.39849        50.000  
  21748976.94549 114291644.39149     -4452.54349        50.000  
 16 04 02 13 37 56.8000000  0  2G17G28                                          
  22279503.18049 117079577.86349    -18642.60549        50.000  
  21749061.70349 114292089.79349     -4455.41449        50.000  
 16 04 02 13 37 56.9000000  0  2G17G28                                          
  22279857.95349 117081442.22349    -18644.67649        50.000  
  21749146.50849 114292535.45349     -4457.92649        50.000  
 16 04 02 13 37 57.0000000  0  2G17G28                                          
  22280212.77349 117083306.79749    -18646.74649        50.000  
  21749231.37549 114292981.40649     -4460.75449        50.000  
 16 04 02 13 37 57.1000000  0  2G17G28                                          
  22280567.61749 117085171.53949    -18648.41049        50.000  
  21749316.27349 114293427.56249     -4462.88749        50.000  
 16 04 02 13 37 57.2000000  0  2G17G28                                          
  22280922.51649 117087036.51249    -18650.82449        50.000  
  21749401.22749 114293874.00449     -4465.73449        50.000  
 16 04 02 13 37 57.3000000  0  2G17G28                                          
  22281277.44549 117088901.67649    -18652.63349        50.000  
  21749486.23449 114294320.69949     -4468.07849        50.000  
 16 04 02 13 37 57.4000000  0  2G17G28                                          
  22281632.41449 117090767.07449    -18655.20749        50.000  
  21749571.29749 114294767.68449     -4471.24649        50.000  
 16 04 02 13 37 57.5000000  0  2G17G28                                          
  22281987.45349 117092632.78149    -18658.23049        50.000  
  21749656.42249 114295215.02349     -4474.78549        50.000  
 16 04 02 13 37 57.6000000  0  2G17G28                                          
  22282342.50849 117094498.60549    -18659.59049        50.000  
  21749741.57849 114295662.54349     -4476.66449        50.000  
 16 04 02 13 37 57.7000000  0  2G17G28                                          
  22282697.61749 117096364.71949    -18662.22749        50.000  
  21749826.80549 114296110.41049     -4480.00049        50.000  
 16 04 02 13 37 57.8000000  0  2G17G28                                          
  22283052.77349 117098231.06649    -18664.81649        50.000  
  21749912.07849 114296558.55549     -4482.97349        50.000  
 16 04 02 13 37 57.9000000  0  2G17G28                                          
  22283407.97749 117100097.65649    -18667.14849        50.000  
  21749997.42249 114297007.01649     -4486.10549        50.000  
 16 04 02 13 37 58.0000000  0  2G17G28                                          
  22283763.21949 117101964.48449    -18669.56649        50.000  
  21750082.81249 114297455.75049     -4488.89849        50.000  
 16 04 02 13 37 58.1000000  0  2G17G28                                          
  22284118.51649 117103831.59849    -18672.31649        50.000  
  21750168.26649 114297904.82849     -4492.25049        50.000  
 16 04 02 13 37 58.2000000  0  2G17G28                                          
  22284473.85249 117105698.89149    -18674.12949        50.000  
  21750253.77349 114298354.14549     -4494.60549        50.000  
 16 04 02 13 37 58.3000000  0  2G17G28                                          
  22284829.23449 117107566.46949    -18676.95349        50.000  
  21750339.33649 114298803.80549     -4498.05949        50.000  
 16 04 02 13 37 58.4000000  0  2G17G28                                          
  22285184.67249 117109434.25449    -18679.15249        50.000  
  21750424.95349 114299253.71949     -4500.62549        50.000  
 16 04 02 13 37 58.5000000  0  2G17G28                                          
  22285540.14149 117111302.27049    -18681.12149        50.000  
  21750510.62549 114299703.92249     -4503.26249        50.000  
 16 04 02 13 37 58.6000000  0  2G17G28                                          
  22285895.64149 117113170.46549    -18683.16049        50.000  
  21750596.33649 114300154.36749     -4505.84849        50.000  
 16 04 02 13 37 58.7000000  0  2G17G28                                          
  22286251.19549 117115038.91449    -18685.64549        50.000  
  21750682.10949 114300605.11349     -4508.91449        50.000  
 16 04 02 13 37 58.8000000  0  2G17G28                                          
  22286606.80549 117116907.65249    -18688.52049        50.000  
  21750767.95349 114301056.19949     -4512.25049        50.000  
 16 04 02 13 37 58.9000000  0  2G17G28                                          
  22286962.45349 117118776.57849    -18690.68049        50.000  
  21750853.83649 114301507.53549     -4514.93049        50.000  
 16 04 02 13 37 59.0000000  0  2G17G28                                          
  22287318.14149 117120645.74249    -18692.72349        50.000  
  21750939.78149 114301959.16449     -4517.62949        50.000  
 16 04 02 13 37 59.1000000  0  2G17G28                                          
  22287673.87549 117122515.14149    -18694.96949        50.000  
  21751025.77349 114302411.07849     -4520.38749        50.000  
 16 04 02 13 37 59.2000000  0  2G17G28                                          
  22288029.64149 117124384.70349    -18696.86349        50.000  
  21751111.81249 114302863.20749     -4522.79749        50.000  
 16 04 02 13 37 59.3000000  0  2G17G28                                          
  22288385.45349 117126254.53149    -18699.26249        50.000  
  21751197.91449 114303315.66849     -4525.75049        50.000  
 16 04 02 13 37 59.4000000  0  2G17G28                                          
  22288741.30549 117128124.51649    -18700.98849        50.000  
  21751284.05549 114303768.34049     -4528.09849        50.000  
 16 04 02 13 37 59.5000000  0  2G17G28                                          
  22289097.21149 117129994.80149    -18703.94949        50.000  
  21751370.25849 114304221.36349     -4531.50849        50.000  
 16 04 02 13 37 59.6000000  0  2G17G28                                          
  22289453.14149 117131865.22749    -18705.31649        50.000  
  21751456.50049 114304674.58649     -4533.50049        50.000  
 16 04 02 13 37 59.7000000  0  2G17G28                                          
  22289809.12549 117133735.93849    -18708.19149        50.000  
  21751542.81249 114305128.14849     -4536.95349        50.000  
 16 04 02 13 37 59.8000000  0  2G17G28                                          
  22290165.15649 117135606.88349    -18710.61349        50.000  
  21751629.18049 114305582.00049     -4539.95349        50.000  
 16 04 02 13 37 59.9000000  0  2G17G28                                          
  22290521.21949 117137478.02049    -18712.33249        50.000  
  21751715.59449 114306036.08649     -4542.11349        50.000  
 16 04 02 13 38  0.0000000  0  2G17G28                                          
  22290877.32049 117139349.35549    -18714.46549        50.000  
  21751802.05549 114306490.43849     -4544.71949        50.000  
 16 04 02 13 38  0.1000000  0  2G17G28                                          
  22291233.46949 117141220.91049    -18716.61349        50.000  
  21751888.57049 114306945.06649     -4547.57849        50.000  
 16 04 02 13 38  0.2000000  0  2G17G28                                          
  22291589.66449 117143092.71549    -18719.30549        50.000  
  21751975.13349 114307400.00049     -4550.82449        50.000  
 16 04 02 13 38  0.3000000  0  2G17G28                                          
  22291945.90649 117144964.79349    -18722.07049        50.000  
  21752061.77349 114307855.26649     -4554.16449        50.000  
 16 04 02 13 38  0.4000000  0  2G17G28                                          
  22292302.18849 117146837.05549    -18723.68449        50.000  
  21752148.44549 114308310.75049     -4556.24649        50.000  
 16 04 02 13 38  0.5000000  0  2G17G28                                          
  22292658.50849 117148709.53549    -18725.93449        50.000  
  21752235.18049 114308766.53149     -4559.08649        50.000  
 16 04 02 13 38  0.6000000  0  2G17G28                                          
  22293014.88349 117150582.30949    -18728.86749        50.000  
  21752321.96949 114309222.63749     -4562.30949        50.000  
 16 04 02 13 38  0.7000000  0  2G17G28                                          
  22293371.30549 117152455.28949    -18731.00849        50.000  
  21752408.82049 114309679.03149     -4565.34849        50.000  
 16 04 02 13 38  0.8000000  0  2G17G28                                          
  22293727.75049 117154328.43449    -18732.60949        50.000  
  21752495.71149 114310135.63349     -4567.42649        50.000  
 16 04 02 13 38  0.9000000  0  2G17G28                                          
  22294084.25849 117156201.87149    -18735.56249        50.000  
  21752582.66449 114310592.58649     -4570.99649        50.000  
 16 04 02 13 38  1.0000000  0  2G17G28                                          
  22294440.80549 117158075.55149    -18738.00449        50.000  
  21752669.67249 114311049.82049     -4573.76649        50.000  
 16 04 02 13 38  1.1000000  0  2G17G28                                          
  22294797.39149 117159949.41849    -18739.75449        50.000  
  21752756.72749 114311507.32049     -4576.28949        50.000  
 16 04 02 13 38  1.2000000  0  2G17G28                                          
  22295154.02349 117161823.52749    -18742.30149        50.000  
  21752843.84449 114311965.10549     -4579.20349        50.000  
 16 04 02 13 38  1.3000000  0  2G17G28                                          
  22295510.70349 117163697.90249    -18744.95349        50.000  
  21752931.01649 114312423.21149     -4582.43449        50.000  
 16 04 02 13 38  1.4000000  0  2G17G28                                          
  22295867.42249 117165572.46149    -18746.78949        50.000  
  21753018.24249 114312881.57449     -4585.01649        50.000  
 16 04 02 13 38  1.5000000  0  2G17G28                                          
  22296224.18049 117167447.24249    -18748.93849        50.000  
  21753105.51649 114313340.19149     -4587.55549        50.000  
 16 04 02 13 38  1.6000000  0  2G17G28                                          
  22296580.98449 117169322.27749    -18751.28549        50.000  
  21753192.85249 114313799.12949     -4590.60249        50.000  
 16 04 02 13 38  1.7000000  0  2G17G28                                          
  22296937.83649 117171197.52749    -18753.71149        50.000  
  21753280.23449 114314258.33649     -4593.54749        50.000  
 16 04 02 13 38  1.8000000  0  2G17G28                                          
  22297294.71949 117173072.95349    -18755.37949        50.000  
  21753367.66449 114314717.76649     -4595.64549        50.000  
 16 04 02 13 38  1.9000000  0  2G17G28                                          
  22297651.64849 117174948.61749    -18757.85949        50.000  
  21753455.14849 114315177.50449     -4598.78949        50.000  
 16 04 02 13 38  2.0000000  0  2G17G28                                          
  22298008.62549 117176824.55949    -18760.57849        50.000  
  21753542.69549 114315637.56649     -4602.04749        50.000  
 16 04 02 13 38  2.1000000  0  2G17G28                                          
  22298365.63349 117178700.65249    -18762.25049        50.000  
  21753630.28149 114316097.84049     -4604.25049        50.000  
 16 04 02 13 38  2.2000000  0  2G17G28                                          
  22298722.69549 117180576.99649    -18764.55949        50.000  
  21753717.92249 114316558.40649     -4607.07449        50.000  
 16 04 02 13 38  2.3000000  0  2G17G28                                          
  22299079.78149 117182453.51649    -18766.21149        50.000  
  21753805.61749 114317019.22349     -4609.40649        50.000  
 16 04 02 13 38  2.4000000  0  2G17G28                                          
  22299436.93049 117184330.35249    -18769.61749        50.000  
  21753893.37549 114317480.39849     -4613.28149        50.000  
 16 04 02 13 38  2.5000000  0  2G17G28                                          
  22299794.12549 117186207.40649    -18771.83649        50.000  
  21753981.18849 114317941.85949     -4616.11349        50.000  
 16 04 02 13 38  2.6000000  0  2G17G28                                          
  22300151.36749 117188084.70749    -18774.15649        50.000  
  21754069.05549 114318403.60949     -4618.84049        50.000  
 16 04 02 13 38  2.7000000  0  2G17G28                                          
  22300508.64149 117189962.20349    -18776.14149        50.000  
  21754156.96949 114318865.61349     -4621.44949        50.000  
 16 04 02 13 38  2.8000000  0  2G17G28                                          
  22300865.95349 117191839.91049    -18778.08249        50.000  
  21754244.93849 114319327.89849     -4624.07849        50.000  
 16 04 02 13 38  2.9000000  0  2G17G28                                          
  22301223.32049 117193717.85949    -18780.68449        50.000  
  21754332.96149 114319790.46949     -4627.15649        50.000  
 16 04 02 13 38  3.0000000  0  2G17G28                                          
  22301580.73449 117195596.06649    -18783.27349        50.000  
  21754421.04749 114320253.34849     -4630.18849        50.000  
 16 04 02 13 38  3.1000000  0  2G17G28                                          
  22301938.18049 117197474.46949    -18785.19149        50.000  
  21754509.18049 114320716.49249     -4632.79749        50.000  
 16 04 02 13 38  3.2000000  0  2G17G28                                          
  22302295.66449 117199353.04749    -18786.79349        50.000  
  21754597.35949 114321179.85549     -4634.94549        50.000  
 16 04 02 13 38  3.3000000  0  2G17G28                                          
  22302653.19549 117201231.91449    -18789.65649        50.000  
  21754685.60249 114321643.56649     -4638.36749        50.000  
 16 04 02 13 38  3.4000000  0  2G17G28                                          
  22303010.77349 117203110.98449    -18791.69149        50.000  
  21754773.89149 114322107.53549     -4640.93849        50.000  
 16 04 02 13 38  3.5000000  0  2G17G28                                          
  22303368.38349 117204990.23849    -18793.80549        50.000  
  21754862.22749 114322571.74649     -4643.57849        50.000  
 16 04 02 13 38  3.6000000  0  2G17G28                                          
  22303726.05549 117206869.82049    -18796.97349        50.000  
  21754950.63349 114323036.34049     -4647.25849        50.000  
 16 04 02 13 38  3.7000000  0  2G17G28                                          
  22304083.76649 117208749.63749    -18799.45349        50.000  
  21755039.09449 114323501.22349     -4650.34849        50.000  
 16 04 02 13 38  3.8000000  0  2G17G28                                          
  22304441.53149 117210629.69549    -18801.79749        50.000  
  21755127.61749 114323966.40249     -4653.21949        50.000  
 16 04 02 13 38  3.9000000  0  2G17G28                                          
  22304799.33649 117212509.97349    -18804.11349        50.000  
  21755216.19549 114324431.86749     -4656.12549        50.000  
 16 04 02 13 38  4.0000000  0  2G17G28                                          
  22305157.18049 117214390.44149    -18805.69949        50.000  
  21755304.81249 114324897.56649     -4658.35249        50.000  
 16 04 02 13 38  4.1000000  0  2G17G28                                          
  22305515.05549 117216271.09049    -18807.53949        50.000  
  21755393.47749 114325363.50849     -4660.62949        50.000  
 16 04 02 13 38  4.2000000  0  2G17G28                                          
  22305872.96949 117218151.94949    -18809.63349        50.000  
  21755482.19549 114325829.71549     -4663.39549        50.000  
 16 04 02 13 38  4.3000000  0  2G17G28                                          
  22306230.92249 117220033.00849    -18811.86749        50.000  
  21755570.96149 114326296.17249     -4666.01649        50.000  
 16 04 02 13 38  4.4000000  0  2G17G28                                          
  22306588.93849 117221914.39549    -18814.97349        50.000  
  21755659.79749 114326763.02349     -4669.87949        50.000  
 16 04 02 13 38  4.5000000  0  2G17G28                                          
  22306946.99249 117223795.99249    -18817.36349        50.000  
  21755748.68849 114327230.13749     -4672.74249        50.000  
 16 04 02 13 38  4.6000000  0  2G17G28                                          
  22307305.10949 117225677.88749    -18820.20349        50.000  
  21755837.64149 114327697.59449     -4676.14549        50.000  
 16 04 02 13 38  4.7000000  0  2G17G28                                          
  22307663.25049 117227559.95349    -18822.03149        50.000  
  21755926.64149 114328165.28949     -4678.52749        50.000  
 16 04 02 13 38  4.8000000  0  2G17G28                                          
  22308021.44549 117229442.25049    -18824.11749        50.000  
  21756015.68849 114328633.27049     -4681.22349        50.000  
 16 04 02 13 38  4.9000000  0  2G17G28                                          
  22308379.68849 117231324.84849    -18827.00849        50.000  
  21756104.81249 114329101.60949     -4684.67249        50.000  
 16 04 02 13 38  5.0000000  0  2G17G28                                          
  22308737.96149 117233207.58649    -18828.50049        50.000  
  21756193.96949 114329570.13749     -4686.68449        50.000  
 16 04 02 13 38  5.1000000  0  2G17G28                                          
  22309096.28949 117235090.60949    -18831.23849        50.000  
  21756283.19549 114330039.01649     -4690.07849        50.000  
 16 04 02 13 38  5.2000000  0  2G17G28                                          
  22309454.65649 117236973.82449    -18833.30149        50.000  
  21756372.46149 114330508.11749     -4692.46149        50.000  
 16 04 02 13 38  5.3000000  0  2G17G28                                          
  22309813.06249 117238857.25449    -18835.50449        50.000  
  21756461.78949 114330977.52049     -4695.34049        50.000  
 16 04 02 13 38  5.4000000  0  2G17G28                                          
  22310171.50849 117240740.89849    -18837.36349        50.000  
  21756551.16449 114331447.17649     -4697.73849        50.000  
 16 04 02 13 38  5.5000000  0  2G17G28                                          
  22310529.99249 117242624.76649    -18839.78549        50.000  
  21756640.58649 114331917.11749     -4700.77749        50.000  
 16 04 02 13 38  5.6000000  0  2G17G28                                          
  22310888.53149 117244508.87149    -18842.41049        50.000  
  21756730.07049 114332387.35949     -4703.99249        50.000  
 16 04 02 13 38  5.7000000  0  2G17G28                                          
  22311247.10249 117246393.18849    -18844.33649        50.000  
  21756819.60249 114332857.85549     -4706.36349        50.000  
 16 04 02 13 38  5.8000000  0  2G17G28                                          
  22311605.72749 117248277.77749    -18847.09049        50.000  
  21756909.20349 114333328.68449     -4709.69949        50.000  
 16 04 02 13 38  5.9000000  0  2G17G28                                          
  22311964.39149 117250162.55149    -18848.81249        50.000  
  21756998.84449 114333799.75849     -4711.98449        50.000  
 16 04 02 13 38  6.0000000  0  2G17G28                                          
  22312323.08649 117252047.50849    -18850.55949        50.000  
  21757088.53149 114334271.06649     -4714.38749        50.000  
 16 04 02 13 38  6.1000000  0  2G17G28                                          
  22312681.81249 117253932.64149    -18852.36349        50.000  
  21757178.25849 114334742.60249     -4716.56649        50.000  
 16 04 02 13 38  6.2000000  0  2G17G28                                          
  22313040.59449 117255818.05949    -18855.16449        50.000  
  21757268.06249 114335214.49249     -4720.16449        50.000  
 16 04 02 13 38  6.3000000  0  2G17G28                                          
  22313399.43049 117257703.74649    -18858.21949        50.000  
  21757357.91449 114335686.69949     -4723.68849        50.000  
 16 04 02 13 38  6.4000000  0  2G17G28                                          
  22313758.30549 117259589.64849    -18860.14849        50.000  
  21757447.82849 114336159.18449     -4726.27349        50.000  
 16 04 02 13 38  6.5000000  0  2G17G28                                          
  22314117.21149 117261475.72349    -18861.82449        50.000  
  21757537.78149 114336631.87949     -4728.21949        50.000  
 16 04 02 13 38  6.6000000  0  2G17G28                                          
  22314476.16449 117263362.03149    -18864.10949        50.000  
  21757627.78949 114337104.88749     -4731.24649        50.000  
 16 04 02 13 38  6.7000000  0  2G17G28                                          
  22314835.16449 117265248.55949    -18866.39549        50.000  
  21757717.85249 114337578.16049     -4734.16849        50.000  
 16 04 02 13 38  6.8000000  0  2G17G28                                          
  22315194.20349 117267135.35949    -18869.09049        50.000  
  21757807.97749 114338051.75849     -4737.33249        50.000  
 16 04 02 13 38  6.9000000  0  2G17G28                                          
  22315553.29749 117269022.39849    -18871.42649        50.000  
  21757898.14849 114338525.64549     -4740.17649        50.000  
 16 04 02 13 38  7.0000000  0  2G17G28                                          
  22315912.42249 117270909.62949    -18873.68049        50.000  
  21757988.38349 114338999.80549     -4743.09449        50.000  
 16 04 02 13 38  7.1000000  0  2G17G28                                          
  22316271.60249 117272797.09849    -18875.65649        50.000  
  21758078.66449 114339474.23849     -4745.60549        50.000  
 16 04 02 13 38  7.2000000  0  2G17G28                                          
  22316630.81249 117274684.76649    -18877.89549        50.000  
  21758168.99249 114339948.93449     -4748.26649        50.000  
 16 04 02 13 38  7.3000000  0  2G17G28                                          
  22316990.05549 117276572.61349    -18879.55949        50.000  
  21758259.36749 114340423.86749     -4750.60949        50.000  
 16 04 02 13 38  7.4000000  0  2G17G28                                          
  22317349.35249 117278460.72749    -18882.27749        50.000  
  21758349.80549 114340899.11349     -4753.85949        50.000  
 16 04 02 13 38  7.5000000  0  2G17G28                                          
  22317708.69549 117280349.07849    -18884.70749        50.000  
  21758440.29749 114341374.65649     -4756.73049        50.000  
 16 04 02 13 38  7.6000000  0  2G17G28                                          
  22318068.07849 117282237.61749    -18886.43049        50.000  
  21758530.84449 114341850.45749     -4759.28549        50.000  
 16 04 02 13 38  7.7000000  0  2G17G28                                          
  22318427.48449 117284126.34449    -18888.33649        50.000  
  21758621.42249 114342326.48049     -4761.60249        50.000  
 16 04 02 13 38  7.8000000  0  2G17G28                                          
  22318786.94549 117286015.29749    -18890.50449        50.000  
  21758712.07049 114342802.80549     -4764.38749        50.000  
 16 04 02 13 38  7.9000000  0  2G17G28                                          
  22319146.43849 117287904.44549    -18892.50449        50.000  
  21758802.75849 114343279.37549     -4766.93849        50.000  
 16 04 02 13 38  8.0000000  0  2G17G28                                          
  22319505.97749 117289793.83249    -18894.95349        50.000  
  21758893.50049 114343756.23449     -4769.98849        50.000  
 16 04 02 13 38  8.1000000  0  2G17G28                                          
  22319865.55549 117291683.42249    -18897.02749        50.000  
  21758984.28949 114344233.35249     -4772.48449        50.000  
 16 04 02 13 38  8.2000000  0  2G17G28                                          
  22320225.18049 117293573.27049    -18899.71149        50.000  
  21759075.14149 114344710.80149     -4775.93049        50.000  
 16 04 02 13 38  8.3000000  0  2G17G28                                          
  22320584.84449 117295463.32849    -18901.73849        50.000  
  21759166.04749 114345188.49649     -4778.44149        50.000  
 16 04 02 13 38  8.4000000  0  2G17G28                                          
  22320944.55549 117297353.59849    -18903.86349        50.000  
  21759257.00049 114345666.46549     -4781.07849        50.000  
 16 04 02 13 38  8.5000000  0  2G17G28                                          
  22321304.32849 117299244.21549    -18907.47349        50.000  
  21759348.03149 114346144.83649     -4785.18049        50.000  
 16 04 02 13 38  8.6000000  0  2G17G28                                          
  22321664.13349 117301135.01649    -18909.34849        50.000  
  21759439.10949 114346623.46949     -4787.87949        50.000  
 16 04 02 13 38  8.7000000  0  2G17G28                                          
  22322023.98449 117303026.02349    -18911.18449        50.000  
  21759530.24249 114347102.34049     -4790.14549        50.000  
 16 04 02 13 38  8.8000000  0  2G17G28                                          
  22322383.87549 117304917.24649    -18913.21149        50.000  
  21759621.42249 114347581.48849     -4792.74249        50.000  
 16 04 02 13 38  8.9000000  0  2G17G28                                          
  22322743.81249 117306808.73449    -18916.02049        50.000  
  21759712.65649 114348060.95349     -4796.02049        50.000  
 16 04 02 13 38  9.0000000  0  2G17G28                                          
  22323103.78949 117308700.41849    -18917.96549        50.000  
  21759803.94549 114348540.67649     -4798.50049        50.000  
 16 04 02 13 38  9.1000000  0  2G17G28                                          
  22323463.79749 117310592.28549    -18919.81649        50.000  
  21759895.28149 114349020.65249     -4801.12949        50.000  
 16 04 02 13 38  9.2000000  0  2G17G28                                          
  22323823.85949 117312484.39149    -18921.95349        50.000  
  21759986.67249 114349500.90249     -4803.74249        50.000  
 16 04 02 13 38  9.3000000  0  2G17G28                                          
  22324183.95349 117314376.73449    -18924.65649        50.000  
  21760078.11749 114349981.44949     -4806.76249        50.000  
 16 04 02 13 38  9.4000000  0  2G17G28                                          
  22324544.10949 117316269.34849    -18927.37549        50.000  
  21760169.62549 114350462.33249     -4810.18449        50.000  
 16 04 02 13 38  9.5000000  0  2G17G28                                          
  22324904.28949 117318162.12149    -18928.81249        50.000  
  21760261.18049 114350943.44149     -4812.50049        50.000  
 16 04 02 13 38  9.6000000  0  2G17G28                                          
  22325264.50849 117320055.09849    -18930.85549        50.000  
  21760352.78149 114351424.78949     -4814.86749        50.000  
 16 04 02 13 38  9.7000000  0  2G17G28                                          
  22325624.77349 117321948.30949    -18933.25849        50.000  
  21760444.43849 114351906.44149     -4817.82449        50.000  
 16 04 02 13 38  9.8000000  0  2G17G28                                          
  22325985.09449 117323841.77049    -18935.69549        50.000  
  21760536.14849 114352388.38749     -4820.92249        50.000  
 16 04 02 13 38  9.9000000  0  2G17G28                                          
  22326345.44549 117325735.45749    -18938.02349        50.000  
  21760627.91449 114352870.62149     -4823.69949        50.000  
 16 04 02 13 38 10.0000000  0  2G17G28                                          
  22326705.83649 117327629.30149    -18939.50849        50.000  
  21760719.71949 114353353.07049     -4825.83649        50.000  
 16 04 02 13 38 10.1000000  0  2G17G28                                          
  22327066.25049 117329523.30549    -18940.95349        50.000  
  21760811.57049 114353835.73049     -4827.73449        50.000  
 16 04 02 13 38 10.2000000  0  2G17G28                                          
  22327426.73449 117331417.63749    -18944.52349        50.000  
  21760903.49249 114354318.78549     -4831.91049        50.000  
 16 04 02 13 38 10.3000000  0  2G17G28                                          
  22327787.25849 117333312.22349    -18947.00049        50.000  
  21760995.46949 114354802.14549     -4834.99649        50.000  
 16 04 02 13 38 10.4000000  0  2G17G28                                          
  22328147.81249 117335206.91849    -18948.19149        50.000  
  21761087.48449 114355285.67649     -4836.77049        50.000  
 16 04 02 13 38 10.5000000  0  2G17G28                                          
  22328508.41449 117337101.91449    -18951.10249        50.000  
  21761179.56249 114355769.55549     -4840.19949        50.000  
 16 04 02 13 38 10.6000000  0  2G17G28                                          
  22328869.07049 117338997.18449    -18953.82849        50.000  
  21761271.71149 114356253.77049     -4843.59049        50.000  
 16 04 02 13 38 10.7000000  0  2G17G28                                          
  22329229.76649 117340892.64549    -18955.93849        50.000  
  21761363.89849 114356738.22349     -4846.03949        50.000  
 16 04 02 13 38 10.8000000  0  2G17G28                                          
  22329590.50849 117342788.32849    -18958.06249        50.000  
  21761456.14149 114357222.98449     -4849.05549        50.000  
 16 04 02 13 38 10.9000000  0  2G17G28                                          
  22329951.29749 117344684.28949    -18960.57449        50.000  
  21761548.44549 114357708.03949     -4851.75449        50.000  
 16 04 02 13 38 11.0000000  0  2G17G28                                          
  22330312.12549 117346580.46149    -18963.00049        50.000  
  21761640.81249 114358193.39849     -4854.99249        50.000  
 16 04 02 13 38 11.1000000  0  2G17G28                                          
  22330673.00049 117348476.87149    -18965.31249        50.000  
  21761733.22749 114358679.03149     -4857.85949        50.000  
 16 04 02 13 38 11.2000000  0  2G17G28                                          
  22331033.91449 117350373.50049    -18967.49249        50.000  
  21761825.68849 114359164.94549     -4860.60549        50.000  
 16 04 02 13 38 11.3000000  0  2G17G28                                          
  22331394.88349 117352270.40649    -18970.23449        50.000  
  21761918.21949 114359651.19149     -4863.87549        50.000  
 16 04 02 13 38 11.4000000  0  2G17G28                                          
  22331755.88349 117354167.45349    -18971.72749        50.000  
  21762010.78949 114360137.64149     -4865.87949        50.000  
 16 04 02 13 38 11.5000000  0  2G17G28                                          
  22332116.92249 117356064.75049    -18974.10949        50.000  
  21762103.41449 114360624.38749     -4868.79749        50.000  
 16 04 02 13 38 11.6000000  0  2G17G28                                          
  22332478.01649 117357962.28949    -18976.61749        50.000  
  21762196.09449 114361111.43849     -4871.97349        50.000  
 16 04 02 13 38 11.7000000  0  2G17G28                                          
  22332839.14849 117359860.05949    -18978.69549        50.000  
  21762288.83649 114361598.77749     -4874.63349        50.000  
 16 04 02 13 38 11.8000000  0  2G17G28                                          
  22333200.31249 117361757.94949    -18980.05549        50.000  
  21762381.60249 114362086.28949     -4876.48049        50.000  
 16 04 02 13 38 11.9000000  0  2G17G28                                          
  22333561.51649 117363656.11349    -18982.73049        50.000  
  21762474.43849 114362574.13749     -4879.74649        50.000  
 16 04 02 13 38 12.0000000  0  2G17G28                                          
  22333922.77349 117365554.53949    -18985.56649        50.000  
  21762567.33649 114363062.29749     -4883.11349        50.000  
 16 04 02 13 38 12.1000000  0  2G17G28                                          
  22334284.06249 117367453.12149    -18986.91449        50.000  
  21762660.27349 114363550.68049     -4885.17649        50.000  
 16 04 02 13 38 12.2000000  0  2G17G28                                          
  22334645.39149 117369351.91849    -18988.95749        50.000  
  21762753.25849 114364039.32849     -4887.64849        50.000  
 16 04 02 13 38 12.3000000  0  2G17G28                                          
  22335006.76649 117371250.94949    -18991.25049        50.000  
  21762846.29749 114364528.26649     -4890.59049        50.000  
 16 04 02 13 38 12.4000000  0  2G17G28                                          
  22335368.18049 117373150.16049    -18993.17649        50.000  
  21762939.39149 114365017.44549     -4893.08249        50.000  
 16 04 02 13 38 12.5000000  0  2G17G28                                          
  22335729.63349 117375049.62549    -18995.85249        50.000  
  21763032.53149 114365506.93449     -4896.25049        50.000  
 16 04 02 13 38 12.6000000  0  2G17G28                                          
  22336091.14849 117376949.39549    -18998.83649        50.000  
  21763125.75049 114365996.78549     -4899.90249        50.000  
 16 04 02 13 38 12.7000000  0  2G17G28                                          
  22336452.69549 117378849.31249    -19000.48449        50.000  
  21763219.00849 114366486.84449     -4902.17249        50.000  
 16 04 02 13 38 12.8000000  0  2G17G28                                          
  22336814.28149 117380749.49649    -19002.73849        50.000  
  21763312.32049 114366977.21949     -4904.98049        50.000  
 16 04 02 13 38 12.9000000  0  2G17G28                                          
  22337175.90649 117382649.81649    -19004.34849        50.000  
  21763405.67249 114367467.78149     -4907.02749        50.000  
 16 04 02 13 38 13.0000000  0  2G17G28                                          
  22337537.58649 117384550.46149    -19007.51649        50.000  
  21763499.10249 114367958.74249     -4910.85249        50.000  
 16 04 02 13 38 13.1000000  0  2G17G28                                          
  22337899.29749 117386451.28149    -19009.36349        50.000  
  21763592.57049 114368449.92649     -4913.18449        50.000  
 16 04 02 13 38 13.2000000  0  2G17G28                                          
  22338261.05549 117388352.30949    -19011.35949        50.000  
  21763686.08649 114368941.36749     -4915.75449        50.000  
 16 04 02 13 38 13.3000000  0  2G17G28                                          
  22338622.85249 117390253.57049    -19013.67649        50.000  
  21763779.66449 114369433.12549     -4918.84049        50.000  
 16 04 02 13 38 13.4000000  0  2G17G28                                          
  22338984.70349 117392155.13749    -19016.71549        50.000  
  21763873.30549 114369925.21549     -4922.28549        50.000  
 16 04 02 13 38 13.5000000  0  2G17G28                                          
  22339346.60249 117394056.91049    -19018.94549        50.000  
  21763967.00049 114370417.58249     -4925.14549        50.000  
 16 04 02 13 38 13.6000000  0  2G17G28                                          
  22339708.53949 117395958.90649    -19021.09449        50.000  
  21764060.74249 114370910.23049     -4927.96149        50.000  
 16 04 02 13 38 13.7000000  0  2G17G28                                          
  22340070.52349 117397861.13749    -19023.51249        50.000  
  21764154.54749 114371403.16449     -4930.75449        50.000  
 16 04 02 13 38 13.8000000  0  2G17G28                                          
  22340432.54749 117399763.58649    -19025.67649        50.000  
  21764248.39849 114371896.37149     -4933.48449        50.000  
 16 04 02 13 38 13.9000000  0  2G17G28                                          
  22340794.60949 117401666.21149    -19027.39549        50.000  
  21764342.30549 114372389.83249     -4935.95749        50.000  
 16 04 02 13 38 14.0000000  0  2G17G28                                          
  22341156.71949 117403569.10949    -19030.13749        50.000  
  21764436.25849 114372883.59849     -4939.10549        50.000  
 16 04 02 13 38 14.1000000  0  2G17G28                                          
  22341518.85249 117405472.15249    -19031.42249        50.000  
  21764530.26649 114373377.57849     -4941.06649        50.000  
 16 04 02 13 38 14.2000000  0  2G17G28                                          
  22341881.04749 117407375.47749    -19034.37149        50.000  
  21764624.32849 114373871.89149     -4944.46149        50.000  
 16 04 02 13 38 14.3000000  0  2G17G28                                          
  22342243.28149 117409279.03949    -19036.80949        50.000  
  21764718.44549 114374366.51249     -4947.64549        50.000  
 16 04 02 13 38 14.4000000  0  2G17G28                                          
  22342605.55549 117411182.80549    -19038.63749        50.000  
  21764812.61749 114374861.38349     -4949.99649        50.000  
 16 04 02 13 38 14.5000000  0  2G17G28                                          
  22342967.86749 117413086.77049    -19040.55549        50.000  
  21764906.84449 114375356.50849     -4952.46949        50.000  
 16 04 02 13 38 14.6000000  0  2G17G28                                          
  22343330.21949 117414990.95749    -19042.98449        50.000  
  21765001.11749 114375851.91449     -4955.52349        50.000  
 16 04 02 13 38 14.7000000  0  2G17G28                                          
  22343692.61749 117416895.37549    -19045.48049        50.000  
  21765095.44549 114376347.61349     -4958.48449        50.000  
 16 04 02 13 38 14.8000000  0  2G17G28                                          
  22344055.06249 117418800.02749    -19047.51249        50.000  
  21765189.82049 114376843.59849     -4961.12149        50.000  
 16 04 02 13 38 14.9000000  0  2G17G28                                          
  22344417.53949 117420704.84849    -19049.34049        50.000  
  21765284.25049 114377339.80949     -4963.53949        50.000  
 16 04 02 13 38 15.0000000  0  2G17G28                                          
  22344780.05549 117422609.88349    -19051.37949        50.000  
  21765378.72749 114377836.29349     -4966.18449        50.000  
 16 04 02 13 38 15.1000000  0  2G17G28                                          
  22345142.62549 117424515.18449    -19053.89549        50.000  
  21765473.27349 114378333.10549     -4969.32849        50.000  
 16 04 02 13 38 15.2000000  0  2G17G28                                          
  22345505.21949 117426420.64549    -19055.70349        50.000  
  21765567.85249 114378830.12949     -4971.52049        50.000  
 16 04 02 13 38 15.3000000  0  2G17G28                                          
  22345867.86749 117428326.36749    -19058.23849        50.000  
  21765662.49249 114379327.47349     -4974.70749        50.000  
 16 04 02 13 38 15.4000000  0  2G17G28                                          
  22346230.56249 117430232.35249    -19061.02749        50.000  
  21765757.19549 114379825.12949     -4978.05149        50.000  
 16 04 02 13 38 15.5000000  0  2G17G28                                          
  22346593.30549 117432138.56249    -19063.34049        50.000  
  21765851.94549 114380323.07449     -4980.82849        50.000  
 16 04 02 13 38 15.6000000  0  2G17G28                                          
  22346956.07849 117434044.95349    -19065.15249        50.000  
  21765946.75049 114380821.26649     -4983.28949        50.000  
 16 04 02 13 38 15.7000000  0  2G17G28                                          
  22347318.90649 117435951.61349    -19067.61349        50.000  
  21766041.60949 114381319.77049     -4986.34449        50.000  
 16 04 02 13 38 15.8000000  0  2G17G28                                          
  22347681.77349 117437858.49649    -19069.94549        50.000  
  21766136.53149 114381818.56249     -4989.32049        50.000  
 16 04 02 13 38 15.9000000  0  2G17G28                                          
  22348044.68049 117439765.56249    -19071.59849        50.000  
  21766231.49249 114382317.59449     -4991.58249        50.000  
 16 04 02 13 38 16.0000000  0  2G17G28                                          
  22348407.61749 117441672.82049    -19073.71149        50.000  
  21766326.50049 114382816.87149     -4994.09849        50.000  
 16 04 02 13 38 16.1000000  0  2G17G28                                          
  22348770.60249 117443580.34049    -19076.48449        50.000  
  21766421.57049 114383316.47349     -4997.35549        50.000  
 16 04 02 13 38 16.2000000  0  2G17G28                                          
  22349133.64149 117445488.12549    -19078.91449        50.000  
  21766516.70349 114383816.39149     -5000.48049        50.000  
 16 04 02 13 38 16.3000000  0  2G17G28                                          
  22349496.71149 117447396.04349    -19080.46149        50.000  
  21766611.86749 114384316.50449     -5002.55149        50.000  
 16 04 02 13 38 16.4000000  0  2G17G28                                          
  22349859.82849 117449304.25049    -19083.18849        50.000  
  21766707.10249 114384816.96149     -5005.81649        50.000  
 16 04 02 13 38 16.5000000  0  2G17G28                                          
  22350222.97749 117451212.59849    -19084.60249        50.000  
  21766802.37549 114385317.62149     -5007.94949        50.000  
 16 04 02 13 38 16.6000000  0  2G17G28                                          
  22350586.17249 117453121.22349    -19087.36749        50.000  
  21766897.71149 114385818.61349     -5011.25049        50.000  
 16 04 02 13 38 16.7000000  0  2G17G28                                          
  22350949.41449 117455030.07049    -19089.60949        50.000  
  21766993.09449 114386319.88349     -5014.05549        50.000  
 16 04 02 13 38 16.8000000  0  2G17G28                                          
  22351312.70349 117456939.15249    -19092.02049        50.000  
  21767088.53949 114386821.44149     -5016.97749        50.000  
 16 04 02 13 38 16.9000000  0  2G17G28                                          
  22351676.03149 117458848.46149    -19094.09849        50.000  
  21767184.03949 114387323.29749     -5019.80949        50.000  
 16 04 02 13 38 17.0000000  0  2G17G28                                          
  22352039.40649 117460757.98049    -19096.34449        50.000  
  21767279.59449 114387825.41849     -5022.65649        50.000  
 16 04 02 13 38 17.1000000  0  2G17G28                                          
  22352402.82049 117462667.73049    -19098.62949        50.000  
  21767375.19549 114388327.81649     -5025.44149        50.000  
 16 04 02 13 38 17.2000000  0  2G17G28                                          
  22352766.28149 117464577.75049    -19101.58249        50.000  
  21767470.85949 114388830.54349     -5028.89849        50.000  
 16 04 02 13 38 17.3000000  0  2G17G28                                          
  22353129.78149 117466487.96949    -19103.44949        50.000  
  21767566.57849 114389333.53949     -5031.46149        50.000  
 16 04 02 13 38 17.4000000  0  2G17G28                                          
  22353493.32849 117468398.41049    -19105.53549        50.000  
  21767662.34449 114389836.80549     -5034.01249        50.000  
 16 04 02 13 38 17.5000000  0  2G17G28                                          
  22353856.93049 117470309.10949    -19108.04349        50.000  
  21767758.17249 114390340.38749     -5037.17649        50.000  
 16 04 02 13 38 17.6000000  0  2G17G28                                          
  22354220.57049 117472220.07449    -19111.01249        50.000  
  21767854.06249 114390844.28149     -5040.43849        50.000  
 16 04 02 13 38 17.7000000  0  2G17G28                                          
  22354584.24249 117474131.19549    -19112.40649        50.000  
  21767949.99249 114391348.41449     -5042.66849        50.000  
 16 04 02 13 38 17.8000000  0  2G17G28                                          
  22354947.96149 117476042.51649    -19114.23449        50.000  
  21768045.97749 114391852.78549     -5044.96149        50.000  
 16 04 02 13 38 17.9000000  0  2G17G28                                          
  22355311.72749 117477954.13349    -19117.32449        50.000  
  21768142.02349 114392357.52349     -5048.74649        50.000  
 16 04 02 13 38 18.0000000  0  2G17G28                                          
  22355675.53149 117479865.95349    -19119.26249        50.000  
  21768238.12549 114392862.52049     -5051.27749        50.000  
 16 04 02 13 38 18.1000000  0  2G17G28                                          
  22356039.38349 117481778.00049    -19121.87949        50.000  
  21768334.27349 114393367.78949     -5054.23849        50.000  
 16 04 02 13 38 18.2000000  0  2G17G28                                          
  22356403.28149 117483690.28949    -19124.02749        50.000  
  21768430.47749 114393873.36349     -5057.13749        50.000  
 16 04 02 13 38 18.3000000  0  2G17G28                                          
  22356767.21949 117485602.77349    -19126.00849        50.000  
  21768526.73449 114394379.19549     -5059.80549        50.000  
 16 04 02 13 38 18.4000000  0  2G17G28                                          
  22357131.19549 117487515.47749    -19128.34449        50.000  
  21768623.03949 114394885.30149     -5062.57849        50.000  
 16 04 02 13 38 18.5000000  0  2G17G28                                          
  22357495.21949 117489428.41449    -19130.48049        50.000  
  21768719.40649 114395391.69549     -5065.34849        50.000  
 16 04 02 13 38 18.6000000  0  2G17G28                                          
  22357859.27349 117491341.53549    -19132.19549        50.000  
  21768815.81249 114395898.32849     -5067.56249        50.000  
 16 04 02 13 38 18.7000000  0  2G17G28                                          
  22358223.37549 117493254.89549    -19134.91049        50.000  
  21768912.28149 114396405.26249     -5070.85249        50.000  
 16 04 02 13 38 18.8000000  0  2G17G28                                          
  22358587.50849 117495168.46949    -19136.80549        50.000  
  21769008.80549 114396912.48049     -5073.48849        50.000  
 16 04 02 13 38 18.9000000  0  2G17G28                                          
  22358951.69549 117497082.25849    -19139.00449        50.000  
  21769105.37549 114397419.96949     -5076.23849        50.000  
 16 04 02 13 38 19.0000000  0  2G17G28                                          
  22359315.93049 117498996.32449    -19141.84449        50.000  
  21769202.00049 114397927.75849     -5079.28949        50.000  
 16 04 02 13 38 19.1000000  0  2G17G28                                          
  22359680.19549 117500910.56249    -19143.48849        50.000  
  21769298.68849 114398435.82049     -5081.88749        50.000  
 16 04 02 13 38 19.2000000  0  2G17G28                                          
  22360044.50049 117502824.99249    -19145.28949        50.000  
  21769395.40649 114398944.11749     -5084.21949        50.000  
 16 04 02 13 38 19.3000000  0  2G17G28                                          
  22360408.85949 117504739.68449    -19147.93049        50.000  
  21769492.19549 114399452.72349     -5087.31649        50.000  
 16 04 02 13 38 19.4000000  0  2G17G28                                          
  22360773.24249 117506654.54749    -19149.68049        50.000  
  21769589.02349 114399961.57849     -5089.91449        50.000  
 16 04 02 13 38 19.5000000  0  2G17G28                                          
  22361137.67249 117508569.64549    -19151.96149        50.000  
  21769685.90649 114400470.69949     -5092.57049        50.000  
 16 04 02 13 38 19.6000000  0  2G17G28                                          
  22361502.14849 117510485.00849    -19154.79349        50.000  
  21769782.85249 114400980.15649     -5095.94149        50.000  
 16 04 02 13 38 19.7000000  0  2G17G28                                          
  22361866.66449 117512400.51249    -19156.14849        50.000  
  21769879.84449 114401489.82449     -5097.97749        50.000  
 16 04 02 13 38 19.8000000  0  2G17G28                                          
  22362231.21949 117514316.27349    -19158.78549        50.000  
  21769976.88349 114401999.78549     -5101.03949        50.000  
 16 04 02 13 38 19.9000000  0  2G17G28                                          
  22362595.82049 117516232.28149    -19161.11349        50.000  
  21770073.98449 114402510.06649     -5104.10249        50.000  
 16 04 02 13 38 20.0000000  0  2G17G28                                          
  22362960.46149 117518148.46549    -19163.00449        50.000  
  21770171.13349 114403020.57849     -5106.49649        50.000  
 16 04 02 13 38 20.1000000  0  2G17G28                                          
  22363325.14149 117520064.87549    -19165.14849        50.000  
  21770268.33649 114403531.37149     -5109.29349        50.000  
 16 04 02 13 38 20.2000000  0  2G17G28                                          
  22363689.86749 117521981.52349    -19167.52349        50.000  
  21770365.59449 114404042.46149     -5112.22749        50.000  
 16 04 02 13 38 20.3000000  0  2G17G28                                          
  22364054.64849 117523898.45349    -19170.37549        50.000  
  21770462.91449 114404553.88749     -5115.56649        50.000  
 16 04 02 13 38 20.4000000  0  2G17G28                                          
  22364419.45349 117525815.53149    -19172.21949        50.000  
  21770560.27349 114405065.52749     -5117.96949        50.000  
 16 04 02 13 38 20.5000000  0  2G17G28                                          
  22364784.31249 117527732.88749    -19174.62149        50.000  
  21770657.70349 114405577.50449     -5121.11349        50.000  
 16 04 02 13 38 20.6000000  0  2G17G28                                          
  22365149.21149 117529650.44549    -19176.90649        50.000  
  21770755.17249 114406089.72749     -5123.73049        50.000  
 16 04 02 13 38 20.7000000  0  2G17G28                                          
  22365514.15649 117531568.21549    -19178.86749        50.000  
  21770852.70349 114406602.23849     -5126.52349        50.000  
 16 04 02 13 38 20.8000000  0  2G17G28                                          
  22365879.14149 117533486.24649    -19181.08649        50.000  
  21770950.28949 114407115.06249     -5129.43049        50.000  
 16 04 02 13 38 20.9000000  0  2G17G28                                          
  22366244.16449 117535404.46149    -19183.18849        50.000  
  21771047.92249 114407628.11349     -5131.90249        50.000  
 16 04 02 13 38 21.0000000  0  2G17G28                                          
  22366609.23449 117537322.87949    -19185.22749        50.000  
  21771145.60249 114408141.43849     -5134.52349        50.000  
 16 04 02 13 38 21.1000000  0  2G17G28                                          
  22366974.32849 117539241.48049    -19187.11749        50.000  
  21771243.32849 114408655.00849     -5136.98849        50.000  
 16 04 02 13 38 21.2000000  0  2G17G28                                          
  22367339.48449 117541160.37949    -19190.09849        50.000  
  21771341.12549 114409168.92249     -5140.47749        50.000  
 16 04 02 13 38 21.3000000  0  2G17G28                                          
  22367704.67249 117543079.43449    -19191.71949        50.000  
  21771438.96949 114409683.06649     -5142.87549        50.000  
 16 04 02 13 38 21.4000000  0  2G17G28                                          
  22368069.89849 117544998.71149    -19193.78549        50.000  
  21771536.85249 114410197.46949     -5145.27749        50.000  
 16 04 02 13 38 21.5000000  0  2G17G28                                          
  22368435.18049 117546918.27749    -19196.89149        50.000  
  21771634.81249 114410712.25449     -5149.33249        50.000  
 16 04 02 13 38 21.6000000  0  2G17G28                                          
  22368800.49249 117548838.03549    -19198.77049        50.000  
  21771732.82049 114411227.26249     -5151.55549        50.000  
 16 04 02 13 38 21.7000000  0  2G17G28                                          
  22369165.85249 117550758.00449    -19200.89149        50.000  
  21771830.87549 114411742.52749     -5154.14849        50.000  
 16 04 02 13 38 21.8000000  0  2G17G28                                          
  22369531.25049 117552678.19149    -19202.98449        50.000  
  21771928.98449 114412258.09849     -5157.11749        50.000  
 16 04 02 13 38 21.9000000  0  2G17G28                                          
  22369896.68849 117554598.58249    -19205.00449        50.000  
  21772027.14149 114412773.91049     -5159.58249        50.000  
 16 04 02 13 38 22.0000000  0  2G17G28                                          
  22370262.18849 117556519.28949    -19208.37949        50.000  
  21772125.36749 114413290.10549     -5163.50449        50.000  
 16 04 02 13 38 22.1000000  0  2G17G28                                          
  22370627.71949 117558440.17249    -19209.88349        50.000  
  21772223.64149 114413806.52749     -5165.59049        50.000  
 16 04 02 13 38 22.2000000  0  2G17G28                                          
  22370993.28949 117560361.24649    -19211.94949        50.000  
  21772321.96149 114414323.21149     -5168.23049        50.000  
 16 04 02 13 38 22.3000000  0  2G17G28                                          
  22371358.90649 117562282.59449    -19214.46949        50.000  
  21772420.34449 114414840.21149     -5171.29749        50.000  
 16 04 02 13 38 22.4000000  0  2G17G28                                          
  22371724.56249 117564204.09849    -19216.05549        50.000  
  21772518.76649 114415357.44149     -5173.57849        50.000  
 16 04 02 13 38 22.5000000  0  2G17G28                                          
  22372090.25849 117566125.85949    -19218.77749        50.000  
  21772617.25049 114415874.97349     -5176.74649        50.000  
 16 04 02 13 38 22.6000000  0  2G17G28                                          
  22372456.00049 117568047.83249    -19220.79749        50.000  
  21772715.78949 114416392.78549     -5179.39849        50.000  
 16 04 02 13 38 22.7000000  0  2G17G28                                          
  22372821.78149 117569970.00849    -19222.99249        50.000  
  21772814.37549 114416910.85549     -5182.20749        50.000  
 16 04 02 13 38 22.8000000  0  2G17G28                                          
  22373187.60249 117571892.43449    -19225.13349        50.000  
  21772913.01649 114417429.23849     -5185.14549        50.000  
 16 04 02 13 38 22.9000000  0  2G17G28                                          
  22373553.46149 117573815.03949    -19227.00849        50.000  
  21773011.70349 114417947.85249     -5187.40649        50.000  
 16 04 02 13 38 23.0000000  0  2G17G28                                          
  22373919.36749 117575737.88749    -19229.51249        50.000  
  21773110.45349 114418466.75849     -5190.37949        50.000  
 16 04 02 13 38 23.1000000  0  2G17G28                                          
  22374285.31249 117577660.95749    -19231.73049        50.000  
  21773209.25049 114418985.95749     -5193.32849        50.000  
 16 04 02 13 38 23.2000000  0  2G17G28                                          
  22374651.29749 117579584.22349    -19233.85549        50.000  
  21773308.10249 114419505.41449     -5195.96149        50.000  
 16 04 02 13 38 23.3000000  0  2G17G28                                          
  22375017.32849 117581507.70349    -19235.90649        50.000  
  21773407.00049 114420025.12549     -5198.43449        50.000  
 16 04 02 13 38 23.4000000  0  2G17G28                                          
  22375383.39849 117583431.42649    -19238.31649        50.000  
  21773505.96149 114420545.15649     -5201.64149        50.000  
 16 04 02 13 38 23.5000000  0  2G17G28                                          
  22375749.51649 117585355.37949    -19240.80549        50.000  
  21773604.96949 114421065.46549     -5204.52049        50.000  
 16 04 02 13 38 23.6000000  0  2G17G28                                          
  22376115.67249 117587279.55149    -19242.98449        50.000  
  21773704.03149 114421586.04749     -5207.16849        50.000  
 16 04 02 13 38 23.7000000  0  2G17G28                                          
  22376481.86749 117589203.92249    -19244.73849        50.000  
  21773803.14849 114422106.91049     -5209.85249        50.000  
 16 04 02 13 38 23.8000000  0  2G17G28                                          
  22376848.10249 117591128.49249    -19246.85949        50.000  
  21773902.31249 114422628.00849     -5212.45749        50.000  
 16 04 02 13 38 23.9000000  0  2G17G28                                          
  22377214.38349 117593053.31249    -19249.37949        50.000  
  21774001.53149 114423149.43049     -5215.48849        50.000  
 16 04 02 13 38 24.0000000  0  2G17G28                                          
  22377580.71149 117594978.36749    -19251.71549        50.000  
  21774100.81249 114423671.13349     -5218.50049        50.000  
 16 04 02 13 38 24.1000000  0  2G17G28                                          
  22377947.07849 117596903.66449    -19254.07849        50.000  
  21774200.14149 114424193.13349     -5221.39849        50.000  
 16 04 02 13 38 24.2000000  0  2G17G28                                          
  22378313.49249 117598829.16049    -19256.18049        50.000  
  21774299.52349 114424715.39849     -5224.03949        50.000  
 16 04 02 13 38 24.3000000  0  2G17G28                                          
  22378679.93849 117600754.85249    -19258.00849        50.000  
  21774398.96149 114425237.91849     -5226.45749        50.000  
 16 04 02 13 38 24.4000000  0  2G17G28                                          
  22379046.43049 117602680.77349    -19260.43449        50.000  
  21774498.44549 114425760.73049     -5229.55549        50.000  
 16 04 02 13 38 24.5000000  0  2G17G28                                          
  22379412.96149 117604606.91849    -19262.36349        50.000  
  21774597.98449 114426283.82049     -5232.16049        50.000  
 16 04 02 13 38 24.6000000  0  2G17G28                                          
  22379779.53149 117606533.25849    -19264.75049        50.000  
  21774697.57849 114426807.15649     -5234.98449        50.000  
 16 04 02 13 38 24.7000000  0  2G17G28                                          
  22380146.15649 117608459.87549    -19267.35549        50.000  
  21774797.22749 114427330.83249     -5238.14149        50.000  
 16 04 02 13 38 24.8000000  0  2G17G28                                          
  22380512.81249 117610386.64149    -19268.74249        50.000  
  21774896.92249 114427854.71949     -5240.21949        50.000  
 16 04 02 13 38 24.9000000  0  2G17G28                                          
  22380879.50849 117612313.64549    -19271.05549        50.000  
  21774996.67249 114428378.90649     -5243.15649        50.000  
 16 04 02 13 38 25.0000000  0  2G17G28                                          
  22381246.25049 117614240.90649    -19273.73849        50.000  
  21775096.47749 114428903.39149     -5246.26649        50.000  
 16 04 02 13 38 25.1000000  0  2G17G28                                          
  22381613.03949 117616168.39849    -19276.03549        50.000  
  21775196.34449 114429428.19149     -5249.33649        50.000  
 16 04 02 13 38 25.2000000  0  2G17G28                                          
  22381979.87549 117618096.11749    -19278.30949        50.000  
  21775296.25849 114429953.25849     -5252.05549        50.000  
 16 04 02 13 38 25.3000000  0  2G17G28                                          
  22382346.73449 117620024.00849    -19280.07849        50.000  
  21775396.21949 114430478.55949     -5254.34049        50.000  
 16 04 02 13 38 25.4000000  0  2G17G28                                          
  22382713.64149 117621952.10949    -19281.94549        50.000  
  21775496.23449 114431004.13749     -5257.06249        50.000  
 16 04 02 13 38 25.5000000  0  2G17G28                                          
  22383080.59449 117623880.44549    -19284.43449        50.000  
  21775596.30549 114431529.99649     -5259.82049        50.000  
 16 04 02 13 38 25.6000000  0  2G17G28                                          
  22383447.58649 117625808.99249    -19286.52349        50.000  
  21775696.42249 114432056.13349     -5262.69949        50.000  
 16 04 02 13 38 25.7000000  0  2G17G28                                          
  22383814.61749 117627737.75849    -19288.66049        50.000  
  21775796.59449 114432582.54749     -5265.38349        50.000  
 16 04 02 13 38 25.8000000  0  2G17G28                                          
  22384181.69549 117629666.77749    -19291.43049        50.000  
  21775896.82849 114433109.27349     -5268.69149        50.000  
 16 04 02 13 38 25.9000000  0  2G17G28                                          
  22384548.82049 117631596.02049    -19293.55549        50.000  
  21775997.10949 114433636.27049     -5271.39849        50.000  
 16 04 02 13 38 26.0000000  0  2G17G28                                          
  22384915.98449 117633525.49249    -19295.95349        50.000  
  21776097.45349 114434163.57049     -5274.42649        50.000  
 16 04 02 13 38 26.1000000  0  2G17G28                                          
  22385283.19549 117635455.20349    -19298.19549        50.000  
  21776197.85249 114434691.15649     -5277.19549        50.000  
 16 04 02 13 38 26.2000000  0  2G17G28                                          
  22385650.44549 117637385.12549    -19300.50449        50.000  
  21776298.29749 114435219.02049     -5280.08649        50.000  
 16 04 02 13 38 26.3000000  0  2G17G28                                          
  22386017.73449 117639315.23449    -19301.96149        50.000  
  21776398.79749 114435747.14149     -5282.33249        50.000  
 16 04 02 13 38 26.4000000  0  2G17G28                                          
  22386385.06249 117641245.57049    -19304.34849        50.000  
  21776499.34449 114436275.52349     -5285.18049        50.000  
 16 04 02 13 38 26.5000000  0  2G17G28                                          
  22386752.43849 117643176.11349    -19306.53949        50.000  
  21776599.94549 114436804.18049     -5288.02349        50.000  
 16 04 02 13 38 26.6000000  0  2G17G28                                          
  22387119.86749 117645106.96549    -19309.71949        50.000  
  21776700.61749 114437333.19549     -5291.65649        50.000  
 16 04 02 13 38 26.7000000  0  2G17G28                                          
  22387487.32849 117647037.99649    -19311.55949        50.000  
  21776801.32849 114437862.46549     -5294.11749        50.000  
 16 04 02 13 38 26.8000000  0  2G17G28                                          
  22387854.83649 117648969.24249    -19313.60949        50.000  
  21776902.10249 114438392.01249     -5296.80149        50.000  
 16 04 02 13 38 26.9000000  0  2G17G28                                          
  22388222.38349 117650900.71949    -19315.96549        50.000  
  21777002.92249 114438921.83249     -5299.67649        50.000  
 16 04 02 13 38 27.0000000  0  2G17G28                                          
  22388589.96949 117652832.41449    -19317.83649        50.000  
  21777103.79749 114439451.93849     -5302.23449        50.000  
 16 04 02 13 38 27.1000000  0  2G17G28                                          
  22388957.58649 117654764.25449    -19319.46949        50.000  
  21777204.71149 114439982.24249     -5304.40249        50.000  
 16 04 02 13 38 27.2000000  0  2G17G28                                          
  22389325.25849 117656696.37949    -19322.22349        50.000  
  21777305.68849 114440512.89149     -5307.68849        50.000  
 16 04 02 13 38 27.3000000  0  2G17G28                                          
  22389692.96949 117658628.68049    -19324.14849        50.000  
  21777406.71149 114441043.78149     -5310.35249        50.000  
 16 04 02 13 38 27.4000000  0  2G17G28                                          
  22390060.71949 117660561.22749    -19326.62949        50.000  
  21777507.79749 114441574.97349     -5313.37549        50.000  
 16 04 02 13 38 27.5000000  0  2G17G28                                          
  22390428.50849 117662493.97349    -19328.63349        50.000  
  21777608.92249 114442106.42649     -5315.97749        50.000  
 16 04 02 13 38 27.6000000  0  2G17G28                                          
  22390796.33649 117664426.90249    -19330.35249        50.000  
  21777710.10249 114442638.10549     -5318.14849        50.000  
 16 04 02 13 38 27.7000000  0  2G17G28                                          
  22391164.21149 117666360.11349    -19333.16849        50.000  
  21777811.34449 114443170.14849     -5321.75449        50.000  
 16 04 02 13 38 27.8000000  0  2G17G28                                          
  22391532.12549 117668293.51649    -19335.23849        50.000  
  21777912.63349 114443702.42249     -5324.25049        50.000  
 16 04 02 13 38 27.9000000  0  2G17G28                                          
  22391900.08649 117670227.15249    -19337.56649        50.000  
  21778013.97749 114444235.00049     -5327.24649        50.000  
 16 04 02 13 38 28.0000000  0  2G17G28                                          
  22392268.08649 117672160.99249    -19339.47749        50.000  
  21778115.36749 114444767.83649     -5329.69149        50.000  
 16 04 02 13 38 28.1000000  0  2G17G28                                          
  22392636.12549 117674095.04349    -19341.83249        49.000  
  21778216.81249 114445300.93449     -5332.36749        50.000  
 16 04 02 13 38 28.2000000  0  2G17G28                                          
  22393004.21149 117676029.36749    -19344.35949        50.000  
  21778318.32849 114445834.38349     -5335.72749        50.000  
 16 04 02 13 38 28.3000000  0  2G17G28                                          
  22393372.34449 117677963.88749    -19346.42249        50.000  
  21778419.88349 114446368.06249     -5338.25049        50.000  
 16 04 02 13 38 28.4000000  0  2G17G28                                          
  22393740.51649 117679898.65649    -19348.96549        50.000  
  21778521.49249 114446902.05149     -5341.22749        50.000  
 16 04 02 13 38 28.5000000  0  2G17G28                                          
  22394108.73449 117681833.64849    -19351.20349        50.000  
  21778623.17249 114447436.35949     -5344.31249        50.000  
 16 04 02 13 38 28.6000000  0  2G17G28                                          
  22394476.99249 117683768.86349    -19353.39849        50.000  
  21778724.89149 114447970.92249     -5347.07449        50.000  
 16 04 02 13 38 28.7000000  0  2G17G28                                          
  22394845.29749 117685704.30149    -19355.54349        50.000  
  21778826.67249 114448505.76649     -5349.85949        50.000  
 16 04 02 13 38 28.8000000  0  2G17G28                                          
  22395213.64149 117687639.94949    -19357.71949        50.000  
  21778928.50849 114449040.90649     -5352.82449        50.000  
 16 04 02 13 38 28.9000000  0  2G17G28                                          
  22395582.02349 117689575.84049    -19359.88749        50.000  
  21779030.39149 114449576.30549     -5355.40649        50.000  
 16 04 02 13 38 29.0000000  0  2G17G28                                          
  22395950.46149 117691511.96149    -19362.21149        50.000  
  21779132.32849 114450112.02049     -5358.39549        50.000  
 16 04 02 13 38 29.1000000  0  2G17G28                                          
  22396318.92249 117693448.25849    -19364.22749        50.000  
  21779234.31249 114450647.94949     -5360.80949        50.000  
 16 04 02 13 38 29.2000000  0  2G17G28                                          
  22396687.43849 117695384.81649    -19366.64549        50.000  
  21779336.35949 114451184.21149     -5363.84049        50.000  
 16 04 02 13 38 29.3000000  0  2G17G28                                          
  22397055.98449 117697321.53549    -19368.26649        50.000  
  21779438.45349 114451720.69949     -5366.19549        50.000  
 16 04 02 13 38 29.4000000  0  2G17G28                                          
  22397424.57049 117699258.48849    -19370.64149        50.000  
  21779540.60249 114452257.48449     -5369.21549        50.000  
 16 04 02 13 38 29.5000000  0  2G17G28                                          
  22397793.21149 117701195.67649    -19372.97749        50.000  
  21779642.79749 114452794.55549     -5372.13749        50.000  
 16 04 02 13 38 29.6000000  0  2G17G28                                          
  22398161.88349 117703133.10549    -19375.63349        50.000  
  21779745.05549 114453331.91449     -5375.12549        50.000  
 16 04 02 13 38 29.7000000  0  2G17G28                                          
  22398530.60949 117705070.76649    -19377.73449        50.000  
  21779847.36749 114453869.55949     -5377.77049        50.000  
 16 04 02 13 38 29.8000000  0  2G17G28                                          
  22398899.37549 117707008.60549    -19379.48449        50.000  
  21779949.73449 114454407.49249     -5380.61749        50.000  
 16 04 02 13 38 29.9000000  0  2G17G28                                          
  22399268.17249 117708946.67649    -19381.73849        49.000  
  21780052.14849 114454945.66849     -5383.07049        50.000  
 16 04 02 13 38 30.0000000  0  2G17G28                                          
  22399637.00849 117710884.91449    -19383.49649        50.000  
  21780154.60249 114455484.08249     -5385.44149        50.000  
 16 04 02 13 38 30.1000000  0  2G17G28                                          
  22400005.89849 117712823.46149    -19386.55949        50.000  
  21780257.12549 114456022.85949     -5389.03549        50.000  
