     2.10           OBSERVATION DATA    G (GPS)             RINEX VERSION / TYPE
Convert v1.8.0                          07-Jun-2016 18:54   PGM / RUN BY / DATE 
Signal Strength values S1,S2 are in dBHz                    COMMENT             
                                                            MARKER NAME         
                                                            MARKER NUMBER       
                                                            OBSERVER / AGENCY   
                    NovAtel GPSCard                         REC # / TYPE / VERS 
                                                            ANT # / TYPE        
0.0000        0.0000        0.0000                          APPROX POSITION XYZ 
        0.0000        0.0000        0.0000                  ANTENNA: DELTA H/E/N
     1     1                                                WAVELENGTH FACT L1/2
     1     1     7   G03   G04   G16   G21   G23   G26   G31WAVELENGTH FACT L1/2
                                                            COMMENT             
                                                            COMMENT             
                                                            COMMENT             
                                                            COMMENT             
                                                            COMMENT             
                                                            COMMENT             
     8    C1    L1    D1    S1    P2    L2    D2    S2      # / TYPES OF OBSERV 
     0.100                                                  INTERVAL            
  2016    04    02    12    36     6.6000000    GPS         TIME OF FIRST OBS   
  2016    04    02    12    40    27.6000000    GPS         TIME OF LAST OBS    
Leap Seconds Unknown                                        COMMENT             
                                                            END OF HEADER       
 16 04 02 12 36  6.6000000  0  1G26                                             
  21681773.08649 113938485.08259       183.89149        50.000  

 16 04 02 12 36  6.7000000  0  1G26                                             
  21681769.62549 113938466.91049       179.24249        49.000  

 16 04 02 12 36  6.8000000  0  2G26G31                                          
  21681766.27349 113938449.26249       173.96149        49.000  

  22347479.29749 117436795.21959     -1896.35549        50.000  

 16 04 02 12 36  6.9000000  0  2G26G31                                          
  21681763.02349 113938432.15649       168.53549        49.000  

  22347515.44549 117436985.15649     -1902.20349        50.000  

 16 04 02 12 36  7.0000000  0  2G26G31                                          
  21681759.85249 113938415.51249       164.08249        50.000  

  22347551.67249 117437175.58249     -1906.84049        50.000  

 16 04 02 12 36  7.1000000  0  2G26G31                                          
  21681756.78149 113938399.37949       158.73049        50.000  

  22347588.01649 117437366.55949     -1912.57049        50.000  

 16 04 02 12 36  7.2000000  0  2G26G31                                          
  21681753.80549 113938383.78149       153.44149        49.000  

  22347624.45349 117437558.09049     -1918.07849        50.000  

 16 04 02 12 36  7.3000000  0  2G26G31                                          
  21681750.93849 113938368.68849       148.37149        49.000  

  22347661.00049 117437750.16449     -1923.55149        50.000  

 16 04 02 12 36  7.4000000  0  2G26G31                                          
  21681748.17249 113938354.20349       142.19949        49.000  

  22347697.67249 117437942.86349     -1929.96149        50.000  

 16 04 02 12 36  7.5000000  0  2G26G31                                          
  21681745.50849 113938340.19549       137.47349        49.000  

  22347734.43849 117438136.08249     -1935.01249        50.000  

 16 04 02 12 36  7.6000000  0  2G26G31                                          
  21681742.94549 113938326.71549       132.32049        49.000  

  22347771.30549 117438329.84849     -1940.50049        50.000  

 16 04 02 12 36  7.7000000  0  3G26G31G04                                       
  21681740.47749 113938313.73049       127.44949        49.000  

  22347808.27349 117438524.14549     -1945.59049        50.000  

  21953947.33649 115368771.05559      5569.35249        49.000  

 16 04 02 12 36  7.8000000  0  3G26G31G04                                       
  21681738.10249 113938301.25449       122.29749        49.000  

  22347845.35249 117438718.96949     -1950.94149        50.000  

  21953841.40649 115368214.37949      5564.31249        49.000  

 16 04 02 12 36  7.9000000  0  3G26G31G04                                       
  21681735.83649 113938289.32449       116.79349        49.000  

  22347882.53949 117438914.38349     -1956.85949        50.000  

  21953735.53949 115367658.23849      5558.92249        49.000  

 16 04 02 12 36  8.0000000  0  3G26G31G04                                       
  21681733.65649 113938277.89549       111.80149        49.000  

  22347919.83649 117439110.32049     -1962.09449        50.000  

  21953629.80549 115367102.58649      5554.09049        49.000  

 16 04 02 12 36  8.1000000  0  3G26G31G04                                       
  21681731.58649 113938266.99649       106.32449        50.000  

  22347957.22749 117439306.82049     -1967.91449        50.000  

  21953524.15649 115366547.44949      5548.75449        49.000  

 16 04 02 12 36  8.2000000  0  3G26G31G04                                       
  21681729.59449 113938256.59849       101.54749        50.000  

  22347994.71949 117439503.85249     -1972.99649        50.000  

  21953418.60949 115365992.80149      5544.03549        49.000  

 16 04 02 12 36  8.3000000  0  3G26G31G04                                       
  21681727.70349 113938246.68849        96.68849        49.000  

  22348032.31249 117439701.39549     -1978.18849        50.000  

  21953313.16449 115365438.61749      5539.39549        49.000  

 16 04 02 12 36  8.4000000  0  3G26G31G04                                       
  21681725.92249 113938237.27749        91.57449        50.000  

  22348070.01649 117439899.46549     -1983.52349        50.000  

  21953207.79749 115364884.92249      5534.46949        49.000  

 16 04 02 12 36  8.5000000  0  3G26G31G04                                       
  21681724.23449 113938228.40249        86.23449        50.000  

  22348107.81249 117440098.10949     -1989.19149        50.000  

  21953102.53949 115364331.75449      5529.19149        49.000  

 16 04 02 12 36  8.6000000  0  3G26G31G04                                       
  21681722.64849 113938220.07849        80.76249        50.000  

  22348145.73449 117440297.33249     -1995.10549        50.000  

  21952997.38349 115363779.12149      5523.76249        49.000  

 16 04 02 12 36  8.7000000  0  3G26G31G04                                       
  21681721.16449 113938212.27349        75.68849        50.000  

  22348183.75049 117440497.09849     -2000.32849        50.000  

  21952892.32049 115363226.98849      5518.91449        49.000  

 16 04 02 12 36  8.8000000  0  3G26G31G04                                       
  21681719.78149 113938205.01649        69.82449        50.000  

  22348221.86749 117440697.44149     -2006.53549        50.000  

  21952787.35249 115362675.38749      5513.33649        49.000  

 16 04 02 12 36  8.9000000  0  3G26G31G04                                       
  21681718.51649 113938198.35549        63.83249        50.000  

  22348260.10949 117440898.40249     -2012.66849        50.000  

  21952682.53949 115362124.35949      5507.50849        49.000  

 16 04 02 12 36  9.0000000  0  3G26G31G04                                       
  21681717.32849 113938192.12949        59.62549        50.000  

  22348298.44549 117441099.84449     -2017.30549        50.000  

  21952577.76649 115361573.77349      5503.38349        49.000  

 16 04 02 12 36  9.1000000  0  3G26G31G04                                       
  21681716.23449 113938186.41449        54.69949        50.000  

  22348336.87549 117441301.81249     -2022.46149        50.000  

  21952473.09449 115361023.68049      5498.51649        49.000  

 16 04 02 12 36  9.2000000  0  3G26G31G04                                       
  21681715.25849 113938181.26249        49.02749        50.000  

  22348375.43049 117441504.37549     -2028.40249        50.000  

  21952368.51649 115360474.11749      5493.12949        49.000  

 16 04 02 12 36  9.3000000  0  3G26G31G04                                       
  21681714.37549 113938176.60249        43.98849        50.000  

  22348414.07849 117441707.46949     -2033.74249        50.000  

  21952264.02349 115359925.05149      5488.10249        49.000  

 16 04 02 12 36  9.4000000  0  3G26G31G04                                       
  21681713.60249 113938172.44949        39.12149        50.000  

  22348452.82849 117441911.09049     -2038.81649        50.000  

  21952159.63349 115359376.47349      5483.36749        49.000  

 16 04 02 12 36  9.5000000  0  3G26G31G04                                       
  21681712.90649 113938168.78149        34.26249        50.000  

  22348491.67249 117442115.22749     -2044.02749        50.000  

  21952055.33649 115358828.36349      5478.63349        49.000  

 16 04 02 12 36  9.6000000  0  3G26G31G04                                       
  21681712.30549 113938165.66449        28.67649        50.000  

  22348530.64149 117442319.95349     -2050.09049        50.000  

  21951951.13349 115358280.78949      5473.27349        49.000  

 16 04 02 12 36  9.7000000  0  3G26G31G04                                       
  21681711.80549 113938163.04349        23.71949        50.000  

  22348569.69549 117442525.18449     -2055.05949        50.000  

  21951847.02349 115357733.69949      5468.53149        49.000  

 16 04 02 12 36  9.8000000  0  3G26G31G04                                       
  21681711.40649 113938160.93049        18.75849        50.000  

  22348608.84449 117442730.96949     -2060.55549        50.000  

  21951743.00849 115357187.10249      5463.53949        49.000  

 16 04 02 12 36  9.9000000  0  3G26G31G04                                       
  21681711.10249 113938159.33249        13.49649        50.000  

  22348648.10949 117442937.28949     -2066.00449        50.000  

  21951639.10949 115356641.00049      5458.50849        49.000  

 16 04 02 12 36 10.0000000  0  3G26G31G04                                       
  21681710.89849 113938158.23049         8.50449        50.000  

  22348687.46949 117443144.14149     -2071.31249        50.000  

  21951535.28949 115356095.39149      5453.61749        49.000  

 16 04 02 12 36 10.1000000  0  3G26G31G04                                       
  21681710.78149 113938157.62949         3.50449        50.000  

  22348726.93049 117443351.52049     -2076.57049        50.000  

  21951431.56249 115355550.26249      5448.77349        49.000  

 16 04 02 12 36 10.2000000  0  3G26G31G04                                       
  21681710.78149 113938157.58249        -2.07849        50.000  

  22348766.50049 117443559.47349     -2082.26649        50.000  

  21951327.93049 115355005.66849      5443.40649        49.000  

 16 04 02 12 36 10.3000000  0  3G26G31G04                                       
  21681710.87549 113938158.06249        -7.36749        50.000  

  22348806.18849 117443768.00449     -2088.07049        50.000  

  21951224.41449 115354461.59849      5438.23049        49.000  

 16 04 02 12 36 10.4000000  0  3G26G31G04                                       
  21681711.07049 113938159.04349       -12.37549        50.000  

  22348845.96949 117443977.05949     -2093.46949        50.000  

  21951120.97749 115353918.01649      5433.27049        49.000  

 16 04 02 12 36 10.5000000  0  3G26G31G04                                       
  21681711.37549 113938160.61749       -18.39549        50.000  

  22348885.85949 117444186.71549     -2099.49249        50.000  

  21951017.63349 115353374.99649      5427.63749        49.000  

 16 04 02 12 36 10.6000000  0  3G26G31G04                                       
  21681711.75849 113938162.71149       -23.52749        50.000  

  22348925.87549 117444396.93849     -2105.07849        50.000  

  21950914.39149 115352832.48849      5422.57449        49.000  

 16 04 02 12 36 10.7000000  0  3G26G31G04                                       
  21681712.24249 113938165.27749       -28.18849        50.000  

  22348965.96949 117444607.66049     -2110.02749        50.000  

  21950811.26649 115352290.45749      5417.89849        49.000  

 16 04 02 12 36 10.8000000  0  3G26G31G04                                       
  21681712.82049 113938168.33649       -32.97749        50.000  

  22349006.16449 117444818.90249     -2115.05549        50.000  

  21950708.20349 115351748.88749      5413.30949        49.000  

 16 04 02 12 36 10.9000000  0  3G26G31G04                                       
  21681713.52349 113938172.02749       -39.48449        50.000  

  22349046.48449 117445030.80149     -2121.90649        50.000  

  21950605.27349 115351207.93049      5406.93849        49.000  

 16 04 02 12 36 11.0000000  0  3G26G31G04                                       
  21681714.32049 113938176.22349       -44.47749        50.000  

  22349086.89849 117445243.24249     -2127.20749        50.000  

  21950502.42249 115350667.47749      5402.13749        49.000  

 16 04 02 12 36 11.1000000  0  3G26G31G04                                       
  21681715.20349 113938180.85249       -48.92249        50.000  

  22349127.41449 117445456.13749     -2131.91849        50.000  

  21950399.65649 115350127.44149      5397.69949        49.000  

 16 04 02 12 36 11.2000000  0  3G26G31G04                                       
  21681716.20349 113938186.07449       -54.66449        50.000  

  22349168.06249 117445669.66449     -2138.06649        50.000  

  21950297.00049 115349587.98049      5392.13749        49.000  

 16 04 02 12 36 11.3000000  0  3G26G31G04                                       
  21681717.28949 113938191.79349       -59.62549        50.000  

  22349208.79749 117445883.70749     -2143.15249        50.000  

  21950194.46949 115349048.99649      5387.46549        49.000  

 16 04 02 12 36 11.4000000  0  3G26G31G04                                       
  21681718.48449 113938198.04749       -65.02349        49.000  

  22349249.63349 117446098.31649     -2148.85549        50.000  

  21950092.00049 115348510.54349      5382.10549        49.000  

 16 04 02 12 36 11.5000000  0  3G26G31G04                                       
  21681719.78149 113938204.87549       -70.85949        50.000  

  22349290.58649 117446313.52749     -2154.91849        50.000  

  21949989.63349 115347972.64549      5376.49249        49.000  

 16 04 02 12 36 11.6000000  0  3G26G31G04                                       
  21681721.17249 113938212.18849       -75.64849        50.000  

  22349331.64849 117446529.25849     -2160.07449        50.000  

  21949887.36749 115347435.22749      5371.66449        49.000  

 16 04 02 12 36 11.7000000  0  3G26G31G04                                       
  21681722.66449 113938220.02749       -80.94149        50.000  

  22349372.80549 117446745.53549     -2165.58249        50.000  

  21949785.18849 115346898.30549      5366.62149        49.000  

 16 04 02 12 36 11.8000000  0  3G26G31G04                                       
  21681724.25049 113938228.39549       -86.14149        50.000  

  22349414.07049 117446962.37149     -2171.10249        50.000  

  21949683.10949 115346361.90249      5361.56249        49.000  

 16 04 02 12 36 11.9000000  0  3G26G31G04                                       
  21681725.93049 113938237.23449       -91.07449        50.000  

  22349455.43049 117447179.72349     -2176.45349        50.000  

  21949581.12549 115345825.96949      5356.73449        49.000  

 16 04 02 12 36 12.0000000  0  3G26G31G04                                       
  21681727.71149 113938246.62949       -96.25849        50.000  

  22349496.89849 117447397.63749     -2181.73849        50.000  

  21949479.24249 115345290.57049      5351.73449        49.000  

 16 04 02 12 36 12.1000000  0  3G26G31G04                                       
  21681729.59449 113938256.51249      -101.39149        50.000  

  22349538.46149 117447616.07049     -2187.18049        50.000  

  21949377.43849 115344755.63349      5346.75849        49.000  

 16 04 02 12 36 12.2000000  0  2G26G04                                          
  21681731.55549 113938266.86349      -105.93049        50.000  

  21949275.73449 115344221.16849      5342.34449        49.000  

 16 04 02 12 36 12.3000000  0  2G26G04                                          
  21681733.62549 113938277.73849      -111.13749        50.000  

  21949174.11749 115343687.21149      5337.13349        49.000  

 16 04 02 12 36 12.4000000  0  2G26G04                                          
  21681735.79749 113938289.15649      -116.66049        50.000  

  21949072.60949 115343153.77049      5331.87549        49.000  

 16 04 02 12 36 12.5000000  0  2G26G04                                          
  21681738.06249 113938301.06649      -121.59449        50.000  

  21948971.21149 115342620.81649      5327.14549        49.000  

 16 04 02 12 36 12.6000000  0  1G04                                             
  21948869.89849 115342088.40249      5321.62149        49.000  

 16 04 02 12 36 12.7000000  0  1G04                                             
  21948768.68849 115341556.51249      5316.32849        49.000  

 16 04 02 12 36 12.8000000  0  1G04                                             
  21948667.56249 115341025.07849      5311.69549        49.000  

 16 04 02 12 36 12.9000000  0  1G04                                             
  21948566.56249 115340494.21149      5306.12549        49.000  

 16 04 02 12 36 13.0000000  0  1G04                                             
  21948465.63349 115339963.82849      5301.51649        49.000  

 16 04 02 12 36 13.1000000  0  1G04                                             
  21948364.78149 115339433.83649      5297.44149        49.000  

 16 04 02 12 36 13.2000000  0  1G04                                             
  21948264.03949 115338904.45349      5291.47349        49.000  

 16 04 02 12 36 13.3000000  0  1G04                                             
  21948163.39849 115338375.53949      5286.63349        49.000  

 16 04 02 12 36 13.4000000  0  1G04                                             
  21948062.85249 115337847.13749      5281.37549        49.000  

 16 04 02 12 36 13.5000000  0  1G04                                             
  21947962.38349 115337319.24649      5276.41049        49.000  

 16 04 02 12 36 13.6000000  0  1G04                                             
  21947862.03149 115336791.87949      5271.23049        49.000  

 16 04 02 12 36 13.7000000  0  1G04                                             
  21947761.78949 115336265.00449      5266.14849        49.000  

 16 04 02 12 36 13.8000000  0  2G16G04                                          
  22855912.53949 120108630.80159    -11883.55549        49.000  

  21947661.63349 115335738.67249      5260.81249        49.000  

 16 04 02 12 36 13.9000000  0  2G16G04                                          
  22856138.71149 120109819.35549    -11887.69549        49.000  

  21947561.57849 115335212.83649      5255.80549        49.000  

 16 04 02 12 36 14.0000000  0  2G16G04                                          
  22856364.96149 120111008.25849    -11890.92649        49.000  

  21947461.60249 115334687.44549      5251.70349        49.000  

 16 04 02 12 36 14.1000000  0  2G16G04                                          
  22856591.27349 120112197.55549    -11895.09049        49.000  

  21947361.74249 115334162.54749      5246.65249        49.000  

 16 04 02 12 36 14.2000000  0  2G16G04                                          
  22856817.66449 120113387.30549    -11899.62549        49.000  

  21947261.95349 115333638.17249      5241.21549        49.000  

 16 04 02 12 36 14.3000000  0  2G16G04                                          
  22857044.14149 120114577.46149    -11903.85549        49.000  

  21947162.27349 115333114.30949      5236.12949        49.000  

 16 04 02 12 36 14.4000000  0  2G16G04                                          
  22857270.70349 120115768.00049    -11907.38749        49.000  

  21947062.67249 115332590.91449      5231.63349        49.000  

 16 04 02 12 36 14.5000000  0  2G16G04                                          
  22857497.34449 120116958.98849    -11912.05949        49.000  

  21946963.17249 115332068.06249      5226.01649        49.000  

 16 04 02 12 36 14.6000000  0  2G16G04                                          
  22857724.06249 120118150.37949    -11915.97749        49.000  

  21946863.76649 115331545.68849      5221.31249        49.000  

 16 04 02 12 36 14.7000000  0  2G16G04                                          
  22857950.84449 120119342.15249    -11919.90649        50.000  

  21946764.44549 115331023.78949      5216.50049        49.000  

 16 04 02 12 36 14.8000000  0  2G16G04                                          
  22858177.73449 120120534.35549    -11924.11349        49.000  

  21946665.22749 115330502.41049      5211.37949        49.000  

 16 04 02 12 36 14.9000000  0  2G16G04                                          
  22858404.68849 120121727.00449    -11928.50849        49.000  

  21946566.11749 115329981.57449      5206.05949        49.000  

 16 04 02 12 36 15.0000000  0  2G16G04                                          
  22858631.70349 120122920.03549    -11932.82449        49.000  

  21946467.09449 115329461.21549      5200.86349        49.000  

 16 04 02 12 36 15.1000000  0  2G16G04                                          
  22858858.82049 120124113.50849    -11936.72349        50.000  

  21946368.17249 115328941.37149      5196.10249        49.000  

 16 04 02 12 36 15.2000000  0  2G16G04                                          
  22859085.99249 120125307.35549    -11940.75449        50.000  

  21946269.34449 115328422.00049      5191.12149        49.000  

 16 04 02 12 36 15.3000000  0  2G16G04                                          
  22859313.27349 120126501.72749    -11945.94949        50.000  

  21946170.63349 115327903.23849      5185.05949        49.000  

 16 04 02 12 36 15.4000000  0  2G16G04                                          
  22859540.64149 120127696.48849    -11949.96549        50.000  

  21946072.00849 115327384.96549      5180.13749        49.000  

 16 04 02 12 36 15.5000000  0  2G16G04                                          
  22859768.07849 120128891.64849    -11953.57849        50.000  

  21945973.45349 115326867.17249      5175.52349        49.000  

 16 04 02 12 36 15.6000000  0  2G16G04                                          
  22859995.59449 120130087.21949    -11957.75049        50.000  

  21945875.01649 115326349.86349      5170.75049        49.000  

 16 04 02 12 36 15.7000000  0  2G16G04                                          
  22860223.18049 120131283.21149    -11962.21149        50.000  

  21945776.65649 115325833.10249      5165.18849        49.000  

 16 04 02 12 36 15.8000000  0  2G16G04                                          
  22860450.85949 120132479.61749    -11966.27049        50.000  

  21945678.41449 115325316.81249      5160.40249        49.000  

 16 04 02 12 36 15.9000000  0  2G16G04                                          
  22860678.60249 120133676.39549    -11970.03149        50.000  

  21945580.27349 115324801.00449      5155.66849        49.000  

 16 04 02 12 36 16.0000000  0  2G16G04                                          
  22860906.41449 120134873.60549    -11974.19549        50.000  

  21945482.21949 115324285.71149      5150.50449        49.000  

 16 04 02 12 36 16.1000000  0  2G16G04                                          
  22861134.32049 120136071.27049    -11978.77349        50.000  

  21945384.25849 115323770.96149      5145.05549        49.000  

 16 04 02 12 36 16.2000000  0  2G16G04                                          
  22861362.31249 120137269.28949    -11982.50449        50.000  

  21945286.39149 115323256.66049      5140.47749        49.000  

 16 04 02 12 36 16.3000000  0  2G16G04                                          
  22861590.37549 120138467.76249    -11986.96549        50.000  

  21945188.61749 115322742.89849      5135.12949        49.000  

 16 04 02 12 36 16.4000000  0  2G16G04                                          
  22861818.53149 120139666.66049    -11991.10549        49.000  

  21945090.95349 115322229.65249      5130.03149        49.000  

 16 04 02 12 36 16.5000000  0  2G16G04                                          
  22862046.75049 120140865.94149    -11994.86349        49.000  

  21944993.35949 115321716.88749      5125.27049        49.000  

 16 04 02 12 36 16.6000000  0  2G16G04                                          
  22862275.02349 120142065.60949    -11998.73849        49.000  

  21944895.86749 115321204.59449      5120.55949        49.000  

 16 04 02 12 36 16.7000000  0  2G16G04                                          
  22862503.39849 120143265.72349    -12003.36349        49.000  

  21944798.47749 115320692.83249      5115.00849        49.000  

 16 04 02 12 36 16.8000000  0  2G16G04                                          
  22862731.85949 120144466.27049    -12007.56649        49.000  

  21944701.19549 115320181.59049      5109.95349        49.000  

 16 04 02 12 36 16.9000000  0  2G16G04                                          
  22862960.39849 120145667.22749    -12011.68849        49.000  

  21944604.03149 115319670.84849      5104.99249        49.000  

 16 04 02 12 36 17.0000000  0  2G16G04                                          
  22863188.96949 120146868.56249    -12015.54349        49.000  

  21944506.93049 115319160.58649      5100.14149        49.000  

 16 04 02 12 36 17.1000000  0  2G16G04                                          
  22863417.64849 120148070.29749    -12019.40649        49.000  

  21944409.91449 115318650.80949      5095.45749        49.000  

 16 04 02 12 36 17.2000000  0  2G16G04                                          
  22863646.41449 120149272.44149    -12023.59449        49.000  

  21944313.00049 115318141.53149      5090.32049        49.000  

 16 04 02 12 36 17.3000000  0  2G16G04                                          
  22863875.26649 120150475.03949    -12028.08249        49.000  

  21944216.20349 115317632.79749      5084.91049        49.000  

 16 04 02 12 36 17.4000000  0  2G16G04                                          
  22864104.20349 120151678.05949    -12032.61349        49.000  

  21944119.49249 115317124.56649      5079.60949        49.000  

 16 04 02 12 36 17.5000000  0  2G16G04                                          
  22864333.19549 120152881.43849    -12035.73049        49.000  

  21944022.86749 115316616.79749      5075.44549        49.000  

 16 04 02 12 36 17.6000000  0  2G16G04                                          
  22864562.26649 120154085.21549    -12039.84049        49.000  

  21943926.33649 115316109.51649      5070.39849        49.000  

 16 04 02 12 36 17.7000000  0  2G16G04                                          
  22864791.43049 120155289.48049    -12044.69549        49.000  

  21943829.92249 115315602.80949      5064.63349        49.000  

 16 04 02 12 36 17.8000000  0  2G16G04                                          
  22865020.64849 120156494.12149    -12048.59049        49.000  

  21943733.58649 115315096.56249      5059.91449        49.000  

 16 04 02 12 36 17.9000000  0  2G16G04                                          
  22865249.96149 120157699.16449    -12052.64149        49.000  

  21943637.35249 115314590.81649      5055.00049        49.000  

 16 04 02 12 36 18.0000000  0  2G16G04                                          
  22865479.36749 120158904.67649    -12057.18449        49.000  

  21943541.21949 115314085.62949      5049.49249        49.000  

 16 04 02 12 36 18.1000000  0  2G16G04                                          
  22865708.82849 120160110.50849    -12060.52349        49.000  

  21943445.17249 115313580.85249      5045.23049        49.000  

 16 04 02 12 36 18.2000000  0  2G16G04                                          
  22865938.38349 120161316.78949    -12064.69549        49.000  

  21943349.21949 115313076.60949      5040.25849        49.000  

 16 04 02 12 36 18.3000000  0  2G16G04                                          
  22866167.99249 120162523.39149    -12068.18049        49.000  

  21943253.33649 115312572.78949      5035.82449        49.000  

 16 04 02 12 36 18.4000000  0  2G16G04                                          
  22866397.68049 120163730.46549    -12072.72349        49.000  

  21943157.57049 115312069.52749      5030.27049        49.000  

 16 04 02 12 36 18.5000000  0  2G16G04                                          
  22866627.45349 120164937.91049    -12076.65249        49.000  

  21943061.89849 115311566.71949      5025.61749        49.000  

 16 04 02 12 36 18.6000000  0  2G16G04                                          
  22866857.29749 120166145.81649    -12081.37949        49.000  

  21942966.32049 115311064.46549      5019.98049        49.000  

 16 04 02 12 36 18.7000000  0  2G16G04                                          
  22867087.23449 120167354.14549    -12085.36349        49.000  

  21942870.84449 115310562.73449      5014.87549        49.000  

 16 04 02 12 36 18.8000000  0  2G16G04                                          
  22867317.25849 120168562.91049    -12089.87949        49.000  

  21942775.46949 115310061.52349      5009.55149        49.000  

 16 04 02 12 36 18.9000000  0  2G16G04                                          
  22867547.34449 120169772.03549    -12093.37149        49.000  

  21942680.17249 115309560.76249      5005.10949        49.000  

 16 04 02 12 36 19.0000000  0  2G16G04                                          
  22867777.52349 120170981.64549    -12098.12549        49.000  

  21942584.99249 115309060.58249      4999.34449        49.000  

 16 04 02 12 36 19.1000000  0  2G16G04                                          
  22868007.78149 120172191.67249    -12102.54349        49.000  

  21942489.91449 115308560.89549      4994.24249        49.000  

 16 04 02 12 36 19.2000000  0  2G16G04                                          
  22868238.11749 120173402.06249    -12106.16849        49.000  

  21942394.91449 115308061.68049      4989.65249        49.000  

 16 04 02 12 36 19.3000000  0  2G16G04                                          
  22868468.53149 120174612.88749    -12110.38749        49.000  

  21942300.03149 115307562.97749      4984.60949        49.000  

 16 04 02 12 36 19.4000000  0  2G16G04                                          
  22868699.01649 120175824.08249    -12113.93849        49.000  

  21942205.21949 115307064.74249      4980.00449        49.000  

 16 04 02 12 36 19.5000000  0  2G16G04                                          
  22868929.58649 120177035.74249    -12118.87949        49.000  

  21942110.50049 115306567.06249      4974.26649        49.000  

 16 04 02 12 36 19.6000000  0  2G16G04                                          
  22869160.23449 120178247.77749    -12122.48049        49.000  

  21942015.88349 115306069.84449      4969.64849        49.000  

 16 04 02 12 36 19.7000000  0  2G16G04                                          
  22869390.96149 120179460.24649    -12127.00049        49.000  

  21941921.36749 115305573.15649      4964.35949        49.000  

 16 04 02 12 36 19.8000000  0  2G16G04                                          
  22869621.77349 120180673.12549    -12130.98849        49.000  

  21941826.94549 115305076.96949      4959.32849        49.000  

 16 04 02 12 36 19.9000000  0  2G16G04                                          
  22869852.66449 120181886.44949    -12135.63749        49.000  

  21941732.62549 115304581.32049      4953.90249        49.000  

 16 04 02 12 36 20.0000000  0  2G16G04                                          
  22870083.61749 120183100.19149    -12139.49249        49.000  

  21941638.39849 115304086.18049      4948.88349        49.000  

 16 04 02 12 36 20.1000000  0  2G16G04                                          
  22870314.64849 120184314.27349    -12143.04749        49.000  

  21941544.26649 115303591.46149      4944.67649        49.000  

 16 04 02 12 36 20.2000000  0  2G16G04                                          
  22870545.77349 120185528.77749    -12147.02049        49.000  

  21941450.22749 115303097.26649      4939.65649        49.000  

 16 04 02 12 36 20.3000000  0  2G16G04                                          
  22870776.96949 120186743.71149    -12151.52749        49.000  

  21941356.28949 115302603.57849      4934.38349        49.000  

 16 04 02 12 36 20.4000000  0  2G16G04                                          
  22871008.24249 120187959.07849    -12155.71549        49.000  

  21941262.44549 115302110.43849      4928.97749        49.000  

 16 04 02 12 36 20.5000000  0  2G16G04                                          
  22871239.59449 120189174.84849    -12159.97749        49.000  

  21941168.68849 115301617.77749      4923.97749        49.000  

 16 04 02 12 36 20.6000000  0  2G16G04                                          
  22871471.03949 120190391.08249    -12164.53149        49.000  

  21941075.03949 115301125.66849      4918.60949        49.000  

 16 04 02 12 36 20.7000000  0  2G16G04                                          
  22871702.54749 120191607.64849    -12167.67249        49.000  

  21940981.46949 115300633.98849      4914.41849        49.000  

 16 04 02 12 36 20.8000000  0  2G16G04                                          
  22871934.14149 120192824.64849    -12172.11349        49.000  

  21940888.00849 115300142.83649      4909.08249        49.000  

 16 04 02 12 36 20.9000000  0  2G16G04                                          
  22872165.81249 120194042.09049    -12176.48049        49.000  

  21940794.63349 115299652.21149      4903.82049        49.000  

 16 04 02 12 36 21.0000000  0  2G16G04                                          
  22872397.57849 120195259.92249    -12180.59449        49.000  

  21940701.36749 115299162.07849      4898.68449        49.000  

 16 04 02 12 36 21.1000000  0  2G16G04                                          
  22872629.40649 120196478.18449    -12184.75049        49.000  

  21940608.19549 115298672.46149      4893.58249        49.000  

 16 04 02 12 36 21.2000000  0  2G16G04                                          
  22872861.33649 120197696.85949    -12188.86349        49.000  

  21940515.11749 115298183.34049      4888.71549        49.000  

 16 04 02 12 36 21.3000000  0  2G16G04                                          
  22873093.31249 120198915.90649    -12192.46149        49.000  

  21940422.14149 115297694.69549      4884.04749        49.000  

 16 04 02 12 36 21.4000000  0  2G16G04                                          
  22873325.37549 120200135.35249    -12196.66449        49.000  

  21940329.24249 115297206.53149      4879.03149        49.000  

 16 04 02 12 36 21.5000000  0  2G16G04                                          
  22873557.50849 120201355.23049    -12200.98849        49.000  

  21940236.45349 115296718.89549      4873.84849        49.000  

 16 04 02 12 36 21.6000000  0  2G16G04                                          
  22873789.75049 120202575.53949    -12205.28149        49.000  

  21940143.75849 115296231.77749      4868.75449        49.000  

 16 04 02 12 36 21.7000000  0  2G16G04                                          
  22874022.05549 120203796.32049    -12209.71949        49.000  

  21940051.16449 115295745.21549      4863.34849        49.000  

 16 04 02 12 36 21.8000000  0  2G16G04                                          
  22874254.43849 120205017.42249    -12213.30549        49.000  

  21939958.66449 115295259.09049      4858.67249        49.000  

 16 04 02 12 36 21.9000000  0  2G16G04                                          
  22874486.89849 120206238.99249    -12217.86349        49.000  

  21939866.24249 115294773.50449      4853.37149        49.000  

 16 04 02 12 36 22.0000000  0  2G16G04                                          
  22874719.43849 120207460.95349    -12221.87149        49.000  

  21939773.93049 115294288.40649      4848.43849        49.000  

 16 04 02 12 36 22.1000000  0  2G16G04                                          
  22874952.05549 120208683.33649    -12226.03949        49.000  

  21939681.72749 115293803.83249      4843.33649        49.000  

 16 04 02 12 36 22.2000000  0  2G16G04                                          
  22875184.75049 120209906.15249    -12230.34449        49.000  

  21939589.60949 115293319.77049      4838.04749        49.000  

 16 04 02 12 36 22.3000000  0  2G16G04                                          
  22875417.52349 120211129.39549    -12234.70349        49.000  

  21939497.60249 115292836.23449      4832.80149        49.000  

 16 04 02 12 36 22.4000000  0  2G16G04                                          
  22875650.35249 120212352.96149    -12237.72349        49.000  

  21939405.66449 115292353.10549      4828.89549        49.000  

 16 04 02 12 36 22.5000000  0  2G16G04                                          
  22875883.27349 120213576.98049    -12242.30549        49.000  

  21939313.83649 115291870.53549      4823.35549        49.000  

 16 04 02 12 36 22.6000000  0  2G16G04                                          
  22876116.28149 120214801.46149    -12246.93849        49.000  

  21939222.10949 115291388.50049      4817.91449        49.000  

 16 04 02 12 36 22.7000000  0  2G16G04                                          
  22876349.35949 120216026.31249    -12250.73449        49.000  

  21939130.46149 115290906.94149      4813.06249        49.000  

 16 04 02 12 36 22.8000000  0  2G16G04                                          
  22876582.53149 120217251.63349    -12255.59449        49.000  

  21939038.93049 115290425.94149      4807.37149        49.000  

 16 04 02 12 36 22.9000000  0  2G16G04                                          
  22876815.78149 120218477.37949    -12259.48049        49.000  

  21938947.50849 115289945.46149      4802.36349        49.000  

 16 04 02 12 36 23.0000000  0  2G16G04                                          
  22877049.10249 120219703.48049    -12263.25849        49.000  

  21938856.15649 115289465.42249      4797.82449        49.000  

 16 04 02 12 36 23.1000000  0  2G16G04                                          
  22877282.50849 120220930.05949    -12267.91449        49.000  

  21938764.92249 115288985.95349      4792.18849        49.000  

 16 04 02 12 36 23.2000000  0  2G16G04                                          
  22877515.99249 120222157.00449    -12271.42249        49.000  

  21938673.76649 115288506.93849      4787.80549        49.000  

 16 04 02 12 36 23.3000000  0  2G16G04                                          
  22877749.53949 120223384.27749    -12274.73449        49.000  

  21938582.68849 115288028.35949      4783.44949        49.000  

 16 04 02 12 36 23.4000000  0  2G16G04                                          
  22877983.15649 120224612.03149    -12279.74249        49.000  

  21938491.72749 115287550.33649      4777.73449        49.000  

 16 04 02 12 36 23.5000000  0  2G16G04                                          
  22878216.87549 120225840.23849    -12284.21549        49.000  

  21938400.87549 115287072.87149      4772.21149        49.000  

 16 04 02 12 36 23.6000000  0  2G16G04                                          
  22878450.66449 120227068.79349    -12287.76649        49.000  

  21938310.09449 115286595.83249      4767.74249        49.000  

 16 04 02 12 36 23.7000000  0  2G16G04                                          
  22878684.53949 120228297.81649    -12292.26649        49.000  

  21938219.43849 115286119.37149      4762.39849        49.000  

 16 04 02 12 36 23.8000000  0  2G16G04                                          
  22878918.46949 120229527.19549    -12295.98849        49.000  

  21938128.85249 115285643.35549      4757.60949        49.000  

 16 04 02 12 36 23.9000000  0  2G16G04                                          
  22879152.50049 120230757.03549    -12300.66449        49.000  

  21938038.37549 115285167.87949      4752.14149        49.000  

 16 04 02 12 36 24.0000000  0  2G16G04                                          
  22879386.60949 120231987.28549    -12304.72349        49.000  

  21937947.99249 115284692.91849      4747.08249        49.000  

 16 04 02 12 36 24.1000000  0  2G16G04                                          
  22879620.78949 120233217.91449    -12308.48849        49.000  

  21937857.70349 115284218.42249      4742.44949        49.000  

 16 04 02 12 36 24.2000000  0  2G16G04                                          
  22879855.04749 120234448.95749    -12312.60249        49.000  

  21937767.50849 115283744.43849      4737.40249        49.000  

 16 04 02 12 36 24.3000000  0  2G16G04                                          
  22880089.38349 120235680.37549    -12316.14849        49.000  

  21937677.41449 115283270.90249      4732.99249        49.000  

 16 04 02 12 36 24.4000000  0  2G16G04                                          
  22880323.78149 120236912.19949    -12320.38749        49.000  

  21937587.39849 115282797.89149      4727.71149        49.000  

 16 04 02 12 36 24.5000000  0  2G16G04                                          
  22880558.27349 120238144.44949    -12324.74649        49.000  

  21937497.48449 115282325.37949      4722.64549        49.000  

 16 04 02 12 36 24.6000000  0  2G16G04                                          
  22880792.82849 120239377.11349    -12328.58649        49.000  

  21937407.67249 115281853.39149      4717.53549        49.000  

 16 04 02 12 36 24.7000000  0  2G16G04                                          
  22881027.46949 120240610.14549    -12332.52749        49.000  

  21937317.93849 115281381.85949      4712.72349        49.000  

 16 04 02 12 36 24.8000000  0  2G16G04                                          
  22881262.19549 120241843.64549    -12337.16049        49.000  

  21937228.31249 115280910.87149      4707.36749        49.000  

 16 04 02 12 36 24.9000000  0  2G16G04                                          
  22881497.00049 120243077.54349    -12341.23449        49.000  

  21937138.77349 115280440.38749      4702.26249        49.000  

 16 04 02 12 36 25.0000000  0  2G16G04                                          
  22881731.87549 120244311.75449    -12344.13349        50.000  

  21937049.32049 115279970.31249      4698.31649        49.000  

 16 04 02 12 36 25.1000000  0  2G16G04                                          
  22881966.82049 120245546.39149    -12348.32849        50.000  

  21936959.96149 115279500.73849      4693.48849        49.000  

 16 04 02 12 36 25.2000000  0  2G16G04                                          
  22882201.84449 120246781.41449    -12352.16449        49.000  

  21936870.70349 115279031.66449      4688.59449        49.000  

 16 04 02 12 36 25.3000000  0  2G16G04                                          
  22882436.93049 120248016.82449    -12356.56649        49.000  

  21936781.52349 115278563.06649      4683.36749        49.000  

 16 04 02 12 36 25.4000000  0  2G16G04                                          
  22882672.13349 120249252.72749    -12361.06249        49.000  

  21936692.46149 115278095.05149      4677.78149        49.000  

 16 04 02 12 36 25.5000000  0  2G16G04                                          
  22882907.39149 120250489.00849    -12364.96549        50.000  

  21936603.48449 115277627.49649      4673.10249        49.000  

 16 04 02 12 36 25.6000000  0  2G16G04                                          
  22883142.71949 120251725.66849    -12368.71149        49.000  

  21936514.60249 115277160.43049      4668.21549        49.000  

 16 04 02 12 36 25.7000000  0  2G16G04                                          
  22883378.14149 120252962.80949    -12373.68049        49.000  

  21936425.82849 115276693.93449      4662.34049        49.000  

 16 04 02 12 36 25.8000000  0  2G16G04                                          
  22883613.65649 120254200.41049    -12378.27749        50.000  

  21936337.15649 115276227.98049      4656.92249        49.000  

 16 04 02 12 36 25.9000000  0  2G16G04                                          
  22883849.22749 120255438.36749    -12381.93449        49.000  

  21936248.58649 115275762.48449      4652.28549        49.000  

 16 04 02 12 36 26.0000000  0  2G16G04                                          
  22884084.89849 120256676.76649    -12386.07449        49.000  

  21936160.10949 115275297.52049      4647.21149        49.000  

 16 04 02 12 36 26.1000000  0  2G16G04                                          
  22884320.63349 120257915.53549    -12389.85549        49.000  

  21936071.71949 115274833.02049      4642.48849        49.000  

 16 04 02 12 36 26.2000000  0  2G16G04                                          
  22884556.44549 120259154.69549    -12393.86749        49.000  

  21935983.41449 115274369.00449      4637.58649        49.000  

 16 04 02 12 36 26.3000000  0  2G16G04                                          
  22884792.33649 120260394.32449    -12398.40249        49.000  

  21935895.23449 115273905.55149      4632.17649        49.000  

 16 04 02 12 36 26.4000000  0  2G16G04                                          
  22885028.28949 120261634.23449    -12401.28949        49.000  

  21935807.11749 115273442.47749      4628.25849        49.000  

 16 04 02 12 36 26.5000000  0  2G16G04                                          
  22885264.32849 120262874.65649    -12406.15249        49.000  

  21935719.11749 115272979.99249      4622.49649        49.000  

 16 04 02 12 36 26.6000000  0  2G16G04                                          
  22885500.46149 120264115.48849    -12410.77049        50.000  

  21935631.20349 115272518.02349      4616.96549        49.000  

 16 04 02 12 36 26.7000000  0  2G16G04                                          
  22885736.67249 120265356.75449    -12414.98849        50.000  

  21935543.39149 115272056.57849      4611.82849        49.000  

 16 04 02 12 36 26.8000000  0  2G16G04                                          
  22885972.94549 120266598.46549    -12419.52349        49.000  

  21935455.68849 115271595.67249      4606.46149        49.000  

 16 04 02 12 36 26.9000000  0  2G16G04                                          
  22886209.31249 120267840.57849    -12423.05549        49.000  

  21935368.07849 115271135.26649      4601.69549        49.000  

 16 04 02 12 36 27.0000000  0  2G16G04                                          
  22886445.74249 120269083.03149    -12426.48849        49.000  

  21935280.54749 115270675.28149      4597.42649        49.000  

 16 04 02 12 36 27.1000000  0  2G16G04                                          
  22886682.25849 120270325.91449    -12431.10249        49.000  

  21935193.10949 115270215.83649      4591.98449        49.000  

 16 04 02 12 36 27.2000000  0  2G16G04                                          
  22886918.86749 120271569.31249    -12436.30949        49.000  

  21935105.79749 115269756.98449      4585.87949        49.000  

 16 04 02 12 36 27.3000000  0  2G16G04                                          
  22887155.53949 120272813.04349    -12439.40249        49.000  

  21935018.54749 115269298.56249      4581.66449        49.000  

 16 04 02 12 36 27.4000000  0  2G16G04                                          
  22887392.28149 120274057.14149    -12443.08649        49.000  

  21934931.39849 115268840.60549      4577.13349        49.000  

 16 04 02 12 36 27.5000000  0  2G16G04                                          
  22887629.10949 120275301.67649    -12447.43849        49.000  

  21934844.35249 115268383.17649      4571.92249        49.000  

 16 04 02 12 36 27.6000000  0  2G16G04                                          
  22887866.00849 120276546.64849    -12451.87149        49.000  

  21934757.40649 115267926.28549      4566.43449        49.000  

 16 04 02 12 36 27.7000000  0  2G16G04                                          
  22888102.99249 120277792.00449    -12455.80949        49.000  

  21934670.55549 115267469.86349      4561.52749        49.000  

 16 04 02 12 36 27.8000000  0  2G16G04                                          
  22888340.05549 120279037.79349    -12459.93449        49.000  

  21934583.80549 115267013.96549      4556.51649        49.000  

 16 04 02 12 36 27.9000000  0  2G16G04                                          
  22888577.19549 120280283.94949    -12463.67649        50.000  

  21934497.13349 115266558.53149      4551.96149        49.000  

 16 04 02 12 36 28.0000000  0  2G16G04                                          
  22888814.43049 120281530.60249    -12468.74649        50.000  

  21934410.57849 115266103.69549      4545.79349        49.000  

 16 04 02 12 36 28.1000000  0  2G16G04                                          
  22889051.73449 120282777.65649    -12472.58649        50.000  

  21934324.11749 115265649.35549      4540.85249        49.000  

 16 04 02 12 36 28.2000000  0  2G16G04                                          
  22889289.09449 120284025.03549    -12475.83249        50.000  

  21934237.73449 115265195.41449      4536.90249        49.000  

 16 04 02 12 36 28.3000000  0  2G16G04                                          
  22889526.55549 120285272.88749    -12480.53949        50.000  

  21934151.46149 115264742.05149      4531.23849        49.000  

 16 04 02 12 36 28.4000000  0  2G16G04                                          
  22889764.08649 120286521.10549    -12484.31249        50.000  

  21934065.28149 115264289.15249      4526.52749        49.000  

 16 04 02 12 36 28.5000000  0  2G16G04                                          
  22890001.69549 120287769.75449    -12488.55149        50.000  

  21933979.18849 115263836.77349      4521.33649        49.000  

 16 04 02 12 36 28.6000000  0  2G16G04                                          
  22890239.37549 120289018.77749    -12492.44549        50.000  

  21933893.19549 115263384.85949      4516.64549        49.000  

 16 04 02 12 36 28.7000000  0  2G16G04                                          
  22890477.14849 120290268.25449    -12496.81249        50.000  

  21933807.32049 115262933.48849      4511.25049        49.000  

 16 04 02 12 36 28.8000000  0  2G16G04                                          
  22890714.98449 120291518.06649    -12500.29349        50.000  

  21933721.51649 115262482.56249      4506.87949        49.000  

 16 04 02 12 36 28.9000000  0  2G16G04                                          
  22890952.89849 120292768.34449    -12505.02349        50.000  

  21933635.80549 115262032.18849      4501.34849        49.000  

 16 04 02 12 36 29.0000000  0  2G16G04                                          
  22891190.89849 120294019.07049    -12509.30949        50.000  

  21933550.20349 115261582.34849      4495.96549        49.000  

 16 04 02 12 36 29.1000000  0  2G16G04                                          
  22891428.96949 120295270.11749    -12512.84449        50.000  

  21933464.68849 115261132.93849      4491.53949        49.000  

 16 04 02 12 36 29.2000000  0  2G16G04                                          
  22891667.12549 120296521.62949    -12517.20749        50.000  

  21933379.27349 115260684.08649      4486.16849        49.000  

 16 04 02 12 36 29.3000000  0  2G16G04                                          
  22891905.35249 120297773.53949    -12521.23849        50.000  

  21933293.95349 115260235.71149      4481.27749        49.000  

 16 04 02 12 36 29.4000000  0  2G16G04                                          
  22892143.64849 120299025.83249    -12525.08249        50.000  

  21933208.72749 115259787.83649      4476.27349        49.000  

 16 04 02 12 36 29.5000000  0  2G16G04                                          
  22892382.04749 120300278.63349    -12530.34049        50.000  

  21933123.61749 115259340.52749      4470.45349        49.000  

 16 04 02 12 36 29.6000000  0  2G16G04                                          
  22892620.50849 120301531.80149    -12533.94549        50.000  

  21933038.58649 115258893.70749      4465.66849        49.000  

 16 04 02 12 36 29.7000000  0  2G16G04                                          
  22892859.04749 120302785.33649    -12537.35949        50.000  

  21932953.63349 115258447.35249      4461.22349        49.000  

 16 04 02 12 36 29.8000000  0  2G16G04                                          
  22893097.68049 120304039.28949    -12541.63749        50.000  

  21932868.78949 115258001.48449      4456.14549        49.000  

 16 04 02 12 36 29.9000000  0  2G16G04                                          
  22893336.37549 120305293.63749    -12545.55549        49.000  

  21932784.05549 115257556.14849      4450.93849        49.000  

 16 04 02 12 36 30.0000000  0  2G16G04                                          
  22893575.14849 120306548.41049    -12549.91849        50.000  

  21932699.39849 115257111.29349      4446.02049        49.000  

 16 04 02 12 36 30.1000000  0  2G16G04                                          
  22893813.98449 120307803.52349    -12553.27349        50.000  

  21932614.82849 115256666.87149      4441.83249        49.000  

 16 04 02 12 36 30.2000000  0  2G16G04                                          
  22894052.91449 120309059.05949    -12557.36749        50.000  

  21932530.36749 115256223.00449      4436.39549        49.000  

 16 04 02 12 36 30.3000000  0  2G16G04                                          
  22894291.92249 120310315.07449    -12562.28949        49.000  

  21932446.00849 115255779.67249      4430.62949        49.000  

 16 04 02 12 36 30.4000000  0  2G16G04                                          
  22894531.01649 120311571.50049    -12566.41849        50.000  

  21932361.74249 115255336.85549      4425.66449        49.000  

 16 04 02 12 36 30.5000000  0  2G16G04                                          
  22894770.18049 120312828.33249    -12570.66449        49.000  

  21932277.57849 115254894.54349      4420.34849        49.000  

 16 04 02 12 36 30.6000000  0  2G16G04                                          
  22895009.43049 120314085.58649    -12574.73449        50.000  

  21932193.50849 115254452.75449      4415.34449        49.000  

 16 04 02 12 36 30.7000000  0  2G16G04                                          
  22895248.75849 120315343.26249    -12578.95749        50.000  

  21932109.53149 115254011.46949      4410.16849        49.000  

 16 04 02 12 36 30.8000000  0  2G16G04                                          
  22895488.16449 120316601.32449    -12582.71149        50.000  

  21932025.64849 115253570.67249      4405.52049        49.000  

 16 04 02 12 36 30.9000000  0  2G16G04                                          
  22895727.64149 120317859.79749    -12586.68449        50.000  

  21931941.88349 115253130.37949      4400.54749        49.000  

 16 04 02 12 36 31.0000000  0  2G16G04                                          
  22895967.21149 120319118.68849    -12591.21549        50.000  

  21931858.19549 115252690.59449      4395.28149        49.000  

 16 04 02 12 36 31.1000000  0  2G16G04                                          
  22896206.85249 120320378.03549    -12595.61349        50.000  

  21931774.61749 115252251.35949      4389.91049        49.000  

 16 04 02 12 36 31.2000000  0  2G16G04                                          
  22896446.55549 120321637.73849    -12599.12949        49.000  

  21931691.11749 115251812.58249      4385.33249        49.000  

 16 04 02 12 36 31.3000000  0  2G16G04                                          
  22896686.34449 120322897.84049    -12603.21549        49.000  

  21931607.71949 115251374.29749      4380.35249        49.000  

 16 04 02 12 36 31.4000000  0  2G16G04                                          
  22896926.21149 120324158.33649    -12606.92649        49.000  

  21931524.40649 115250936.50449      4375.58649        49.000  

 16 04 02 12 36 31.5000000  0  2G16G04                                          
  22897166.15649 120325419.25449    -12611.39849        49.000  

  21931441.19549 115250499.21549      4370.39849        49.000  

 16 04 02 12 36 31.6000000  0  2G16G04                                          
  22897406.17249 120326680.61349    -12615.66849        49.000  

  21931358.08649 115250062.48049      4364.97749        49.000  

 16 04 02 12 36 31.7000000  0  2G16G04                                          
  22897646.27349 120327942.36349    -12619.75849        49.000  

  21931275.07049 115249626.19949      4360.24249        49.000  

 16 04 02 12 36 31.8000000  0  2G16G04                                          
  22897886.46149 120329204.55149    -12624.08649        49.000  

  21931192.14849 115249190.48049      4354.78549        49.000  

 16 04 02 12 36 31.9000000  0  2G16G04                                          
  22898126.72749 120330467.14849    -12628.21149        49.000  

  21931109.33649 115248755.26649      4349.64849        49.000  

 16 04 02 12 36 32.0000000  0  2G16G04                                          
  22898367.06249 120331730.12949    -12631.81249        49.000  

  21931026.60249 115248320.52049      4344.92649        49.000  

 16 04 02 12 36 32.1000000  0  2G16G04                                          
  22898607.48449 120332993.52749    -12636.17249        49.000  

  21930943.97749 115247886.28949      4339.87149        49.000  

 16 04 02 12 36 32.2000000  0  2G16G04                                          
  22898847.99249 120334257.38349    -12640.85549        49.000  

  21930861.45349 115247452.60949      4334.11749        49.000  

 16 04 02 12 36 32.3000000  0  2G16G04                                          
  22899088.56249 120335521.59049    -12644.08649        49.000  

  21930779.01649 115247019.38749      4329.89149        49.000  

 16 04 02 12 36 32.4000000  0  2G16G04                                          
  22899329.21949 120336786.26649    -12648.96549        49.000  

  21930696.68049 115246586.69149      4324.31649        49.000  

 16 04 02 12 36 32.5000000  0  2G16G04                                          
  22899569.95349 120338051.32849    -12652.74649        49.000  

  21930614.43849 115246154.52749      4319.22749        49.000  

 16 04 02 12 36 32.6000000  0  2G16G04                                          
  22899810.77349 120339316.77049    -12656.72749        49.000  

  21930532.28949 115245722.80549      4314.58649        49.000  

 16 04 02 12 36 32.7000000  0  2G16G04                                          
  22900051.66449 120340582.66849    -12660.91849        49.000  

  21930450.23449 115245291.64149      4309.35549        49.000  

 16 04 02 12 36 32.8000000  0  2G16G04                                          
  22900292.60949 120341848.91049    -12664.70349        49.000  

  21930368.26649 115244860.92249      4304.72749        49.000  

 16 04 02 12 36 32.9000000  0  2G16G04                                          
  22900533.64849 120343115.57849    -12668.81649        49.000  

  21930286.40649 115244430.71549      4299.69149        49.000  

 16 04 02 12 36 33.0000000  0  2G16G04                                          
  22900774.75849 120344382.63349    -12672.71949        49.000  

  21930204.63349 115244001.00449      4294.71949        49.000  

 16 04 02 12 36 33.1000000  0  2G16G04                                          
  22901015.94549 120345650.09449    -12676.66049        49.000  

  21930122.96149 115243571.78149      4289.73849        49.000  

 16 04 02 12 36 33.2000000  0  2G16G04                                          
  22901257.22749 120346918.02049    -12681.53149        49.000  

  21930041.39149 115243143.12149      4284.02049        49.000  

 16 04 02 12 36 33.3000000  0  2G16G04                                          
  22901498.59449 120348186.38349    -12685.95349        50.000  

  21929959.92249 115242715.00049      4278.59049        49.000  

 16 04 02 12 36 33.4000000  0  2G16G04                                          
  22901740.03949 120349455.14849    -12689.70749        49.000  

  21929878.54749 115242287.37949      4273.72749        49.000  

 16 04 02 12 36 33.5000000  0  2G16G04                                          
  22901981.55549 120350724.31649    -12693.89149        49.000  

  21929797.26649 115241860.24249      4268.77049        49.000  

 16 04 02 12 36 33.6000000  0  2G16G04                                          
  22902223.14849 120351993.87549    -12697.53549        49.000  

  21929716.07849 115241433.59849      4264.14149        49.000  

 16 04 02 12 36 33.7000000  0  2G16G04                                          
  22902464.81249 120353263.82049    -12701.40249        49.000  

  21929634.97749 115241007.43449      4259.39149        49.000  

 16 04 02 12 36 33.8000000  0  2G16G04                                          
  22902706.55549 120354534.21949    -12706.19549        50.000  

  21929553.98449 115240581.82849      4253.53149        49.000  

 16 04 02 12 36 33.9000000  0  2G16G04                                          
  22902948.39149 120355805.06249    -12710.66449        49.000  

  21929473.10949 115240156.75049      4248.17649        49.000  

 16 04 02 12 36 34.0000000  0  2G16G04                                          
  22903190.29749 120357076.31249    -12714.62549        49.000  

  21929392.32049 115239732.18849      4243.22749        49.000  

 16 04 02 12 36 34.1000000  0  2G16G04                                          
  22903432.27349 120358347.90249    -12717.92249        49.000  

  21929311.60249 115239308.03549      4239.10549        49.000  

 16 04 02 12 36 34.2000000  0  2G16G04                                          
  22903674.32049 120359619.89549    -12721.80949        49.000  

  21929230.98449 115238884.41849      4234.00449        49.000  

 16 04 02 12 36 34.3000000  0  2G16G04                                          
  22903916.44549 120360892.25849    -12725.68849        49.000  

  21929150.46149 115238461.23849      4229.35249        49.000  

 16 04 02 12 36 34.4000000  0  2G16G04                                          
  22904158.64849 120362165.07449    -12730.09449        49.000  

  21929070.03949 115238038.62149      4223.87549        49.000  

 16 04 02 12 36 34.5000000  0  2G16G04                                          
  22904400.92249 120363438.23049    -12733.81649        49.000  

  21928989.70349 115237616.43449      4219.35549        49.000  

 16 04 02 12 36 34.6000000  0  2G16G04                                          
  22904643.28949 120364711.87149    -12738.51649        49.000  

  21928909.47749 115237194.82849      4213.59049        49.000  

 16 04 02 12 36 34.7000000  0  2G16G04                                          
  22904885.71949 120365985.85949    -12742.20749        49.000  

  21928829.33649 115236773.65649      4209.04749        49.000  

 16 04 02 12 36 34.8000000  0  2G16G04                                          
  22905128.22749 120367260.28149    -12746.44149        49.000  

  21928749.28949 115236353.03549      4203.66449        49.000  

 16 04 02 12 36 34.9000000  0  2G16G04                                          
  22905370.82049 120368535.11349    -12750.41449        49.000  

  21928669.34449 115235932.90249      4198.78949        49.000  

 16 04 02 12 36 35.0000000  0  2G16G04                                          
  22905613.48449 120369810.30949    -12754.12149        49.000  

  21928589.48449 115235513.23049      4194.13349        49.000  

 16 04 02 12 36 35.1000000  0  2G16G04                                          
  22905856.23449 120371085.94549    -12758.38349        49.000  

  21928509.73449 115235094.10549      4188.86349        49.000  

 16 04 02 12 36 35.2000000  0  2G16G04                                          
  22906099.05549 120372362.00049    -12762.71549        49.000  

  21928430.07049 115234675.48849      4183.66049        49.000  

 16 04 02 12 36 35.3000000  0  2G16G04                                          
  22906341.95349 120373638.43849    -12766.42249        49.000  

  21928350.50049 115234257.34849      4178.93049        49.000  

 16 04 02 12 36 35.4000000  0  2G16G04                                          
  22906584.93049 120374915.27349    -12770.70349        49.000  

  21928271.02349 115233839.69549      4173.87949        49.000  

 16 04 02 12 36 35.5000000  0  2G16G04                                          
  22906828.00049 120376192.59449    -12775.35949        49.000  

  21928191.66449 115233422.64149      4168.07849        49.000  

 16 04 02 12 36 35.6000000  0  2G16G04                                          
  22907071.14149 120377470.29749    -12779.19149        49.000  

  21928112.39149 115233006.05949      4163.25449        49.000  

 16 04 02 12 36 35.7000000  0  2G16G04                                          
  22907314.35249 120378748.37549    -12782.90649        49.000  

  21928033.21149 115232589.93849      4158.75849        49.000  

 16 04 02 12 36 35.8000000  0  2G16G04                                          
  22907557.64849 120380026.86749    -12787.08649        49.000  

  21927954.12549 115232174.34049      4153.51249        49.000  

 16 04 02 12 36 35.9000000  0  2G16G04                                          
  22907801.01649 120381305.79749    -12791.30949        50.000  

  21927875.14849 115231759.26249      4148.38749        49.000  

 16 04 02 12 36 36.0000000  0  2G16G04                                          
  22908044.46149 120382585.07849    -12795.07849        50.000  

  21927796.25049 115231344.64549      4143.57049        49.000  

 16 04 02 12 36 36.1000000  0  2G16G04                                          
  22908287.98449 120383864.78549    -12799.26249        49.000  

  21927717.44549 115230930.55149      4138.39849        49.000  

 16 04 02 12 36 36.2000000  0  2G16G04                                          
  22908531.58649 120385144.92649    -12803.65649        50.000  

  21927638.75049 115230516.97749      4133.17649        49.000  

 16 04 02 12 36 36.3000000  0  2G16G04                                          
  22908775.28149 120386425.54749    -12808.39149        50.000  

  21927560.15649 115230103.98449      4127.39149        49.000  

 16 04 02 12 36 36.4000000  0  2G16G04                                          
  22909019.05549 120387706.57449    -12812.47349        50.000  

  21927481.66449 115229691.49649      4122.23049        49.000  

 16 04 02 12 36 36.5000000  0  2G16G04                                          
  22909262.89149 120388987.93049    -12815.62549        50.000  

  21927403.25049 115229279.41449      4118.40249        49.000  

 16 04 02 12 36 36.6000000  0  2G16G04                                          
  22909506.80549 120390269.73449    -12820.08649        50.000  

  21927324.93849 115228867.89849      4112.75049        49.000  

 16 04 02 12 36 36.7000000  0  2G16G04                                          
  22909750.79749 120391551.91049    -12823.86349        50.000  

  21927246.71949 115228456.84849      4108.13749        49.000  

 16 04 02 12 36 36.8000000  0  2G16G04                                          
  22909994.86749 120392834.47349    -12827.67649        50.000  

  21927168.59449 115228046.27049      4103.39849        49.000  

 16 04 02 12 36 36.9000000  0  2G16G04                                          
  22910239.00849 120394117.44949    -12831.99249        50.000  

  21927090.56249 115227636.21949      4097.98449        49.000  

 16 04 02 12 36 37.0000000  0  2G16G04                                          
  22910483.22749 120395400.82449    -12835.83649        49.000  

  21927012.62549 115227226.65249      4093.21949        49.000  

 16 04 02 12 36 37.1000000  0  2G16G04                                          
  22910727.52349 120396684.62149    -12840.14849        50.000  

  21926934.78949 115226817.60949      4087.96949        49.000  

 16 04 02 12 36 37.2000000  0  2G16G04                                          
  22910971.91449 120397968.89849    -12844.77749        49.000  

  21926857.06249 115226409.13349      4082.32049        49.000  

 16 04 02 12 36 37.3000000  0  2G16G04                                          
  22911216.37549 120399253.55549    -12848.85949        50.000  

  21926779.42249 115226001.13349      4077.29749        49.000  

 16 04 02 12 36 37.4000000  0  2G16G04                                          
  22911460.89849 120400538.58649    -12852.43049        49.000  

  21926701.87549 115225593.61749      4072.78549        49.000  

 16 04 02 12 36 37.5000000  0  3G23G16G04                                       
  23559342.10949 123805178.27759     15458.98849        50.000  

  22911705.50049 120401823.98049    -12856.10249        49.000  

  21926624.41449 115225186.56649      4067.95749        49.000  

 16 04 02 12 36 37.6000000  0  3G23G16G04                                       
  23559047.99249 123803632.67649     15453.17249        50.000  

  22911950.19549 120403109.85549    -12860.86749        49.000  

  21926547.06249 115224780.06649      4062.55149        49.000  

 16 04 02 12 36 37.7000000  0  3G23G16G04                                       
  23558754.00849 123802087.57049     15448.14149        50.000  

  22912194.96149 120404396.10949    -12864.78149        49.000  

  21926469.80549 115224374.06249      4057.51249        49.000  

 16 04 02 12 36 37.8000000  0  3G23G16G04                                       
  23558460.09449 123800543.02349     15442.62149        50.000  

  22912439.82849 120405682.83249    -12869.46149        49.000  

  21926392.64849 115223968.60549      4052.02049        49.000  

 16 04 02 12 36 37.9000000  0  3G23G16G04                                       
  23558166.27349 123798999.02749     15436.96149        50.000  

  22912684.75849 120406969.95349    -12873.52749        49.000  

  21926315.60249 115223563.66449      4046.78549        49.000  

 16 04 02 12 36 38.0000000  0  3G23G16G04                                       
  23557872.55549 123797455.54749     15431.78149        50.000  

  22912929.77349 120408257.50449    -12877.66049        49.000  

  21926238.64149 115223159.24249      4041.52049        49.000  

 16 04 02 12 36 38.1000000  0  3G23G16G04                                       
  23557578.92249 123795912.54349     15427.36749        50.000  

  22913174.85249 120409545.41849    -12881.03549        49.000  

  21926161.78149 115222755.27049      4037.30149        49.000  

 16 04 02 12 36 38.2000000  0  3G23G16G04                                       
  23557285.39849 123794370.08249     15421.68049        50.000  

  22913420.02349 120410833.75449    -12885.52349        49.000  

  21926085.00849 115222351.82449      4031.97749        49.000  

 16 04 02 12 36 38.3000000  0  3G23G16G04                                       
  23556991.99249 123792828.16849     15416.35549        50.000  

  22913665.26649 120412122.51249    -12889.81649        49.000  

  21926008.32849 115221948.90649      4026.62949        49.000  

 16 04 02 12 36 38.4000000  0  3G23G16G04                                       
  23556698.65649 123791286.67649     15412.16849        50.000  

  22913910.57049 120413411.59049    -12892.82849        50.000  

  21925931.73449 115221546.39549      4022.72349        49.000  

 16 04 02 12 36 38.5000000  0  3G23G16G04                                       
  23556405.43849 123789745.76649     15406.32849        50.000  

  22914155.96149 120414701.13349    -12897.49649        50.000  

  21925855.25049 115221144.45349      4017.06649        49.000  

 16 04 02 12 36 38.6000000  0  3G23G16G04                                       
  23556112.30549 123788205.35249     15401.27749        50.000  

  22914401.42249 120415991.06649    -12901.47749        50.000  

  21925778.85949 115220743.00049      4012.08249        49.000  

 16 04 02 12 36 38.7000000  0  3G23G16G04                                       
  23555819.28149 123786665.46949     15395.78949        50.000  

  22914646.96949 120417281.42649    -12905.82049        50.000  

  21925702.56249 115220342.04749      4006.99249        49.000  

 16 04 02 12 36 38.8000000  0  3G23G16G04                                       
  23555526.36749 123785126.18449     15390.18849        50.000  

  22914892.60249 120418572.24249    -12910.16449        50.000  

  21925626.36749 115219941.67649      4001.41849        49.000  

 16 04 02 12 36 38.9000000  0  3G23G16G04                                       
  23555233.54749 123783587.27349     15386.28549        50.000  

  22915138.28949 120419863.34849    -12913.27049        50.000  

  21925550.25049 115219541.67249      3997.54749        49.000  

 16 04 02 12 36 39.0000000  0  3G23G16G04                                       
  23554940.81249 123782048.93049     15380.60549        50.000  

  22915384.07049 120421154.87549    -12917.45749        50.000  

  21925474.23449 115219142.20349      3992.29749        49.000  

 16 04 02 12 36 39.1000000  0  3G23G16G04                                       
  23554648.18049 123780511.15249     15374.96149        50.000  

  22915629.93049 120422446.88349    -12922.14849        50.000  

  21925398.32849 115218743.30149      3986.59449        49.000  

 16 04 02 12 36 39.2000000  0  3G23G16G04                                       
  23554355.64849 123778973.89549     15369.90649        50.000  

  22915875.87549 120423739.28149    -12926.05549        50.000  

  21925322.50849 115218344.88349      3981.79349        49.000  

 16 04 02 12 36 39.3000000  0  3G23G16G04                                       
  23554063.20349 123777437.12149     15365.04749        50.000  

  22916121.88349 120425032.05149    -12929.80149        50.000  

  21925246.78149 115217946.94149      3977.04749        49.000  

 16 04 02 12 36 39.4000000  0  3G23G16G04                                       
  23553770.85949 123775900.84449     15359.78549        50.000  

  22916367.96949 120426325.20349    -12933.82449        50.000  

  21925171.14849 115217549.48049      3972.05549        49.000  

 16 04 02 12 36 39.5000000  0  3G23G16G04                                       
  23553478.60249 123774365.15649     15354.01249        50.000  

  22916614.13349 120427618.83649    -12938.41049        50.000  

  21925095.62549 115217152.59449      3966.36349        49.000  

 16 04 02 12 36 39.6000000  0  3G23G16G04                                       
  23553186.46149 123772829.95349     15349.27749        50.000  

  22916860.38349 120428912.84049    -12942.10549        50.000  

  21925020.19549 115216756.17649      3961.77349        49.000  

 16 04 02 12 36 39.7000000  0  3G23G16G04                                       
  23552894.44549 123771295.27349     15343.93449        50.000  

  22917106.70349 120430207.24249    -12946.25849        50.000  

  21924944.85949 115216360.25449      3956.70749        49.000  

 16 04 02 12 36 39.8000000  0  3G23G16G04                                       
  23552602.50849 123769761.13349     15338.53949        50.000  

  22917353.10249 120431502.07849    -12950.57849        50.000  

  21924869.61749 115215964.86749      3951.41049        49.000  

 16 04 02 12 36 39.9000000  0  3G23G16G04                                       
  23552310.65649 123768227.50049     15333.52349        50.000  

  22917599.57849 120432797.30149    -12954.19149        50.000  

  21924794.46949 115215569.95749      3946.62149        49.000  

 16 04 02 12 36 40.0000000  0  3G23G16G04                                       
  23552018.90649 123766694.35949     15328.36749        50.000  

  22917846.12549 120434092.91049    -12958.34049        50.000  

  21924719.41449 115215175.53549      3941.64849        49.000  

 16 04 02 12 36 40.1000000  0  3G23G16G04                                       
  23551727.29749 123765161.84449     15322.29349        50.000  

  22918092.76649 120435389.03149    -12963.31249        50.000  

  21924644.47749 115214781.72349      3935.68049        49.000  

 16 04 02 12 36 40.2000000  0  3G23G16G04                                       
  23551435.76649 123763629.85249     15316.85549        50.000  

  22918339.48449 120436685.54749    -12967.57849        50.000  

  21924569.63349 115214388.39549      3930.53149        49.000  

 16 04 02 12 36 40.3000000  0  3G23G16G04                                       
  23551144.32049 123762098.30149     15312.77049        50.000  

  22918586.26649 120437982.39849    -12970.58249        50.000  

  21924494.87549 115213995.51249      3926.41449        49.000  

 16 04 02 12 36 40.4000000  0  3G23G16G04                                       
  23550852.98449 123760567.30949     15307.26249        50.000  

  22918833.13349 120439279.69149    -12974.89849        50.000  

  21924420.21149 115213603.16049      3921.14849        49.000  

 16 04 02 12 36 40.5000000  0  3G23G16G04                                       
  23550561.75849 123759036.86749     15301.69149        50.000  

  22919080.07849 120440577.41049    -12979.27749        50.000  

  21924345.64149 115213211.34049      3915.69149        49.000  

 16 04 02 12 36 40.6000000  0  3G23G16G04                                       
  23550270.60949 123757506.86749     15296.81649        50.000  

  22919327.09449 120441875.48849    -12983.07049        50.000  

  21924271.16449 115212819.96149      3911.15649        49.000  

 16 04 02 12 36 40.7000000  0  3G23G16G04                                       
  23549979.56249 123755977.48849     15291.12549        50.000  

  22919574.20349 120443174.03149    -12987.42649        50.000  

  21924196.79749 115212429.16449      3905.59449        49.000  

 16 04 02 12 36 40.8000000  0  3G23G16G04                                       
  23549688.63349 123754448.64149     15285.53149        50.000  

  22919821.39849 120444473.01649    -12992.03549        50.000  

  21924122.53149 115212038.89549      3900.08249        49.000  

 16 04 02 12 36 40.9000000  0  3G23G16G04                                       
  23549397.82049 123752920.35949     15279.87149        50.000  

  22920068.66449 120445772.43849    -12996.47349        50.000  

  21924048.37549 115211649.16049      3894.74649        49.000  

 16 04 02 12 36 41.0000000  0  3G23G16G04                                       
  23549107.09449 123751392.58249     15274.80149        50.000  

  22920316.01649 120447072.26249    -13000.38349        50.000  

  21923974.30549 115211259.92649      3889.78549        49.000  

 16 04 02 12 36 41.1000000  0  3G23G16G04                                       
  23548816.47749 123749865.30549     15269.78549        50.000  

  22920563.43849 120448372.45749    -13004.23049        50.000  

  21923900.32049 115210871.16449      3885.14549        49.000  

 16 04 02 12 36 41.2000000  0  3G23G16G04                                       
  23548525.95349 123748338.60549     15264.28949        50.000  

  22920810.94549 120449673.12549    -13008.74649        50.000  

  21923826.45349 115210482.96549      3879.64149        49.000  

 16 04 02 12 36 41.3000000  0  3G23G16G04                                       
  23548235.55549 123746812.37949     15259.42649        50.000  

  22921058.51649 120450974.15249    -13012.32849        50.000  

  21923752.67249 115210095.23049      3874.94549        49.000  

 16 04 02 12 36 41.4000000  0  3G23G16G04                                       
  23547945.21949 123745286.65249     15254.71949        50.000  

  22921306.16449 120452275.55949    -13016.00049        50.000  

  21923678.97749 115209707.97349      3870.32849        49.000  

 16 04 02 12 36 41.5000000  0  3G23G16G04                                       
  23547654.98449 123743761.47349     15248.78949        50.000  

  22921553.89149 120453577.38349    -13020.54749        50.000  

  21923605.39149 115209321.23849      3864.73849        49.000  

 16 04 02 12 36 41.6000000  0  3G23G16G04                                       
  23547364.85249 123742236.80949     15243.77749        50.000  

  22921801.69549 120454879.62549    -13024.48049        50.000  

  21923531.89149 115208935.00449      3859.96149        49.000  

 16 04 02 12 36 41.7000000  0  3G23G16G04                                       
  23547074.81249 123740712.67249     15238.45749        50.000  

  22922049.57849 120456182.28149    -13028.79749        50.000  

  21923458.48449 115208549.28549      3854.66849        49.000  

 16 04 02 12 36 41.8000000  0  3G23G16G04                                       
  23546784.87549 123739189.02349     15233.68849        50.000  

  22922297.53149 120457485.30149    -13032.28549        50.000  

  21923385.18049 115208164.03549      3850.04349        49.000  

 16 04 02 12 36 41.9000000  0  3G23G16G04                                       
  23546495.04749 123737665.87149     15228.65649        50.000  

  22922545.56249 120458788.69549    -13036.03149        50.000  

  21923311.96149 115207779.25849      3845.36349        49.000  

 16 04 02 12 36 42.0000000  0  3G23G16G04                                       
  23546205.29749 123736143.24249     15223.69149        50.000  

  22922793.68049 120460092.50849    -13040.00849        50.000  

  21923238.84449 115207394.99249      3840.40249        49.000  

 16 04 02 12 36 42.1000000  0  3G23G16G04                                       
  23545915.64849 123734621.09849     15218.44149        50.000  

  22923041.85949 120461396.68449    -13044.01649        50.000  

  21923165.81249 115207011.19149      3835.41049        49.000  

 16 04 02 12 36 42.2000000  0  3G23G16G04                                       
  23545626.10249 123733099.52349     15212.86749        50.000  

  22923290.11749 120462701.32049    -13048.53949        50.000  

  21923092.88349 115206627.94149      3829.98449        49.000  

 16 04 02 12 36 42.3000000  0  3G23G16G04                                       
  23545336.64849 123731578.44149     15208.16049        50.000  

  22923538.44549 120464006.31649    -13051.94549        50.000  

  21923020.03949 115206245.15249      3825.51649        49.000  

 16 04 02 12 36 42.4000000  0  3G23G16G04                                       
  23545047.30549 123730057.90649     15202.50449        50.000  

  22923786.86749 120465311.75849    -13056.52749        50.000  

  21922947.29749 115205862.91049      3819.95749        49.000  

 16 04 02 12 36 42.5000000  0  3G23G16G04                                       
  23544758.03149 123728537.84849     15197.59049        50.000  

  22924035.35249 120466617.55549    -13060.21549        50.000  

  21922874.64149 115205481.11749      3815.36349        49.000  

 16 04 02 12 36 42.6000000  0  3G23G16G04                                       
  23544468.88349 123727018.33649     15192.48049        50.000  

  22924283.90649 120467923.78149    -13064.12549        50.000  

  21922802.08649 115205099.85949      3810.34849        49.000  

 16 04 02 12 36 42.7000000  0  3G23G16G04                                       
  23544179.83649 123725499.34049     15187.07449        50.000  

  22924532.55549 120469230.41049    -13068.44949        50.000  

  21922729.63349 115204719.09849      3805.14549        49.000  

 16 04 02 12 36 42.8000000  0  3G23G16G04                                       
  23543890.89149 123723980.90249     15181.52349        50.000  

  22924781.28149 120470537.47749    -13072.77349        50.000  

  21922657.28149 115204338.87149      3799.73849        49.000  

 16 04 02 12 36 42.9000000  0  3G23G16G04                                       
  23543602.03949 123722463.00849     15175.94949        50.000  

  22925030.08649 120471844.97349    -13077.29749        50.000  

  21922585.02349 115203959.17649      3794.29749        49.000  

 16 04 02 12 36 43.0000000  0  3G23G16G04                                       
  23543313.28949 123720945.61749     15171.18849        50.000    23543310.86741
  96405921.84051     11821.70341        20.000  
  22925278.97749 120473152.85549    -13080.79749        50.000  

  21922512.85949 115203579.96949      3789.65249        49.000  

 16 04 02 12 36 43.1000000  0  3G23G16G04                                       
  23543024.63349 123719428.70349     15166.35549        50.000    23543022.20341
  96404739.81241     11817.93841        20.000  
  22925527.92249 120474461.09049    -13084.48449        50.000  

  21922440.78949 115203201.19949      3785.16049        49.000  

 16 04 02 12 36 43.2000000  0  3G23G16G04                                       
  23542736.07049 123717912.33249     15160.85549        50.000    23542737.54741
  96403558.20341     11813.65641        20.000  
  22925776.96149 120475769.77049    -13088.88749        50.000  

  21922368.81249 115202822.98049      3779.77049        49.000  

 16 04 02 12 36 43.3000000  0  3G23G16G04                                       
  23542447.62549 123716396.48449     15155.64849        50.000    23542449.08641
  96402377.00041     11809.59841        20.000  
  22926026.07049 120477078.83249    -13092.73849        50.000  

  21922296.93849 115202445.24249      3774.82849        49.000  

 16 04 02 12 36 43.4000000  0  3G23G16G04                                       
  23542159.26649 123714881.12949     15150.54749        50.000  

  22926275.25049 120478388.29349    -13096.73449        50.000  

  21922225.14849 115202067.99649      3770.07049        49.000  

 16 04 02 12 36 43.5000000  0  3G23G16G04                                       
  23541871.03149 123713366.36349     15144.82049        50.000  

  22926524.52349 120479698.21149    -13101.21949        50.000  

  21922153.46949 115201691.31649      3764.33649        49.000  

 16 04 02 12 36 43.6000000  0  3G23G16G04                                       
  23541582.88349 123711852.11349     15139.57849        50.000  

  22926773.86749 120481008.53549    -13105.50849        50.000  

  21922081.88349 115201315.12549      3759.26249        49.000  

 16 04 02 12 36 43.7000000  0  3G23G16G04                                       
  23541294.82849 123710338.40249     15134.16849        50.000  

  22927023.28949 120482319.27749    -13109.73849        50.000  

  21922010.39849 115200939.46549      3754.06649        49.000  

 16 04 02 12 36 43.8000000  0  3G23G16G04                                       
  23541006.87549 123708825.23449     15128.80149        50.000  

  22927272.80549 120483630.43849    -13113.75849        50.000  

  21921939.01649 115200564.32049      3748.98849        49.000  

 16 04 02 12 36 43.9000000  0  3G23G16G04                                       
  23540719.02349 123707312.51249     15124.35949        50.000  

  22927522.37549 120484941.93449    -13117.08649        50.000  

  21921867.71149 115200189.61349      3744.53149        49.000  

 16 04 02 12 36 44.0000000  0  3G23G16G04                                       
  23540431.26649 123705800.35949     15118.71149        50.000  

  22927772.01649 120486253.88349    -13121.56249        50.000  

  21921796.50849 115199815.44949      3739.17249        49.000  

 16 04 02 12 36 44.1000000  0  3G23G16G04                                       
  23540143.62549 123704288.72349     15113.46149        50.000  

  22928021.75049 120487566.23449    -13125.69149        50.000  

  21921725.40649 115199441.78949      3734.00849        49.000  

 16 04 02 12 36 44.2000000  0  3G23G16G04                                       
  23539856.07049 123702777.61749     15108.37949        50.000  

  22928271.56249 120488878.99249    -13129.62149        50.000  

  21921654.39849 115199068.62549      3729.20349        49.000  

 16 04 02 12 36 44.3000000  0  3G23G16G04                                       
  23539568.60249 123701266.99249     15103.39149        50.000  

  22928521.43849 120490192.11349    -13133.33649        50.000  

  21921583.47749 115198695.93849      3724.41049        49.000  

 16 04 02 12 36 44.4000000  0  3G23G16G04                                       
  23539281.25049 123699756.93449     15097.88749        50.000  

  22928771.40649 120491505.68049    -13137.66049        50.000  

  21921512.65649 115198323.78549      3719.08649        49.000  

 16 04 02 12 36 44.5000000  0  3G23G16G04                                       
  23538994.00049 123698247.36349     15092.81649        50.000  

  22929021.44549 120492819.62549    -13141.56649        50.000  

  21921441.93849 115197952.12549      3714.15649        49.000  

 16 04 02 12 36 44.6000000  0  3G23G16G04                                       
  23538706.83649 123696738.32449     15087.59449        50.000  

  22929271.54749 120494133.98049    -13145.65649        50.000  

  21921371.30549 115197580.94949      3709.19549        49.000  

 16 04 02 12 36 44.7000000  0  3G23G16G04                                       
  23538419.77349 123695229.77349     15082.68049        50.000  

  22929521.73449 120495448.70749    -13149.29749        50.000  

  21921300.76649 115197210.25849      3704.53549        49.000  

 16 04 02 12 36 44.8000000  0  3G23G16G04                                       
  23538132.79749 123693721.73049     15077.58649        50.000  

  22929771.99249 120496763.82449    -13153.21949        50.000  

  21921230.32049 115196840.05949      3699.62149        49.000  

 16 04 02 12 36 44.9000000  0  3G23G16G04                                       
  23537845.92249 123692214.18449     15072.67649        50.000  

  22930022.32049 120498079.32449    -13157.04749        50.000  

  21921159.96949 115196470.32849      3694.95349        49.000  

 16 04 02 12 36 45.0000000  0  3G23G16G04                                       
  23537559.15649 123690707.21949     15066.80949        50.000    23537576.78141
  96382441.26251     11740.37141        20.000  
  22930272.74249 120499395.27349    -13161.70749        50.000  

  21921089.72749 115196101.16449      3689.14149        49.000  

 16 04 02 12 36 45.1000000  0  3G23G16G04                                       
  23537272.46149 123689200.69949     15062.48849        50.000    23537290.10241
  96381267.34841     11737.00441        20.000  
  22930523.22749 120500711.55949    -13164.89149        49.000  

  21921019.55549 115195732.42249      3685.07049        49.000  

 16 04 02 12 36 45.2000000  0  3G23G16G04                                       
  23536985.88349 123687694.71949     15057.06649        50.000    23537007.43041
  96380093.85541     11732.78141        20.000  
  22930773.78949 120502028.26649    -13169.06249        49.000  

  21920949.48449 115195364.19949      3679.87949        49.000  

 16 04 02 12 36 45.3000000  0  3G23G16G04                                       
  23536699.42249 123686189.24249     15051.93449        50.000    23536720.94541
  96378920.75841     11728.78141        20.000  
  22931024.42249 120503345.34849    -13172.98049        50.000  

  21920879.50849 115194996.46949      3674.89549        49.000  

 16 04 02 12 36 45.4000000  0  3G23G16G04                                       
  23536413.04749 123684684.33649     15046.23049        50.000  

  22931275.14149 120504662.89549    -13177.50849        50.000  

  21920809.63349 115194629.27349      3669.44949        49.000  

 16 04 02 12 36 45.5000000  0  3G23G16G04                                       
  23536126.76649 123683179.90649     15041.18849        50.000  

  22931525.93049 120505980.79749    -13181.31649        50.000  

  21920739.85249 115194262.55549      3664.67249        49.000  

 16 04 02 12 36 45.6000000  0  3G23G16G04                                       
  23535840.57849 123681676.01249     15036.27749        50.000  

  22931776.79749 120507299.10549    -13185.08649        50.000  

  21920670.16449 115193896.34049      3659.75449        49.000  

 16 04 02 12 36 45.7000000  0  3G23G16G04                                       
  23535554.50049 123680172.60549     15031.09849        50.000  

  22932027.73449 120508617.80149    -13189.14849        50.000  

  21920600.56249 115193530.59849      3654.93449        49.000  

 16 04 02 12 36 45.8000000  0  3G23G16G04                                       
  23535268.51649 123678669.76249     15025.46949        50.000  

  22932278.75049 120509936.92649    -13193.46949        50.000  

  21920531.07049 115193165.40249      3649.40249        49.000  

 16 04 02 12 36 45.9000000  0  3G23G16G04                                       
  23534982.63349 123677167.45349     15020.18049        50.000  

  22932529.85249 120511256.47749    -13197.65249        50.000  

  21920461.67249 115192800.71549      3644.34049        49.000  

 16 04 02 12 36 46.0000000  0  3G23G16G04                                       
  23534696.85249 123675665.65249     15015.04349        50.000  

  22932781.01649 120512576.40649    -13201.51249        50.000  

  21920392.36749 115192436.52049      3639.36749        49.000  

 16 04 02 12 36 46.1000000  0  3G23G16G04                                       
  23534411.16449 123674164.40249     15009.54749        50.000  

  22933032.28149 120513896.78549    -13206.02749        50.000  

  21920323.16449 115192072.86349      3633.96149        49.000  

 16 04 02 12 36 46.2000000  0  3G23G16G04                                       
  23534125.58649 123672663.68449     15004.28549        50.000  

  22933283.60949 120515217.56649    -13209.97349        49.000  

  21920254.06249 115191709.70349      3629.03549        49.000  

 16 04 02 12 36 46.3000000  0  3G23G16G04                                       
  23533840.10949 123671163.50049     14998.80149        50.000  

  22933535.02349 120516538.75049    -13214.13749        49.000  

  21920185.04749 115191347.05949      3623.79349        49.000  

 16 04 02 12 36 46.4000000  0  3G23G16G04                                       
  23533554.72749 123669663.78549     14994.38349        50.000  

  22933786.51649 120517860.29749    -13217.48049        49.000  

  21920116.13349 115190984.87549      3619.54349        49.000  

 16 04 02 12 36 46.5000000  0  3G23G16G04                                       
  23533269.43849 123668164.57449     14989.46949        50.000  

  22934038.07049 120519182.23049    -13221.24649        50.000  

  21920047.29749 115190623.17249      3614.78149        49.000  

 16 04 02 12 36 46.6000000  0  3G23G16G04                                       
  23532984.25849 123666665.93449     14983.68049        50.000  

  22934289.71149 120520504.61349    -13225.83249        50.000  

  21919978.57849 115190262.02049      3609.12149        49.000  

 16 04 02 12 36 46.7000000  0  3G23G16G04                                       
  23532699.19549 123665167.82449     14978.07049        50.000    23532699.22741
  96362468.70751     11671.22741        20.000  
  22934541.42249 120521827.40249    -13230.19949        50.000  

  21919909.95349 115189901.37149      3603.76649        49.000  

 16 04 02 12 36 46.8000000  0  3G23G16G04                                       
  23532414.21149 123663670.22749     14972.97749        50.000    23532418.14141
  96361301.74241     11667.25441        20.000  
  22934793.21949 120523150.59049    -13234.16849        50.000  

  21919841.41449 115189541.21149      3599.02749        49.000  

 16 04 02 12 36 46.9000000  0  3G23G16G04                                       
  23532129.33649 123662173.13749     14968.10549        50.000    23532133.25041
  96360135.16841     11663.46141        20.000  
  22935045.08649 120524474.16049    -13237.85249        50.000  

  21919772.97749 115189181.55949      3594.10549        49.000  

 16 04 02 12 36 47.0000000  0  3G23G16G04                                       
  23531844.55549 123660676.59849     14962.54749        50.000    23531852.37541
  96358969.02341     11659.12941        20.000  
  22935297.03149 120525798.15249    -13242.05149        49.000  

  21919704.63349 115188822.42249      3588.89149        49.000  

 16 04 02 12 36 47.1000000  0  3G23G16G04                                       
  23531559.86749 123659180.54349     14957.78549        50.000    23531567.68041
  96357803.25841     11655.41841        20.000  
  22935549.05549 120527122.53149    -13245.82049        50.000  

  21919636.37549 115188463.74649      3584.28949        49.000  

 16 04 02 12 36 47.2000000  0  3G23G16G04                                       
  23531275.27349 123657684.99249     14952.68449        50.000    23531279.18841
  96356637.91841     11651.44141        20.000  
  22935801.14849 120528447.28149    -13249.59449        50.000  

  21919568.21149 115188105.57049      3579.28949        49.000  

 16 04 02 12 36 47.3000000  0  3G23G16G04                                       
  23530990.77349 123656189.98049     14947.44549        50.000    23530994.70341
  96355472.99241     11647.35941        20.000  
  22936053.32049 120529772.44949    -13253.56649        50.000  

  21919500.14849 115187747.89849      3574.44549        49.000  

 16 04 02 12 36 47.4000000  0  3G23G16G04                                       
  23530706.38349 123654695.48849     14941.88749        50.000    23530713.97741
  96354308.47341     11643.02741        20.000  
  22936305.57049 120531098.03149    -13257.95349        50.000  

  21919432.18049 115187390.73449      3569.09849        49.000  

 16 04 02 12 36 47.5000000  0  3G23G16G04                                       
  23530422.09449 123653201.58249     14936.46149        50.000    23530429.70341
  96353144.41041     11638.80141        20.000  
  22936557.90649 120532424.05949    -13262.27049        50.000  

  21919364.32049 115187034.13349      3563.61349        49.000  

 16 04 02 12 36 47.6000000  0  3G23G16G04                                       
  23530137.89849 123651708.11349     14931.75449        50.000    23530149.41441
  96351980.68841     11635.13341        20.000  
  22936810.30549 120533750.42649    -13265.73849        49.000  

  21919296.53949 115186677.94949      3559.28549        49.000  

 16 04 02 12 36 47.7000000  0  3G23G16G04                                       
  23529853.80549 123650215.21949     14925.98049        50.000    23529865.32041
  96350817.39541     11630.63341        20.000  
  22937062.78949 120535077.21949    -13270.19949        49.000  

  21919228.85949 115186322.30949      3553.79349        49.000  

 16 04 02 12 36 47.8000000  0  3G23G16G04                                       
  23529569.82049 123648722.87549     14920.53549        50.000    23529577.43841
  96349654.52341     11626.39141        20.000  
  22937315.35949 120536404.46549    -13274.67249        49.000  

  21919161.28949 115185967.21149      3548.37949        49.000  

 16 04 02 12 36 47.9000000  0  3G23G16G04                                       
  23529285.91449 123647231.00049     14915.85949        50.000    23529293.53941
  96348492.02341     11622.75041        20.000  
  22937567.98449 120537732.05549    -13278.16449        50.000  

  21919093.79749 115185612.55949      3544.04349        49.000  

 16 04 02 12 36 48.0000000  0  3G23G16G04                                       
  23529002.12549 123645739.66849     14910.43449        50.000    23529008.93841
  96347329.94541     11618.52041        20.000  
  22937820.70349 120539060.07049    -13282.25449        49.000  

  21919026.40649 115185258.43449      3538.86749        49.000  

 16 04 02 12 36 48.1000000  0  3G23G16G04                                       
  23528718.43849 123644248.84449     14905.51249        50.000    23528725.24241
  96346168.26241     11614.68441        20.000  
  22938073.48449 120540388.46149    -13286.03949        49.000  

  21918959.11749 115184904.79349      3533.95349        49.000  

 16 04 02 12 36 48.2000000  0  3G23G16G04                                       
  23528434.84449 123642758.54749     14900.08649        50.000    23528445.54741
  96345006.98841     11610.45741        20.000  
  22938326.35249 120541717.28149    -13290.31249        49.000  

  21918891.91449 115184551.66049      3528.85949        49.000  

 16 04 02 12 36 48.3000000  0  2G16G04                                          
  22938579.28949 120543046.47349    -13294.27749        49.000  

  21918824.82049 115184199.02049      3523.73449        49.000  

 16 04 02 12 36 48.4000000  0  2G16G04                                          
  22938832.32049 120544376.14849    -13299.04749        49.000  

  21918757.82049 115183846.96149      3518.00049        49.000  

 16 04 02 12 36 48.5000000  0  2G16G04                                          
  22939085.42249 120545706.21549    -13302.63749        49.000  

  21918690.92249 115183495.37949      3513.44549        49.000  

 16 04 02 12 36 48.6000000  0  2G16G04                                          
  22939338.59449 120547036.67249    -13306.66049        49.000  

  21918624.11749 115183144.30149      3508.33249        49.000  

 16 04 02 12 36 48.7000000  0  2G16G04                                          
  22939591.85249 120548367.53949    -13310.89149        49.000  

  21918557.40649 115182793.72349      3503.25049        49.000  

 16 04 02 12 36 48.8000000  0  2G16G04                                          
  22939845.18849 120549698.83249    -13314.96149        49.000  

  21918490.79749 115182443.68049      3498.02749        49.000  

 16 04 02 12 36 48.9000000  0  2G16G04                                          
  22940098.60249 120551030.53149    -13319.19549        49.000  

  21918424.28149 115182094.14149      3492.82849        49.000  

 16 04 02 12 36 49.0000000  0  2G16G04                                          
  22940352.09449 120552362.59849    -13322.79749        49.000  

  21918357.85249 115181745.07449      3488.17649        49.000  

 16 04 02 12 36 49.1000000  0  2G16G04                                          
  22940605.65649 120553695.07049    -13326.75849        49.000  

  21918291.51649 115181396.50849      3483.20349        49.000  

 16 04 02 12 36 49.2000000  0  2G16G04                                          
  22940859.28949 120555027.94549    -13330.68449        49.000  

  21918225.28149 115181048.43849      3478.28549        49.000  

 16 04 02 12 36 49.3000000  0  2G16G04                                          
  22941113.00049 120556361.17249    -13334.43849        49.000  

  21918159.14849 115180700.83249      3473.49649        49.000  

 16 04 02 12 36 49.4000000  0  2G16G04                                          
  22941366.78949 120557694.84449    -13338.79349        49.000  

  21918093.10249 115180353.75849      3468.29749        49.000  

 16 04 02 12 36 49.5000000  0  2G16G04                                          
  22941620.64149 120559028.87949    -13342.40649        49.000  

  21918027.14849 115180007.16049      3463.56649        49.000  

 16 04 02 12 36 49.6000000  0  2G16G04                                          
  22941874.57849 120560363.30549    -13346.27749        49.000  

  21917961.28949 115179661.04749      3458.73449        49.000  

 16 04 02 12 36 49.7000000  0  2G16G04                                          
  22942128.60249 120561698.19549    -13351.10949        49.000  

  21917895.53149 115179315.49249      3452.95749        49.000  

 16 04 02 12 36 49.8000000  0  2G16G04                                          
  22942382.70349 120563033.49649    -13355.48449        49.000  

  21917829.87549 115178970.46549      3447.57049        49.000  

 16 04 02 12 36 49.9000000  0  2G16G04                                          
  22942636.87549 120564369.17249    -13358.75049        49.000  

  21917764.31249 115178625.89149      3443.38749        49.000  

 16 04 02 12 36 50.0000000  0  2G16G04                                          
  22942891.10949 120565705.22749    -13362.62549        49.000  

  21917698.83649 115178281.82049      3438.40249        49.000  

 16 04 02 12 36 50.1000000  0  2G16G04                                          
  22943145.43049 120567041.68849    -13366.60949        49.000  

  21917633.45349 115177938.23849      3433.42649        49.000  

 16 04 02 12 36 50.2000000  0  2G16G04                                          
  22943399.83649 120568378.60249    -13371.25449        49.000  

  21917568.18049 115177595.21549      3427.77349        49.000  

 16 04 02 12 36 50.3000000  0  2G16G04                                          
  22943654.31249 120569715.87549    -13374.88749        49.000  

  21917502.99249 115177252.66049      3423.14149        49.000  

 16 04 02 12 36 50.4000000  0  2G16G04                                          
  22943908.85949 120571053.53949    -13378.79749        49.000  

  21917437.89849 115176910.58649      3418.22749        49.000  

 16 04 02 12 36 50.5000000  0  2G16G04                                          
  22944163.49249 120572391.63749    -13383.12549        49.000  

  21917372.90649 115176569.05549      3412.89849        49.000  

 16 04 02 12 36 50.6000000  0  2G16G04                                          
  22944418.20349 120573730.12149    -13386.80149        50.000  

  21917308.00849 115176228.01249      3408.05149        49.000  

 16 04 02 12 36 50.7000000  0  2G16G04                                          
  22944672.98449 120575069.00449    -13391.01649        49.000  

  21917243.21149 115175887.46149      3402.93849        49.000  

 16 04 02 12 36 50.8000000  0  2G16G04                                          
  22944927.84449 120576408.30549    -13395.06649        49.000  

  21917178.50049 115175547.43049      3397.84849        49.000  

 16 04 02 12 36 50.9000000  0  2G16G04                                          
  22945182.78149 120577747.98849    -13398.98449        49.000  

  21917113.88349 115175207.88349      3392.95749        49.000  

 16 04 02 12 36 51.0000000  0  2G16G04                                          
  22945437.80549 120579088.13349    -13403.69549        49.000  

  21917049.37549 115174868.89149      3387.34449        49.000  

 16 04 02 12 36 51.1000000  0  2G16G04                                          
  22945692.88349 120580428.59849    -13406.82049        49.000  

  21916984.95349 115174530.32849      3383.13749        49.000  

 16 04 02 12 36 51.2000000  0  2G16G04                                          
  22945948.04749 120581769.48049    -13410.80949        49.000  

  21916920.63349 115174192.29349      3377.95749        49.000  

 16 04 02 12 36 51.3000000  0  2G16G04                                          
  22946203.28149 120583110.75849    -13414.87549        49.000  

  21916856.39849 115173854.73449      3373.14849        49.000  

 16 04 02 12 36 51.4000000  0  2G16G04                                          
  22946458.60249 120584452.47749    -13419.28549        49.000  

  21916792.26649 115173517.73049      3367.54349        49.000  

 16 04 02 12 36 51.5000000  0  2G16G04                                          
  22946714.00049 120585794.57849    -13423.17249        50.000  

  21916728.22749 115173181.20749      3362.73049        49.000  

 16 04 02 12 36 51.6000000  0  2G16G04                                          
  22946969.46949 120587137.07849    -13427.20349        50.000  

  21916664.28149 115172845.18449      3357.69149        49.000  

 16 04 02 12 36 51.7000000  0  2G16G04                                          
  22947225.02349 120588480.04749    -13431.99249        50.000  

  21916600.45349 115172509.72749      3351.83649        49.000  

 16 04 02 12 36 51.8000000  0  2G16G04                                          
  22947480.65649 120589823.39849    -13435.64549        50.000  

  21916536.71149 115172174.76649      3347.18849        49.000  

 16 04 02 12 36 51.9000000  0  2G16G04                                          
  22947736.35949 120591167.12549    -13439.39549        50.000  

  21916473.05549 115171840.26649      3342.59049        49.000  

 16 04 02 12 36 52.0000000  0  2G16G04                                          
  22947992.15649 120592511.30149    -13443.78949        50.000  

  21916409.50049 115171506.31649      3337.09449        49.000  

 16 04 02 12 36 52.1000000  0  2G16G04                                          
  22948248.01649 120593855.86749    -13447.86749        50.000  

  21916346.04749 115171172.86349      3332.09849        49.000  

 16 04 02 12 36 52.2000000  0  2G16G04                                          
  22948503.96149 120595200.82449    -13451.75849        50.000  

  21916282.68849 115170839.91049      3327.05149        49.000  

 16 04 02 12 36 52.3000000  0  2G16G04                                          
  22948759.96949 120596546.18849    -13455.68449        50.000  

  21916219.43049 115170507.44949      3322.13749        49.000  

 16 04 02 12 36 52.4000000  0  2G16G04                                          
  22949016.04749 120597891.89849    -13459.27049        50.000  

  21916156.25049 115170175.45749      3317.48049        49.000  

 16 04 02 12 36 52.5000000  0  2G16G04                                          
  22949272.21149 120599238.01649    -13463.13349        50.000  

  21916093.17249 115169843.95749      3312.64549        49.000  

 16 04 02 12 36 52.6000000  0  2G16G04                                          
  22949528.45349 120600584.58649    -13467.80149        50.000  

  21916030.19549 115169513.00849      3307.04749        49.000  

 16 04 02 12 36 52.7000000  0  2G16G04                                          
  22949784.77349 120601931.57449    -13472.34449        50.000  

  21915967.31249 115169182.59049      3301.46549        49.000  

 16 04 02 12 36 52.8000000  0  2G16G04                                          
  22950041.18849 120603279.00849    -13476.68049        50.000  

  21915904.53949 115168852.71149      3296.07849        49.000  

 16 04 02 12 36 52.9000000  0  2G16G04                                          
  22950297.68049 120604626.84849    -13480.71149        50.000  

  21915841.86749 115168523.34849      3291.01649        49.000  

 16 04 02 12 36 53.0000000  0  2G16G04                                          
  22950554.23449 120605975.08249    -13484.44149        50.000  

  21915779.28149 115168194.46949      3286.23449        49.000  

 16 04 02 12 36 53.1000000  0  2G16G04                                          
  22950810.85949 120607323.66049    -13487.60549        50.000  

  21915716.78149 115167866.04749      3282.03149        49.000  

 16 04 02 12 36 53.2000000  0  2G16G04                                          
  22951067.56249 120608672.61749    -13491.84449        50.000  

  21915654.37549 115167538.09449      3276.87949        49.000  

 16 04 02 12 36 53.3000000  0  2G16G04                                          
  22951324.34449 120610022.02349    -13496.05549        50.000  

  21915592.07849 115167210.69949      3271.60549        49.000  

 16 04 02 12 36 53.4000000  0  2G16G04                                          
  22951581.19549 120611371.81249    -13500.12549        50.000  

  21915529.87549 115166883.78549      3266.63349        49.000  

 16 04 02 12 36 53.5000000  0  2G16G04                                          
  22951838.14149 120612722.04749    -13504.48849        50.000  

  21915467.77349 115166557.42649      3261.13749        49.000  

 16 04 02 12 36 53.6000000  0  2G16G04                                          
  22952095.14149 120614072.63749    -13507.85549        50.000  

  21915405.75849 115166231.52049      3256.68049        49.000  

 16 04 02 12 36 53.7000000  0  2G16G04                                          
  22952352.21949 120615423.58649    -13511.32449        50.000  

  21915343.82849 115165906.06249      3252.35249        49.000  

 16 04 02 12 36 53.8000000  0  2G16G04                                          
  22952609.37549 120616774.95749    -13515.80549        50.000  

  21915281.99249 115165581.14149      3246.87949        49.000  

 16 04 02 12 36 53.9000000  0  2G16G04                                          
  22952866.61749 120618126.75449    -13520.17649        50.000  

  21915220.26649 115165256.74249      3241.35549        49.000  

 16 04 02 12 36 54.0000000  0  2G16G04                                          
  22953123.92249 120619478.91049    -13523.57049        50.000  

  21915158.62549 115164932.81249      3236.92649        49.000  

 16 04 02 12 36 54.1000000  0  2G16G04                                          
  22953381.30549 120620831.48049    -13527.77749        50.000  

  21915097.07849 115164609.38749      3231.77749        49.000  

 16 04 02 12 36 54.2000000  0  2G16G04                                          
  22953638.76649 120622184.40249    -13531.38349        50.000  

  21915035.61749 115164286.43049      3227.09049        49.000  

 16 04 02 12 36 54.3000000  0  2G16G04                                          
  22953896.29749 120623537.72749    -13535.25049        50.000  

  21914974.25049 115163963.95749      3222.30549        49.000  

 16 04 02 12 36 54.4000000  0  2G16G04                                          
  22954153.89149 120624891.42649    -13539.10249        50.000  

  21914912.98449 115163641.97749      3217.37949        49.000  

 16 04 02 12 36 54.5000000  0  2G16G04                                          
  22954411.57849 120626245.55149    -13543.35549        50.000  

  21914851.80549 115163320.52049      3212.14549        49.000  

 16 04 02 12 36 54.6000000  0  2G16G04                                          
  22954669.35249 120627600.10549    -13547.93849        50.000  

  21914790.73449 115162999.59849      3206.47349        49.000  

 16 04 02 12 36 54.7000000  0  2G16G04                                          
  22954927.20349 120628955.15249    -13552.52349        50.000  

  21914729.78149 115162679.26649      3200.80949        49.000  

 16 04 02 12 36 54.8000000  0  2G16G04                                          
  22955185.11749 120630310.50449    -13555.92249        50.000  

  21914668.89849 115162359.33249      3196.53549        49.000  

 16 04 02 12 36 54.9000000  0  2G16G04                                          
  22955443.11749 120631666.30549    -13559.97749        50.000  

  21914608.12549 115162039.96149      3191.42249        49.000  

 16 04 02 12 36 55.0000000  0  2G16G04                                          
  22955701.19549 120633022.46549    -13563.83649        50.000  

  21914547.43849 115161721.04749      3186.62149        49.000  

 16 04 02 12 36 55.1000000  0  2G16G04                                          
  22955959.32849 120634378.97749    -13567.25849        50.000  

  21914486.83649 115161402.59849      3182.07049        49.000  

 16 04 02 12 36 55.2000000  0  2G16G04                                          
  22956217.56249 120635735.98049    -13572.12549        50.000  

  21914426.35249 115161084.71949      3176.44149        49.000  

 16 04 02 12 36 55.3000000  0  2G16G04                                          
  22956475.85949 120637093.37149    -13576.19949        50.000  

  21914365.95349 115160767.35249      3171.03949        49.000  

 16 04 02 12 36 55.4000000  0  2G16G04                                          
  22956734.25049 120638451.19149    -13580.35949        50.000  

  21914305.65649 115160450.50849      3165.90249        49.000  

 16 04 02 12 36 55.5000000  0  2G16G04                                          
  22956992.69549 120639809.35549    -13583.63749        50.000  

  21914245.45349 115160134.10549      3161.68849        49.000  

 16 04 02 12 36 55.6000000  0  2G16G04                                          
  22957251.21949 120641167.90649    -13587.55549        50.000  

  21914185.33649 115159818.20749      3156.67249        49.000  

 16 04 02 12 36 55.7000000  0  2G16G04                                          
  22957509.82849 120642526.90249    -13592.05949        50.000  

  21914125.32849 115159502.83649      3151.25849        49.000  

 16 04 02 12 36 55.8000000  0  2G16G04                                          
  22957768.52349 120643886.35249    -13596.71549        50.000  

  21914065.42249 115159188.03549      3145.43849        49.000  

 16 04 02 12 36 55.9000000  0  2G16G04                                          
  22958027.28149 120645246.12149    -13599.78549        50.000  

  21914005.60249 115158873.64849      3141.33649        49.000  

 16 04 02 12 36 56.0000000  0  2G16G04                                          
  22958286.10949 120646606.30549    -13603.92249        50.000  

  21913945.87549 115158559.78149      3136.25049        49.000  

 16 04 02 12 36 56.1000000  0  2G16G04                                          
  22958545.02349 120647966.91049    -13608.07449        50.000  

  21913886.25049 115158246.43449      3131.07849        49.000  

 16 04 02 12 36 56.2000000  0  2G16G04                                          
  22958804.00849 120649327.89549    -13612.13749        50.000  

  21913826.71149 115157933.57449      3126.03949        49.000  

 16 04 02 12 36 56.3000000  0  2G16G04                                          
  22959063.07849 120650689.30549    -13616.17249        50.000  

  21913767.28149 115157621.25049      3120.78949        49.000  

 16 04 02 12 36 56.4000000  0  2G16G04                                          
  22959322.22749 120652051.15249    -13620.76249        50.000  

  21913707.94549 115157309.45349      3115.34449        49.000  

 16 04 02 12 36 56.5000000  0  2G16G04                                          
  22959581.44549 120653413.35549    -13624.02049        50.000  

  21913648.70349 115156998.10949      3111.03549        49.000  

 16 04 02 12 36 56.6000000  0  2G16G04                                          
  22959840.73449 120654775.93449    -13627.91049        50.000  

  21913589.54749 115156687.25849      3106.04349        49.000  

 16 04 02 12 36 56.7000000  0  2G16G04                                          
  22960100.11749 120656138.99649    -13632.79349        50.000  

  21913530.50849 115156376.98449      3100.26649        49.000  

 16 04 02 12 36 56.8000000  0  2G16G04                                          
  22960359.56249 120657502.44149    -13636.59849        50.000  

  21913471.56249 115156067.19149      3095.35549        49.000  

 16 04 02 12 36 56.9000000  0  2G16G04                                          
  22960619.08649 120658866.23449    -13640.13349        50.000  

  21913412.70349 115155757.86349      3090.74249        49.000  

 16 04 02 12 36 57.0000000  0  2G16G04                                          
  22960878.69549 120660230.46949    -13644.31649        50.000  

  21913353.94549 115155449.07449      3085.58649        49.000  

 16 04 02 12 36 57.1000000  0  2G16G04                                          
  22961138.35949 120661595.02049    -13647.48049        50.000  

  21913295.25849 115155140.69549      3081.39549        49.000  

 16 04 02 12 36 57.2000000  0  2G16G04                                          
  22961398.10249 120662959.98849    -13652.04349        50.000  

  21913236.67249 115154832.85249      3075.91849        49.000  

 16 04 02 12 36 57.3000000  0  2G16G04                                          
  22961657.93849 120664325.44149    -13656.59049        50.000  

  21913178.20349 115154525.58249      3070.26249        49.000  

 16 04 02 12 36 57.4000000  0  2G16G04                                          
  22961917.84449 120665691.27749    -13660.54349        50.000  

  21913119.82049 115154218.80149      3065.12949        49.000  

 16 04 02 12 36 57.5000000  0  2G16G04                                          
  22962177.82049 120667057.47749    -13663.98049        50.000  

  21913061.53149 115153912.48849      3060.75849        49.000  

 16 04 02 12 36 57.6000000  0  2G16G04                                          
  22962437.87549 120668424.05149    -13667.96149        50.000  

  21913003.33649 115153606.65649      3055.67249        49.000  

 16 04 02 12 36 57.7000000  0  2G16G04                                          
  22962698.00049 120669791.04749    -13672.10249        50.000  

  21912945.23449 115153301.34449      3050.71949        49.000  

 16 04 02 12 36 57.8000000  0  2G16G04                                          
  22962958.20349 120671158.42249    -13675.96149        50.000  

  21912887.22749 115152996.51249      3045.80549        49.000  

 16 04 02 12 36 57.9000000  0  2G16G04                                          
  22963218.48449 120672526.20349    -13679.96149        50.000  

  21912829.32049 115152692.20749      3040.55149        49.000  

 16 04 02 12 36 58.0000000  0  2G16G04                                          
  22963478.83649 120673894.35249    -13683.42649        50.000  

  21912771.50049 115152388.34849      3036.09049        49.000  

 16 04 02 12 36 58.1000000  0  2G16G04                                          
  22963739.25849 120675262.89849    -13687.50449        50.000  

  21912713.77349 115152084.99249      3031.14849        49.000  

 16 04 02 12 36 58.2000000  0  2G16G04                                          
  22963999.76649 120676631.86349    -13691.80549        50.000  

  21912656.14849 115151782.17249      3025.62149        49.000  

 16 04 02 12 36 58.3000000  0  2G16G04                                          
  22964260.35249 120678001.23849    -13695.79349        50.000  

  21912598.61749 115151479.85549      3020.75849        49.000  

 16 04 02 12 36 58.4000000  0  2G16G04                                          
  22964521.01649 120679371.03149    -13700.06649        50.000  

  21912541.18849 115151178.05949      3015.49249        49.000  

 16 04 02 12 36 58.5000000  0  2G16G04                                          
  22964781.75049 120680741.17249    -13703.41049        50.000  

  21912483.85249 115150876.72749      3010.92249        49.000  

 16 04 02 12 36 58.6000000  0  2G16G04                                          
  22965042.53949 120682111.63749    -13706.69149        50.000  

  21912426.58649 115150575.80549      3006.82849        49.000  

 16 04 02 12 36 58.7000000  0  2G16G04                                          
  22965303.42249 120683482.59449    -13711.57449        50.000  

  21912369.44549 115150275.49249      3000.77049        49.000  

 16 04 02 12 36 58.8000000  0  2G16G04                                          
  22965564.37549 120684853.91049    -13715.37149        49.000  

  21912312.38349 115149975.62149      2996.14549        49.000  

 16 04 02 12 36 58.9000000  0  2G16G04                                          
  22965825.41449 120686225.68049    -13719.89849        50.000  

  21912255.41449 115149676.32049      2990.44549        49.000  

 16 04 02 12 36 59.0000000  0  2G16G04                                          
  22966086.53949 120687597.88349    -13724.19149        50.000  

  21912198.56249 115149377.56649      2985.11349        49.000  

 16 04 02 12 36 59.1000000  0  2G16G04                                          
  22966347.72749 120688970.43849    -13727.66849        50.000  

  21912141.79749 115149079.24249      2980.73449        49.000  

 16 04 02 12 36 59.2000000  0  2G16G04                                          
  22966608.97749 120690343.34049    -13731.12549        50.000  

  21912085.11749 115148781.40249      2975.89549        49.000  

 16 04 02 12 36 59.3000000  0  2G16G04                                          
  22966870.32849 120691716.76249    -13736.33249        50.000  

  21912028.56249 115148484.16049      2969.92649        49.000  

 16 04 02 12 36 59.4000000  0  2G16G04                                          
  22967131.76649 120693090.57449    -13740.34849        50.000  

  21911972.08649 115148187.41049      2964.85249        49.000  

 16 04 02 12 36 59.5000000  0  2G16G04                                          
  22967393.25049 120694464.71949    -13743.44949        50.000  

  21911915.71149 115147891.12149      2960.50449        49.000  

 16 04 02 12 36 59.6000000  0  2G16G04                                          
  22967654.82849 120695839.28549    -13747.61349        50.000  

  21911859.42249 115147595.32449      2955.62549        49.000  

 16 04 02 12 36 59.7000000  0  2G16G04                                          
  22967916.46149 120697214.20749    -13751.20349        50.000  

  21911803.22749 115147300.02349      2950.65249        49.000  

 16 04 02 12 36 59.8000000  0  2G16G04                                          
  22968178.19549 120698589.59849    -13755.99649        50.000  

  21911747.13349 115147005.25849      2945.05949        49.000  

 16 04 02 12 36 59.9000000  0  2G16G04                                          
  22968439.99249 120699965.33649    -13759.42649        50.000  

  21911691.13349 115146710.95749      2940.54349        49.000  

 16 04 02 12 37  0.0000000  0  2G16G04                                          
  22968701.84449 120701341.44549    -13763.16849        50.000  

  21911635.21949 115146417.13749      2935.84049        49.000  

 16 04 02 12 37  0.1000000  0  2G16G04                                          
  22968963.78949 120702717.95749    -13767.14849        50.000  

  21911579.40649 115146123.82449      2930.66449        49.000  

 16 04 02 12 37  0.2000000  0  2G16G04                                          
  22969225.79749 120704094.87149    -13771.26249        50.000  

  21911523.68049 115145831.00449      2925.68849        49.000  

 16 04 02 12 37  0.3000000  0  2G16G04                                          
  22969487.89149 120705472.17249    -13774.98049        50.000  

  21911468.06249 115145538.68049      2920.85549        49.000  

 16 04 02 12 37  0.4000000  0  2G16G04                                          
  22969750.03949 120706849.79349    -13778.31649        50.000  

  21911412.51649 115145246.79349      2916.48449        49.000  

 16 04 02 12 37  0.5000000  0  2G16G04                                          
  22970012.28149 120708227.86349    -13782.48449        50.000  

  21911357.07849 115144955.44549      2911.25849        49.000  

 16 04 02 12 37  0.6000000  0  2G16G04                                          
  22970274.57849 120709606.24249    -13785.84449        50.000  

  21911301.71149 115144664.50849      2906.99249        49.000  

 16 04 02 12 37  0.7000000  0  2G16G04                                          
  22970536.96949 120710985.10949    -13790.88349        50.000  

  21911246.46149 115144374.16449      2900.95749        49.000  

 16 04 02 12 37  0.8000000  0  2G16G04                                          
  22970799.43049 120712364.33249    -13794.43849        49.000  

  21911191.30549 115144084.29749      2896.14549        49.000  

 16 04 02 12 37  0.9000000  0  2G16G04                                          
  22971061.96149 120713743.96949    -13798.50449        49.000  

  21911136.24249 115143794.92649      2891.10949        49.000  

 16 04 02 12 37  1.0000000  0  2G16G04                                          
  22971324.58649 120715124.05149    -13802.89849        49.000  

  21911081.28149 115143506.11349      2885.76249        49.000  

 16 04 02 12 37  1.1000000  0  2G16G04                                          
  22971587.27349 120716504.49249    -13806.66049        49.000  

  21911026.40649 115143217.76649      2880.80549        49.000  

 16 04 02 12 37  1.2000000  0  2G16G04                                          
  22971850.05549 120717885.37549    -13811.01249        49.000  

  21910971.64149 115142929.94949      2875.65649        49.000  

 16 04 02 12 37  1.3000000  0  2G16G04                                          
  22972112.89849 120719266.60949    -13814.50449        50.000  

  21910916.95349 115142642.59849      2871.03949        49.000  

 16 04 02 12 37  1.4000000  0  2G16G04                                          
  22972375.81249 120720648.24649    -13818.53949        50.000  

  21910862.37549 115142355.75849      2865.86349        49.000  

 16 04 02 12 37  1.5000000  0  2G16G04                                          
  22972638.80549 120722030.27349    -13822.38749        50.000  

  21910807.88349 115142069.41849      2860.93049        49.000  

 16 04 02 12 37  1.6000000  0  2G16G04                                          
  22972901.86749 120723412.70349    -13826.15649        50.000  

  21910753.49249 115141783.56649      2856.24649        49.000  

 16 04 02 12 37  1.7000000  0  2G16G04                                          
  22973165.01649 120724795.53149    -13830.35949        50.000  

  21910699.19549 115141498.23049      2850.89849        49.000  

 16 04 02 12 37  1.8000000  0  2G16G04                                          
  22973428.25049 120726178.83649    -13835.21149        49.000  

  21910645.00849 115141213.47349      2844.97349        49.000  

 16 04 02 12 37  1.9000000  0  2G16G04                                          
  22973691.53949 120727562.44549    -13838.11349        49.000  

  21910590.89149 115140929.11349      2841.09849        49.000  

 16 04 02 12 37  2.0000000  0  2G16G04                                          
  22973954.90649 120728946.44549    -13842.17649        49.000  

  21910536.87549 115140645.26249      2836.07849        49.000  

 16 04 02 12 37  2.1000000  0  2G16G04                                          
  22974218.35949 120730330.87949    -13846.46949        50.000  

  21910482.96949 115140361.94149      2830.65649        49.000  

 16 04 02 12 37  2.2000000  0  2G16G04                                          
  22974481.89149 120731715.78149    -13851.11349        50.000  

  21910429.16449 115140079.19149      2825.05949        49.000  

 16 04 02 12 37  2.3000000  0  2G16G04                                          
  22974745.49249 120733101.03949    -13854.78149        50.000  

  21910375.44549 115139796.90649      2820.32449        49.000  

 16 04 02 12 37  2.4000000  0  2G16G04                                          
  22975009.15649 120734486.63749    -13858.10249        49.000  

  21910321.81249 115139515.06249      2815.95349        49.000  

 16 04 02 12 37  2.5000000  0  2G16G04                                          
  22975272.91449 120735872.66449    -13862.37549        49.000  

  21910268.27349 115139233.75449      2810.58649        49.000  

 16 04 02 12 37  2.6000000  0  2G16G04                                          
  22975536.74249 120737259.10549    -13866.39849        49.000  

  21910214.84449 115138952.96549      2805.52749        49.000  

 16 04 02 12 37  2.7000000  0  2G16G04                                          
  22975800.65649 120738645.96149    -13870.81249        49.000  

  21910161.50849 115138672.69549      2800.18449        49.000  

 16 04 02 12 37  2.8000000  0  2G16G04                                          
  22976064.65649 120740033.26249    -13875.21549        49.000  

  21910108.28149 115138392.98049      2794.65249        49.000  

 16 04 02 12 37  2.9000000  0  2G16G04                                          
  22976328.71149 120741420.90249    -13878.44149        50.000  

  21910055.13349 115138113.71149      2790.20749        49.000  

 16 04 02 12 37  3.0000000  0  2G16G04                                          
  22976592.85249 120742808.94149    -13882.24649        49.000  

  21910002.08649 115137834.92649      2785.52049        49.000  

 16 04 02 12 37  3.1000000  0  2G16G04                                          
  22976857.05549 120744197.34449    -13886.05149        49.000  

  21909949.12549 115137556.61749      2780.64149        49.000  

 16 04 02 12 37  3.2000000  0  2G16G04                                          
  22977121.33649 120745586.10249    -13889.68049        49.000  

  21909896.25849 115137278.78549      2775.92649        49.000  

 16 04 02 12 37  3.3000000  0  2G16G04                                          
  22977385.69549 120746975.34849    -13894.52349        50.000  

  21909843.49249 115137001.51249      2770.29749        49.000  

 16 04 02 12 37  3.4000000  0  2G16G04                                          
  22977650.14149 120748364.98849    -13898.30149        49.000  

  21909790.82849 115136724.77049      2765.05949        49.000  

 16 04 02 12 37  3.5000000  0  2G16G04                                          
  22977914.64849 120749755.00849    -13902.52349        49.000  

  21909738.25849 115136448.48449      2760.12949        49.000  

 16 04 02 12 37  3.6000000  0  2G16G04                                          
  22978179.24249 120751145.45349    -13906.55949        49.000  

  21909685.78949 115136172.75049      2754.97349        49.000  

 16 04 02 12 37  3.7000000  0  2G16G04                                          
  22978443.89849 120752536.24649    -13910.10549        50.000  

  21909633.40649 115135897.46949      2750.29349        49.000  

 16 04 02 12 37  3.8000000  0  2G16G04                                          
  22978708.63349 120753927.42249    -13913.84449        50.000  

  21909581.10949 115135622.66449      2745.56249        49.000  

 16 04 02 12 37  3.9000000  0  2G16G04                                          
  22978973.43849 120755318.99649    -13917.68449        49.000  

  21909528.91449 115135348.36749      2740.60949        49.000  

 16 04 02 12 37  4.0000000  0  2G16G04                                          
  22979238.32849 120756710.97749    -13921.90649        49.000  

  21909476.81249 115135074.58249      2735.37949        49.000  

 16 04 02 12 37  4.1000000  0  2G16G04                                          
  22979503.28949 120758103.37549    -13926.15249        49.000  

  21909424.81249 115134801.30949      2730.26249        49.000  

 16 04 02 12 37  4.2000000  0  2G16G04                                          
  22979768.32849 120759496.15249    -13929.99249        49.000  

  21909372.90649 115134528.52749      2725.31649        49.000  

 16 04 02 12 37  4.3000000  0  2G16G04                                          
  22980033.44549 120760889.33649    -13933.73449        49.000  

  21909321.10249 115134256.27049      2720.23849        49.000  

 16 04 02 12 37  4.4000000  0  2G16G04                                          
  22980298.63349 120762282.96549    -13938.37549        49.000  

  21909269.39149 115133984.54349      2714.69149        49.000  

 16 04 02 12 37  4.5000000  0  2G16G04                                          
  22980563.90649 120763676.94949    -13941.99249        49.000  

  21909217.77349 115133713.28549      2709.93449        49.000  

 16 04 02 12 37  4.6000000  0  2G16G04                                          
  22980829.24249 120765071.31649    -13945.58649        49.000  

  21909166.25049 115133442.50849      2705.47749        49.000  

 16 04 02 12 37  4.7000000  0  2G16G04                                          
  22981094.65649 120766466.08249    -13949.84449        49.000  

  21909114.82049 115133172.25449      2700.05149        49.000  

 16 04 02 12 37  4.8000000  0  2G16G04                                          
  22981360.14849 120767861.26249    -13953.97349        49.000  

  21909063.48449 115132902.49649      2694.97749        49.000  

 16 04 02 12 37  4.9000000  0  2G16G04                                          
  22981625.71949 120769256.82449    -13957.55549        49.000  

  21909012.25049 115132633.23849      2690.23449        49.000  

 16 04 02 12 37  5.0000000  0  2G16G04                                          
  22981891.35249 120770652.74649    -13961.25449        49.000  

  21908961.09449 115132364.43849      2685.62549        49.000  

 16 04 02 12 37  5.1000000  0  2G16G04                                          
  22982157.07049 120772049.10549    -13965.66449        49.000  

  21908910.05549 115132096.18849      2680.05149        49.000  

 16 04 02 12 37  5.2000000  0  2G16G04                                          
  22982422.85949 120773445.84849    -13969.44949        49.000  

  21908859.09449 115131828.42249      2675.19949        49.000  

 16 04 02 12 37  5.3000000  0  2G16G04                                          
  22982688.71949 120774842.91849    -13972.44149        49.000  

  21908808.22749 115131561.08249      2671.18849        49.000  

 16 04 02 12 37  5.4000000  0  2G16G04                                          
  22982954.65649 120776240.45349    -13977.61749        49.000  

  21908757.46149 115131294.32449      2665.05949        49.000  

 16 04 02 12 37  5.5000000  0  2G16G04                                          
  22983220.68849 120777638.46149    -13982.32849        49.000  

  21908706.80549 115131028.14149      2659.23049        49.000  

 16 04 02 12 37  5.6000000  0  2G16G04                                          
  22983486.78149 120779036.79749    -13985.67649        49.000  

  21908656.23449 115130762.38749      2654.88349        49.000  

 16 04 02 12 37  5.7000000  0  2G16G04                                          
  22983752.95349 120780435.54349    -13989.53149        49.000  

  21908605.76649 115130497.14849      2650.00049        49.000  

 16 04 02 12 37  5.8000000  0  2G16G04                                          
  22984019.19549 120781834.66049    -13993.07849        49.000  

  21908555.38349 115130232.38749      2645.37549        49.000  

 16 04 02 12 37  5.9000000  0  2G16G04                                          
  22984285.50849 120783234.14549    -13996.81649        49.000  

  21908505.09449 115129968.10249      2640.53949        49.000  

 16 04 02 12 37  6.0000000  0  2G16G04                                          
  22984551.90649 120784634.06249    -14001.20749        49.000  

  21908454.90649 115129704.35549      2635.05949        49.000  

 16 04 02 12 37  6.1000000  0  2G16G04                                          
  22984818.36749 120786034.32049    -14004.72749        49.000  

  21908404.79749 115129441.05149      2630.57849        49.000  

 16 04 02 12 37  6.2000000  0  2G16G04                                          
  22985084.89849 120787434.95749    -14008.35949        49.000  

  21908354.78949 115129178.23049      2625.87949        49.000  

 16 04 02 12 37  6.3000000  0  2G16G04                                          
  22985351.49249 120788835.94549    -14011.91449        49.000  

  21908304.86749 115128915.86749      2621.28149        49.000  

 16 04 02 12 37  6.4000000  0  2G16G04                                          
  22985618.19549 120790237.47349    -14017.42649        49.000  

  21908255.06249 115128654.15649      2614.61349        49.000  

 16 04 02 12 37  6.5000000  0  2G16G04                                          
  22985884.96149 120791639.34449    -14020.68849        49.000  

  21908205.34449 115128392.89549      2610.25449        49.000  

 16 04 02 12 37  6.6000000  0  2G16G04                                          
  22986151.79749 120793041.59449    -14024.69949        49.000  

  21908155.71949 115128132.09849      2605.37949        49.000  

 16 04 02 12 37  6.7000000  0  2G16G04                                          
  22986418.71149 120794444.22749    -14028.41849        49.000  

  21908106.18849 115127871.80549      2600.44549        49.000  

 16 04 02 12 37  6.8000000  0  2G16G04                                          
  22986685.69549 120795847.23449    -14032.13749        49.000  

  21908056.74249 115127611.99249      2595.64149        49.000  

 16 04 02 12 37  6.9000000  0  2G16G04                                          
  22986952.75849 120797250.65249    -14036.26649        49.000  

  21908007.39849 115127352.68449      2590.72349        49.000  

 16 04 02 12 37  7.0000000  0  2G16G04                                          
  22987219.89849 120798654.46549    -14040.16849        49.000  

  21907958.15649 115127093.89149      2585.59049        49.000  

 16 04 02 12 37  7.1000000  0  2G16G04                                          
  22987487.10249 120800058.64849    -14043.87949        49.000  

  21907909.00049 115126835.57049      2580.75849        49.000  

 16 04 02 12 37  7.2000000  0  2G16G04                                          
  22987754.39149 120801463.22749    -14047.78949        49.000  

  21907859.93849 115126577.75049      2575.77049        49.000  

 16 04 02 12 37  7.3000000  0  2G16G04                                          
  22988021.73449 120802868.14849    -14051.34049        49.000  

  21907810.96149 115126320.37149      2571.24649        49.000  

 16 04 02 12 37  7.4000000  0  2G16G04                                          
  22988289.16449 120804273.52049    -14055.78949        49.000  

  21907762.09449 115126063.56249      2565.64849        49.000  

 16 04 02 12 37  7.5000000  0  2G16G04                                          
  22988556.68049 120805679.33649    -14060.38749        49.000  

  21907713.32049 115125807.28149      2560.30549        49.000  

 16 04 02 12 37  7.6000000  0  2G16G04                                          
  22988824.27349 120807085.52049    -14064.05149        49.000  

  21907664.64849 115125551.50049      2555.25849        49.000  

 16 04 02 12 37  7.7000000  0  2G16G04                                          
  22989091.93049 120808492.08249    -14067.46949        49.000  

  21907616.06249 115125296.19149      2550.73049        49.000  

 16 04 02 12 37  7.8000000  0  2G16G04                                          
  22989359.64849 120809898.95349    -14070.86749        49.000  

  21907567.56249 115125041.30149      2546.41449        49.000  

 16 04 02 12 37  7.9000000  0  2G16G04                                          
  22989627.45349 120811306.26249    -14074.89849        49.000  

  21907519.15649 115124786.93849      2541.41849        49.000  

 16 04 02 12 37  8.0000000  0  2G16G04                                          
  22989895.32849 120812713.95349    -14079.02049        49.000  

  21907470.84449 115124533.08249      2536.09849        49.000  

 16 04 02 12 37  8.1000000  0  2G16G04                                          
  22990163.28149 120814122.06649    -14083.31649        49.000  

  21907422.64149 115124279.74649      2530.78949        49.000  

 16 04 02 12 37  8.2000000  0  2G16G04                                          
  22990431.31249 120815530.59049    -14087.28149        49.000  

  21907374.53149 115124026.93849      2525.60949        49.000  

 16 04 02 12 37  8.3000000  0  2G16G04                                          
  22990699.41449 120816939.49249    -14091.00849        49.000  

  21907326.51649 115123774.59049      2521.00849        49.000  

 16 04 02 12 37  8.4000000  0  2G16G04                                          
  22990967.58649 120818348.74249    -14094.62149        49.000  

  21907278.58649 115123522.71949      2516.14849        49.000  

 16 04 02 12 37  8.5000000  0  2G16G04                                          
  22991235.84449 120819758.41449    -14098.69549        49.000  

  21907230.75049 115123271.35949      2511.25049        49.000  

 16 04 02 12 37  8.6000000  0  2G16G04                                          
  22991504.17249 120821168.49649    -14103.16449        50.000  

  21907183.02349 115123020.53149      2505.65249        49.000  

 16 04 02 12 37  8.7000000  0  2G16G04                                          
  22991772.58649 120822579.01249    -14107.31649        49.000  

  21907135.39149 115122770.22749      2500.53149        49.000  

 16 04 02 12 37  8.8000000  0  2G16G04                                          
  22992041.07849 120823989.94149    -14111.44149        49.000  

  21907087.86749 115122520.46149      2495.12949        49.000  

 16 04 02 12 37  8.9000000  0  2G16G04                                          
  22992309.63349 120825401.20349    -14114.56649        49.000  

  21907040.42249 115122271.12149      2491.01249        49.000  

 16 04 02 12 37  9.0000000  0  2G16G04                                          
  22992578.25849 120826812.83649    -14118.19549        50.000  

  21906993.06249 115122022.26649      2486.27749        49.000  

 16 04 02 12 37  9.1000000  0  2G16G04                                          
  22992846.96949 120828224.91849    -14122.75449        50.000  

  21906945.81249 115121773.94949      2480.77049        49.000  

 16 04 02 12 37  9.2000000  0  2G16G04                                          
  22993115.75849 120829637.41449    -14127.13349        50.000  

  21906898.66449 115121526.17249      2475.17249        49.000  

 16 04 02 12 37  9.3000000  0  2G16G04                                          
  22993384.62549 120831050.32449    -14131.46949        50.000  

  21906851.60949 115121278.91849      2469.78949        49.000  

 16 04 02 12 37  9.4000000  0  2G16G04                                          
  22993653.56249 120832463.60249    -14134.71949        49.000  

  21906804.64849 115121032.11749      2465.64149        49.000  

 16 04 02 12 37  9.5000000  0  2G16G04                                          
  22993922.56249 120833877.21549    -14138.11349        49.000  

  21906757.77349 115120785.77749      2461.01249        49.000  

 16 04 02 12 37  9.6000000  0  2G16G04                                          
  22994191.64849 120835291.25849    -14142.46949        49.000  

  21906710.99249 115120539.96149      2455.73049        49.000  

 16 04 02 12 37  9.7000000  0  2G16G04                                          
  22994460.81249 120836705.75449    -14147.09049        50.000  

  21906664.32049 115120294.70749      2450.03149        49.000  

 16 04 02 12 37  9.8000000  0  2G16G04                                          
  22994730.05549 120838120.58649    -14150.54749        50.000  

  21906617.74249 115120049.89849      2445.51249        49.000  

 16 04 02 12 37  9.9000000  0  2G16G04                                          
  22994999.35949 120839535.79349    -14154.05549        50.000  

  21906571.24249 115119805.56649      2440.85949        49.000  

 16 04 02 12 37 10.0000000  0  2G16G04                                          
  22995268.75849 120840951.48449    -14159.02049        50.000  

  21906524.85949 115119561.82849      2434.90249        49.000  

 16 04 02 12 37 10.1000000  0  2G16G04                                          
  22995538.21949 120842367.49649    -14162.39849        50.000  

  21906478.55549 115119318.51649      2430.63349        49.000  

 16 04 02 12 37 10.2000000  0  2G16G04                                          
  22995807.75049 120843783.90649    -14166.04349        50.000  

  21906432.35949 115119075.72349      2425.66049        49.000  

 16 04 02 12 37 10.3000000  0  2G16G04                                          
  22996077.35949 120845200.71149    -14170.07849        50.000  

  21906386.24249 115118833.41449      2420.71149        49.000  

 16 04 02 12 37 10.4000000  0  2G16G04                                          
  22996347.03949 120846617.87949    -14173.64149        50.000  

  21906340.22749 115118591.57849      2416.02049        49.000  

 16 04 02 12 37 10.5000000  0  2G16G04                                          
  22996616.78149 120848035.39549    -14177.09449        50.000  

  21906294.29749 115118350.19549      2411.57049        49.000  

 16 04 02 12 37 10.6000000  0  2G16G04                                          
  22996886.60949 120849453.32849    -14181.52049        50.000  

  21906248.46149 115118109.34449      2406.13749        49.000  

 16 04 02 12 37 10.7000000  0  2G16G04                                          
  22997156.51649 120850871.71549    -14186.11749        50.000  

  21906202.73449 115117869.04349      2400.39149        49.000  

 16 04 02 12 37 10.8000000  0  2G16G04                                          
  22997426.50049 120852290.50049    -14189.90649        50.000  

  21906157.10249 115117629.26249      2395.23449        49.000  

 16 04 02 12 37 10.9000000  0  2G16G04                                          
  22997696.55549 120853709.63349    -14193.57049        50.000  

  21906111.56249 115117389.91849      2390.82049        49.000  

 16 04 02 12 37 11.0000000  0  2G16G04                                          
  22997966.68849 120855129.18849    -14197.41449        50.000  

  21906066.11749 115117151.10949      2385.80149        49.000  

 16 04 02 12 37 11.1000000  0  2G16G04                                          
  22998236.88349 120856549.07849    -14200.91049        49.000  

  21906020.75849 115116912.75449      2381.12549        49.000  

 16 04 02 12 37 11.2000000  0  2G16G04                                          
  22998507.15649 120857969.39149    -14205.09449        49.000  

  21905975.50049 115116674.91449      2376.02049        49.000  

 16 04 02 12 37 11.3000000  0  2G16G04                                          
  22998777.51649 120859390.10549    -14209.24249        49.000  

  21905930.34449 115116437.59049      2370.77749        49.000  

 16 04 02 12 37 11.4000000  0  2G16G04                                          
  22999047.94549 120860811.26249    -14213.56249        49.000  

  21905885.28949 115116200.80949      2365.27749        49.000  

 16 04 02 12 37 11.5000000  0  2G16G04                                          
  22999318.45349 120862232.76649    -14217.54349        49.000  

  21905840.31249 115115964.48849      2360.35949        49.000  

 16 04 02 12 37 11.6000000  0  2G16G04                                          
  22999589.03149 120863654.70349    -14221.42249        50.000  

  21905795.44549 115115728.70349      2355.28949        49.000  

 16 04 02 12 37 11.7000000  0  2G16G04                                          
  22999859.69549 120865077.04349    -14225.51249        50.000  

  21905750.67249 115115493.43049      2350.23849        49.000  

 16 04 02 12 37 11.8000000  0  2G16G04                                          
  23000130.43049 120866499.75849    -14229.32449        50.000  

  21905705.99249 115115258.62949      2345.48849        49.000  

 16 04 02 12 37 11.9000000  0  2G16G04                                          
  23000401.24249 120867922.88349    -14233.23849        50.000  

  21905661.40649 115115024.36749      2340.34449        49.000  

 16 04 02 12 37 12.0000000  0  2G16G04                                          
  23000672.12549 120869346.38349    -14237.11349        50.000  

  21905616.92249 115114790.56649      2335.52749        49.000  

 16 04 02 12 37 12.1000000  0  2G16G04                                          
  23000943.07849 120870770.27749    -14240.88349        50.000  

  21905572.52349 115114557.27749      2330.55949        49.000  

 16 04 02 12 37 12.2000000  0  2G16G04                                          
  23001214.11749 120872194.55549    -14244.84049        50.000  

  21905528.22749 115114324.48049      2325.51249        49.000  

 16 04 02 12 37 12.3000000  0  2G16G04                                          
  23001485.21949 120873619.21549    -14248.69949        50.000  

  21905484.01649 115114092.16449      2320.62149        49.000  

 16 04 02 12 37 12.4000000  0  2G16G04                                          
  23001756.39849 120875044.23049    -14252.23449        50.000  

  21905439.89849 115113860.32449      2315.98449        49.000  

 16 04 02 12 37 12.5000000  0  2G16G04                                          
  23002027.65649 120876469.70349    -14256.64849        50.000  

  21905395.89149 115113629.03949      2310.46949        49.000  

 16 04 02 12 37 12.6000000  0  2G16G04                                          
  23002298.97749 120877895.53149    -14260.37549        50.000  

  21905351.96149 115113398.22349      2305.60249        49.000  

 16 04 02 12 37 12.7000000  0  2G16G04                                          
  23002570.36749 120879321.70349    -14263.85949        50.000  

  21905308.12549 115113167.85249      2301.09449        49.000  

 16 04 02 12 37 12.8000000  0  2G16G04                                          
  23002841.85249 120880748.32849    -14268.35949        50.000  

  21905264.39149 115112938.03549      2295.65649        49.000  

 16 04 02 12 37 12.9000000  0  2G16G04                                          
  23003113.40649 120882175.37549    -14272.58249        50.000  

  21905220.75849 115112708.75449      2290.34849        49.000  

 16 04 02 12 37 13.0000000  0  2G16G04                                          
  23003385.02349 120883602.69949    -14275.20349        50.000  

  21905177.20349 115112479.85949      2286.49649        49.000  

 16 04 02 12 37 13.1000000  0  2G16G04                                          
  23003656.71149 120885030.44549    -14279.52049        50.000  

  21905133.75049 115112251.49649      2281.25049        49.000  

 16 04 02 12 37 13.2000000  0  2G16G04                                          
  23003928.46949 120886458.55949    -14283.05549        50.000  

  21905090.38349 115112023.61349      2276.53149        49.000  

 16 04 02 12 37 13.3000000  0  2G16G04                                          
  23004200.31249 120887887.09049    -14287.25449        50.000  

  21905047.11749 115111796.23849      2271.38749        49.000  

 16 04 02 12 37 13.4000000  0  2G16G04                                          
  23004472.21949 120889315.98849    -14290.90249        50.000  

  21905003.93849 115111569.34849      2266.63749        49.000  

 16 04 02 12 37 13.5000000  0  2G16G04                                          
  23004744.19549 120890745.26249    -14294.86349        50.000  

  21904960.85949 115111342.94549      2261.54349        49.000  

 16 04 02 12 37 13.6000000  0  2G16G04                                          
  23005016.26649 120892174.96149    -14299.18449        50.000  

  21904917.87549 115111117.05949      2256.32049        49.000  

 16 04 02 12 37 13.7000000  0  2G16G04                                          
  23005288.40649 120893605.09049    -14303.33649        50.000  

  21904874.99249 115110891.73049      2250.89149        49.000  

 16 04 02 12 37 13.8000000  0  2G16G04                                          
  23005560.61749 120895035.56249    -14306.72349        50.000  

  21904832.19549 115110666.84849      2246.30949        49.000  

 16 04 02 12 37 13.9000000  0  2G16G04                                          
  23005832.90649 120896466.43449    -14310.78149        50.000  

  21904789.49249 115110442.46549      2241.37949        49.000  

 16 04 02 12 37 14.0000000  0  2G16G04                                          
  23006105.27349 120897897.71949    -14314.88349        49.000  

  21904746.89149 115110218.59449      2236.35249        49.000  

 16 04 02 12 37 14.1000000  0  2G16G04                                          
  23006377.70349 120899329.35949    -14318.52749        49.000  

  21904704.37549 115109995.19949      2231.55549        49.000  

 16 04 02 12 37 14.2000000  0  2G16G04                                          
  23006650.21949 120900761.43049    -14322.81649        49.000  

  21904661.96949 115109772.35249      2226.09449        49.000  

 16 04 02 12 37 14.3000000  0  2G16G04                                          
  23006922.80549 120902193.87549    -14326.57849        50.000  

  21904619.65649 115109549.98049      2221.14149        49.000  

 16 04 02 12 37 14.4000000  0  2G16G04                                          
  23007195.46149 120903626.68049    -14329.86749        50.000  

  21904577.43049 115109328.07049      2216.73049        49.000  

 16 04 02 12 37 14.5000000  0  2G16G04                                          
  23007468.18849 120905059.84849    -14333.86749        50.000  

  21904535.28949 115109106.63349      2211.82449        49.000  

 16 04 02 12 37 14.6000000  0  2G16G04                                          
  23007740.99249 120906493.43849    -14337.62949        50.000  

  21904493.25049 115108885.72349      2206.90249        49.000  

 16 04 02 12 37 14.7000000  0  2G16G04                                          
  23008013.85249 120907927.34449    -14341.35949        50.000  

  21904451.29749 115108665.24249      2202.25449        49.000  

 16 04 02 12 37 14.8000000  0  2G16G04                                          
  23008286.80549 120909361.70349    -14345.51649        50.000  

  21904409.45349 115108445.32449      2196.82449        49.000  

 16 04 02 12 37 14.9000000  0  2G16G04                                          
  23008559.83649 120910796.47749    -14349.99249        50.000  

  21904367.69549 115108225.91449      2191.59049        49.000  

 16 04 02 12 37 15.0000000  0  2G16G04                                          
  23008832.92249 120912231.57049    -14352.99249        50.000  

  21904326.03149 115108006.96949      2186.94549        49.000  

 16 04 02 12 37 15.1000000  0  2G16G04                                          
  23009106.09449 120913667.10549    -14357.13349        50.000  

  21904284.46149 115107788.52049      2182.21149        49.000  

 16 04 02 12 37 15.2000000  0  2G16G04                                          
  23009379.33649 120915103.02049    -14361.29349        50.000  

  21904242.99249 115107570.58649      2176.93449        49.000  

 16 04 02 12 37 15.3000000  0  2G16G04                                          
  23009652.66449 120916539.35549    -14365.47349        50.000  

  21904201.61749 115107353.18849      2171.36349        49.000  

 16 04 02 12 37 15.4000000  0  2G16G04                                          
  23009926.05549 120917976.03149    -14368.76649        50.000  

  21904160.33649 115107136.23849      2167.07049        49.000  

 16 04 02 12 37 15.5000000  0  2G16G04                                          
  23010199.51649 120919413.08249    -14372.47349        50.000  

  21904119.13349 115106919.75449      2162.38349        49.000  

 16 04 02 12 37 15.6000000  0  2G16G04                                          
  23010473.04749 120920850.49649    -14376.09449        50.000  

  21904078.03149 115106703.75049      2157.73049        49.000  

 16 04 02 12 37 15.7000000  0  2G16G04                                          
  23010746.66449 120922288.34849    -14380.47749        49.000  

  21904037.03149 115106488.30149      2152.16049        49.000  

 16 04 02 12 37 15.8000000  0  2G16G04                                          
  23011020.35249 120923726.55549    -14384.32449        50.000  

  21903996.12549 115106273.30949      2147.38749        49.000  

 16 04 02 12 37 15.9000000  0  2G16G04                                          
  23011294.12549 120925165.25049    -14389.21549        49.000  

  21903955.32049 115106058.90649      2141.47349        49.000  

 16 04 02 12 37 16.0000000  0  2G16G04                                          
  23011567.96949 120926604.32849    -14392.78149        49.000  

  21903914.61749 115105845.00849      2136.60949        49.000  

 16 04 02 12 37 16.1000000  0  2G16G04                                          
  23011841.89149 120928043.80149    -14397.02749        49.000  

  21903874.00049 115105631.59049      2131.50449        49.000  

 16 04 02 12 37 16.2000000  0  2G16G04                                          
  23012115.89149 120929483.66849    -14400.68449        49.000  

  21903833.49249 115105418.70349      2126.45349        49.000  

 16 04 02 12 37 16.3000000  0  2G16G04                                          
  23012389.95349 120930923.88749    -14404.20749        49.000  

  21903793.06249 115105206.25849      2121.99649        49.000  

 16 04 02 12 37 16.4000000  0  2G16G04                                          
  23012664.10249 120932364.52749    -14408.39149        49.000  

  21903752.74249 115104994.35549      2116.69549        49.000  

 16 04 02 12 37 16.5000000  0  2G16G04                                          
  23012938.32049 120933805.57049    -14412.39549        49.000  

  21903712.51649 115104782.95349      2111.65249        49.000  

 16 04 02 12 37 16.6000000  0  2G16G04                                          
  23013212.60249 120935246.94549    -14415.79349        49.000  

  21903672.36749 115104571.99649      2107.19949        49.000  

 16 04 02 12 37 16.7000000  0  2G16G04                                          
  23013486.96949 120936688.77049    -14420.33649        49.000  

  21903632.33649 115104361.59449      2101.60949        49.000  

 16 04 02 12 37 16.8000000  0  2G16G04                                          
  23013761.41449 120938131.00049    -14424.53549        49.000  

  21903592.39149 115104151.71549      2096.21149        49.000  

 16 04 02 12 37 16.9000000  0  2G16G04                                          
  23014035.94549 120939573.64849    -14428.44549        49.000  

  21903552.54749 115103942.35249      2091.25849        49.000  

 16 04 02 12 37 17.0000000  0  2G16G04                                          
  23014310.52349 120941016.55149    -14431.07449        49.000  

  21903512.78149 115103733.36349      2087.48849        49.000  

 16 04 02 12 37 17.1000000  0  2G16G04                                          
  23014585.18849 120942459.92249    -14435.55549        49.000  

  21903473.11749 115103524.93049      2082.05949        49.000  

 16 04 02 12 37 17.2000000  0  2G16G04                                          
  23014859.92249 120943903.65249    -14439.40249        49.000  

  21903433.54749 115103316.98849      2077.01649        49.000  

 16 04 02 12 37 17.3000000  0  2G16G04                                          
  23015134.73449 120945347.79349    -14443.44149        49.000  

  21903394.07049 115103109.54349      2072.03549        49.000  

 16 04 02 12 37 17.4000000  0  2G16G04                                          
  23015409.60949 120946792.28549    -14446.91849        49.000  

  21903354.68849 115102902.58249      2067.16849        49.000  

 16 04 02 12 37 17.5000000  0  2G16G04                                          
  23015684.57049 120948237.21149    -14451.33249        49.000  

  21903315.39849 115102696.14149      2061.95749        49.000  

 16 04 02 12 37 17.6000000  0  2G16G04                                          
  23015959.59449 120949682.48049    -14454.84849        49.000  

  21903276.20349 115102490.15649      2057.32849        49.000  

 16 04 02 12 37 17.7000000  0  2G16G04                                          
  23016234.70349 120951128.19149    -14459.07449        49.000  

  21903237.10949 115102284.75449      2051.74649        49.000  

 16 04 02 12 37 17.8000000  0  2G16G04                                          
  23016509.88349 120952574.25849    -14462.63349        49.000  

  21903198.10949 115102079.79349      2047.12949        49.000  

 16 04 02 12 37 17.9000000  0  2G16G04                                          
  23016785.14149 120954020.72349    -14466.61349        49.000  

  21903159.19549 115101875.32449      2042.25449        49.000  

 16 04 02 12 37 18.0000000  0  2G16G04                                          
  23017060.45349 120955467.55949    -14470.46549        49.000  

  21903120.38349 115101671.35949      2037.18849        49.000  

 16 04 02 12 37 18.1000000  0  2G16G04                                          
  23017335.85949 120956914.80149    -14474.37549        49.000  

  21903081.66449 115101467.88349      2032.43049        49.000  

 16 04 02 12 37 18.2000000  0  2G16G04                                          
  23017611.32849 120958362.42249    -14478.41449        49.000  

  21903043.03949 115101264.91449      2027.19949        49.000  

 16 04 02 12 37 18.3000000  0  2G16G04                                          
  23017886.87549 120959810.44149    -14482.17249        49.000  

  21903004.51649 115101062.45349      2022.20749        49.000  

 16 04 02 12 37 18.4000000  0  2G16G04                                          
  23018162.50049 120961258.83649    -14485.98849        49.000  

  21902966.07849 115100860.48049      2017.27349        49.000  

 16 04 02 12 37 18.5000000  0  2G16G04                                          
  23018438.20349 120962707.65649    -14490.27049        49.000  

  21902927.74249 115100659.03549      2011.92249        49.000  

 16 04 02 12 37 18.6000000  0  2G16G04                                          
  23018713.97749 120964156.85949    -14494.21149        49.000  

  21902889.50049 115100458.07849      2007.00849        49.000  

 16 04 02 12 37 18.7000000  0  2G16G04                                          
  23018989.82049 120965606.43049    -14497.65249        49.000  

  21902851.35249 115100257.59449      2002.52049        49.000  

 16 04 02 12 37 18.8000000  0  2G16G04                                          
  23019265.73449 120967056.33249    -14500.82049        49.000  

  21902813.28149 115100057.56249      1998.09049        49.000  

 16 04 02 12 37 18.9000000  0  2G16G04                                          
  23019541.71949 120968506.66849    -14505.16449        49.000  

  21902775.32049 115099858.05949      1992.75049        49.000  

 16 04 02 12 37 19.0000000  0  2G16G04                                          
  23019817.77349 120969957.34849    -14508.84449        50.000  

  21902737.44549 115099659.02049      1987.95349        49.000  

 16 04 02 12 37 19.1000000  0  2G16G04                                          
  23020093.91449 120971408.45349    -14513.11749        50.000  

  21902699.67249 115099460.51649      1982.64549        49.000  

 16 04 02 12 37 19.2000000  0  2G16G04                                          
  23020370.11749 120972859.92249    -14516.69949        50.000  

  21902661.98449 115099262.48049      1977.94149        49.000  

 16 04 02 12 37 19.3000000  0  2G16G04                                          
  23020646.39849 120974311.78149    -14520.74249        50.000  

  21902624.39849 115099064.94949      1972.84849        49.000  

 16 04 02 12 37 19.4000000  0  2G16G04                                          
  23020922.75849 120975764.04349    -14524.67649        50.000  

  21902586.90649 115098867.92649      1967.78949        49.000  

 16 04 02 12 37 19.5000000  0  2G16G04                                          
  23021199.18049 120977216.67649    -14528.32049        50.000  

  21902549.50049 115098671.38749      1963.02749        49.000  

 16 04 02 12 37 19.6000000  0  2G16G04                                          
  23021475.68049 120978669.67649    -14532.08649        50.000  

  21902512.19549 115098475.32049      1958.17649        49.000  

 16 04 02 12 37 19.7000000  0  2G16G04                                          
  23021752.25049 120980123.08249    -14536.16449        50.000  

  21902474.98449 115098279.77049      1953.06249        49.000  

 16 04 02 12 37 19.8000000  0  2G16G04                                          
  23022028.90649 120981576.89149    -14540.16849        50.000  

  21902437.86749 115098084.73849      1947.86349        49.000  

 16 04 02 12 37 19.9000000  0  2G16G04                                          
  23022305.64149 120983031.14549    -14544.55149        50.000  

  21902400.85949 115097890.24649      1942.37549        49.000  

 16 04 02 12 37 20.0000000  0  2G16G04                                          
  23022582.43049 120984485.68049    -14547.29749        50.000  

  21902363.92249 115097696.15249      1938.59849        49.000  

 16 04 02 12 37 20.1000000  0  2G16G04                                          
  23022859.29749 120985940.61349    -14551.48449        50.000  

  21902327.08649 115097502.56649      1933.41049        49.000  

 16 04 02 12 37 20.2000000  0  2G16G04                                          
  23023136.24249 120987395.99249    -14555.84849        50.000  

  21902290.35949 115097309.54349      1927.88749        49.000  

 16 04 02 12 37 20.3000000  0  2G16G04                                          
  23023413.26649 120988851.73449    -14559.55149        50.000  

  21902253.71149 115097116.98449      1923.03149        49.000  

 16 04 02 12 37 20.4000000  0  2G16G04                                          
  23023690.34449 120990307.82449    -14562.84449        50.000  

  21902217.15649 115096924.88349      1918.70749        49.000  

 16 04 02 12 37 20.5000000  0  2G16G04                                          
  23023967.50849 120991764.31249    -14566.89549        50.000  

  21902180.69549 115096733.29349      1913.44549        49.000  

 16 04 02 12 37 20.6000000  0  2G16G04                                          
  23024244.74249 120993221.19549    -14570.78149        50.000  

  21902144.32849 115096542.20749      1908.50849        49.000  

 16 04 02 12 37 20.7000000  0  2G16G04                                          
  23024522.06249 120994678.49649    -14574.95749        50.000  

  21902108.07049 115096351.64549      1903.22349        49.000  

 16 04 02 12 37 20.8000000  0  2G16G04                                          
  23024799.44549 120996136.13749    -14578.42649        50.000  

  21902071.89149 115096161.53949      1898.59049        49.000  

 16 04 02 12 37 20.9000000  0  2G16G04                                          
  23025076.89849 120997594.18449    -14582.44149        50.000  

  21902035.81249 115095971.95349      1893.50849        49.000  

 16 04 02 12 37 21.0000000  0  2G16G04                                          
  23025354.43049 120999052.60949    -14586.27049        50.000  

  21901999.82849 115095782.83249      1888.68849        49.000  

 16 04 02 12 37 21.1000000  0  2G16G04                                          
  23025632.03149 121000511.43849    -14590.28549        50.000  

  21901963.93849 115095594.23849      1883.48849        49.000  

 16 04 02 12 37 21.2000000  0  2G16G04                                          
  23025909.70349 121001970.62149    -14593.96949        50.000  

  21901928.14149 115095406.10949      1878.82049        49.000  

 16 04 02 12 37 21.3000000  0  2G16G04                                          
  23026187.44549 121003430.16449    -14597.35549        50.000  

  21901892.43049 115095218.45349      1874.30149        49.000  

 16 04 02 12 37 21.4000000  0  2G16G04                                          
  23026465.26649 121004890.09449    -14601.36349        50.000  

  21901856.81249 115095031.28549      1869.29749        49.000  

 16 04 02 12 37 21.5000000  0  2G16G04                                          
  23026743.14849 121006350.41049    -14605.04349        50.000  

  21901821.28949 115094844.62549      1864.33649        49.000  

 16 04 02 12 37 21.6000000  0  2G16G04                                          
  23027021.10949 121007811.07849    -14608.89149        50.000  

  21901785.85949 115094658.41849      1859.58249        49.000  

 16 04 02 12 37 21.7000000  0  2G16G04                                          
  23027299.14849 121009272.19149    -14612.98049        50.000  

  21901750.53149 115094472.77049      1854.20349        49.000  

 16 04 02 12 37 21.8000000  0  2G16G04                                          
  23027577.25049 121010733.60949    -14616.21949        50.000  

  21901715.28149 115094287.54349      1849.81249        49.000  

 16 04 02 12 37 21.9000000  0  2G16G04                                          
  23027855.43849 121012195.50449    -14621.04749        50.000  

  21901680.14149 115094102.89149      1844.00049        49.000  

 16 04 02 12 37 22.0000000  0  2G16G04                                          
  23028133.69549 121013657.77049    -14624.78149        50.000  

  21901645.10249 115093918.72349      1839.14149        49.000  

 16 04 02 12 37 22.1000000  0  2G16G04                                          
  23028412.03149 121015120.41849    -14628.58249        50.000  

  21901610.14149 115093735.04349      1834.32449        49.000  

 16 04 02 12 37 22.2000000  0  2G16G04                                          
  23028690.43049 121016583.43449    -14632.09449        50.000  

  21901575.28149 115093551.85549      1829.58249        49.000  

 16 04 02 12 37 22.3000000  0  2G16G04                                          
  23028968.89849 121018046.78149    -14635.35549        49.000  

  21901540.50049 115093369.09849      1825.24649        49.000  

 16 04 02 12 37 22.4000000  0  2G16G04                                          
  23029247.43849 121019510.52749    -14639.67649        50.000  

  21901505.82049 115093186.85949      1819.94149        49.000  

 16 04 02 12 37 22.5000000  0  2G16G04                                          
  23029526.07849 121020974.76649    -14644.28549        50.000  

  21901471.25049 115093005.20749      1814.14549        49.000  

 16 04 02 12 37 22.6000000  0  2G16G04                                          
  23029804.77349 121022439.32849    -14647.78549        50.000  

  21901436.76649 115092824.00849      1809.43849        49.000  

 16 04 02 12 37 22.7000000  0  2G16G04                                          
  23030083.54749 121023904.31249    -14651.88749        50.000  

  21901402.38349 115092643.32049      1804.45349        49.000  

 16 04 02 12 37 22.8000000  0  2G16G04                                          
  23030362.39849 121025369.68449    -14655.65249        50.000  

  21901368.10249 115092463.13749      1799.43049        49.000  

 16 04 02 12 37 22.9000000  0  2G16G04                                          
  23030641.31249 121026835.39849    -14659.23849        50.000  

  21901333.89849 115092283.41449      1794.74249        49.000  

 16 04 02 12 37 23.0000000  0  2G16G04                                          
  23030920.30549 121028301.49249    -14662.92249        50.000  

  21901299.78949 115092104.17249      1790.07849        49.000  

 16 04 02 12 37 23.1000000  0  2G16G04                                          
  23031199.37549 121029767.99249    -14667.00849        50.000  

  21901265.78149 115091925.46149      1784.75049        49.000  

 16 04 02 12 37 23.2000000  0  2G16G04                                          
  23031478.50049 121031234.83249    -14670.55949        50.000  

  21901231.85949 115091747.19149      1780.27349        49.000  

 16 04 02 12 37 23.3000000  0  2G16G04                                          
  23031757.71949 121032702.12549    -14674.82049        50.000  

  21901198.04749 115091569.48449      1774.74249        49.000  

 16 04 02 12 37 23.4000000  0  2G16G04                                          
  23032037.00049 121034169.74249    -14678.37549        50.000  

  21901164.31249 115091392.21149      1770.14849        49.000  

 16 04 02 12 37 23.5000000  0  2G16G04                                          
  23032316.35249 121035637.73449    -14681.81249        50.000  

  21901130.66449 115091215.42649      1765.56249        49.000  

 16 04 02 12 37 23.6000000  0  2G16G04                                          
  23032595.76649 121037106.09049    -14685.53549        50.000  

  21901097.11749 115091039.11349      1760.74649        49.000  

 16 04 02 12 37 23.7000000  0  2G16G04                                          
  23032875.26649 121038574.88349    -14689.95749        50.000  

  21901063.66449 115090863.34449      1755.26249        49.000  

 16 04 02 12 37 23.8000000  0  2G16G04                                          
  23033154.84449 121040044.07049    -14694.04749        49.000  

  21901030.32049 115090688.09849      1749.86749        49.000  

 16 04 02 12 37 23.9000000  0  2G16G04                                          
  23033434.48449 121041513.59849    -14697.26649        50.000  

  21900997.05549 115090513.27749      1745.78149        49.000  

 16 04 02 12 37 24.0000000  0  2G16G04                                          
  23033714.19549 121042983.50849    -14701.08249        50.000  

  21900963.88349 115090338.96149      1740.82049        49.000  

 16 04 02 12 37 24.1000000  0  2G16G04                                          
  23033993.99249 121044453.83249    -14705.48049        49.000  

  21900930.80549 115090165.17649      1735.34449        49.000  

 16 04 02 12 37 24.2000000  0  2G16G04                                          
  23034273.85949 121045924.56649    -14709.50849        49.000  

  21900897.83649 115089991.91049      1730.13749        49.000  

 16 04 02 12 37 24.3000000  0  2G16G04                                          
  23034553.81249 121047395.71549    -14713.71149        50.000  

  21900864.96949 115089819.16449      1724.83649        49.000  

 16 04 02 12 37 24.4000000  0  2G16G04                                          
  23034833.82849 121048867.20749    -14716.95749        49.000  

  21900832.18049 115089646.88349      1720.28149        49.000  

 16 04 02 12 37 24.5000000  0  2G16G04                                          
  23035113.90649 121050339.01649    -14719.77049        50.000  

  21900799.46949 115089475.00849      1716.52049        49.000  

 16 04 02 12 37 24.6000000  0  2G16G04                                          
  23035394.04749 121051811.16849    -14723.61349        50.000  

  21900766.85249 115089303.60249      1711.70749        49.000  

 16 04 02 12 37 24.7000000  0  2G16G04                                          
  23035674.28149 121053283.80949    -14728.44149        50.000  

  21900734.35249 115089132.79349      1705.60549        49.000  

 16 04 02 12 37 24.8000000  0  2G16G04                                          
  23035954.58649 121054756.81249    -14732.22749        50.000  

  21900701.93049 115088962.45349      1700.82849        49.000  

 16 04 02 12 37 24.9000000  0  2G16G04                                          
  23036234.96949 121056230.24249    -14736.39849        50.000  

  21900669.61749 115088792.65249      1695.48449        49.000  

 16 04 02 12 37 25.0000000  0  2G16G04                                          
  23036515.41449 121057704.01249    -14739.72349        50.000  

  21900637.39149 115088623.31249      1690.99249        49.000  

 16 04 02 12 37 25.1000000  0  2G16G04                                          
  23036795.93849 121059178.16449    -14743.51649        50.000  

  21900605.25849 115088454.44949      1686.23049        49.000  

 16 04 02 12 37 25.2000000  0  2G16G04                                          
  23037076.52349 121060652.67649    -14746.98849        50.000  

  21900573.21949 115088286.07049      1681.58649        49.000  

 16 04 02 12 37 25.3000000  0  2G16G04                                          
  23037357.20349 121062127.63349    -14751.71149        50.000  

  21900541.28149 115088118.24249      1675.80949        49.000  

 16 04 02 12 37 25.4000000  0  2G16G04                                          
  23037637.96149 121063603.00849    -14755.77049        49.000  

  21900509.44549 115087950.93849      1670.53149        49.000  

 16 04 02 12 37 25.5000000  0  2G16G04                                          
  23037918.77349 121065078.69549    -14758.91849        49.000  

  21900477.69549 115087784.06649      1666.30949        49.000  

 16 04 02 12 37 25.6000000  0  2G16G04                                          
  23038199.65649 121066554.73049    -14762.46949        49.000  

  21900446.02349 115087617.64849      1661.69949        49.000  

 16 04 02 12 37 25.7000000  0  2G16G04                                          
  23038480.61749 121068031.22349    -14766.73849        50.000  

  21900414.46949 115087451.79749      1656.27349        49.000  

 16 04 02 12 37 25.8000000  0  2G16G04                                          
  23038761.66449 121069508.08649    -14770.80549        50.000  

  21900383.00049 115087286.43849      1651.07049        49.000  

 16 04 02 12 37 25.9000000  0  2G16G04                                          
  23039042.78149 121070985.35249    -14774.80149        50.000  

  21900351.63349 115087121.58649      1645.97349        49.000  

 16 04 02 12 37 26.0000000  0  2G16G04                                          
  23039323.95349 121072462.95749    -14778.03549        50.000  

  21900320.34449 115086957.18849      1641.59849        49.000  

 16 04 02 12 37 26.1000000  0  2G16G04                                          
  23039605.21149 121073940.96149    -14782.16849        50.000  

  21900289.16449 115086793.29349      1636.48049        49.000  

 16 04 02 12 37 26.2000000  0  2G16G04                                          
  23039886.53949 121075419.31649    -14785.52049        50.000  

  21900258.06249 115086629.86349      1632.06649        49.000  

 16 04 02 12 37 26.3000000  0  2G16G04                                          
  23040167.93849 121076898.07849    -14789.48849        50.000  

  21900227.06249 115086466.94949      1626.75449        49.000  

 16 04 02 12 37 26.4000000  0  2G16G04                                          
  23040449.39849 121078377.16849    -14792.91849        50.000  

  21900196.14149 115086304.47349      1622.29749        49.000  

 16 04 02 12 37 26.5000000  0  2G16G04                                          
  23040730.93849 121079856.66049    -14796.96949        50.000  

  21900165.32049 115086142.52749      1617.09049        49.000  

 16 04 02 12 37 26.6000000  0  2G16G04                                          
  23041012.56249 121081336.60549    -14801.35549        50.000  

  21900134.60949 115085981.12949      1611.55949        49.000  

 16 04 02 12 37 26.7000000  0  2G16G04                                          
  23041294.25049 121082816.87549    -14804.78949        50.000  

  21900103.98449 115085820.17249      1607.03949        49.000  

 16 04 02 12 37 26.8000000  0  2G16G04                                          
  23041576.00849 121084297.52349    -14808.44149        50.000  

  21900073.44549 115085659.69149      1602.40649        49.000  

 16 04 02 12 37 26.9000000  0  2G16G04                                          
  23041857.82849 121085778.51249    -14811.76249        50.000  

  21900043.00049 115085499.68849      1597.86349        49.000  

 16 04 02 12 37 27.0000000  0  2G16G04                                          
  23042139.73449 121087259.93849    -14816.30949        50.000  

  21900012.64849 115085340.21549      1592.30549        49.000  

 16 04 02 12 37 27.1000000  0  2G16G04                                          
  23042421.71149 121088741.74649    -14820.25049        50.000  

  21899982.39849 115085181.24249      1587.24649        49.000  

 16 04 02 12 37 27.2000000  0  2G16G04                                          
  23042703.76649 121090223.94149    -14823.90249        50.000  

  21899952.24249 115085022.76649      1582.31249        49.000  

 16 04 02 12 37 27.3000000  0  2G16G04                                          
  23042985.89149 121091706.51649    -14827.91049        50.000  

  21899922.18049 115084864.78149      1577.37549        49.000  

 16 04 02 12 37 27.4000000  0  2G16G04                                          
  23043268.09449 121093189.48849    -14831.84449        50.000  

  21899892.21149 115084707.30949      1572.21949        49.000  

 16 04 02 12 37 27.5000000  0  2G16G04                                          
  23043550.36749 121094672.82449    -14835.23049        50.000  

  21899862.33649 115084550.30149      1567.75049        49.000  

 16 04 02 12 37 27.6000000  0  2G16G04                                          
  23043832.69549 121096156.48449    -14838.58249        50.000  

  21899832.54749 115084393.75049      1563.18449        49.000  

 16 04 02 12 37 27.7000000  0  2G16G04                                          
  23044115.10949 121097640.58649    -14842.75849        50.000  

  21899802.85949 115084237.73849      1557.85249        49.000  

 16 04 02 12 37 27.8000000  0  2G16G04                                          
  23044397.57049 121099124.95349    -14845.60949        49.000  

  21899773.24249 115084082.10249      1554.02749        49.000  

 16 04 02 12 37 27.9000000  0  2G16G04                                          
  23044680.12549 121100609.77349    -14850.24649        49.000  

  21899743.74249 115083927.03549      1548.23849        49.000  

 16 04 02 12 37 28.0000000  0  2G16G04                                          
  23044962.75849 121102095.02049    -14854.35249        49.000  

  21899714.33649 115083772.50449      1543.00849        49.000  

 16 04 02 12 37 28.1000000  0  2G16G04                                          
  23045245.44549 121103580.55949    -14857.54749        49.000  

  21899685.00049 115083618.38349      1538.65649        49.000  

 16 04 02 12 37 28.2000000  0  2G16G04                                          
  23045528.21949 121105066.52049    -14861.58649        50.000  

  21899655.77349 115083464.78549      1533.62949        49.000  

 16 04 02 12 37 28.3000000  0  2G16G04                                          
  23045811.06249 121106552.89149    -14865.71149        49.000  

  21899626.64849 115083311.71149      1528.35949        49.000  

 16 04 02 12 37 28.4000000  0  2G16G04                                          
  23046093.97749 121108039.60949    -14869.24249        49.000  

  21899597.60949 115083159.10549      1523.63349        49.000  

 16 04 02 12 37 28.5000000  0  2G16G04                                          
  23046376.96149 121109526.68449    -14872.63349        49.000  

  21899568.65649 115083006.96149      1519.09849        49.000  

 16 04 02 12 37 28.6000000  0  2G16G04                                          
  23046660.02349 121111014.18049    -14877.02049        49.000  

  21899539.80549 115082855.35549      1513.58249        49.000  

 16 04 02 12 37 28.7000000  0  2G16G04                                          
  23046943.14849 121112502.05149    -14880.71149        49.000  

  21899511.04749 115082704.22749      1508.79749        49.000  

 16 04 02 12 37 28.8000000  0  2G16G04                                          
  23047226.36749 121113990.32449    -14884.89849        49.000  

  21899482.39149 115082553.62149      1503.50049        49.000  

 16 04 02 12 37 28.9000000  0  2G16G04                                          
  23047509.64149 121115478.96149    -14888.53549        49.000  

  21899453.82049 115082403.49249      1498.71949        49.000  

 16 04 02 12 37 29.0000000  0  2G16G04                                          
  23047792.99249 121116967.99249    -14892.42249        49.000  

  21899425.34449 115082253.86349      1493.79349        49.000  

 16 04 02 12 37 29.1000000  0  2G16G04                                          
  23048076.43049 121118457.44949    -14896.53549        49.000  

  21899396.97749 115082104.77049      1488.52349        49.000  

 16 04 02 12 37 29.2000000  0  2G16G04                                          
  23048359.92249 121119947.23449    -14899.88749        49.000  

  21899368.68849 115081956.12949      1483.97349        49.000  

 16 04 02 12 37 29.3000000  0  2G16G04                                          
  23048643.50049 121121437.43049    -14904.03949        50.000  

  21899340.50049 115081807.99649      1478.87949        49.000  

 16 04 02 12 37 29.4000000  0  2G16G04                                          
  23048927.14849 121122927.99249    -14907.45349        50.000  

  21899312.39849 115081660.34849      1474.26249        49.000  

 16 04 02 12 37 29.5000000  0  2G16G04                                          
  23049210.85949 121124418.92649    -14911.44949        50.000  

  21899284.39849 115081513.19149      1469.14849        49.000  

 16 04 02 12 37 29.6000000  0  2G16G04                                          
  23049494.65649 121125910.28549    -14915.41049        50.000  

  21899256.50049 115081366.56649      1463.94549        49.000  

 16 04 02 12 37 29.7000000  0  2G16G04                                          
  23049778.52349 121127402.00849    -14919.32049        50.000  

  21899228.68849 115081220.41049      1458.99249        49.000  

 16 04 02 12 37 29.8000000  0  2G16G04                                          
  23050062.45349 121128894.06249    -14922.53149        50.000  

  21899200.96149 115081074.70749      1454.63349        49.000  

 16 04 02 12 37 29.9000000  0  2G16G04                                          
  23050346.45349 121130386.49249    -14926.23849        50.000  

  21899173.32849 115080929.49249      1449.82049        49.000  

 16 04 02 12 37 30.0000000  0  2G16G04                                          
  23050630.53149 121131879.30949    -14929.95349        50.000  

  21899145.78949 115080784.77349      1444.94549        49.000  

 16 04 02 12 37 30.1000000  0  2G16G04                                          
  23050914.67249 121133372.48049    -14933.68449        50.000  

  21899118.33649 115080640.52349      1440.14549        49.000  

 16 04 02 12 37 30.2000000  0  2G16G04                                          
  23051198.89149 121134866.09849    -14938.18449        50.000  

  21899090.99249 115080496.82449      1434.53149        49.000  

 16 04 02 12 37 30.3000000  0  2G16G04                                          
  23051483.18849 121136360.08649    -14942.18049        50.000  

  21899063.74249 115080353.60949      1429.50049        49.000  

 16 04 02 12 37 30.4000000  0  2G16G04                                          
  23051767.57049 121137854.48049    -14946.09449        50.000  

  21899036.58649 115080210.92249      1424.33649        49.000  

 16 04 02 12 37 30.5000000  0  2G16G04                                          
  23052052.00049 121139349.18849    -14949.28949        49.000  

  21899009.51649 115080068.66449      1420.09449        49.000  

 16 04 02 12 37 30.6000000  0  2G16G04                                          
  23052336.53149 121140844.37949    -14953.97349        50.000  

  21898982.55549 115079926.98849      1414.34849        49.000  

 16 04 02 12 37 30.7000000  0  2G16G04                                          
  23052621.12549 121142339.95749    -14957.94149        50.000  

  21898955.69549 115079785.82449      1409.05549        49.000  

 16 04 02 12 37 30.8000000  0  2G16G04                                          
  23052905.80549 121143835.94549    -14962.15649        50.000  

  21898928.93049 115079645.18049      1403.72349        49.000  

 16 04 02 12 37 30.9000000  0  2G16G04                                          
  23053190.55549 121145332.31249    -14965.63749        50.000  

  21898902.25849 115079505.02049      1399.16849        49.000  

 16 04 02 12 37 31.0000000  0  2G16G04                                          
  23053475.36749 121146829.02049    -14968.99649        50.000  

  21898875.67249 115079365.31649      1394.67249        49.000  

 16 04 02 12 37 31.1000000  0  2G16G04                                          
  23053760.25849 121148326.12149    -14972.87149        50.000  

  21898849.18849 115079226.12149      1389.61349        49.000  

 16 04 02 12 37 31.2000000  0  2G16G04                                          
  23054045.21949 121149823.59449    -14976.61349        50.000  

  21898822.78949 115079087.41049      1384.85249        49.000  

 16 04 02 12 37 31.3000000  0  2G16G04                                          
  23054330.24249 121151321.41049    -14979.95749        50.000  

  21898796.47749 115078949.15249      1380.27749        49.000  

 16 04 02 12 37 31.4000000  0  2G16G04                                          
  23054615.35249 121152819.66049    -14984.46149        50.000  

  21898770.27349 115078811.44149      1374.66449        49.000  

 16 04 02 12 37 31.5000000  0  2G16G04                                          
  23054900.53149 121154318.30549    -14988.69949        50.000  

  21898744.16449 115078674.24249      1369.35249        49.000  

 16 04 02 12 37 31.6000000  0  2G16G04                                          
  23055185.78949 121155817.32049    -14992.18049        50.000  

  21898718.14849 115078537.52049      1364.77049        49.000  

 16 04 02 12 37 31.7000000  0  2G16G04                                          
  23055471.11749 121157316.71149    -14995.60249        50.000  

  21898692.22749 115078401.29349      1360.06249        49.000  

 16 04 02 12 37 31.8000000  0  2G16G04                                          
  23055756.50049 121158816.43849    -14999.23449        50.000  

  21898666.38349 115078265.51649      1355.38349        49.000  

 16 04 02 12 37 31.9000000  0  2G16G04                                          
  23056041.96949 121160316.57849    -15003.41449        50.000  

  21898640.64849 115078130.25049      1350.24649        49.000  

 16 04 02 12 37 32.0000000  0  2G16G04                                          
  23056327.50849 121161817.08649    -15007.00049        50.000  

  21898615.00049 115077995.48049      1345.38749        49.000  

 16 04 02 12 37 32.1000000  0  2G16G04                                          
  23056613.11749 121163317.96149    -15010.71949        49.000  

  21898589.44549 115077861.18049      1340.65249        49.000  

 16 04 02 12 37 32.2000000  0  2G16G04                                          
  23056898.78949 121164819.18449    -15014.27049        50.000  

  21898563.97749 115077727.35249      1335.93049        49.000  

 16 04 02 12 37 32.3000000  0  2G16G04                                          
  23057184.53949 121166320.80949    -15018.32849        50.000  

  21898538.60249 115077594.02349      1330.76649        49.000  

 16 04 02 12 37 32.4000000  0  2G16G04                                          
  23057470.37549 121167822.87549    -15022.62949        50.000  

  21898513.34449 115077461.27049      1325.16449        49.000  

 16 04 02 12 37 32.5000000  0  2G16G04                                          
  23057756.26649 121169325.23449    -15025.71549        50.000  

  21898488.15649 115077328.91049      1321.15249        49.000  

 16 04 02 12 37 32.6000000  0  2G16G04                                          
  23058042.23449 121170827.99249    -15029.58649        50.000  

  21898463.06249 115077197.06649      1316.11349        49.000  

 16 04 02 12 37 32.7000000  0  2G16G04                                          
  23058328.26649 121172331.09449    -15033.19149        50.000  

  21898438.05549 115077065.67649      1311.34449        49.000  

 16 04 02 12 37 32.8000000  0  2G16G04                                          
  23058614.38349 121173834.66849    -15037.63349        50.000  

  21898413.16449 115076934.86749      1305.75849        49.000  

 16 04 02 12 37 32.9000000  0  2G16G04                                          
  23058900.56249 121175338.56249    -15040.95749        50.000  

  21898388.35949 115076804.50449      1301.23849        49.000  

 16 04 02 12 37 33.0000000  0  2G16G04                                          
  23059186.82849 121176842.89849    -15045.24249        50.000  

  21898363.64849 115076674.68049      1295.90649        49.000  

 16 04 02 12 37 33.1000000  0  2G16G04                                          
  23059473.15649 121178347.56649    -15048.53149        50.000  

  21898339.03949 115076545.31249      1291.44149        49.000  

 16 04 02 12 37 33.2000000  0  2G16G04                                          
  23059759.55549 121179852.58649    -15052.10249        50.000  

  21898314.50849 115076416.40649      1286.75049        49.000  

 16 04 02 12 37 33.3000000  0  2G16G04                                          
  23060046.02349 121181358.00449    -15056.12549        50.000  

  21898290.07049 115076288.01649      1281.53149        49.000  

 16 04 02 12 37 33.4000000  0  2G16G04                                          
  23060332.56249 121182863.77749    -15059.61749        50.000  

  21898265.72749 115076160.09449      1276.82849        49.000  

 16 04 02 12 37 33.5000000  0  2G16G04                                          
  23060619.17249 121184369.91049    -15063.46949        50.000  

  21898241.47749 115076032.63749      1272.02349        49.000  

 16 04 02 12 37 33.6000000  0  2G16G04                                          
  23060905.85949 121185876.44549    -15067.18449        49.000  

  21898217.32049 115075905.70349      1267.03549        49.000  

 16 04 02 12 37 33.7000000  0  2G16G04                                          
  23061192.60949 121187383.33649    -15070.84849        50.000  

  21898193.25049 115075779.23449      1262.31249        49.000  

 16 04 02 12 37 33.8000000  0  2G16G04                                          
  23061479.46149 121188890.69149    -15075.65649        50.000  

  21898169.29749 115075653.33649      1256.46949        49.000  

 16 04 02 12 37 33.9000000  0  2G16G04                                          
  23061766.35949 121190398.37549    -15078.99649        50.000  

  21898145.43049 115075527.90649      1251.80149        49.000  

 16 04 02 12 37 34.0000000  0  2G16G04                                          
  23062053.33649 121191906.45749    -15082.94549        50.000  

  21898121.64849 115075402.95349      1246.96549        49.000  

 16 04 02 12 37 34.1000000  0  2G16G04                                          
  23062340.39149 121193414.94549    -15086.99649        50.000  

  21898097.97749 115075278.55149      1241.58249        49.000  

 16 04 02 12 37 34.2000000  0  2G16G04                                          
  23062627.52349 121194923.85249    -15091.05949        50.000  

  21898074.39849 115075154.65649      1236.48449        49.000  

 16 04 02 12 37 34.3000000  0  2G16G04                                          
  23062914.71949 121196433.06649    -15094.11749        50.000  

  21898050.90649 115075031.19549      1232.25049        49.000  

 16 04 02 12 37 34.4000000  0  2G16G04                                          
  23063201.99249 121197942.71949    -15098.43849        49.000  

  21898027.51649 115074908.27749      1226.81249        49.000  

 16 04 02 12 37 34.5000000  0  2G16G04                                          
  23063489.32849 121199452.67249    -15101.38749        50.000  

  21898004.20349 115074785.78549      1222.69149        49.000  

 16 04 02 12 37 34.6000000  0  2G16G04                                          
  23063776.73449 121200963.00449    -15105.18049        50.000  

  21897980.99249 115074663.78149      1217.67249        49.000  

 16 04 02 12 37 34.7000000  0  2G16G04                                          
  23064064.21949 121202473.74649    -15109.46549        50.000  

  21897957.86749 115074542.30149      1212.36749        49.000  

 16 04 02 12 37 34.8000000  0  2G16G04                                          
  23064351.78149 121203984.88749    -15113.44149        50.000  

  21897934.85249 115074421.33249      1207.27749        49.000  

 16 04 02 12 37 34.9000000  0  2G16G04                                          
  23064639.39849 121205496.33249    -15116.10249        50.000  

  21897911.90649 115074300.78149      1203.31649        49.000  

 16 04 02 12 37 35.0000000  0  2G16G04                                          
  23064927.07049 121207008.04749    -15119.12949        50.000  

  21897889.03949 115074180.60549      1199.42249        49.000  

 16 04 02 12 37 35.1000000  0  2G16G04                                          
  23065214.82049 121208520.20349    -15123.44549        50.000  

  21897866.27349 115074061.00449      1193.72749        49.000  

 16 04 02 12 37 35.2000000  0  2G16G04                                          
  23065502.64149 121210032.70749    -15126.85549        50.000  

  21897843.60249 115073941.85249      1189.21549        49.000  

 16 04 02 12 37 35.3000000  0  2G16G04                                          
  23065790.53149 121211545.58249    -15130.95349        50.000  

  21897821.01649 115073823.18849      1184.09849        49.000  

 16 04 02 12 37 35.4000000  0  2G16G04                                          
  23066078.50849 121213058.89849    -15135.33649        50.000  

  21897798.54749 115073705.07849      1178.57449        49.000  

 16 04 02 12 37 35.5000000  0  2G16G04                                          
  23066366.55549 121214572.59049    -15139.01649        50.000  

  21897776.16449 115073587.45749      1173.73449        49.000  

 16 04 02 12 37 35.6000000  0  2G16G04                                          
  23066654.66449 121216086.66449    -15142.88749        50.000  

  21897753.87549 115073470.33249      1168.70349        49.000  

 16 04 02 12 37 35.7000000  0  2G16G04                                          
  23066942.85249 121217601.10549    -15146.29749        50.000  

  21897731.67249 115073353.68849      1164.16049        49.000  

 16 04 02 12 37 35.8000000  0  2G16G04                                          
  23067231.10949 121219115.91049    -15150.07449        50.000  

  21897709.57049 115073237.52349      1159.28949        49.000  

 16 04 02 12 37 35.9000000  0  2G16G04                                          
  23067519.43849 121220631.09049    -15153.76249        50.000  

  21897687.55549 115073121.84849      1154.31249        49.000  

 16 04 02 12 37 36.0000000  0  2G16G04                                          
  23067807.85249 121222146.68849    -15158.06649        50.000  

  21897665.64149 115073006.70749      1148.88749        49.000  

 16 04 02 12 37 36.1000000  0  2G16G04                                          
  23068096.32049 121223662.59849    -15161.03149        49.000  

  21897643.81249 115072891.98049      1144.84849        49.000  

 16 04 02 12 37 36.2000000  0  2G16G04                                          
  23068384.85249 121225178.85549    -15164.31649        49.000  

  21897622.07049 115072777.73449      1140.23849        49.000  

 16 04 02 12 37 36.3000000  0  2G16G04                                          
  23068673.47749 121226695.56249    -15169.07049        50.000  

  21897600.43849 115072664.03149      1134.58649        49.000  

 16 04 02 12 37 36.4000000  0  2G16G04                                          
  23068962.16449 121228212.61749    -15172.58649        50.000  

  21897578.89149 115072550.81249      1129.71149        49.000  

 16 04 02 12 37 36.5000000  0  2G16G04                                          
  23069250.93049 121229730.07849    -15176.68049        50.000  

  21897557.44549 115072438.09449      1124.67649        49.000  

 16 04 02 12 37 36.6000000  0  2G16G04                                          
  23069539.76649 121231247.94549    -15180.81649        50.000  

  21897536.09449 115072325.89849      1119.44949        49.000  

 16 04 02 12 37 36.7000000  0  2G16G04                                          
  23069828.66449 121232766.12549    -15183.66849        50.000  

  21897514.83649 115072214.15249      1115.18849        49.000  

 16 04 02 12 37 36.8000000  0  2G16G04                                          
  23070117.64149 121234284.67649    -15187.46549        50.000  

  21897493.65649 115072102.85949      1110.50849        49.000  

 16 04 02 12 37 36.9000000  0  2G16G04                                          
  23070406.70349 121235803.69949    -15192.51249        50.000  

  21897472.58649 115071992.17649      1104.07049        49.000  

 16 04 02 12 37 37.0000000  0  2G16G04                                          
  23070695.84449 121237323.12149    -15196.02749        50.000  

  21897451.62549 115071881.99649      1099.42649        49.000  

 16 04 02 12 37 37.1000000  0  2G16G04                                          
  23070985.03149 121238842.82049    -15199.17649        50.000  

  21897430.72749 115071772.19949      1095.42249        49.000  

 16 04 02 12 37 37.2000000  0  2G16G04                                          
  23071274.29749 121240362.94949    -15203.36349        50.000  

  21897409.94549 115071662.96949      1089.99649        49.000  

 16 04 02 12 37 37.3000000  0  2G16G04                                          
  23071563.64849 121241883.49649    -15207.46949        50.000  

  21897389.25049 115071554.25049      1084.66449        49.000  

 16 04 02 12 37 37.4000000  0  2G16G04                                          
  23071853.07049 121243404.42649    -15211.28149        50.000  

  21897368.65649 115071446.03549      1079.72749        49.000  

 16 04 02 12 37 37.5000000  0  2G16G04                                          
  23072142.53949 121244925.58249    -15213.61749        50.000  

  21897348.13349 115071338.18049      1076.17249        49.000  

 16 04 02 12 37 37.6000000  0  2G16G04                                          
  23072432.10249 121246447.25449    -15218.54349        50.000  

  21897327.72749 115071230.92249      1070.34449        49.000  

 16 04 02 12 37 37.7000000  0  2G16G04                                          
  23072721.72749 121247969.24649    -15222.00449        50.000  

  21897307.40649 115071124.11749      1065.59049        49.000  

 16 04 02 12 37 37.8000000  0  2G16G04                                          
  23073011.42249 121249491.61749    -15225.89149        50.000  

  21897287.17249 115071017.80549      1060.68849        49.000  

 16 04 02 12 37 37.9000000  0  2G16G04                                          
  23073301.21149 121251014.44549    -15230.12949        50.000  

  21897267.05549 115070912.05949      1055.14849        49.000  

 16 04 02 12 37 38.0000000  0  2G16G04                                          
  23073591.05549 121252537.60249    -15233.58649        50.000  

  21897247.01649 115070806.76249      1050.59849        49.000  

 16 04 02 12 37 38.1000000  0  2G16G04                                          
  23073880.97749 121254061.14549    -15237.39549        50.000  

  21897227.07049 115070701.96149      1045.66449        49.000  

 16 04 02 12 37 38.2000000  0  2G16G04                                          
  23074170.96949 121255585.08649    -15241.43049        50.000  

  21897207.22749 115070597.68049      1040.41049        49.000  

 16 04 02 12 37 38.3000000  0  2G16G04                                          
  23074461.02349 121257109.32049    -15244.15649        50.000  

  21897187.46149 115070493.80549      1036.39549        49.000  

 16 04 02 12 37 38.4000000  0  2G16G04                                          
  23074751.14149 121258633.91449    -15247.74649        50.000  

  21897167.78149 115070390.40249      1031.78149        49.000  

 16 04 02 12 37 38.5000000  0  2G16G04                                          
  23075041.34449 121260158.91849    -15251.81249        50.000  

  21897148.20349 115070287.52349      1026.55549        49.000  

 16 04 02 12 37 38.6000000  0  2G16G04                                          
  23075331.60949 121261684.29349    -15255.89849        50.000  

  21897128.71949 115070185.13349      1021.35549        49.000  

 16 04 02 12 37 38.7000000  0  2G16G04                                          
  23075621.96149 121263210.10249    -15259.96549        50.000  

  21897109.33649 115070083.28949      1016.05149        49.000  

 16 04 02 12 37 38.8000000  0  2G16G04                                          
  23075912.38349 121264736.26649    -15263.92249        50.000  

  21897090.04749 115069981.90649      1011.22349        49.000  

 16 04 02 12 37 38.9000000  0  2G16G04                                          
  23076202.87549 121266262.78549    -15267.14549        50.000  

  21897070.85249 115069881.00449      1006.66449        49.000  

 16 04 02 12 37 39.0000000  0  2G16G04                                          
  23076493.43049 121267789.65249    -15270.45749        50.000  

  21897051.73449 115069780.57449      1002.08249        49.000  

 16 04 02 12 37 39.1000000  0  2G16G04                                          
  23076784.04749 121269316.89149    -15274.25049        50.000  

  21897032.71949 115069680.61749       997.19949        49.000  

 16 04 02 12 37 39.2000000  0  2G16G04                                          
  23077074.75049 121270844.52749    -15278.32049        50.000  

  21897013.79749 115069581.17249       992.14149        49.000  

 16 04 02 12 37 39.3000000  0  2G16G04                                          
  23077365.52349 121272372.56249    -15282.47749        50.000  

  21896994.96949 115069482.25049       986.65649        49.000  

 16 04 02 12 37 39.4000000  0  2G16G04                                          
  23077656.37549 121273900.98049    -15285.91449        50.000  

  21896976.23449 115069383.81249       982.13349        49.000  

 16 04 02 12 37 39.5000000  0  2G16G04                                          
  23077947.28149 121275429.70749    -15289.46549        50.000  

  21896957.58649 115069285.80949       977.45349        49.000  

 16 04 02 12 37 39.6000000  0  2G16G04                                          
  23078238.27349 121276958.86749    -15293.48849        50.000  

  21896939.04749 115069188.35249       972.15649        49.000  

 16 04 02 12 37 39.7000000  0  2G16G04                                          
  23078529.33649 121278488.40249    -15297.34849        50.000  

  21896920.58649 115069091.37549       967.37149        49.000  

 16 04 02 12 37 39.8000000  0  2G16G04                                          
  23078820.46949 121280018.32849    -15301.43049        50.000  

  21896902.23449 115068994.92649       962.00849        49.000  

 16 04 02 12 37 39.9000000  0  2G16G04                                          
  23079111.66449 121281548.56649    -15304.22349        50.000  

  21896883.96149 115068898.89149       958.00849        49.000  

 16 04 02 12 37 40.0000000  0  2G16G04                                          
  23079402.92249 121283079.16449    -15307.95749        50.000  

  21896865.77349 115068803.33249       953.20749        49.000  

 16 04 02 12 37 40.1000000  0  2G16G04                                          
  23079694.25849 121284610.14549    -15311.84449        50.000  

  21896847.68849 115068708.26649       948.19949        49.000  

 16 04 02 12 37 40.2000000  0  2G16G04                                          
  23079985.68049 121286141.52749    -15315.78949        50.000  

  21896829.69549 115068613.71949       943.04349        49.000  

 16 04 02 12 37 40.3000000  0  2G16G04                                          
  23080277.15649 121287673.25449    -15319.30949        50.000  

  21896811.78949 115068519.64149       938.40249        49.000  

 16 04 02 12 37 40.4000000  0  2G16G04                                          
  23080568.71949 121289205.42249    -15323.55949        50.000  

  21896793.99249 115068426.10949       932.94549        49.000  

 16 04 02 12 37 40.5000000  0  2G16G04                                          
  23080860.34449 121290737.90249    -15326.99249        50.000  

  21896776.27349 115068333.00849       928.37949        49.000  

 16 04 02 12 37 40.6000000  0  2G16G04                                          
  23081152.03949 121292270.76249    -15330.49249        50.000  

  21896758.64849 115068240.41049       923.66049        49.000  

 16 04 02 12 37 40.7000000  0  2G16G04                                          
  23081443.80549 121293803.99649    -15334.31649        50.000  

  21896741.12549 115068148.28949       918.81249        49.000  

 16 04 02 12 37 40.8000000  0  2G16G04                                          
  23081735.63349 121295337.59449    -15337.94549        50.000  

  21896723.68849 115068056.64849       913.99649        49.000  

 16 04 02 12 37 40.9000000  0  2G16G04                                          
  23082027.53949 121296871.57849    -15341.89149        50.000  

  21896706.34449 115067965.51649       908.92249        49.000  

 16 04 02 12 37 41.0000000  0  2G16G04                                          
  23082319.52349 121298405.96149    -15345.91049        50.000  

  21896689.09449 115067874.89149       903.79749        49.000  

 16 04 02 12 37 41.1000000  0  2G16G04                                          
  23082611.58649 121299940.76249    -15350.01249        50.000  

  21896671.96149 115067784.80949       898.48849        49.000  

 16 04 02 12 37 41.2000000  0  2G16G04                                          
  23082903.71949 121301475.90649    -15353.44949        50.000  

  21896654.89849 115067695.17249       893.90649        49.000  

 16 04 02 12 37 41.3000000  0  2G16G04                                          
  23083195.92249 121303011.46949    -15357.67249        50.000  

  21896637.94549 115067606.07449       888.50849        49.000  

 16 04 02 12 37 41.4000000  0  2G16G04                                          
  23083488.19549 121304547.34849    -15360.90249        50.000  

  21896621.07049 115067517.42249       884.10949        49.000  

 16 04 02 12 37 41.5000000  0  2G16G04                                          
  23083780.53949 121306083.64849    -15364.91849        50.000  

  21896604.30549 115067429.29749       878.90249        49.000  

 16 04 02 12 37 41.6000000  0  2G16G04                                          
  23084072.96949 121307620.37149    -15369.23449        50.000  

  21896587.63349 115067341.70349       873.55549        49.000  

 16 04 02 12 37 41.7000000  0  2G16G04                                          
  23084365.46149 121309157.42249    -15372.64149        50.000  

  21896571.05549 115067254.56249       868.90249        49.000  

 16 04 02 12 37 41.8000000  0  2G16G04                                          
  23084658.03149 121310694.88749    -15376.49649        50.000  

  21896554.57049 115067167.95349       863.76649        49.000  

 16 04 02 12 37 41.9000000  0  2G16G04                                          
  23084950.64849 121312232.62149    -15379.31649        50.000  

  21896538.16449 115067081.71949       859.90249        49.000  

 16 04 02 12 37 42.0000000  0  2G16G04                                          
  23085243.33649 121313770.71949    -15382.82449        50.000  

  21896521.84449 115066995.96949       855.30549        49.000  

 16 04 02 12 37 42.1000000  0  2G16G04                                          
  23085536.10949 121315309.21949    -15386.89149        50.000  

  21896505.62549 115066910.73449       850.01249        49.000  

 16 04 02 12 37 42.2000000  0  2G16G04                                          
  23085828.94549 121316848.08649    -15390.59049        50.000  

  21896489.50049 115066825.98049       845.15249        49.000  

 16 04 02 12 37 42.3000000  0  2G16G04                                          
  23086121.84449 121318387.29349    -15394.11749        50.000  

  21896473.46149 115066741.69949       840.48049        49.000  

 16 04 02 12 37 42.4000000  0  2G16G04                                          
  23086414.82849 121319926.91049    -15398.19549        50.000  

  21896457.52349 115066657.92249       835.35249        49.000  

 16 04 02 12 37 42.5000000  0  2G16G04                                          
  23086707.87549 121321466.89549    -15402.01649        50.000  

  21896441.67249 115066574.64549       830.27749        49.000  

 16 04 02 12 37 42.6000000  0  2G16G04                                          
  23087000.99249 121323007.24649    -15405.52049        49.000  

  21896425.91449 115066491.84049       825.69149        49.000  

 16 04 02 12 37 42.7000000  0  2G16G04                                          
  23087294.18049 121324547.97349    -15409.30149        50.000  

  21896410.25849 115066409.52349       820.73449        49.000  

 16 04 02 12 37 42.8000000  0  2G16G04                                          
  23087587.44549 121326089.08649    -15413.01249        50.000  

  21896394.68849 115066327.72749       815.65249        49.000  

 16 04 02 12 37 42.9000000  0  2G16G04                                          
  23087880.78149 121327630.55949    -15416.76249        50.000  

  21896379.21149 115066246.39149       810.76649        49.000  

 16 04 02 12 37 43.0000000  0  2G16G04                                          
  23088174.18049 121329172.40249    -15420.48049        50.000  

  21896363.82849 115066165.55149       805.92649        49.000  

 16 04 02 12 37 43.1000000  0  2G16G04                                          
  23088467.64849 121330714.59849    -15423.78549        50.000  

  21896348.53149 115066085.16449       801.55949        49.000  

 16 04 02 12 37 43.2000000  0  2G16G04                                          
  23088761.19549 121332257.16849    -15427.61349        50.000  

  21896333.33649 115066005.27749       796.52749        49.000  

 16 04 02 12 37 43.3000000  0  2G16G04                                          
  23089054.80549 121333800.09449    -15431.16849        50.000  

  21896318.21949 115065925.86749       791.77749        49.000  

 16 04 02 12 37 43.4000000  0  2G16G04                                          
  23089348.47749 121335343.36349    -15434.62149        50.000  

  21896303.19549 115065846.91049       787.19149        49.000  

 16 04 02 12 37 43.5000000  0  2G16G04                                          
  23089642.22749 121336886.99249    -15438.21149        50.000  

  21896288.25849 115065768.42649       782.54749        49.000  

 16 04 02 12 37 43.6000000  0  2G16G04                                          
  23089936.03149 121338430.96149    -15441.71949        50.000  

  21896273.41449 115065690.40249       777.89849        49.000  

 16 04 02 12 37 43.7000000  0  2G16G04                                          
  23090229.92249 121339975.37549    -15446.01249        50.000  

  21896258.67249 115065612.94549       772.34449        49.000  

 16 04 02 12 37 43.8000000  0  2G16G04                                          
  23090523.88349 121341520.11749    -15449.60249        50.000  

  21896244.02349 115065535.93849       767.53549        49.000  

 16 04 02 12 37 43.9000000  0  2G16G04                                          
  23090817.91449 121343065.29749    -15453.87149        50.000  

  21896229.46949 115065459.46549       762.22749        49.000  

 16 04 02 12 37 44.0000000  0  2G16G04                                          
  23091112.02349 121344610.83649    -15457.43449        50.000  

  21896215.00849 115065383.47749       757.49649        49.000  

 16 04 02 12 37 44.1000000  0  2G16G04                                          
  23091406.20349 121346156.77349    -15461.41849        50.000  

  21896200.64149 115065307.99249       752.44149        49.000  

 16 04 02 12 37 44.2000000  0  2G16G04                                          
  23091700.47749 121347703.16449    -15466.09449        50.000  

  21896186.39149 115065233.09849       746.46549        49.000  

 16 04 02 12 37 44.3000000  0  2G16G04                                          
  23091994.82049 121349249.94949    -15469.85249        50.000  

  21896172.23449 115065158.70749       741.39849        49.000  

 16 04 02 12 37 44.4000000  0  2G16G04                                          
  23092289.21149 121350797.01249    -15472.53149        50.000  

  21896158.14849 115065084.70749       737.69949        49.000  

 16 04 02 12 37 44.5000000  0  2G16G04                                          
  23092583.70349 121352344.54349    -15477.28549        50.000  

  21896144.18049 115065011.29349       731.75049        49.000  

 16 04 02 12 37 44.6000000  0  2G16G04                                          
  23092878.26649 121353892.47749    -15481.30549        50.000  

  21896130.30549 115064938.39849       726.49649        49.000  

 16 04 02 12 37 44.7000000  0  2G16G04                                          
  23093172.89149 121355440.76249    -15484.97349        50.000  

  21896116.52349 115064865.96949       721.77049        49.000  

 16 04 02 12 37 44.8000000  0  2G16G04                                          
  23093467.60249 121356989.46549    -15489.14549        50.000  

  21896102.84449 115064794.07049       716.52349        49.000  

 16 04 02 12 37 44.9000000  0  2G16G04                                          
  23093762.38349 121358538.53149    -15492.60249        50.000  

  21896089.25849 115064722.66049       711.66449        49.000  

 16 04 02 12 37 45.0000000  0  2G16G04                                          
  23094057.21949 121360087.91849    -15495.73049        50.000  

  21896075.75049 115064651.68049       707.50049        49.000  

 16 04 02 12 37 45.1000000  0  2G16G04                                          
  23094352.12549 121361637.68449    -15499.68849        49.000  

  21896062.33649 115064581.20749       702.34049        49.000  

 16 04 02 12 37 45.2000000  0  2G16G04                                          
  23094647.10949 121363187.82849    -15503.48049        50.000  

  21896049.02349 115064511.22349       697.41849        49.000  

 16 04 02 12 37 45.3000000  0  2G16G04                                          
  23094942.15649 121364738.32849    -15507.00849        50.000  

  21896035.78949 115064441.70749       692.74249        49.000  

 16 04 02 12 37 45.4000000  0  2G16G04                                          
  23095237.28149 121366289.22749    -15511.00049        50.000  

  21896022.66449 115064372.70749       687.57849        49.000  

 16 04 02 12 37 45.5000000  0  2G16G04                                          
  23095532.49249 121367840.54349    -15515.17249        49.000  

  21896009.63349 115064304.25049       682.21949        49.000  

 16 04 02 12 37 45.6000000  0  2G16G04                                          
  23095827.76649 121369392.21949    -15518.68849        50.000  

  21895996.69549 115064236.25449       677.53949        49.000  

 16 04 02 12 37 45.7000000  0  2G16G04                                          
  23096123.10949 121370944.24649    -15522.14149        49.000  

  21895983.85249 115064168.75049       672.82449        49.000  

 16 04 02 12 37 45.8000000  0  2G16G04                                          
  23096418.50849 121372496.60949    -15525.72749        49.000  

  21895971.08649 115064101.67249       668.23449        49.000  

 16 04 02 12 37 45.9000000  0  2G16G04                                          
  23096713.98449 121374049.34049    -15529.19149        49.000  

  21895958.42249 115064035.09449       663.44549        49.000  

 16 04 02 12 37 46.0000000  0  2G16G04                                          
  23097009.54749 121375602.50849    -15533.66449        49.000  

  21895945.85249 115063969.06649       657.82049        49.000  

 16 04 02 12 37 46.1000000  0  2G16G04                                          
  23097305.15649 121377155.98049    -15536.68449        50.000  

  21895933.37549 115063903.46149       653.68849        49.000  

 16 04 02 12 37 46.2000000  0  2G16G04                                          
  23097600.85249 121378709.85549    -15540.74649        49.000  

  21895920.98449 115063838.37549       648.49649        49.000  

 16 04 02 12 37 46.3000000  0  2G16G04                                          
  23097896.61749 121380264.07449    -15544.09049        50.000  

  21895908.68849 115063773.74649       643.98049        49.000  

 16 04 02 12 37 46.4000000  0  2G16G04                                          
  23098192.45349 121381818.73049    -15548.50449        49.000  

  21895896.50049 115063709.68049       638.29749        49.000  

 16 04 02 12 37 46.5000000  0  2G16G04                                          
  23098488.35249 121383373.68849    -15551.69549        50.000  

  21895884.38349 115063646.02349       634.05949        49.000  

 16 04 02 12 37 46.6000000  0  2G16G04                                          
  23098784.33649 121384929.08649    -15555.97349        50.000  

  21895872.37549 115063582.92649       628.55549        49.000  

 16 04 02 12 37 46.7000000  0  2G16G04                                          
  23099080.39149 121386484.89549    -15560.11349        50.000  

  21895860.46949 115063520.36349       623.19949        49.000  

 16 04 02 12 37 46.8000000  0  2G16G04                                          
  23099376.51649 121388041.02749    -15563.27049        49.000  

  21895848.64849 115063458.23449       618.88349        49.000  

 16 04 02 12 37 46.9000000  0  2G16G04                                          
  23099672.71149 121389597.54749    -15566.98449        49.000  

  21895836.92249 115063396.60549       613.90249        49.000  

 16 04 02 12 37 47.0000000  0  2G16G04                                          
  23099968.96949 121391154.37949    -15570.39549        49.000  

  21895825.27349 115063335.41449       609.53549        49.000  

 16 04 02 12 37 47.1000000  0  2G16G04                                          
  23100265.28949 121392711.58249    -15573.80549        49.000  

  21895813.72749 115063274.70349       604.86749        49.000  

 16 04 02 12 37 47.2000000  0  2G16G04                                          
  23100561.68849 121394269.16849    -15577.75849        49.000  

  21895802.26649 115063214.50049       599.69949        49.000  

 16 04 02 12 37 47.3000000  0  2G16G04                                          
  23100858.16449 121395827.14849    -15581.90249        49.000  

  21895790.90649 115063154.81649       594.38749        49.000  

 16 04 02 12 37 47.4000000  0  2G16G04                                          
  23101154.69549 121397385.45349    -15584.91049        49.000  

  21895779.63349 115063095.56249       590.12549        49.000  

 16 04 02 12 37 47.5000000  0  2G16G04                                          
  23101451.30549 121398944.13349    -15588.87949        49.000  

  21895768.45349 115063036.80549       585.00849        49.000  

 16 04 02 12 37 47.6000000  0  2G16G04                                          
  23101748.00049 121400503.28549    -15593.48449        49.000  

  21895757.38349 115062978.62949       579.37549        49.000  

 16 04 02 12 37 47.7000000  0  2G16G04                                          
  23102044.76649 121402062.77349    -15596.80949        49.000  

  21895746.39849 115062920.90649       574.80949        49.000  

 16 04 02 12 37 47.8000000  0  2G16G04                                          
  23102341.59449 121403622.60549    -15600.28949        49.000  

  21895735.50049 115062863.64849       570.19149        49.000  

 16 04 02 12 37 47.9000000  0  2G16G04                                          
  23102638.49249 121405182.82449    -15604.01249        49.000  

  21895724.70349 115062806.90649       565.21949        49.000  

 16 04 02 12 37 48.0000000  0  2G16G04                                          
  23102935.45349 121406743.37949    -15607.45349        49.000  

  21895713.99249 115062750.60249       560.72349        49.000  

 16 04 02 12 37 48.1000000  0  2G16G04                                          
  23103232.50049 121408304.34449    -15611.64549        49.000  

  21895703.37549 115062694.83649       555.22349        49.000  

 16 04 02 12 37 48.2000000  0  2G16G04                                          
  23103529.60949 121409865.68049    -15615.32049        49.000  

  21895692.85949 115062639.55149       550.40649        49.000  

 16 04 02 12 37 48.3000000  0  2G16G04                                          
  23103826.79749 121411427.43449    -15619.77349        49.000  

  21895682.43849 115062584.80949       544.87549        49.000  

 16 04 02 12 37 48.4000000  0  2G16G04                                          
  23104124.05549 121412989.55549    -15623.19549        49.000  

  21895672.10949 115062530.54749       540.19549        49.000  

 16 04 02 12 37 48.5000000  0  2G16G04                                          
  23104421.39849 121414552.07849    -15627.24249        49.000  

  21895661.88349 115062476.80149       534.94549        49.000  

 16 04 02 12 37 48.6000000  0  2G16G04                                          
  23104718.79749 121416114.92649    -15630.42649        49.000  

  21895651.74249 115062423.49649       530.68449        49.000  

 16 04 02 12 37 48.7000000  0  2G16G04                                          
  23105016.26649 121417678.13749    -15634.01649        49.000  

  21895641.69549 115062370.68449       525.90249        49.000  

 16 04 02 12 37 48.8000000  0  2G16G04                                          
  23105313.81249 121419241.75849    -15638.08249        49.000  

  21895631.74249 115062318.39549       520.64549        49.000  

 16 04 02 12 37 48.9000000  0  2G16G04                                          
  23105611.42249 121420805.68449    -15641.32049        49.000  

  21895621.86749 115062266.52049       516.29349        49.000  

 16 04 02 12 37 49.0000000  0  2G16G04                                          
  23105909.11749 121422370.05949    -15645.71149        49.000  

  21895612.10949 115062215.21949       510.59449        49.000  

 16 04 02 12 37 49.1000000  0  2G16G04                                          
  23106206.87549 121423934.79349    -15649.42249        49.000  

  21895602.43849 115062164.40249       505.54349        49.000  

 16 04 02 12 37 49.2000000  0  2G16G04                                          
  23106504.69549 121425499.86749    -15652.67249        49.000  

  21895592.85249 115062114.03149       501.35549        49.000  

 16 04 02 12 37 49.3000000  0  2G16G04                                          
  23106802.60249 121427065.35249    -15656.88749        49.000  

  21895583.36749 115062064.18849       495.93049        49.000  

 16 04 02 12 37 49.4000000  0  2G16G04                                          
  23107100.57849 121428631.24649    -15661.06249        49.000  

  21895573.98449 115062014.87949       490.57849        49.000  

 16 04 02 12 37 49.5000000  0  2G16G04                                          
  23107398.62549 121430197.48449    -15664.41049        49.000  

  21895564.68849 115061966.02349       486.12949        49.000  

 16 04 02 12 37 49.6000000  0  2G16G04                                          
  23107696.75049 121431764.12149    -15668.19949        49.000  

  21895555.49249 115061917.70349       480.84449        49.000  

 16 04 02 12 37 49.7000000  0  2G16G04                                          
  23107994.93049 121433331.08249    -15671.46949        49.000  

  21895546.37549 115061869.80149       476.62549        49.000  

 16 04 02 12 37 49.8000000  0  2G16G04                                          
  23108293.18049 121434898.41449    -15675.21149        49.000  

  21895537.35249 115061822.40249       471.66449        49.000  

 16 04 02 12 37 49.9000000  0  2G16G04                                          
  23108591.50849 121436466.12149    -15678.87149        49.000  

  21895528.42249 115061775.48449       466.85249        49.000  

 16 04 02 12 37 50.0000000  0  2G16G04                                          
  23108889.89849 121438034.19149    -15682.68449        49.000  

  21895519.59449 115061729.06649       461.77349        49.000  

 16 04 02 12 37 50.1000000  0  2G16G04                                          
  23109188.35249 121439602.58249    -15685.86349        49.000  

  21895510.84449 115061683.07449       457.46949        49.000  

 16 04 02 12 37 50.2000000  0  2G16G04                                          
  23109486.89849 121441171.41449    -15690.19949        49.000  

  21895502.19549 115061637.63749       451.98449        49.000  

 16 04 02 12 37 50.3000000  0  2G16G04                                          
  23109785.50849 121442740.64149    -15694.49249        49.000  

  21895493.64849 115061592.72349       446.50849        49.000  

 16 04 02 12 37 50.4000000  0  2G16G04                                          
  23110084.21149 121444310.31249    -15698.66849        49.000  

  21895485.20349 115061548.36349       441.16849        49.000  

 16 04 02 12 37 50.5000000  0  2G16G04                                          
  23110382.96949 121445880.28149    -15702.00449        49.000  

  21895476.84449 115061504.42649       436.66049        49.000  

 16 04 02 12 37 50.6000000  0  2G16G04                                          
  23110681.79749 121447450.66049    -15705.59849        49.000  

  21895468.58649 115061461.02049       431.77749        49.000  

 16 04 02 12 37 50.7000000  0  2G16G04                                          
  23110980.70349 121449021.41449    -15709.44549        49.000  

  21895460.41449 115061418.09049       426.84049        49.000  

 16 04 02 12 37 50.8000000  0  2G16G04                                          
  23111279.68849 121450592.55949    -15713.39149        49.000  

  21895452.34449 115061375.68849       421.69549        49.000  

 16 04 02 12 37 50.9000000  0  2G16G04                                          
  23111578.72749 121452164.02049    -15716.57849        49.000  

  21895444.35949 115061333.71149       417.32849        49.000  

 16 04 02 12 37 51.0000000  0  2G16G04                                          
  23111877.84449 121453735.89149    -15720.63349        49.000  

  21895436.47749 115061292.26649       412.18049        49.000  

 16 04 02 12 37 51.1000000  0  2G16G04                                          
  23112177.03149 121455308.12149    -15724.19949        49.000  

  21895428.67249 115061251.28149       407.46549        49.000  

 16 04 02 12 37 51.2000000  0  2G16G04                                          
  23112476.28149 121456880.71149    -15728.00849        49.000  

  21895420.96949 115061210.80949       402.25049        49.000  

 16 04 02 12 37 51.3000000  0  2G16G04                                          
  23112775.60949 121458453.68449    -15731.76649        49.000  

  21895413.35949 115061170.81249       397.43849        49.000  

 16 04 02 12 37 51.4000000  0  2G16G04                                          
  23113075.00049 121460027.00449    -15735.12949        49.000  

  21895405.83649 115061131.28549       392.90649        49.000  

 16 04 02 12 37 51.5000000  0  2G16G04                                          
  23113374.47749 121461600.73449    -15739.26249        49.000  

  21895398.41449 115061092.28549       387.60949        49.000  

 16 04 02 12 37 51.6000000  0  2G16G04                                          
  23113674.01649 121463174.83649    -15743.03549        49.000  

  21895391.09449 115061053.78149       382.64549        49.000  

 16 04 02 12 37 51.7000000  0  2G16G04                                          
  23113973.60949 121464749.23449    -15745.82449        49.000  

  21895383.84449 115061015.68849       378.66049        49.000  

 16 04 02 12 37 51.8000000  0  2G16G04                                          
  23114273.28949 121466324.03949    -15749.87949        49.000  

  21895376.69549 115060978.12149       373.48449        49.000  

 16 04 02 12 37 51.9000000  0  2G16G04                                          
  23114573.03949 121467899.23049    -15754.03949        49.000  

  21895369.64149 115060941.05949       368.10249        49.000  

 16 04 02 12 37 52.0000000  0  2G16G04                                          
  23114872.85949 121469474.80149    -15757.69549        49.000  

  21895362.68849 115060904.49649       363.23449        49.000  

 16 04 02 12 37 52.1000000  0  2G16G04                                          
  23115172.75049 121471050.75049    -15761.59049        49.000  

  21895355.82049 115060868.43449       358.02749        49.000  

 16 04 02 12 37 52.2000000  0  2G16G04                                          
  23115472.70349 121472627.03149    -15764.77049        49.000  

  21895349.04749 115060832.81249       353.84049        49.000  

 16 04 02 12 37 52.3000000  0  2G16G04                                          
  23115772.73449 121474203.69549    -15768.51649        49.000  

  21895342.36749 115060797.71149       348.73849        49.000  

 16 04 02 12 37 52.4000000  0  2G16G04                                          
  23116072.82849 121475780.68849    -15771.78549        49.000  

  21895335.76649 115060763.03149       344.38749        49.000  

 16 04 02 12 37 52.5000000  0  2G16G04                                          
  23116372.99249 121477358.09849    -15776.17249        49.000  

  21895329.27349 115060728.90249       338.85949        49.000  

 16 04 02 12 37 52.6000000  0  2G16G04                                          
  23116673.23449 121478935.87149    -15779.71949        50.000  

  21895322.86749 115060695.26249       333.94549        49.000  

 16 04 02 12 37 52.7000000  0  2G16G04                                          
  23116973.54749 121480514.03149    -15783.60949        50.000  

  21895316.56249 115060662.10549       329.07849        49.000  

 16 04 02 12 37 52.8000000  0  2G16G04                                          
  23117273.93049 121482092.54349    -15787.22749        50.000  

  21895310.34449 115060629.43849       324.19549        49.000  

 16 04 02 12 37 52.9000000  0  2G16G04                                          
  23117574.39149 121483671.47749    -15791.42649        50.000  

  21895304.22749 115060597.30149       318.87949        49.000  

 16 04 02 12 37 53.0000000  0  2G16G04                                          
  23117874.89849 121485250.69549    -15794.03549        50.000  

  21895298.19549 115060565.57449       314.96549        49.000  

 16 04 02 12 37 53.1000000  0  2G16G04                                          
  23118175.47749 121486830.23849    -15797.11749        50.000  

  21895292.24249 115060534.28949       310.65649        49.000  

 16 04 02 12 37 53.2000000  0  2G16G04                                          
  23118476.12549 121488410.15649    -15801.15249        50.000  

  21895286.38349 115060503.48849       305.71149        49.000  

 16 04 02 12 37 53.3000000  0  2G16G04                                          
  23118776.85949 121489990.50449    -15805.52349        50.000  

  21895280.62549 115060473.25049       299.89849        49.000  

 16 04 02 12 37 53.4000000  0  2G16G04                                          
  23119077.65649 121491571.23049    -15809.37149        50.000  

  21895274.96149 115060443.51249       294.91449        49.000  

 16 04 02 12 37 53.5000000  0  2G16G04                                          
  23119378.53149 121493152.34049    -15813.23049        50.000  

  21895269.39849 115060414.25449       290.04749        49.000  

 16 04 02 12 37 53.6000000  0  2G16G04                                          
  23119679.48449 121494733.80549    -15816.65649        50.000  

  21895263.92249 115060385.49649       285.10249        49.000  

 16 04 02 12 37 53.7000000  0  2G16G04                                          
  23119980.50049 121496315.69149    -15820.71549        50.000  

  21895258.54749 115060357.26249       280.04349        49.000  

 16 04 02 12 37 53.8000000  0  2G16G04                                          
  23120281.58649 121497897.89549    -15823.93049        50.000  

  21895253.26649 115060329.47349       275.44549        49.000  

 16 04 02 12 37 53.9000000  0  2G16G04                                          
  23120582.73449 121499480.44549    -15827.27749        50.000  

  21895248.06249 115060302.14149       271.03149        49.000  

 16 04 02 12 37 54.0000000  0  2G16G04                                          
  23120883.96149 121501063.40249    -15831.72749        50.000  

  21895242.96149 115060275.34849       265.44949        49.000  

 16 04 02 12 37 54.1000000  0  2G16G04                                          
  23121185.25849 121502646.70749    -15834.92649        50.000  

  21895237.94549 115060249.00449       260.98849        49.000  

 16 04 02 12 37 54.2000000  0  2G16G04                                          
  23121486.62549 121504230.39149    -15838.88749        50.000  

  21895233.03149 115060223.16849       255.94949        49.000  

 16 04 02 12 37 54.3000000  0  2G16G04                                          
  23121788.07049 121505814.50049    -15842.89849        50.000  

  21895228.21949 115060197.88349       250.58249        49.000  

 16 04 02 12 37 54.4000000  0  2G16G04                                          
  23122089.57049 121507398.92249    -15846.13749        50.000  

  21895223.48449 115060173.02349       246.10949        49.000  

 16 04 02 12 37 54.5000000  0  2G16G04                                          
  23122391.15649 121508983.76249    -15850.50849        50.000  

  21895218.85949 115060148.68849       240.80149        49.000  

 16 04 02 12 37 54.6000000  0  2G16G04                                          
  23122692.81249 121510568.96549    -15854.11749        50.000  

  21895214.32049 115060124.86349       235.82049        49.000  

 16 04 02 12 37 54.7000000  0  2G16G04                                          
  23122994.53149 121512154.50449    -15857.25849        50.000  

  21895209.87549 115060101.46549       231.54749        49.000  

 16 04 02 12 37 54.8000000  0  2G16G04                                          
  23123296.32849 121513740.42249    -15861.00449        50.000  

  21895205.51649 115060078.58249       226.60249        49.000  

 16 04 02 12 37 54.9000000  0  2G16G04                                          
  23123598.19549 121515326.77049    -15865.64549        50.000  

  21895201.26649 115060056.24249       220.86349        49.000  

 16 04 02 12 37 55.0000000  0  2G16G04                                          
  23123900.14149 121516913.49649    -15869.20349        50.000  

  21895197.10949 115060034.40249       216.08249        49.000  

 16 04 02 12 37 55.1000000  0  2G16G04                                          
  23124202.14149 121518500.53149    -15872.20749        50.000  

  21895193.03149 115060012.98049       211.99649        49.000  

 16 04 02 12 37 55.2000000  0  2G16G04                                          
  23124504.21949 121520087.93049    -15875.89149        50.000  

  21895189.05549 115059992.05949       207.00049        49.000  

 16 04 02 12 37 55.3000000  0  2G16G04                                          
  23124806.35249 121521675.66449    -15879.25049        50.000  

  21895185.15649 115059971.59449       202.33249        49.000  

 16 04 02 12 37 55.4000000  0  2G16G04                                          
  23125108.57849 121523263.83649    -15883.69549        50.000  

  21895181.35949 115059951.67249       196.77349        49.000  

 16 04 02 12 37 55.5000000  0  2G16G04                                          
  23125410.86749 121524852.37949    -15887.50449        50.000  

  21895177.66449 115059932.24249       191.71549        49.000  

 16 04 02 12 37 55.6000000  0  2G16G04                                          
  23125713.21949 121526441.26649    -15890.96949        50.000  

  21895174.05549 115059913.27749       187.06649        49.000  

 16 04 02 12 37 55.7000000  0  2G16G04                                          
  23126015.64149 121528030.51649    -15894.44949        50.000  

  21895170.54749 115059894.80549       182.28149        49.000  

 16 04 02 12 37 55.8000000  0  2G16G04                                          
  23126318.14149 121529620.15649    -15898.38349        50.000  

  21895167.12549 115059876.82049       177.41849        49.000  

 16 04 02 12 37 55.9000000  0  2G16G04                                          
  23126620.71149 121531210.16049    -15902.02049        50.000  

  21895163.79749 115059859.33649       172.44549        49.000  

 16 04 02 12 37 56.0000000  0  2G16G04                                          
  23126923.34449 121532800.51649    -15905.43849        50.000  

  21895160.55549 115059842.32449       167.80149        49.000  

 16 04 02 12 37 56.1000000  0  2G16G04                                          
  23127226.03149 121534391.15249    -15908.15249        50.000  

  21895157.39849 115059825.71149       163.89549        49.000  

 16 04 02 12 37 56.2000000  0  2G16G04                                          
  23127528.81249 121535982.24249    -15912.77749        50.000  

  21895154.34449 115059809.66049       158.20349        49.000  

 16 04 02 12 37 56.3000000  0  2G16G04                                          
  23127831.64849 121537573.68049    -15916.34449        50.000  

  21895151.38349 115059794.08249       153.45349        49.000  

 16 04 02 12 37 56.4000000  0  2G16G04                                          
  23128134.56249 121539165.48049    -15920.00049        50.000  

  21895148.50849 115059779.00049       148.49649        49.000  

 16 04 02 12 37 56.5000000  0  2G16G04                                          
  23128437.54749 121540757.67649    -15923.96949        49.000  

  21895145.74249 115059764.43049       143.28949        49.000  

 16 04 02 12 37 56.6000000  0  2G16G04                                          
  23128740.61749 121542350.31649    -15928.36349        50.000  

  21895143.07049 115059750.40649       137.79349        49.000  

 16 04 02 12 37 56.7000000  0  2G16G04                                          
  23129043.75049 121543943.27749    -15931.57449        50.000  

  21895140.48449 115059736.82849       133.36349        49.000  

 16 04 02 12 37 56.8000000  0  2G16G04                                          
  23129346.94549 121545536.59449    -15935.18449        50.000  

  21895137.99249 115059723.73449       128.64849        49.000  

 16 04 02 12 37 56.9000000  0  2G16G04                                          
  23129650.22749 121547130.34049    -15939.40649        50.000  

  21895135.60949 115059711.18449       123.12149        49.000  

 16 04 02 12 37 57.0000000  0  2G16G04                                          
  23129953.58649 121548724.46949    -15943.39849        50.000  

  21895133.31249 115059699.13749       117.85549        49.000  

 16 04 02 12 37 57.1000000  0  2G16G04                                          
  23130256.99249 121550318.91049    -15946.19949        50.000  

  21895131.10249 115059687.52749       113.82849        49.000  

 16 04 02 12 37 57.2000000  0  2G16G04                                          
  23130560.47749 121551913.71549    -15950.07449        50.000  

  21895128.98449 115059676.38749       109.05549        49.000  

 16 04 02 12 37 57.3000000  0  2G16G04                                          
  23130864.02349 121553508.85549    -15953.30949        50.000  

  21895126.95349 115059665.72349       104.38749        49.000  

 16 04 02 12 37 57.4000000  0  2G16G04                                          
  23131167.64149 121555104.39549    -15957.39149        50.000  

  21895125.02349 115059655.56249        99.15649        49.000  

 16 04 02 12 37 57.5000000  0  2G16G04                                          
  23131471.33649 121556700.31249    -15961.32849        50.000  

  21895123.18049 115059645.91049        93.98449        49.000  

 16 04 02 12 37 57.6000000  0  2G16G04                                          
  23131775.09449 121558296.59049    -15964.69549        50.000  

  21895121.43849 115059636.72349        89.47349        49.000  

 16 04 02 12 37 57.7000000  0  2G16G04                                          
  23132078.92249 121559893.22349    -15968.15249        50.000  

  21895119.78149 115059628.02749        84.67649        49.000  

 16 04 02 12 37 57.8000000  0  2G16G04                                          
  23132382.82049 121561490.21949    -15972.02349        50.000  

  21895118.21949 115059619.81649        79.70349        49.000  

 16 04 02 12 37 57.9000000  0  2G16G04                                          
  23132686.80549 121563087.65649    -15976.20349        50.000  

  21895116.75849 115059612.15649        74.24649        49.000  

 16 04 02 12 37 58.0000000  0  2G16G04                                          
  23132990.85249 121564685.41449    -15979.51649        50.000  

  21895115.38349 115059604.93449        69.77049        49.000  

 16 04 02 12 37 58.1000000  0  2G16G04                                          
  23133294.96149 121566283.53149    -15983.27049        50.000  

  21895114.10949 115059598.20349        64.81249        49.000  

 16 04 02 12 37 58.2000000  0  2G16G04                                          
  23133599.14849 121567882.03149    -15986.89549        50.000  

  21895112.92249 115059591.96149        60.02049        49.000  

 16 04 02 12 37 58.3000000  0  2G16G04                                          
  23133903.39149 121569480.84049    -15990.07849        50.000  

  21895111.82049 115059586.16049        55.64149        49.000  

 16 04 02 12 37 58.4000000  0  2G16G04                                          
  23134207.71149 121571080.05549    -15994.16849        50.000  

  21895110.81249 115059580.87949        50.35949        49.000  

 16 04 02 12 37 58.5000000  0  2G16G04                                          
  23134512.10249 121572679.66049    -15998.03149        50.000  

  21895109.90649 115059576.10549        45.41849        49.000  

 16 04 02 12 37 58.6000000  0  2G16G04                                          
  23134816.57049 121574279.64849    -16002.03149        50.000  

  21895109.09449 115059571.84849        40.00449        49.000  

 16 04 02 12 37 58.7000000  0  2G16G04                                          
  23135121.10249 121575879.96949    -16005.15649        50.000  

  21895108.37549 115059568.03149        35.69949        49.000  

 16 04 02 12 37 58.8000000  0  2G16G04                                          
  23135425.71149 121577480.68049    -16009.21949        50.000  

  21895107.74249 115059564.73049        30.48449        49.000  

 16 04 02 12 37 58.9000000  0  2G16G04                                          
  23135730.39149 121579081.81649    -16013.49649        50.000  

  21895107.21949 115059561.97749        25.04349        49.000  

 16 04 02 12 37 59.0000000  0  2G16G04                                          
  23136035.14149 121580683.26649    -16016.64849        50.000  

  21895106.78149 115059559.65249        20.67649        49.000  

 16 04 02 12 37 59.1000000  0  2G16G04                                          
  23136339.95349 121582285.09049    -16019.97349        50.000  

  21895106.43049 115059557.82849        16.06249        49.000  

 16 04 02 12 37 59.2000000  0  2G16G04                                          
  23136644.83649 121583887.23049    -16023.32049        50.000  

  21895106.16449 115059556.44149        11.49649        49.000  

 16 04 02 12 37 59.3000000  0  2G16G04                                          
  23136949.78149 121585489.76249    -16027.15249        50.000  

  21895105.99249 115059555.55949         6.43449        49.000  

 16 04 02 12 37 59.4000000  0  2G16G04                                          
  23137254.81249 121587092.67649    -16030.86349        50.000  

  21895105.92249 115059555.17649         1.61749        49.000  

 16 04 02 12 37 59.5000000  0  2G16G04                                          
  23137559.89849 121588695.94149    -16034.72349        50.000  

  21895105.93849 115059555.27749        -3.51649        49.000  

 16 04 02 12 37 59.6000000  0  2G16G04                                          
  23137865.06249 121590299.55549    -16038.01249        50.000  

  21895106.04749 115059555.83649        -7.86749        49.000  

 16 04 02 12 37 59.7000000  0  2G16G04                                          
  23138170.28949 121591903.53549    -16041.78949        50.000  

  21895106.25049 115059556.89149       -12.94949        49.000  

 16 04 02 12 37 59.8000000  0  2G16G04                                          
  23138475.58649 121593507.89549    -16045.56649        50.000  

  21895106.54749 115059558.44149       -17.89849        49.000  

 16 04 02 12 37 59.9000000  0  2G16G04                                          
  23138780.95349 121595112.62549    -16049.31649        50.000  

  21895106.93049 115059560.48849       -22.83249        49.000  

 16 04 02 12 38  0.0000000  0  2G16G04                                          
  23139086.39149 121596717.67649    -16052.54749        50.000  

  21895107.40649 115059562.96149       -27.18449        49.000  

 16 04 02 12 38  0.1000000  0  2G16G04                                          
  23139391.89149 121598323.09449    -16056.01649        50.000  

  21895107.97749 115059565.94549       -32.01649        49.000  

 16 04 02 12 38  0.2000000  0  2G16G04                                          
  23139697.46949 121599928.91849    -16060.23849        50.000  

  21895108.64149 115059569.44549       -37.36749        49.000  

 16 04 02 12 38  0.3000000  0  2G16G04                                          
  23140003.11749 121601535.10249    -16064.00049        50.000  

  21895109.39149 115059573.41849       -42.27349        49.000  

 16 04 02 12 38  0.4000000  0  2G16G04                                          
  23140308.83649 121603141.68049    -16067.81649        50.000  

  21895110.25049 115059577.92649       -47.56649        49.000  

 16 04 02 12 38  0.5000000  0  2G16G04                                          
  23140614.62549 121604748.62949    -16071.46949        50.000  

  21895111.19549 115059582.89549       -52.19949        49.000  

 16 04 02 12 38  0.6000000  0  2G16G04                                          
  23140920.48449 121606355.91049    -16074.96549        50.000  

  21895112.23449 115059588.33649       -56.84449        49.000  

 16 04 02 12 38  0.7000000  0  2G16G04                                          
  23141226.42249 121607963.62149    -16079.14149        50.000  

  21895113.37549 115059594.34049       -62.37149        49.000  

 16 04 02 12 38  0.8000000  0  2G16G04                                          
  23141532.43049 121609571.69149    -16082.80149        50.000  

  21895114.60949 115059600.80149       -67.18449        49.000  

 16 04 02 12 38  0.9000000  0  2G16G04                                          
  23141838.50849 121611180.13749    -16086.51649        50.000  

  21895115.93049 115059607.76649       -72.06649        49.000  

 16 04 02 12 38  1.0000000  0  2G16G04                                          
  23142144.64849 121612788.93049    -16089.91849        50.000  

  21895117.35249 115059615.20749       -76.89549        49.000  

 16 04 02 12 38  1.1000000  0  2G16G04                                          
  23142450.86749 121614398.12149    -16093.67249        50.000  

  21895118.85949 115059623.16849       -81.95349        49.000  

 16 04 02 12 38  1.2000000  0  2G16G04                                          
  23142757.16449 121616007.69549    -16097.89549        50.000  

  21895120.46949 115059631.61749       -87.16449        49.000  

 16 04 02 12 38  1.3000000  0  2G16G04                                          
  23143063.52349 121617617.64149    -16101.22749        50.000  

  21895122.17249 115059640.55949       -91.68049        49.000  

 16 04 02 12 38  1.4000000  0  2G16G04                                          
  23143369.94549 121619227.89849    -16104.57449        50.000  

  21895123.96149 115059649.96149       -96.52349        49.000  

 16 04 02 12 38  1.5000000  0  2G16G04                                          
  23143676.44549 121620838.55949    -16108.44949        50.000  

  21895125.83649 115059659.85549      -101.34849        49.000  

 16 04 02 12 38  1.6000000  0  2G16G04                                          
  23143983.02349 121622449.60949    -16112.41449        50.000  

  21895127.82049 115059670.27049      -106.49249        49.000  

 16 04 02 12 38  1.7000000  0  2G16G04                                          
  23144289.64849 121624060.97349    -16115.64549        50.000  

  21895129.88349 115059681.11749      -110.87549        49.000  

 16 04 02 12 38  1.8000000  0  2G16G04                                          
  23144596.35949 121625672.72349    -16119.57449        50.000  

  21895132.04749 115059692.49249      -116.18849        49.000  

 16 04 02 12 38  1.9000000  0  2G16G04                                          
  23144903.14849 121627284.93049    -16124.25049        50.000  

  21895134.32049 115059704.43049      -121.96149        49.000  

 16 04 02 12 38  2.0000000  0  2G16G04                                          
  23145210.01649 121628897.52349    -16128.05949        50.000  

  21895136.68849 115059716.86749      -127.02749        49.000  

 16 04 02 12 38  2.1000000  0  2G16G04                                          
  23145516.95349 121630510.45749    -16131.27049        50.000  

  21895139.14149 115059729.77049      -131.50849        49.000  

 16 04 02 12 38  2.2000000  0  2G16G04                                          
  23145823.94549 121632123.70349    -16134.34849        50.000  

  21895141.68049 115059743.12549      -135.83249        49.000  

 16 04 02 12 38  2.3000000  0  2G16G04                                          
  23146131.00849 121633737.33649    -16138.21149        50.000  

  21895144.32049 115059756.96949      -140.82449        49.000  

 16 04 02 12 38  2.4000000  0  2G16G04                                          
  23146438.13349 121635351.29349    -16141.28149        50.000  

  21895147.03949 115059771.25849      -145.08249        49.000  

 16 04 02 12 38  2.5000000  0  2G16G04                                          
  23146745.32849 121636965.59449    -16144.95349        50.000  

  21895149.84449 115059786.02049      -149.96549        49.000  

 16 04 02 12 38  2.6000000  0  2G16G04                                          
  23147052.60249 121638580.30949    -16149.03949        50.000  

  21895152.75849 115059801.31249      -155.27349        49.000  

 16 04 02 12 38  2.7000000  0  2G16G04                                          
  23147359.93849 121640195.38349    -16152.68449        50.000  

  21895155.75849 115059817.09849      -160.20749        49.000  

 16 04 02 12 38  2.8000000  0  2G16G04                                          
  23147667.33649 121641810.76649    -16155.60549        50.000  

  21895158.84449 115059833.29749      -164.23449        49.000  

 16 04 02 12 38  2.9000000  0  2G16G04                                          
  23147974.80549 121643426.52049    -16159.37949        50.000  

  21895162.02349 115059849.99649      -169.23449        49.000  

 16 04 02 12 38  3.0000000  0  2G16G04                                          
  23148282.34449 121645042.67249    -16163.50449        50.000  

  21895165.29749 115059867.19949      -174.44149        49.000  

 16 04 02 12 38  3.1000000  0  2G16G04                                          
  23148589.96949 121646659.22349    -16167.68049        50.000  

  21895168.67249 115059884.95749      -180.05549        49.000  

 16 04 02 12 38  3.2000000  0  2G16G04                                          
  23148897.66449 121648276.16849    -16171.36349        50.000  

  21895172.14849 115059903.20749      -184.87949        49.000  

 16 04 02 12 38  3.3000000  0  2G16G04                                          
  23149205.40649 121649893.39849    -16174.36349        50.000  

  21895175.70349 115059921.86749      -189.12949        49.000  

 16 04 02 12 38  3.4000000  0  2G16G04                                          
  23149513.24249 121651511.08249    -16178.59849        50.000  

  21895179.35949 115059941.10549      -194.55549        49.000  

 16 04 02 12 38  3.5000000  0  2G16G04                                          
  23149821.14849 121653129.11349    -16182.30549        50.000  

  21895183.10949 115059960.80949      -199.46549        49.000  

 16 04 02 12 38  3.6000000  0  2G16G04                                          
  23150129.11749 121654747.48849    -16185.66849        50.000  

  21895186.94549 115059980.97749      -204.01649        49.000  

 16 04 02 12 38  3.7000000  0  2G16G04                                          
  23150437.14849 121656366.22349    -16189.35249        50.000  

  21895190.88349 115060001.63349      -208.98449        49.000  

 16 04 02 12 38  3.8000000  0  2G16G04                                          
  23150745.26649 121657985.35249    -16193.08249        50.000  

  21895194.90649 115060022.79349      -213.90649        49.000  

 16 04 02 12 38  3.9000000  0  2G16G04                                          
  23151053.43849 121659604.82449    -16196.80949        50.000  

  21895199.02349 115060044.43049      -218.92249        49.000  

 16 04 02 12 38  4.0000000  0  2G16G04                                          
  23151361.68849 121661224.70749    -16200.84449        50.000  

  21895203.24249 115060066.59449      -224.16049        49.000  

 16 04 02 12 38  4.1000000  0  2G16G04                                          
  23151670.00849 121662844.91849    -16204.21549        50.000  

  21895207.54749 115060089.21549      -228.71149        49.000  

 16 04 02 12 38  4.2000000  0  2G16G04                                          
  23151978.39849 121664465.53549    -16207.96949        50.000  

  21895211.94549 115060112.34449      -233.64149        49.000  

 16 04 02 12 38  4.3000000  0  2G16G04                                          
  23152286.83649 121666086.39849    -16210.56249        50.000  

  21895216.42249 115060135.86349      -237.49649        49.000  

 16 04 02 12 38  4.4000000  0  2G16G04                                          
  23152595.35249 121667707.67249    -16214.52049        50.000  

  21895221.00049 115060159.89849      -242.58649        49.000  

 16 04 02 12 38  4.5000000  0  2G16G04                                          
  23152903.93849 121669329.29349    -16218.31249        50.000  

  21895225.66449 115060184.41449      -247.52049        49.000  

 16 04 02 12 38  4.6000000  0  2G16G04                                          
  23153212.60949 121670951.36749    -16222.65249        50.000  

  21895230.43849 115060209.51249      -253.31649        49.000  

 16 04 02 12 38  4.7000000  0  2G16G04                                          
  23153521.34449 121672573.77349    -16226.16449        50.000  

  21895235.29749 115060235.04349      -257.93449        49.000  

 16 04 02 12 38  4.8000000  0  2G16G04                                          
  23153830.14849 121674196.57049    -16229.92249        50.000  

  21895240.25849 115060261.10549      -263.12949        49.000  

 16 04 02 12 38  4.9000000  0  2G16G04                                          
  23154139.02349 121675819.71149    -16233.12149        50.000  

  21895245.29749 115060287.61749      -267.43449        49.000  

 16 04 02 12 38  5.0000000  0  2G16G04                                          
  23154447.95349 121677443.15249    -16236.28149        50.000  

  21895250.43049 115060314.55949      -271.74249        49.000  

 16 04 02 12 38  5.1000000  0  2G16G04                                          
  23154756.96949 121679067.02349    -16240.75849        50.000  

  21895255.65649 115060342.05949      -277.43849        49.000  

 16 04 02 12 38  5.2000000  0  2G16G04                                          
  23155066.04749 121680691.24249    -16244.24249        50.000  

  21895260.97749 115060370.02049      -282.14549        49.000  

 16 04 02 12 38  5.3000000  0  2G16G04                                          
  23155375.18849 121682315.79349    -16247.40649        50.000  

  21895266.38349 115060398.43849      -286.53149        49.000  

 16 04 02 12 38  5.4000000  0  2G16G04                                          
  23155684.39849 121683940.71149    -16251.09049        50.000  

  21895271.88349 115060427.33649      -291.33249        49.000  

 16 04 02 12 38  5.5000000  0  2G16G04                                          
  23155993.68849 121685566.03149    -16255.05149        50.000  

  21895277.48449 115060456.78149      -296.75849        49.000  

 16 04 02 12 38  5.6000000  0  2G16G04                                          
  23156303.03949 121687191.68049    -16258.62149        50.000  

  21895283.17249 115060486.66049      -301.40649        49.000  

 16 04 02 12 38  5.7000000  0  2G16G04                                          
  23156612.46149 121688817.68849    -16262.03149        50.000  

  21895288.94549 115060517.01649      -305.94949        49.000  

 16 04 02 12 38  5.8000000  0  2G16G04                                          
  23156921.96149 121690444.11349    -16266.31249        50.000  

  21895294.82849 115060547.91849      -311.36749        49.000  

 16 04 02 12 38  5.9000000  0  2G16G04                                          
  23157231.53149 121692070.91449    -16270.03549        50.000  

  21895300.80549 115060579.31649      -316.39149        49.000  

 16 04 02 12 38  6.0000000  0  2G16G04                                          
  23157541.16449 121693698.04749    -16273.29749        50.000  

  21895306.86749 115060611.18049      -321.05149        49.000  

 16 04 02 12 38  6.1000000  0  2G16G04                                          
  23157850.85949 121695325.50049    -16276.40649        50.000  

  21895313.01649 115060643.47749      -325.33249        49.000  

 16 04 02 12 38  6.2000000  0  2G16G04                                          
  23158160.62549 121696953.35949    -16280.50449        50.000  

  21895319.25849 115060676.30549      -330.64549        49.000  

 16 04 02 12 38  6.3000000  0  2G16G04                                          
  23158470.46949 121698581.57449    -16284.10249        50.000  

  21895325.59449 115060709.59849      -335.31649        49.000  

 16 04 02 12 38  6.4000000  0  2G16G04                                          
  23158780.35949 121700210.08649    -16286.91449        50.000  

  21895332.01649 115060743.33249      -339.56249        49.000  

 16 04 02 12 38  6.5000000  0  2G16G04                                          
  23159090.33649 121701839.02749    -16291.48849        50.000  

  21895338.53949 115060777.60249      -345.08649        49.000  

 16 04 02 12 38  6.6000000  0  2G16G04                                          
  23159400.38349 121703468.32449    -16295.07849        50.000  

  21895345.14849 115060812.35549      -350.09449        49.000  

 16 04 02 12 38  6.7000000  0  2G16G04                                          
  23159710.50049 121705098.01649    -16299.11749        50.000  

  21895351.86749 115060847.63349      -355.39549        49.000  

 16 04 02 12 38  6.8000000  0  2G16G04                                          
  23160020.69549 121706728.09049    -16302.37949        50.000  

  21895358.67249 115060883.39849      -359.83649        49.000  

 16 04 02 12 38  6.9000000  0  2G16G04                                          
  23160330.94549 121708358.44949    -16305.60249        50.000  

  21895365.55549 115060919.59049      -364.30549        49.000  

 16 04 02 12 38  7.0000000  0  2G16G04                                          
  23160641.25849 121709989.16049    -16309.01249        50.000  

  21895372.53149 115060956.24649      -368.86749        49.000  

 16 04 02 12 38  7.1000000  0  2G16G04                                          
  23160951.64849 121711620.27749    -16313.06249        50.000  

  21895379.60949 115060993.43049      -374.15649        49.000  

 16 04 02 12 38  7.2000000  0  2G16G04                                          
  23161262.10249 121713251.73449    -16316.41849        50.000  

  21895386.77349 115061031.07049      -378.69149        49.000  

 16 04 02 12 38  7.3000000  0  2G16G04                                          
  23161572.63349 121714883.59049    -16320.63749        50.000  

  21895394.03949 115061069.25449      -384.33649        49.000  

 16 04 02 12 38  7.4000000  0  2G16G04                                          
  23161883.25049 121716515.90249    -16325.26649        50.000  

  21895401.40649 115061107.99249      -390.05949        49.000  

 16 04 02 12 38  7.5000000  0  2G16G04                                          
  23162193.93049 121718148.52349    -16328.16449        50.000  

  21895408.86749 115061147.18049      -394.21949        49.000  

 16 04 02 12 38  7.6000000  0  2G16G04                                          
  23162504.68049 121719781.51649    -16331.94149        50.000  

  21895416.41449 115061186.85549      -399.25449        49.000  

 16 04 02 12 38  7.7000000  0  2G16G04                                          
  23162815.50049 121721414.87549    -16335.54749        50.000  

  21895424.05549 115061227.01649      -404.05149        49.000  

 16 04 02 12 38  7.8000000  0  2G16G04                                          
  23163126.38349 121723048.59449    -16339.06249        50.000  

  21895431.79749 115061267.66449      -408.77049        49.000  

 16 04 02 12 38  7.9000000  0  2G16G04                                          
  23163437.33649 121724682.66849    -16342.68849        50.000  

  21895439.61749 115061308.78149      -413.59849        49.000  

 16 04 02 12 38  8.0000000  0  2G16G04                                          
  23163748.37549 121726317.18049    -16347.32049        50.000  

  21895447.55549 115061350.47749      -419.46549        49.000  

 16 04 02 12 38  8.1000000  0  2G16G04                                          
  23164059.49249 121727952.09449    -16351.24249        50.000  

  21895455.57849 115061392.68449      -424.60549        49.000  

 16 04 02 12 38  8.2000000  0  2G16G04                                          
  23164370.67249 121729587.35549    -16354.70349        50.000  

  21895463.70349 115061435.35949      -429.28149        49.000  

 16 04 02 12 38  8.3000000  0  2G16G04                                          
  23164681.91449 121731222.94949    -16357.82449        50.000  

  21895471.90649 115061478.50049      -433.73849        49.000  

 16 04 02 12 38  8.4000000  0  2G16G04                                          
  23164993.21949 121732858.86749    -16361.14849        50.000  

  21895480.20349 115061522.08249      -438.23449        49.000  

 16 04 02 12 38  8.5000000  0  2G16G04                                          
  23165304.60249 121734495.19149    -16365.24649        50.000  

  21895488.60249 115061566.19949      -443.60249        49.000  

 16 04 02 12 38  8.6000000  0  2G16G04                                          
  23165616.06249 121736131.95349    -16369.64549        50.000  

  21895497.10249 115061610.86349      -449.17649        49.000  

 16 04 02 12 38  8.7000000  0  2G16G04                                          
  23165927.60249 121737769.07449    -16373.13749        50.000  

  21895505.69549 115061656.00849      -453.87149        49.000  

 16 04 02 12 38  8.8000000  0  2G16G04                                          
  23166239.18849 121739406.48849    -16376.27749        50.000  

  21895514.36749 115061701.59449      -458.38749        49.000  

 16 04 02 12 38  8.9000000  0  2G16G04                                          
  23166550.85949 121741044.34449    -16380.39149        50.000  

  21895523.14149 115061747.71949      -463.58249        49.000  

 16 04 02 12 38  9.0000000  0  2G16G04                                          
  23166862.60249 121742682.53149    -16383.96949        49.000  

  21895532.00849 115061794.30549      -468.39549        49.000  

 16 04 02 12 38  9.1000000  0  2G16G04                                          
  23167174.40649 121744321.09849    -16387.62949        50.000  

  21895540.96949 115061841.40649      -473.24649        49.000  

 16 04 02 12 38  9.2000000  0  2G16G04                                          
  23167486.29749 121745960.04749    -16391.41449        50.000  

  21895550.02349 115061889.00449      -478.44149        49.000  

 16 04 02 12 38  9.3000000  0  2G16G04                                          
  23167798.23449 121747599.29349    -16394.23049        50.000  

  21895559.15649 115061937.01649      -482.42649        49.000  

 16 04 02 12 38  9.4000000  0  2G16G04                                          
  23168110.22749 121749238.86349    -16397.57049        50.000  

  21895568.38349 115061985.49249      -486.96149        49.000  

 16 04 02 12 38  9.5000000  0  2G16G04                                          
  23168422.31249 121750878.87949    -16402.09049        50.000  

  21895577.71149 115062034.52049      -492.64849        49.000  

 16 04 02 12 38  9.6000000  0  2G16G04                                          
  23168734.46949 121752519.25049    -16405.73049        50.000  

  21895587.14149 115062084.04349      -497.75449        49.000  

 16 04 02 12 38  9.7000000  0  2G16G04                                          
  23169046.70349 121754160.06249    -16410.19549        50.000  

  21895596.66449 115062134.10949      -503.29749        49.000  

 16 04 02 12 38  9.8000000  0  2G16G04                                          
  23169359.00049 121755801.16849    -16413.05949        50.000  

  21895606.27349 115062184.59449      -507.31249        49.000  

 16 04 02 12 38  9.9000000  0  2G16G04                                          
  23169671.35949 121757442.63749    -16416.55549        49.000  

  21895615.97749 115062235.58249      -512.09049        49.000  

 16 04 02 12 38 10.0000000  0  2G16G04                                          
  23169983.79749 121759084.47749    -16420.32849        50.000  

  21895625.77349 115062287.07049      -517.30549        49.000  

 16 04 02 12 38 10.1000000  0  2G16G04                                          
  23170296.29749 121760726.69549    -16424.15249        50.000  

  21895635.65649 115062339.03149      -522.07449        49.000  

 16 04 02 12 38 10.2000000  0  2G16G04                                          
  23170608.87549 121762369.28149    -16427.88349        50.000  

  21895645.64849 115062391.50049      -527.16449        49.000  

 16 04 02 12 38 10.3000000  0  2G16G04                                          
  23170921.51649 121764012.23449    -16431.33249        50.000  

  21895655.71949 115062444.45749      -531.85549        49.000  

 16 04 02 12 38 10.4000000  0  2G16G04                                          
  23171234.21949 121765655.50849    -16434.55949        50.000  

  21895665.88349 115062497.85949      -536.31649        49.000  

 16 04 02 12 38 10.5000000  0  2G16G04                                          
  23171546.98449 121767299.11749    -16438.23449        50.000  

  21895676.13349 115062551.71549      -540.94949        49.000  

 16 04 02 12 38 10.6000000  0  2G16G04                                          
  23171859.84449 121768943.18849    -16442.49649        50.000  

  21895686.49249 115062606.16449      -546.71549        49.000  

 16 04 02 12 38 10.7000000  0  2G16G04                                          
  23172172.76649 121770587.60249    -16446.45349        50.000  

  21895696.94549 115062661.08249      -551.82849        49.000  

 16 04 02 12 38 10.8000000  0  2G16G04                                          
  23172485.76649 121772232.43449    -16449.99649        50.000  

  21895707.50049 115062716.53549      -556.80149        49.000  

 16 04 02 12 38 10.9000000  0  2G16G04                                          
  23172798.82849 121773877.55149    -16453.32849        50.000  

  21895718.12549 115062772.38349      -561.09049        49.000  

 16 04 02 12 38 11.0000000  0  2G16G04                                          
  23173111.96149 121775523.10249    -16457.35949        50.000  

  21895728.86749 115062828.81249      -566.55549        49.000  

 16 04 02 12 38 11.1000000  0  2G16G04                                          
  23173425.15649 121777168.97349    -16460.84449        50.000  

  21895739.68849 115062885.68049      -571.17249        49.000  

 16 04 02 12 38 11.2000000  0  2G16G04                                          
  23173738.43849 121778815.25449    -16464.72349        50.000  

  21895750.60949 115062943.06249      -576.12149        49.000  

 16 04 02 12 38 11.3000000  0  2G16G04                                          
  23174051.76649 121780461.80149    -16467.50049        50.000  

  21895761.60949 115063000.86749      -580.28149        49.000  

 16 04 02 12 38 11.4000000  0  2G16G04                                          
  23174365.16449 121782108.73449    -16471.09849        50.000  

  21895772.69549 115063059.14849      -585.12549        49.000  

 16 04 02 12 38 11.5000000  0  2G16G04                                          
  23174678.64149 121783756.05149    -16475.05949        50.000  

  21895783.89149 115063117.96149      -590.46949        49.000  

 16 04 02 12 38 11.6000000  0  2G16G04                                          
  23174992.19549 121785403.77349    -16479.43449        50.000  

  21895795.18049 115063177.29349      -596.02049        49.000  

 16 04 02 12 38 11.7000000  0  2G16G04                                          
  23175305.81249 121787051.84049    -16482.68049        50.000  

  21895806.56249 115063237.10249      -600.57849        49.000  

 16 04 02 12 38 11.8000000  0  2G16G04                                          
  23175619.50049 121788700.29349    -16486.53549        50.000  

  21895818.03149 115063297.40649      -605.48049        49.000  

 16 04 02 12 38 11.9000000  0  2G16G04                                          
  23175933.25849 121790349.10949    -16490.23049        50.000  

  21895829.60249 115063358.20349      -610.41049        49.000  

 16 04 02 12 38 12.0000000  0  2G16G04                                          
  23176247.08649 121791998.28549    -16493.80149        50.000  

  21895841.26649 115063419.48849      -615.27749        49.000  

 16 04 02 12 38 12.1000000  0  2G16G04                                          
  23176560.98449 121793647.84849    -16497.76649        50.000  

  21895853.02349 115063481.28549      -620.55949        49.000  

 16 04 02 12 38 12.2000000  0  2G16G04                                          
  23176874.96149 121795297.77049    -16501.09049        50.000  

  21895864.87549 115063543.55549      -625.06249        49.000  

 16 04 02 12 38 12.3000000  0  2G16G04                                          
  23177189.00049 121796948.07049    -16504.94149        50.000  

  21895876.82049 115063606.33249      -630.16849        49.000  

 16 04 02 12 38 12.4000000  0  2G16G04                                          
  23177503.10949 121798598.74649    -16508.76649        50.000  

  21895888.85949 115063669.61749      -635.32049        49.000  

 16 04 02 12 38 12.5000000  0  2G16G04                                          
  23177817.29749 121800249.78549    -16512.26649        50.000  

  21895900.99249 115063733.37949      -640.02049        49.000  

 16 04 02 12 38 12.6000000  0  2G16G04                                          
  23178131.54749 121801901.18449    -16516.03949        50.000  

  21895913.21949 115063797.62149      -644.85949        49.000  

 16 04 02 12 38 12.7000000  0  2G16G04                                          
  23178445.86749 121803552.96549    -16519.84449        50.000  

  21895925.53949 115063862.37949      -650.05549        49.000  

 16 04 02 12 38 12.8000000  0  2G16G04                                          
  23178760.25849 121805205.10549    -16523.38349        50.000  

  21895937.95349 115063927.61749      -654.88749        49.000  

 16 04 02 12 38 12.9000000  0  2G16G04                                          
  23179074.71949 121806857.59449    -16526.90649        50.000  

  21895950.46149 115063993.32849      -659.57849        49.000  

 16 04 02 12 38 13.0000000  0  2G16G04                                          
  23179389.24249 121808510.42249    -16530.28949        50.000  

  21895963.05549 115064059.50449      -664.22349        49.000  

 16 04 02 12 38 13.1000000  0  2G16G04                                          
  23179703.83649 121810163.64549    -16534.28949        50.000  

  21895975.74249 115064126.19549      -669.34849        49.000  

 16 04 02 12 38 13.2000000  0  2G16G04                                          
  23180018.50849 121811817.21949    -16537.69549        50.000  

  21895988.53149 115064193.37549      -674.19549        49.000  

 16 04 02 12 38 13.3000000  0  2G16G04                                          
  23180333.25849 121813471.24649    -16542.25049        50.000  

  21896001.41449 115064261.10549      -679.72349        49.000  

 16 04 02 12 38 13.4000000  0  2G16G04                                          
  23180648.06249 121815125.55949    -16544.99649        50.000  

  21896014.39149 115064329.27349      -683.99249        49.000  

 16 04 02 12 38 13.5000000  0  2G16G04                                          
  23180962.94549 121816780.26649    -16549.07849        50.000  

  21896027.45349 115064397.93849      -689.05949        49.000  

 16 04 02 12 38 13.6000000  0  2G16G04                                          
  23181277.89149 121818435.35249    -16552.75449        50.000  

  21896040.61749 115064467.11749      -694.10949        49.000  

 16 04 02 12 38 13.7000000  0  2G16G04                                          
  23181592.91449 121820090.77749    -16556.14149        50.000  

  21896053.86749 115064536.75849      -698.71949        49.000  

 16 04 02 12 38 13.8000000  0  2G16G04                                          
  23181908.00049 121821746.57849    -16559.93849        50.000  

  21896067.21949 115064606.89849      -703.81649        49.000  

 16 04 02 12 38 13.9000000  0  2G16G04                                          
  23182223.16449 121823402.79749    -16564.31249        50.000  

  21896080.66449 115064677.58249      -709.32849        49.000  

 16 04 02 12 38 14.0000000  0  2G16G04                                          
  23182538.40649 121825059.40249    -16567.95349        50.000  

  21896094.21149 115064748.77749      -714.41449        49.000  

 16 04 02 12 38 14.1000000  0  2G16G04                                          
  23182853.70349 121826716.31249    -16571.25449        50.000  

  21896107.84449 115064820.39849      -718.71949        49.000  

 16 04 02 12 38 14.2000000  0  2G16G04                                          
  23183169.08649 121828373.65249    -16575.25049        50.000  

  21896121.57849 115064892.58649      -724.19949        49.000  

 16 04 02 12 38 14.3000000  0  2G16G04                                          
  23183484.53949 121830031.35249    -16579.09049        50.000  

  21896135.40649 115064965.23849      -729.14849        49.000  

 16 04 02 12 38 14.4000000  0  2G16G04                                          
  23183800.06249 121831689.41849    -16582.50449        50.000  

  21896149.32849 115065038.39549      -733.89849        49.000  

 16 04 02 12 38 14.5000000  0  2G16G04                                          
  23184115.63349 121833347.77749    -16585.38349        50.000  

  21896163.32849 115065111.96149      -737.91049        49.000  

 16 04 02 12 38 14.6000000  0  2G16G04                                          
  23184431.28149 121835006.50049    -16589.25049        50.000  

  21896177.42249 115065186.01649      -743.00449        49.000  

 16 04 02 12 38 14.7000000  0  2G16G04                                          
  23184747.01649 121836665.69149    -16593.74649        50.000  

  21896191.62549 115065260.67249      -748.91049        49.000  

 16 04 02 12 38 14.8000000  0  2G16G04                                          
  23185062.80549 121838325.18849    -16597.05949        50.000  

  21896205.91449 115065335.75049      -753.32449        49.000  

 16 04 02 12 38 14.9000000  0  2G16G04                                          
  23185378.67249 121839985.06249    -16600.70749        50.000  

  21896220.29749 115065411.33649      -758.22749        49.000  

 16 04 02 12 38 15.0000000  0  2G16G04                                          
  23185694.60249 121841645.29749    -16604.34449        50.000  

  21896234.77349 115065487.40249      -763.11749        49.000  

 16 04 02 12 38 15.1000000  0  2G16G04                                          
  23186010.60249 121843305.88749    -16607.84849        50.000  

  21896249.34449 115065563.95349      -767.95349        49.000  

 16 04 02 12 38 15.2000000  0  2G16G04                                          
  23186326.67249 121844966.85549    -16611.49649        50.000  

  21896264.00049 115065641.00449      -772.83649        49.000  

 16 04 02 12 38 15.3000000  0  2G16G04                                          
  23186642.81249 121846628.17249    -16615.18049        50.000  

  21896278.75849 115065718.53549      -777.69149        49.000  

 16 04 02 12 38 15.4000000  0  2G16G04                                          
  23186959.03149 121848289.93049    -16619.66449        50.000  

  21896293.61749 115065796.61349      -783.23049        49.000  

 16 04 02 12 38 15.5000000  0  2G16G04                                          
  23187275.30549 121849951.96149    -16622.13749        50.000  

  21896308.55549 115065875.10549      -787.24649        49.000  

 16 04 02 12 38 15.6000000  0  2G16G04                                          
  23187591.65649 121851614.35549    -16625.99249        50.000  

  21896323.57849 115065954.07849      -792.16449        49.000  

 16 04 02 12 38 15.7000000  0  2G16G04                                          
  23187908.07049 121853277.14849    -16629.81649        50.000  

  21896338.70349 115066033.58249      -797.28549        49.000  

 16 04 02 12 38 15.8000000  0  2G16G04                                          
  23188224.55549 121854940.27349    -16633.31649        50.000  

  21896353.92249 115066113.53949      -802.08649        49.000  

 16 04 02 12 38 15.9000000  0  2G16G04                                          
  23188541.10949 121856603.80149    -16637.20349        50.000  

  21896369.23449 115066194.02749      -807.26649        49.000  

 16 04 02 12 38 16.0000000  0  2G16G04                                          
  23188857.73449 121858267.65649    -16640.55949        50.000  

  21896384.63349 115066274.95749      -811.71549        49.000  

 16 04 02 12 38 16.1000000  0  2G16G04                                          
  23189174.42249 121859931.88349    -16644.17649        50.000  

  21896400.13349 115066356.38749      -816.61349        49.000  

 16 04 02 12 38 16.2000000  0  2G16G04                                          
  23189491.18849 121861596.48849    -16648.08249        50.000  

  21896415.72749 115066438.33249      -821.86349        49.000  

 16 04 02 12 38 16.3000000  0  2G16G04                                          
  23189808.01649 121863261.40249    -16650.94149        50.000  

  21896431.39849 115066520.69149      -825.91449        49.000  

 16 04 02 12 38 16.4000000  0  2G16G04                                          
  23190124.92249 121864926.76249    -16655.60249        50.000  

  21896447.18849 115066603.64149      -831.83649        49.000  

 16 04 02 12 38 16.5000000  0  2G16G04                                          
  23190441.89849 121866592.46549    -16658.80949        50.000  

  21896463.05549 115066687.05149      -836.41449        49.000  

 16 04 02 12 38 16.6000000  0  2G16G04                                          
  23190758.93049 121868258.50449    -16662.44149        50.000  

  21896479.01649 115066770.92249      -841.22749        49.000  

 16 04 02 12 38 16.7000000  0  2G16G04                                          
  23191076.04749 121869924.94549    -16666.29749        50.000  

  21896495.07849 115066855.31649      -846.35249        49.000  

 16 04 02 12 38 16.8000000  0  2G16G04                                          
  23191393.23449 121871591.77749    -16670.41449        50.000  

  21896511.23449 115066940.22349      -851.64149        49.000  

 16 04 02 12 38 16.9000000  0  2G16G04                                          
  23191710.47749 121873258.92649    -16673.47349        50.000  

  21896527.47749 115067025.58649      -855.99649        49.000  

 16 04 02 12 38 17.0000000  0  2G16G04                                          
  23192027.80549 121874926.46949    -16677.38349        50.000  

  21896543.82049 115067111.45749      -861.17649        49.000  

 16 04 02 12 38 17.1000000  0  2G16G04                                          
  23192345.19549 121876594.36349    -16681.03549        50.000  

  21896560.25049 115067197.81249      -866.02349        49.000  

 16 04 02 12 38 17.2000000  0  2G16G04                                          
  23192662.64849 121878262.62549    -16684.62149        50.000  

  21896576.78149 115067284.65249      -870.82049        49.000  

 16 04 02 12 38 17.3000000  0  2G16G04                                          
  23192980.18849 121879931.27749    -16688.37549        50.000  

  21896593.39849 115067372.00849      -875.91449        49.000  

 16 04 02 12 38 17.4000000  0  2G16G04                                          
  23193297.78149 121881600.25049    -16691.87949        50.000  

  21896610.10949 115067459.82049      -880.68449        49.000  

 16 04 02 12 38 17.5000000  0  2G16G04                                          
  23193615.45349 121883269.62549    -16695.71549        50.000  

  21896626.92249 115067548.15249      -885.74249        49.000  

 16 04 02 12 38 17.6000000  0  2G16G04                                          
  23193933.18049 121884939.28549    -16698.54749        50.000  

  21896643.80549 115067636.89549      -889.82049        49.000  

 16 04 02 12 38 17.7000000  0  2G16G04                                          
  23194250.98449 121886609.34849    -16702.42249        50.000  

  21896660.78949 115067726.16049      -894.88349        49.000  

 16 04 02 12 38 17.8000000  0  2G16G04                                          
  23194568.85249 121888279.75449    -16705.88349        50.000  

  21896677.86749 115067815.90649      -899.75049        49.000  

 16 04 02 12 38 17.9000000  0  2G16G04                                          
  23194886.79749 121889950.55549    -16710.00049        50.000  

  21896695.04749 115067906.16449      -905.01649        49.000  

 16 04 02 12 38 18.0000000  0  2G16G04                                          
  23195204.81249 121891621.75449    -16713.91449        50.000  

  21896712.32049 115067996.94149      -910.25449        49.000  

 16 04 02 12 38 18.1000000  0  2G16G04                                          
  23195522.89149 121893293.27349    -16717.17649        50.000  

  21896729.68049 115068088.17649      -914.75849        49.000  

