     2.10           Observation         G (GPS)             RINEX VERSION / TYPE
novaRinex v2.1 9/07 ARL:UT/GPSTk        20160822 162835 UTC PGM / RUN BY / DATE
                                                            MARKER NAME
                    ARL:UT/GPSTk                            OBSERVER / AGENCY
                    Novatel             OEM4                REC # / TYPE / VERS
                                                            ANT # / TYPE
        0.0000        0.0000        0.0000                  APPROX POSITION XYZ
        0.0000        0.0000        0.0000                  ANTENNA: DELTA H/E/N
     1     1                                                WAVELENGTH FACT L1/2
     4    C1    L1    D1    S1                              # / TYPES OF OBSERV
     0.100                                                  INTERVAL
  2016     4     2    12     1    7.0000000                 TIME OF FIRST OBS
  2016     4     2    14    32   24.4000000                 TIME OF LAST OBS
Created by GPSTK program novaRinex v2.1 9/072016/08/22 16:28COMMENT
    25                                                      # OF SATELLITES
   G01     1     1     1     1                              PRN / # OF OBS
   G02  1358  1358  1358  1358                              PRN / # OF OBS
   G03     2     2     2     2                              PRN / # OF OBS
   G04  2082  2082  2082  2082                              PRN / # OF OBS
   G05   778   778   778   778                              PRN / # OF OBS
   G09     1     1     1     1                              PRN / # OF OBS
   G10   784   784   784   784                              PRN / # OF OBS
   G11     2     2     2     2                              PRN / # OF OBS
   G12   816   816   816   816                              PRN / # OF OBS
   G13   524   524   524   524                              PRN / # OF OBS
   G14     4     4     4     4                              PRN / # OF OBS
   G15   774   774   774   774                              PRN / # OF OBS
   G17   845   845   845   845                              PRN / # OF OBS
   G18   847   847   847   847                              PRN / # OF OBS
   G19  1420  1420  1420  1420                              PRN / # OF OBS
   G20   525   525   525   525                              PRN / # OF OBS
   G21     3     3     3     3                              PRN / # OF OBS
   G22     4     4     4     4                              PRN / # OF OBS
   G24  1361  1361  1361  1361                              PRN / # OF OBS
   G25  1491  1491  1491  1491                              PRN / # OF OBS
   G28  1479  1479  1479  1479                              PRN / # OF OBS
   G29  1428  1428  1428  1428                              PRN / # OF OBS
   G30     2     2     2     2                              PRN / # OF OBS
   G31     1     1     1     1                              PRN / # OF OBS
   G32     1     1     1     1                              PRN / # OF OBS
                                                            END OF HEADER
 16  4  2 12  1  7.0000000  0  1G11
  22258542.500   116969429.242        2904.883          50.000  
 16  4  2 12  1  7.1000000  0  3G01G11G24
  23995668.109   126098086.465        3647.816          48.000  
  22258487.234   116969138.824        2902.891          50.000  
  24523162.953   128870089.773       -2216.164          48.000  
 16  4  2 12  1  7.2000000  0  1G24
  24523205.164   128870311.605       -2219.633          48.000  
 16  4  2 12  1  7.3000000  0  1G24
  24523247.438   128870533.707       -2222.414          48.000  
 16  4  2 12  1  7.4000000  0  1G24
  24523289.750   128870756.051       -2224.898          48.000  
 16  4  2 12  1  7.5000000  0  1G24
  24523332.141   128870978.746       -2228.211          48.000  
 16  4  2 12  1  7.6000000  0  1G24
  24523374.586   128871201.801       -2232.102          48.000  
 16  4  2 12  1  7.7000000  0  1G24
  24523417.109   128871425.199       -2235.734          48.000  
 16  4  2 12  1  7.8000000  0  1G24
  24523459.672   128871648.879       -2238.480          48.000  
 16  4  2 12  1  7.9000000  0  1G24
  24523502.305   128871872.828       -2240.891          48.000  
 16  4  2 12  1  8.0000000  0  1G24
  24523544.992   128872097.176       -2244.922          48.000  
 16  4  2 12  1  8.1000000  0  1G24
  24523587.742   128872321.777       -2247.500          48.000  
 16  4  2 12  1  8.2000000  0  1G24
  24523630.547   128872546.727       -2250.945          48.000  
 16  4  2 12  1  8.3000000  0  1G24
  24523673.383   128872771.902       -2253.082          48.000  
 16  4  2 12  1  8.4000000  0  1G24
  24523716.297   128872997.406       -2256.387          48.000  
 16  4  2 12  1  8.5000000  0  1G24
  24523759.266   128873223.242       -2259.930          48.000  
 16  4  2 12  1  8.6000000  0  1G24
  24523802.305   128873449.441       -2263.566          48.000  
 16  4  2 12  1  8.7000000  0  1G24
  24523845.406   128873675.910       -2266.359          48.000  
 16  4  2 12  1  8.8000000  0  1G24
  24523888.570   128873902.746       -2269.980          48.000  
 16  4  2 12  1  8.9000000  0  1G24
  24523931.773   128874129.824       -2272.363          48.000  
 16  4  2 12  1  9.0000000  0  1G24
  24523975.055   128874357.246       -2275.691          48.000  
 16  4  2 12  1  9.1000000  0  1G24
  24524018.406   128874585.008       -2279.031          48.000  
 16  4  2 12  1  9.2000000  0  1G24
  24524061.789   128874813.004       -2281.504          48.000  
 16  4  2 12  1  9.3000000  0  1G24
  24524105.227   128875041.363       -2285.004          48.000  
 16  4  2 12  1  9.4000000  0  1G24
  24524148.742   128875270.055       -2288.535          48.000  
 16  4  2 12  1  9.5000000  0  1G24
  24524192.336   128875499.121       -2292.285          48.000  
 16  4  2 12  1  9.6000000  0  1G24
  24524235.984   128875728.496       -2295.406          48.000  
 16  4  2 12  1  9.7000000  0  1G24
  24524279.695   128875958.121       -2297.637          48.000  
 16  4  2 12  1  9.8000000  0  1G24
  24524323.445   128876188.035       -2300.465          48.000  
 16  4  2 12  1  9.9000000  0  1G24
  24524367.258   128876418.273       -2303.754          48.000  
 16  4  2 12  1 10.0000000  0  1G24
  24524411.133   128876648.855       -2307.387          48.000  
 16  4  2 12  1 10.1000000  0  1G24
  24524455.062   128876879.707       -2309.984          48.000  
 16  4  2 12  1 10.2000000  0  1G24
  24524499.047   128877110.836       -2312.660          48.000  
 16  4  2 12  1 10.3000000  0  1G24
  24524543.086   128877342.293       -2315.883          48.000  
 16  4  2 12  1 10.4000000  0  1G24
  24524587.188   128877574.012       -2318.566          48.000  
 16  4  2 12  1 10.5000000  0  1G24
  24524631.344   128877806.098       -2322.422          48.000  
 16  4  2 12  1 10.6000000  0  1G24
  24524675.570   128878038.496       -2325.320          48.000  
 16  4  2 12  1 10.7000000  0  1G24
  24524719.852   128878271.215       -2328.801          48.000  
 16  4  2 12  1 10.8000000  0  1G24
  24524764.188   128878504.203       -2331.297          48.000  
 16  4  2 12  1 10.9000000  0  1G24
  24524808.578   128878737.543       -2334.945          48.000  
 16  4  2 12  1 11.0000000  0  1G24
  24524853.047   128878971.215       -2338.340          48.000  
 16  4  2 12  1 11.1000000  0  1G24
  24524897.570   128879205.145       -2340.688          48.000  
 16  4  2 12  1 11.2000000  0  1G24
  24524942.133   128879439.355       -2343.461          48.000  
 16  4  2 12  1 11.3000000  0  1G24
  24524986.758   128879673.871       -2346.566          48.000  
 16  4  2 12  1 11.4000000  0  1G24
  24525031.438   128879908.688       -2349.633          48.000  
 16  4  2 12  1 11.5000000  0  1G24
  24525076.195   128880143.855       -2353.363          48.000  
 16  4  2 12  1 11.6000000  0  1G24
  24525121.008   128880379.324       -2356.375          48.000  
 16  4  2 12  1 11.7000000  0  1G24
  24525165.883   128880615.121       -2359.418          48.000  
 16  4  2 12  1 11.8000000  0  1G24
  24525210.812   128880851.223       -2362.500          48.000  
 16  4  2 12  1 11.9000000  0  1G24
  24525255.812   128881087.652       -2365.922          48.000  
 16  4  2 12  1 12.0000000  0  1G24
  24525300.859   128881324.383       -2368.922          48.000  
 16  4  2 12  1 12.1000000  0  1G24
  24525345.977   128881561.480       -2372.461          48.000  
 16  4  2 12  1 12.2000000  0  1G24
  24525391.141   128881798.855       -2375.285          48.000  
 16  4  2 12  1 12.3000000  0  1G24
  24525436.359   128882036.496       -2377.805          48.000  
 16  4  2 12  1 12.4000000  0  1G24
  24525481.641   128882274.453       -2380.883          48.000  
 16  4  2 12  1 12.5000000  0  1G24
  24525526.961   128882512.680       -2383.578          48.000  
 16  4  2 12  1 12.6000000  0  1G24
  24525572.367   128882751.254       -2387.309          48.000  
 16  4  2 12  1 12.7000000  0  1G24
  24525617.844   128882990.203       -2390.934          48.000  
 16  4  2 12  1 12.8000000  0  1G24
  24525663.359   128883229.410       -2393.574          48.000  
 16  4  2 12  1 12.9000000  0  1G24
  24525708.953   128883468.945       -2396.852          48.000  
 16  4  2 12  1 13.0000000  0  1G24
  24525754.586   128883708.762       -2399.676          48.000  
 16  4  2 12  1 13.1000000  0  1G24
  24525800.297   128883948.953       -2403.414          48.000  
 16  4  2 12  1 13.2000000  0  1G24
  24525846.047   128884189.387       -2405.918          48.000  
 16  4  2 12  1 13.3000000  0  1G24
  24525891.859   128884430.133       -2409.031          48.000  
 16  4  2 12  1 13.4000000  0  1G24
  24525937.734   128884671.211       -2412.312          48.000  
 16  4  2 12  1 13.5000000  0  1G24
  24525983.680   128884912.582       -2415.078          48.000  
 16  4  2 12  1 13.6000000  0  1G24
  24526029.656   128885154.199       -2417.613          48.000  
 16  4  2 12  1 13.7000000  0  1G24
  24526075.695   128885396.137       -2420.801          48.000  
 16  4  2 12  1 13.8000000  0  1G24
  24526121.805   128885638.461       -2424.930          48.000  
 16  4  2 12  1 13.9000000  0  1G24
  24526167.961   128885881.078       -2427.738          48.000  
 16  4  2 12  1 14.0000000  0  1G24
  24526214.188   128886123.977       -2430.531          48.000  
 16  4  2 12  1 14.1000000  0  1G24
  24526260.469   128886367.219       -2433.910          48.000  
 16  4  2 12  1 14.2000000  0  1G24
  24526306.820   128886610.781       -2437.223          48.000  
 16  4  2 12  1 14.3000000  0  1G24
  24526353.211   128886854.617       -2439.734          48.000  
 16  4  2 12  1 14.4000000  0  1G24
  24526399.664   128887098.762       -2442.898          48.000  
 16  4  2 12  1 14.5000000  0  1G24
  24526446.172   128887343.211       -2446.000          48.000  
 16  4  2 12  1 14.6000000  0  1G24
  24526492.750   128887587.984       -2449.297          48.000  
 16  4  2 12  1 14.7000000  0  1G24
  24526539.391   128887833.066       -2452.352          48.000  
 16  4  2 12  1 14.8000000  0  1G24
  24526586.086   128888078.457       -2455.375          48.000  
 16  4  2 12  1 14.9000000  0  1G24
  24526632.836   128888324.137       -2458.234          48.000  
 16  4  2 12  1 15.0000000  0  1G24
  24526679.633   128888570.059       -2460.570          48.000  
 16  4  2 12  1 15.1000000  0  1G24
  24526726.500   128888816.324       -2463.914          48.000  
 16  4  2 12  1 15.2000000  0  1G24
  24526773.414   128889062.863       -2466.863          48.000  
 16  4  2 12  1 15.3000000  0  1G24
  24526820.391   128889309.770       -2470.664          48.000  
 16  4  2 12  1 15.4000000  0  1G24
  24526867.430   128889556.977       -2473.590          48.000  
 16  4  2 12  1 15.5000000  0  1G24
  24526914.516   128889804.371       -2475.395          48.000  
 16  4  2 12  1 15.6000000  0  1G24
  24526961.664   128890052.160       -2479.320          48.000  
 16  4  2 12  1 15.7000000  0  1G24
  24527008.883   128890300.270       -2482.719          48.000  
 16  4  2 12  1 15.8000000  0  1G24
  24527056.156   128890548.688       -2485.785          48.000  
 16  4  2 12  1 15.9000000  0  1G24
  24527103.477   128890797.359       -2488.160          48.000  
 16  4  2 12  1 16.0000000  0  1G24
  24527150.883   128891046.457       -2492.566          48.000  
 16  4  2 12  1 16.1000000  0  1G24
  24527198.328   128891295.801       -2495.059          48.000  
 16  4  2 12  1 16.2000000  0  1G24
  24527245.852   128891545.535       -2498.871          48.000  
 16  4  2 12  1 16.3000000  0  1G24
  24527293.422   128891795.492       -2501.098          48.000  
 16  4  2 12  1 16.4000000  0  1G24
  24527341.039   128892045.742       -2503.805          48.000  
 16  4  2 12  1 16.5000000  0  1G24
  24527388.711   128892296.277       -2506.844          48.000  
 16  4  2 12  1 16.6000000  0  1G24
  24527436.453   128892547.176       -2510.266          48.000  
 16  4  2 12  1 16.7000000  0  1G24
  24527484.242   128892798.305       -2512.938          48.000  
 16  4  2 12  1 16.8000000  0  1G24
  24527532.102   128893049.793       -2516.332          48.000  
 16  4  2 12  1 16.9000000  0  1G24
  24527580.016   128893301.625       -2519.777          48.000  
 16  4  2 12  1 17.0000000  0  1G24
  24527627.992   128893553.727       -2522.504          48.000  
 16  4  2 12  1 17.1000000  0  1G24
  24527676.008   128893806.090       -2525.133          48.000  
 16  4  2 12  1 17.2000000  0  1G24
  24527724.102   128894058.816       -2528.539          48.000  
 16  4  2 12  1 17.3000000  0  1G24
  24527772.250   128894311.836       -2531.625          48.000  
 16  4  2 12  1 17.4000000  0  1G24
  24527820.461   128894565.164       -2534.723          48.000  
 16  4  2 12  1 17.5000000  0  1G24
  24527868.719   128894818.773       -2537.488          48.000  
 16  4  2 12  1 17.6000000  0  1G24
  24527917.031   128895072.664       -2540.328          48.000  
 16  4  2 12  1 17.7000000  0  1G24
  24527965.406   128895326.902       -2544.062          48.000  
 16  4  2 12  1 17.8000000  0  1G24
  24528013.867   128895581.562       -2548.121          48.000  
 16  4  2 12  1 17.9000000  0  1G24
  24528062.359   128895836.395       -2549.789          48.000  
 16  4  2 12  1 18.0000000  0  1G24
  24528110.922   128896091.590       -2553.309          48.000  
 16  4  2 12  1 18.1000000  0  1G24
  24528159.555   128896347.098       -2556.613          48.000  
 16  4  2 12  1 18.2000000  0  1G24
  24528208.234   128896602.926       -2559.793          48.000  
 16  4  2 12  1 18.3000000  0  1G24
  24528256.977   128896859.055       -2562.812          48.000  
 16  4  2 12  1 18.4000000  0  1G24
  24528305.781   128897115.547       -2566.383          48.000  
 16  4  2 12  1 18.5000000  0  1G24
  24528354.656   128897372.355       -2569.578          48.000  
 16  4  2 12  1 18.6000000  0  1G24
  24528403.562   128897629.387       -2571.758          48.000  
 16  4  2 12  1 18.7000000  0  1G24
  24528452.539   128897886.770       -2575.199          48.000  
 16  4  2 12  1 18.8000000  0  1G24
  24528501.570   128898144.422       -2577.977          48.000  
 16  4  2 12  1 18.9000000  0  1G24
  24528550.648   128898402.395       -2581.020          48.000  
 16  4  2 12  1 19.0000000  0  1G24
  24528599.789   128898660.633       -2583.914          48.000  
 16  4  2 12  1 19.1000000  0  1G24
  24528649.008   128898919.223       -2587.336          48.000  
 16  4  2 12  1 19.2000000  0  1G24
  24528698.266   128899178.090       -2590.160          48.000  
 16  4  2 12  1 19.3000000  0  1G24
  24528747.594   128899437.281       -2593.371          48.000  
 16  4  2 12  1 19.4000000  0  1G24
  24528796.969   128899696.734       -2595.980          48.000  
 16  4  2 12  1 19.5000000  0  1G24
  24528846.406   128899956.535       -2599.441          48.000  
 16  4  2 12  1 19.6000000  0  1G24
  24528895.891   128900216.613       -2602.227          48.000  
 16  4  2 12  1 19.7000000  0  1G24
  24528945.445   128900477.023       -2605.688          48.000  
 16  4  2 12  1 19.8000000  0  1G24
  24528995.062   128900737.750       -2608.648          48.000  
 16  4  2 12  1 19.9000000  0  1G24
  24529044.719   128900998.762       -2611.430          48.000  
 16  4  2 12  1 20.0000000  0  1G24
  24529094.453   128901260.109       -2614.980          48.000  
 16  4  2 12  1 20.1000000  0  1G24
  24529144.242   128901521.734       -2617.734          48.000  
 16  4  2 12  1 20.2000000  0  1G24
  24529194.078   128901783.621       -2620.367          48.000  
 16  4  2 12  1 20.3000000  0  1G24
  24529243.969   128902045.809       -2623.176          48.000  
 16  4  2 12  1 20.4000000  0  1G24
  24529293.922   128902308.316       -2626.699          48.000  
 16  4  2 12  1 20.5000000  0  1G24
  24529343.945   128902571.168       -2629.977          48.000  
 16  4  2 12  1 20.6000000  0  1G24
  24529394.023   128902834.324       -2633.160          48.000  
 16  4  2 12  1 20.7000000  0  1G24
  24529444.172   128903097.805       -2636.352          48.000  
 16  4  2 12  1 20.8000000  0  1G24
  24529494.367   128903361.590       -2639.277          48.000  
 16  4  2 12  1 20.9000000  0  1G24
  24529544.617   128903625.656       -2642.199          48.000  
 16  4  2 12  1 21.0000000  0  1G24
  24529594.938   128903890.113       -2646.074          48.000  
 16  4  2 12  1 21.1000000  0  1G24
  24529645.328   128904154.852       -2648.934          48.000  
 16  4  2 12  1 21.2000000  0  1G24
  24529695.742   128904419.801       -2650.895          48.000  
 16  4  2 12  1 21.3000000  0  1G24
  24529746.227   128904685.070       -2653.941          48.000  
 16  4  2 12  1 21.4000000  0  1G24
  24529796.758   128904950.637       -2657.039          48.000  
 16  4  2 12  1 21.5000000  0  1G24
  24529847.359   128905216.512       -2660.215          48.000  
 16  4  2 12  1 21.6000000  0  1G24
  24529898.023   128905482.766       -2664.008          48.000  
 16  4  2 12  1 21.7000000  0  1G24
  24529948.734   128905749.285       -2666.730          48.000  
 16  4  2 12  1 21.8000000  0  1G24
  24529999.516   128906016.121       -2669.840          48.000  
 16  4  2 12  1 21.9000000  0  1G24
  24530050.359   128906283.293       -2673.277          48.000  
 16  4  2 12  1 22.0000000  0  1G24
  24530101.250   128906550.730       -2675.832          48.000  
 16  4  2 12  1 22.1000000  0  1G24
  24530152.195   128906818.480       -2678.836          48.000  
 16  4  2 12  1 22.2000000  0  1G24
  24530203.203   128907086.504       -2681.586          48.000  
 16  4  2 12  1 22.3000000  0  1G24
  24530254.266   128907354.859       -2684.785          48.000  
 16  4  2 12  1 22.4000000  0  1G24
  24530305.391   128907623.516       -2688.070          48.000  
 16  4  2 12  1 22.5000000  0  1G24
  24530356.586   128907892.555       -2691.891          48.000  
 16  4  2 12  1 22.6000000  0  1G24
  24530407.828   128908161.836       -2694.426          48.000  
 16  4  2 12  1 22.7000000  0  1G24
  24530459.133   128908431.426       -2697.219          48.000  
 16  4  2 12  1 22.8000000  0  1G24
  24530510.492   128908701.328       -2700.605          48.000  
 16  4  2 12  1 22.9000000  0  1G24
  24530561.898   128908971.480       -2702.840          48.000  
 16  4  2 12  1 23.0000000  0  1G24
  24530613.359   128909241.910       -2705.820          48.000  
 16  4  2 12  1 23.1000000  0  1G24
  24530664.906   128909512.770       -2710.031          48.000  
 16  4  2 12  1 23.2000000  0  1G24
  24530716.492   128909783.879       -2712.695          48.000  
 16  4  2 12  1 23.3000000  0  1G24
  24530768.148   128910055.312       -2715.719          48.000  
 16  4  2 12  1 23.4000000  0  1G24
  24530819.859   128910327.035       -2718.734          48.000  
 16  4  2 12  1 23.5000000  0  1G24
  24530871.609   128910599.008       -2721.199          48.000  
 16  4  2 12  1 23.6000000  0  1G24
  24530923.438   128910871.340       -2724.656          48.000  
 16  4  2 12  1 23.7000000  0  1G24
  24530975.328   128911143.980       -2727.930          48.000  
 16  4  2 12  1 23.8000000  0  1G24
  24531027.258   128911416.902       -2730.840          48.000  
 16  4  2 12  1 23.9000000  0  1G24
  24531079.266   128911690.172       -2734.094          48.000  
 16  4  2 12  1 24.0000000  0  1G24
  24531131.328   128911963.730       -2737.246          48.000  
 16  4  2 12  1 24.1000000  0  1G24
  24531183.430   128912237.621       -2740.285          48.000  
 16  4  2 12  1 24.2000000  0  1G24
  24531235.609   128912511.797       -2743.309          48.000  
 16  4  2 12  1 24.3000000  0  1G24
  24531287.828   128912786.238       -2745.918          48.000  
 16  4  2 12  1 24.4000000  0  1G24
  24531340.117   128913060.996       -2748.871          48.000  
 16  4  2 12  1 24.5000000  0  1G24
  24531392.469   128913336.070       -2752.238          48.000  
 16  4  2 12  1 24.6000000  0  1G24
  24531444.875   128913611.500       -2755.738          48.000  
 16  4  2 12  1 24.7000000  0  1G24
  24531497.344   128913887.223       -2758.660          48.000  
 16  4  2 12  1 24.8000000  0  1G24
  24531549.883   128914163.305       -2762.453          48.000  
 16  4  2 12  1 24.9000000  0  1G24
  24531602.469   128914439.613       -2764.664          48.000  
 16  4  2 12  1 25.0000000  0  1G24
  24531655.109   128914716.258       -2767.844          48.000  
 16  4  2 12  1 25.1000000  0  1G24
  24531707.812   128914993.188       -2770.707          48.000  
 16  4  2 12  1 25.2000000  0  1G24
  24531760.570   128915270.434       -2774.000          48.000  
 16  4  2 12  1 25.3000000  0  1G24
  24531813.391   128915547.992       -2777.020          48.000  
 16  4  2 12  1 25.4000000  0  1G24
  24531866.266   128915825.844       -2779.957          48.000  
 16  4  2 12  1 25.5000000  0  1G24
  24531919.188   128916103.984       -2782.895          48.000  
 16  4  2 12  1 25.6000000  0  1G24
  24531972.188   128916382.469       -2786.223          48.000  
 16  4  2 12  1 25.7000000  0  1G24
  24532025.234   128916661.238       -2789.348          48.000  
 16  4  2 12  1 25.8000000  0  1G24
  24532078.375   128916940.477       -2793.836          48.000  
 16  4  2 12  1 25.9000000  0  1G24
  24532131.539   128917219.875       -2795.641          48.000  
 16  4  2 12  1 26.0000000  0  1G24
  24532184.766   128917499.590       -2798.375          48.000  
 16  4  2 12  1 26.1000000  0  1G24
  24532238.031   128917779.512       -2800.629          48.000  
 16  4  2 12  1 26.2000000  0  1G24
  24532291.359   128918059.762       -2803.633          48.000  
 16  4  2 12  1 26.3000000  0  1G24
  24532344.734   128918340.277       -2806.512          48.000  
 16  4  2 12  1 26.4000000  0  1G24
  24532398.180   128918621.133       -2809.895          48.000  
 16  4  2 12  1 26.5000000  0  1G24
  24532451.695   128918902.297       -2813.148          48.000  
 16  4  2 12  1 26.6000000  0  1G24
  24532505.250   128919183.730       -2815.746          48.000  
 16  4  2 12  1 26.7000000  0  1G24
  24532558.867   128919465.512       -2819.379          48.000  
 16  4  2 12  1 26.8000000  0  1G24
  24532612.547   128919747.594       -2822.348          48.000  
 16  4  2 12  1 26.9000000  0  1G24
  24532666.281   128920029.949       -2824.922          48.000  
 16  4  2 12  1 27.0000000  0  1G24
  24532720.078   128920312.664       -2828.621          48.000  
 16  4  2 12  1 27.1000000  0  1G24
  24532773.938   128920595.668       -2831.449          48.000  
 16  4  2 12  1 27.2000000  0  1G24
  24532827.852   128920878.992       -2834.711          48.000  
 16  4  2 12  1 27.3000000  0  1G24
  24532881.836   128921162.688       -2838.508          48.000  
 16  4  2 12  1 27.4000000  0  1G24
  24532935.875   128921446.664       -2841.223          48.000  
 16  4  2 12  1 27.5000000  0  1G24
  24532989.961   128921730.895       -2843.645          48.000  
 16  4  2 12  1 27.6000000  0  1G24
  24533044.117   128922015.488       -2847.367          48.000  
 16  4  2 12  1 27.7000000  0  1G24
  24533098.312   128922300.355       -2850.074          48.000  
 16  4  2 12  1 27.8000000  0  1G24
  24533152.578   128922585.527       -2853.145          48.000  
 16  4  2 12  1 27.9000000  0  1G24
  24533206.922   128922871.059       -2856.758          48.000  
 16  4  2 12  1 28.0000000  0  1G24
  24533261.312   128923156.898       -2859.980          48.000  
 16  4  2 12  1 28.1000000  0  1G24
  24533315.750   128923442.988       -2862.242          48.000  
 16  4  2 12  1 28.2000000  0  1G24
  24533370.242   128923729.336       -2864.781          48.000  
 16  4  2 12  1 28.3000000  0  1G24
  24533424.797   128924016.016       -2868.203          48.000  
 16  4  2 12  1 28.4000000  0  1G24
  24533479.406   128924302.977       -2870.996          48.000  
 16  4  2 12  1 28.5000000  0  1G24
  24533534.070   128924590.266       -2874.309          48.000  
 16  4  2 12  1 28.6000000  0  1G24
  24533588.789   128924877.816       -2876.938          48.000  
 16  4  2 12  1 28.7000000  0  1G24
  24533643.586   128925165.727       -2880.535          48.000  
 16  4  2 12  1 28.8000000  0  1G24
  24533698.422   128925453.895       -2883.238          48.000  
 16  4  2 12  1 28.9000000  0  1G24
  24533753.336   128925742.414       -2886.770          48.000  
 16  4  2 12  1 29.0000000  0  1G24
  24533808.289   128926031.211       -2889.523          48.000  
 16  4  2 12  1 29.1000000  0  1G24
  24533863.297   128926320.285       -2892.090          48.000  
 16  4  2 12  1 29.2000000  0  1G24
  24533918.367   128926609.703       -2895.602          48.000  
 16  4  2 12  1 29.3000000  0  1G24
  24533973.516   128926899.484       -2899.137          48.000  
 16  4  2 12  1 29.4000000  0  1G24
  24534028.703   128927189.516       -2901.820          48.000  
 16  4  2 12  1 29.5000000  0  1G24
  24534083.969   128927479.910       -2905.434          48.000  
 16  4  2 12  1 29.6000000  0  1G24
  24534139.281   128927770.586       -2908.309          48.000  
 16  4  2 12  1 29.7000000  0  1G24
  24534194.656   128928061.570       -2911.219          48.000  
 16  4  2 12  1 29.8000000  0  1G24
  24534250.086   128928352.848       -2914.203          48.000  
 16  4  2 12  1 29.9000000  0  1G24
  24534305.570   128928644.422       -2917.148          48.000  
 16  4  2 12  1 30.0000000  0  1G24
  24534361.109   128928936.305       -2920.145          48.000  
 16  4  2 12  1 30.1000000  0  1G24
  24534416.719   128929228.492       -2923.520          48.000  
 16  4  2 12  1 30.2000000  0  1G24
  24534472.375   128929520.973       -2926.320          48.000  
 16  4  2 12  1 30.3000000  0  1G24
  24534528.094   128929813.766       -2929.309          48.000  
 16  4  2 12  1 30.4000000  0  1G24
  24534583.867   128930106.867       -2932.602          48.000  
 16  4  2 12  1 30.5000000  0  1G24
  24534639.703   128930400.289       -2935.711          48.000  
 16  4  2 12  1 30.6000000  0  1G24
  24534695.609   128930694.047       -2939.082          48.000  
 16  4  2 12  1 30.7000000  0  1G24
  24534751.562   128930988.109       -2942.051          48.000  
 16  4  2 12  1 30.8000000  0  1G24
  24534807.578   128931282.461       -2944.871          48.000  
 16  4  2 12  1 30.9000000  0  1G24
  24534863.648   128931577.102       -2947.805          48.000  
 16  4  2 12  1 31.0000000  0  1G24
  24534919.789   128931872.102       -2951.551          48.000  
 16  4  2 12  1 31.1000000  0  1G24
  24534975.977   128932167.359       -2954.109          48.000  
 16  4  2 12  1 31.2000000  0  1G24
  24535032.234   128932462.973       -2957.414          48.000  
 16  4  2 12  1 31.3000000  0  1G24
  24535088.531   128932758.863       -2960.367          48.000  
 16  4  2 12  1 31.4000000  0  1G24
  24535144.898   128933055.055       -2963.523          48.000  
 16  4  2 12  1 31.5000000  0  1G24
  24535201.328   128933351.578       -2966.746          48.000  
 16  4  2 12  1 31.6000000  0  1G24
  24535257.805   128933648.352       -2969.262          48.000  
 16  4  2 12  1 31.7000000  0  1G24
  24535314.344   128933945.457       -2972.355          48.000  
 16  4  2 12  1 31.8000000  0  1G24
  24535370.930   128934242.820       -2974.957          48.000  
 16  4  2 12  1 31.9000000  0  1G24
  24535427.586   128934540.531       -2978.520          48.000  
 16  4  2 12  1 32.0000000  0  1G24
  24535484.289   128934838.527       -2981.594          48.000  
 16  4  2 12  1 32.1000000  0  1G24
  24535541.055   128935136.816       -2984.273          48.000  
 16  4  2 12  1 32.2000000  0  1G24
  24535597.875   128935435.422       -2987.289          48.000  
 16  4  2 12  1 32.3000000  0  1G24
  24535654.773   128935734.375       -2991.031          48.000  
 16  4  2 12  1 32.4000000  0  1G24
  24535711.719   128936033.621       -2993.977          48.000  
 16  4  2 12  1 32.5000000  0  1G24
  24535768.719   128936333.180       -2997.109          48.000  
 16  4  2 12  1 32.6000000  0  1G24
  24535825.773   128936633.004       -2999.602          48.000  
 16  4  2 12  1 32.7000000  0  1G24
  24535882.891   128936933.160       -3003.012          48.000  
 16  4  2 12  1 32.8000000  0  1G24
  24535940.062   128937233.605       -3005.961          48.000  
 16  4  2 12  1 32.9000000  0  1G24
  24535997.305   128937534.402       -3009.484          48.000  
 16  4  2 12  1 33.0000000  0  1G24
  24536054.602   128937835.492       -3012.312          48.000  
 16  4  2 12  1 33.1000000  0  1G24
  24536111.953   128938136.867       -3015.355          48.000  
 16  4  2 12  1 33.2000000  0  1G24
  24536169.375   128938438.656       -3019.332          48.000  
 16  4  2 12  1 33.3000000  0  1G24
  24536226.844   128938740.637       -3021.301          48.000  
 16  4  2 12  1 33.4000000  0  1G24
  24536284.367   128939042.914       -3024.281          48.000  
 16  4  2 12  1 33.5000000  0  1G24
  24536341.953   128939345.539       -3027.684          48.000  
 16  4  2 12  1 33.6000000  0  1G24
  24536399.602   128939648.453       -3030.586          48.000  
 16  4  2 12  1 33.7000000  0  1G24
  24536457.273   128939951.598       -3032.852          48.000  
 16  4  2 12  1 33.8000000  0  1G24
  24536515.031   128940255.109       -3036.500          48.000  
 16  4  2 12  1 33.9000000  0  1G24
  24536572.867   128940559.004       -3040.430          48.000  
 16  4  2 12  1 34.0000000  0  1G24
  24536630.750   128940863.164       -3043.133          48.000  
 16  4  2 12  1 34.1000000  0  1G24
  24536688.680   128941167.629       -3045.926          48.000  
 16  4  2 12  1 34.2000000  0  1G24
  24536746.688   128941472.445       -3049.602          48.000  
 16  4  2 12  1 34.3000000  0  1G24
  24536804.758   128941777.590       -3053.082          48.000  
 16  4  2 12  1 34.4000000  0  1G24
  24536862.875   128942083.004       -3055.684          48.000  
 16  4  2 12  1 34.5000000  0  1G24
  24536921.047   128942388.691       -3058.285          48.000  
 16  4  2 12  1 34.6000000  0  1G24
  24536979.258   128942694.617       -3060.707          48.000  
 16  4  2 12  1 34.7000000  0  1G24
  24537037.539   128943000.863       -3063.762          48.000  
 16  4  2 12  1 34.8000000  0  1G24
  24537095.867   128943307.387       -3066.688          48.000  
 16  4  2 12  1 34.9000000  0  1G24
  24537154.266   128943614.258       -3070.457          48.000  
 16  4  2 12  1 35.0000000  0  1G24
  24537212.727   128943921.496       -3073.633          48.000  
 16  4  2 12  1 35.1000000  0  1G24
  24537271.219   128944228.902       -3075.727          48.000  
 16  4  2 12  1 35.2000000  0  1G24
  24537329.789   128944536.676       -3079.148          48.000  
 16  4  2 12  1 35.3000000  0  1G24
  24537388.414   128944844.793       -3082.770          48.000  
 16  4  2 12  1 35.4000000  0  1G24
  24537447.094   128945153.148       -3085.137          48.000  
 16  4  2 12  1 35.5000000  0  1G24
  24537505.828   128945461.777       -3087.699          48.000  
 16  4  2 12  1 35.6000000  0  1G24
  24537564.617   128945770.707       -3090.730          48.000  
 16  4  2 12  1 35.7000000  0  1G24
  24537623.469   128946079.984       -3094.098          48.000  
 16  4  2 12  1 35.8000000  0  1G24
  24537682.375   128946389.520       -3096.949          48.000  
 16  4  2 12  1 35.9000000  0  1G24
  24537741.352   128946699.449       -3100.770          48.000  
 16  4  2 12  1 36.0000000  0  1G24
  24537800.391   128947009.695       -3103.988          48.000  
 16  4  2 12  1 36.1000000  0  1G24
  24537859.469   128947320.176       -3106.566          48.000  
 16  4  2 12  1 36.2000000  0  1G24
  24537918.617   128947630.996       -3109.480          48.000  
 16  4  2 12  1 36.3000000  0  1G24
  24537977.820   128947942.117       -3112.660          48.000  
 16  4  2 12  1 36.4000000  0  1G24
  24538037.078   128948253.527       -3115.598          48.000  
 16  4  2 12  1 36.5000000  0  1G24
  24538096.398   128948565.250       -3118.684          48.000  
 16  4  2 12  1 36.6000000  0  1G24
  24538155.773   128948877.273       -3121.758          48.000  
 16  4  2 12  1 36.7000000  0  1G24
  24538215.195   128949189.562       -3124.324          48.000  
 16  4  2 12  1 36.8000000  0  1G24
  24538274.695   128949502.254       -3128.352          48.000  
 16  4  2 12  1 36.9000000  0  1G24
  24538334.258   128949815.270       -3131.727          48.000  
 16  4  2 12  1 37.0000000  0  1G24
  24538393.867   128950128.523       -3133.984          48.000  
 16  4  2 12  1 37.1000000  0  1G24
  24538453.523   128950442.012       -3136.418          48.000  
 16  4  2 12  1 37.2000000  0  1G24
  24538513.250   128950755.859       -3139.809          48.000  
 16  4  2 12  1 37.3000000  0  1G24
  24538573.047   128951070.078       -3143.656          48.000  
 16  4  2 12  1 37.4000000  0  1G24
  24538632.898   128951384.578       -3146.543          48.000  
 16  4  2 12  1 37.5000000  0  1G24
  24538692.789   128951699.332       -3149.070          48.000  
 16  4  2 12  1 37.6000000  0  1G24
  24538752.734   128952014.355       -3151.605          48.000  
 16  4  2 12  1 37.7000000  0  1G24
  24538812.758   128952329.762       -3155.414          48.000  
 16  4  2 12  1 37.8000000  0  1G24
  24538872.836   128952645.465       -3158.535          48.000  
 16  4  2 12  1 37.9000000  0  1G24
  24538932.961   128952961.418       -3161.137          48.000  
 16  4  2 12  1 38.0000000  0  1G24
  24538993.148   128953277.703       -3164.238          48.000  
 16  4  2 12  1 38.1000000  0  1G24
  24539053.375   128953594.254       -3166.781          48.000  
 16  4  2 12  1 38.2000000  0  1G24
  24539113.680   128953911.137       -3170.250          48.000  
 16  4  2 12  1 38.3000000  0  1G24
  24539174.047   128954228.359       -3173.707          48.000  
 16  4  2 12  1 38.4000000  0  1G24
  24539234.461   128954545.844       -3176.289          48.000  
 16  4  2 12  1 38.5000000  0  1G24
  24539294.922   128954863.594       -3179.125          48.000  
 16  4  2 12  1 38.6000000  0  1G24
  24539355.461   128955181.723       -3182.578          48.000  
 16  4  2 12  1 38.7000000  0  1G24
  24539416.047   128955500.105       -3185.160          48.000  
 16  4  2 12  1 38.8000000  0  1G24
  24539476.695   128955818.812       -3188.520          48.000  
 16  4  2 12  1 38.9000000  0  1G24
  24539537.414   128956137.871       -3191.953          48.000  
 16  4  2 12  1 39.0000000  0  1G24
  24539598.172   128956457.172       -3194.562          48.000  
 16  4  2 12  1 39.1000000  0  1G24
  24539659.000   128956776.840       -3197.914          48.000  
 16  4  2 12  1 39.2000000  0  1G24
  24539719.883   128957096.797       -3200.965          48.000  
 16  4  2 12  1 39.3000000  0  1G24
  24539780.820   128957417.043       -3203.871          48.000  
 16  4  2 12  1 39.4000000  0  1G24
  24539841.820   128957737.578       -3206.824          48.000  
 16  4  2 12  1 39.5000000  0  1G24
  24539902.875   128958058.438       -3210.133          48.000  
 16  4  2 12  1 39.6000000  0  1G24
  24539963.984   128958379.602       -3213.062          48.000  
 16  4  2 12  1 39.7000000  0  1G24
  24540025.172   128958701.109       -3216.594          48.000  
 16  4  2 12  1 39.8000000  0  1G24
  24540086.406   128959022.891       -3219.379          48.000  
 16  4  2 12  1 39.9000000  0  1G24
  24540147.695   128959344.996       -3222.414          48.000  
 16  4  2 12  1 40.0000000  0  1G24
  24540209.039   128959667.359       -3224.941          48.000  
 16  4  2 12  1 40.1000000  0  1G24
  24540270.438   128959990.008       -3227.980          48.000  
 16  4  2 12  1 40.2000000  0  1G24
  24540331.906   128960313.016       -3231.543          48.000  
 16  4  2 12  1 40.3000000  0  1G24
  24540393.422   128960636.285       -3234.227          48.000  
 16  4  2 12  1 40.4000000  0  1G24
  24540455.000   128960959.875       -3237.488          48.000  
 16  4  2 12  1 40.5000000  0  1G24
  24540516.648   128961283.809       -3240.941          48.000  
 16  4  2 12  1 40.6000000  0  1G24
  24540578.344   128961608.020       -3243.676          48.000  
 16  4  2 12  1 40.7000000  0  1G24
  24540640.109   128961932.574       -3247.164          48.000  
 16  4  2 12  1 40.8000000  0  1G24
  24540701.930   128962257.453       -3250.301          48.000  
 16  4  2 12  1 40.9000000  0  1G24
  24540763.805   128962582.609       -3253.184          48.000  
 16  4  2 12  1 41.0000000  0  1G24
  24540825.734   128962908.070       -3256.168          48.000  
 16  4  2 12  1 41.1000000  0  1G24
  24540887.719   128963233.805       -3258.742          48.000  
 16  4  2 12  1 41.2000000  0  1G24
  24540949.773   128963559.879       -3261.965          48.000  
 16  4  2 12  1 41.3000000  0  1G24
  24541011.867   128963886.176       -3264.414          48.000  
 16  4  2 12  1 41.4000000  0  1G24
  24541074.016   128964212.785       -3267.398          48.000  
 16  4  2 12  1 41.5000000  0  1G24
  24541136.234   128964539.715       -3270.805          48.000  
 16  4  2 12  1 41.6000000  0  1G24
  24541198.500   128964866.941       -3273.828          48.000  
 16  4  2 12  1 41.7000000  0  1G24
  24541260.828   128965194.457       -3276.547          48.000  
 16  4  2 12  1 41.8000000  0  1G24
  24541323.211   128965522.273       -3279.641          48.000  
 16  4  2 12  1 41.9000000  0  1G24
  24541385.648   128965850.422       -3282.934          48.000  
 16  4  2 12  1 42.0000000  0  1G24
  24541448.156   128966178.879       -3286.059          48.000  
 16  4  2 12  1 42.1000000  0  1G24
  24541510.719   128966507.645       -3289.047          48.000  
 16  4  2 12  1 42.2000000  0  1G24
  24541573.336   128966836.699       -3291.988          48.000  
 16  4  2 12  1 42.3000000  0  1G24
  24541635.992   128967165.980       -3294.219          48.000  
 16  4  2 12  1 42.4000000  0  1G24
  24541698.719   128967495.613       -3297.805          48.000  
 16  4  2 12  1 42.5000000  0  1G24
  24541761.516   128967825.598       -3301.410          48.000  
 16  4  2 12  1 42.6000000  0  1G24
  24541824.359   128968155.859       -3304.098          48.000  
 16  4  2 12  1 42.7000000  0  1G24
  24541887.273   128968486.441       -3307.176          48.000  
 16  4  2 12  1 42.8000000  0  1G24
  24541950.227   128968817.273       -3309.781          48.000  
 16  4  2 12  1 42.9000000  0  1G24
  24542013.242   128969148.398       -3312.578          48.000  
 16  4  2 12  1 43.0000000  0  1G24
  24542076.320   128969479.902       -3316.551          48.000  
 16  4  2 12  1 43.1000000  0  1G24
  24542139.461   128969811.676       -3319.070          48.000  
 16  4  2 12  1 43.2000000  0  1G24
  24542202.641   128970143.703       -3321.734          48.000  
 16  4  2 12  1 43.3000000  0  1G24
  24542265.891   128970476.074       -3325.125          48.000  
 16  4  2 12  1 43.4000000  0  1G24
  24542329.195   128970808.742       -3328.066          48.000  
 16  4  2 12  1 43.5000000  0  1G24
  24542392.539   128971141.621       -3330.191          48.000  
 16  4  2 12  1 43.6000000  0  1G24
  24542455.961   128971474.887       -3334.062          48.000  
 16  4  2 12  1 43.7000000  0  1G24
  24542519.438   128971808.461       -3337.238          48.000  
 16  4  2 12  1 43.8000000  0  1G24
  24542582.961   128972142.285       -3339.578          48.000  
 16  4  2 12  1 43.9000000  0  1G24
  24542646.547   128972476.441       -3342.895          48.000  
 16  4  2 12  1 44.0000000  0  1G24
  24542710.195   128972810.930       -3346.578          48.000  
 16  4  2 12  1 44.1000000  0  1G24
  24542773.914   128973145.711       -3349.242          48.000  
 16  4  2 12  1 44.2000000  0  1G24
  24542837.664   128973480.750       -3351.738          48.000  
 16  4  2 12  1 44.3000000  0  1G24
  24542901.477   128973816.105       -3355.133          48.000  
 16  4  2 12  1 44.4000000  0  1G24
  24542965.359   128974151.816       -3358.484          48.000  
 16  4  2 12  1 44.5000000  0  1G24
  24543029.297   128974487.793       -3361.312          48.000  
 16  4  2 12  1 44.6000000  0  1G24
  24543093.289   128974824.082       -3364.395          48.000  
 16  4  2 12  1 44.7000000  0  1G24
  24543157.336   128975160.664       -3367.258          48.000  
 16  4  2 12  1 44.8000000  0  1G24
  24543221.445   128975497.574       -3370.508          48.000  
 16  4  2 12  1 44.9000000  0  1G24
  24543285.609   128975834.773       -3373.500          48.000  
 16  4  2 12  1 45.0000000  0  1G24
  24543349.836   128976172.285       -3376.695          48.000  
 16  4  2 12  1 45.1000000  0  1G24
  24543414.125   128976510.129       -3379.707          48.000  
 16  4  2 12  1 45.2000000  0  1G24
  24543478.453   128976848.180       -3382.078          48.000  
 16  4  2 12  1 45.3000000  0  1G24
  24543542.844   128977186.574       -3385.230          48.000  
 16  4  2 12  1 45.4000000  0  1G24
  24543607.297   128977525.246       -3388.094          48.000  
 16  4  2 12  1 45.5000000  0  1G24
  24543671.812   128977864.273       -3391.797          48.000  
 16  4  2 12  1 45.6000000  0  1G24
  24543736.383   128978203.598       -3394.758          48.000  
 16  4  2 12  1 45.7000000  0  1G24
  24543801.016   128978543.262       -3398.188          48.000  
 16  4  2 12  1 45.8000000  0  1G24
  24543865.711   128978883.227       -3401.191          48.000  
 16  4  2 12  1 45.9000000  0  1G24
  24543930.469   128979223.516       -3404.449          48.000  
 16  4  2 12  1 46.0000000  0  1G24
  24543995.281   128979564.105       -3407.418          48.000  
 16  4  2 12  1 46.1000000  0  1G24
  24544060.164   128979905.062       -3411.156          48.000  
 16  4  2 12  1 46.2000000  0  1G24
  24544125.094   128980246.297       -3413.844          48.000  
 16  4  2 12  1 46.3000000  0  1G24
  24544190.078   128980587.770       -3415.988          48.000  
 16  4  2 12  1 46.4000000  0  1G24
  24544255.117   128980929.586       -3419.426          48.000  
 16  4  2 12  1 46.5000000  0  1G24
  24544320.219   128981271.664       -3422.141          48.000  
 16  4  2 12  1 46.6000000  0  1G24
  24544385.367   128981614.008       -3424.883          48.000  
 16  4  2 12  1 46.7000000  0  1G24
  24544450.578   128981956.688       -3428.359          48.000  
 16  4  2 12  1 46.8000000  0  1G24
  24544515.852   128982299.723       -3431.859          48.000  
 16  4  2 12  1 46.9000000  0  1G24
  24544581.188   128982643.020       -3434.633          48.000  
 16  4  2 12  1 47.0000000  0  1G24
  24544646.570   128982986.582       -3437.082          48.000  
 16  4  2 12  1 47.1000000  0  1G24
  24544712.016   128983330.488       -3440.445          48.000  
 16  4  2 12  1 47.2000000  0  1G24
  24544777.500   128983674.637       -3443.047          48.000  
 16  4  2 12  1 47.3000000  0  1G24
  24544843.055   128984019.078       -3445.828          48.000  
 16  4  2 12  1 47.4000000  0  1G24
  24544908.664   128984363.852       -3449.121          48.000  
 16  4  2 12  1 47.5000000  0  1G24
  24544974.336   128984708.977       -3452.844          48.000  
 16  4  2 12  1 47.6000000  0  1G24
  24545040.070   128985054.422       -3456.121          48.000  
 16  4  2 12  1 47.7000000  0  1G24
  24545105.852   128985400.121       -3458.336          48.000  
 16  4  2 12  1 47.8000000  0  1G24
  24545171.688   128985746.098       -3461.016          48.000  
 16  4  2 12  1 47.9000000  0  1G24
  24545237.586   128986092.395       -3464.465          48.000  
 16  4  2 12  1 48.0000000  0  1G24
  24545303.547   128986439.035       -3467.910          48.000  
 16  4  2 12  1 48.1000000  0  1G24
  24545369.562   128986785.961       -3470.699          48.000  
 16  4  2 12  1 48.2000000  0  1G24
  24545435.648   128987133.238       -3474.359          48.000  
 16  4  2 12  1 48.3000000  0  1G24
  24545501.773   128987480.754       -3476.578          48.000  
 16  4  2 12  1 48.4000000  0  1G24
  24545567.961   128987828.578       -3479.660          48.000  
 16  4  2 12  1 48.5000000  0  1G24
  24545634.211   128988176.715       -3482.766          48.000  
 16  4  2 12  1 48.6000000  0  1G24
  24545700.516   128988525.176       -3486.332          48.000  
 16  4  2 12  1 48.7000000  0  1G24
  24545766.898   128988873.957       -3489.258          48.000  
 16  4  2 12  1 48.8000000  0  1G24
  24545833.320   128989223.031       -3492.402          48.000  
 16  4  2 12  1 48.9000000  0  1G24
  24545899.805   128989572.383       -3494.871          48.000  
 16  4  2 12  1 49.0000000  0  1G24
  24545966.336   128989922.008       -3497.734          48.000  
 16  4  2 12  1 49.1000000  0  1G24
  24546032.914   128990271.883       -3499.973          48.000  
 16  4  2 12  1 49.2000000  0  1G24
  24546099.547   128990622.070       -3503.297          48.000  
 16  4  2 12  1 49.3000000  0  1G24
  24546166.242   128990972.562       -3506.453          48.000  
 16  4  2 12  1 49.4000000  0  1G24
  24546233.008   128991323.445       -3510.477          48.000  
 16  4  2 12  1 49.5000000  0  1G24
  24546299.836   128991674.594       -3513.113          48.000  
 16  4  2 12  1 49.6000000  0  1G24
  24546366.711   128992026.020       -3515.781          48.000  
 16  4  2 12  1 49.7000000  0  1G24
  24546433.648   128992377.742       -3518.465          48.000  
 16  4  2 12  1 49.8000000  0  1G24
  24546500.641   128992729.805       -3522.273          48.000  
 16  4  2 12  1 49.9000000  0  1G24
  24546567.703   128993082.195       -3525.375          48.000  
 16  4  2 12  1 50.0000000  0  1G24
  24546634.812   128993434.867       -3528.129          48.000  
 16  4  2 12  1 50.1000000  0  1G24
  24546701.977   128993787.809       -3530.867          48.000  
 16  4  2 12  1 50.2000000  0  1G24
  24546769.203   128994141.090       -3534.273          48.000  
 16  4  2 12  1 50.3000000  0  1G24
  24546836.492   128994494.691       -3537.348          48.000  
 16  4  2 12  1 50.4000000  0  1G24
  24546903.836   128994848.590       -3540.410          48.000  
 16  4  2 12  1 50.5000000  0  1G24
  24546971.234   128995202.789       -3543.492          48.000  
 16  4  2 12  1 50.6000000  0  1G24
  24547038.695   128995557.309       -3546.734          48.000  
 16  4  2 12  1 50.7000000  0  1G24
  24547106.219   128995912.141       -3549.977          48.000  
 16  4  2 12  1 50.8000000  0  1G24
  24547173.789   128996267.258       -3552.562          48.000  
 16  4  2 12  1 50.9000000  0  1G24
  24547241.422   128996622.637       -3555.250          48.000  
 16  4  2 12  1 51.0000000  0  1G24
  24547309.117   128996978.391       -3558.965          48.000  
 16  4  2 12  1 51.1000000  0  1G24
  24547376.867   128997334.418       -3561.973          48.000  
 16  4  2 12  1 51.2000000  0  1G24
  24547444.688   128997690.805       -3565.238          48.000  
 16  4  2 12  1 51.3000000  0  1G24
  24547512.555   128998047.445       -3567.918          48.000  
 16  4  2 12  1 51.4000000  0  1G24
  24547580.477   128998404.363       -3570.516          48.000  
 16  4  2 12  1 51.5000000  0  1G24
  24547648.453   128998761.621       -3573.938          48.000  
 16  4  2 12  1 51.6000000  0  1G24
  24547716.500   128999119.215       -3577.590          48.000  
 16  4  2 12  1 51.7000000  0  1G24
  24547784.602   128999477.090       -3580.398          48.000  
 16  4  2 12  1 51.8000000  0  1G24
  24547852.758   128999835.277       -3583.359          48.000  
 16  4  2 12  1 51.9000000  0  1G24
  24547920.977   129000193.754       -3586.090          48.000  
 16  4  2 12  1 52.0000000  0  1G24
  24547989.250   129000552.523       -3589.137          48.000  
 16  4  2 12  1 52.1000000  0  1G24
  24548057.586   129000911.590       -3592.160          48.000  
 16  4  2 12  1 52.2000000  0  1G24
  24548125.961   129001270.922       -3594.742          48.000  
 16  4  2 12  1 52.3000000  0  1G24
  24548194.414   129001630.633       -3598.586          48.000  
 16  4  2 12  1 52.4000000  0  1G24
  24548262.922   129001990.660       -3601.734          48.000  
 16  4  2 12  1 52.5000000  0  1G24
  24548331.469   129002350.891       -3603.555          48.000  
 16  4  2 12  1 52.6000000  0  1G24
  24548400.078   129002711.395       -3606.473          48.000  
 16  4  2 12  1 52.7000000  0  1G24
  24548468.742   129003072.234       -3609.754          48.000  
 16  4  2 12  1 52.8000000  0  1G24
  24548537.461   129003433.355       -3612.750          48.000  
 16  4  2 12  1 52.9000000  0  1G24
  24548606.250   129003794.820       -3616.039          48.000  
 16  4  2 12  1 53.0000000  0  1G24
  24548675.086   129004156.566       -3618.906          48.000  
 16  4  2 12  1 53.1000000  0  1G24
  24548743.984   129004518.617       -3622.086          48.000  
 16  4  2 12  1 53.2000000  0  1G24
  24548812.938   129004880.961       -3624.965          48.000  
 16  4  2 12  1 53.3000000  0  1G24
  24548881.945   129005243.609       -3627.652          48.000  
 16  4  2 12  1 53.4000000  0  1G24
  24548951.008   129005606.516       -3630.367          48.000  
 16  4  2 12  1 53.5000000  0  1G24
  24549020.125   129005969.750       -3633.621          48.000  
 16  4  2 12  1 53.6000000  0  1G24
  24549089.289   129006333.219       -3636.105          48.000  
 16  4  2 12  1 53.7000000  0  1G24
  24549158.523   129006697.020       -3639.508          48.000  
 16  4  2 12  1 53.8000000  0  1G24
  24549227.820   129007061.180       -3643.000          48.000  
 16  4  2 12  1 53.9000000  0  1G24
  24549297.164   129007425.613       -3646.086          48.000  
 16  4  2 12  1 54.0000000  0  1G24
  24549366.578   129007790.367       -3649.051          48.000  
 16  4  2 12  1 54.1000000  0  1G24
  24549436.023   129008155.344       -3651.043          48.000  
 16  4  2 12  1 54.2000000  0  1G24
  24549505.539   129008520.641       -3654.289          48.000  
 16  4  2 12  1 54.3000000  0  1G24
  24549575.109   129008886.285       -3657.719          48.000  
 16  4  2 12  1 54.4000000  0  1G24
  24549644.734   129009252.156       -3660.094          48.000  
 16  4  2 12  1 54.5000000  0  1G24
  24549714.422   129009618.363       -3663.441          48.000  
 16  4  2 12  1 54.6000000  0  1G24
  24549784.172   129009984.895       -3666.797          48.000  
 16  4  2 12  1 54.7000000  0  1G24
  24549853.977   129010351.746       -3670.070          48.000  
 16  4  2 12  1 54.8000000  0  1G24
  24549923.844   129010718.891       -3672.934          48.000  
 16  4  2 12  1 54.9000000  0  1G24
  24549993.773   129011086.340       -3676.020          48.000  
 16  4  2 12  1 55.0000000  0  1G24
  24550063.750   129011454.062       -3678.551          48.000  
 16  4  2 12  1 55.1000000  0  1G24
  24550133.781   129011822.051       -3681.305          48.000  
 16  4  2 12  1 55.2000000  0  1G24
  24550203.859   129012190.316       -3683.914          48.000  
 16  4  2 12  1 55.3000000  0  1G24
  24550273.992   129012558.871       -3687.000          48.000  
 16  4  2 12  1 55.4000000  0  1G24
  24550344.188   129012927.750       -3690.195          48.000  
 16  4  2 12  1 55.5000000  0  1G24
  24550414.453   129013296.984       -3693.758          48.000  
 16  4  2 12  1 55.6000000  0  1G24
  24550484.766   129013666.484       -3696.457          48.000  
 16  4  2 12  1 55.7000000  0  1G24
  24550555.141   129014036.285       -3699.434          48.000  
 16  4  2 12  1 55.8000000  0  1G24
  24550625.570   129014406.402       -3702.574          48.000  
 16  4  2 12  1 55.9000000  0  1G24
  24550696.055   129014776.781       -3705.402          48.000  
 16  4  2 12  1 56.0000000  0  1G24
  24550766.594   129015147.500       -3708.633          48.000  
 16  4  2 12  1 56.1000000  0  1G24
  24550837.203   129015518.527       -3711.711          48.000  
 16  4  2 12  1 56.2000000  0  1G24
  24550907.859   129015889.859       -3714.715          48.000  
 16  4  2 12  1 56.3000000  0  1G24
  24550978.570   129016261.430       -3717.273          48.000  
 16  4  2 12  1 56.4000000  0  1G24
  24551049.344   129016633.340       -3720.660          48.000  
 16  4  2 12  1 56.5000000  0  1G24
  24551120.172   129017005.555       -3723.602          48.000  
 16  4  2 12  1 56.6000000  0  1G24
  24551191.055   129017378.051       -3726.297          48.000  
 16  4  2 12  1 56.7000000  0  1G24
  24551262.008   129017750.891       -3730.008          48.000  
 16  4  2 12  1 56.8000000  0  1G24
  24551333.016   129018124.051       -3733.223          48.000  
 16  4  2 12  1 56.9000000  0  1G24
  24551404.086   129018497.527       -3736.254          48.000  
 16  4  2 12  1 57.0000000  0  1G24
  24551475.219   129018871.348       -3739.754          48.000  
 16  4  2 12  1 57.1000000  0  1G24
  24551546.391   129019245.363       -3741.551          48.000  
 16  4  2 12  1 57.2000000  0  1G24
  24551617.617   129019619.668       -3744.398          48.000  
 16  4  2 12  1 57.3000000  0  1G24
  24551688.914   129019994.324       -3747.926          48.000  
 16  4  2 12  1 57.4000000  0  1G24
  24551760.250   129020369.211       -3750.352          48.000  
 16  4  2 12  1 57.5000000  0  1G24
  24551831.656   129020744.445       -3753.789          48.000  
 16  4  2 12  1 57.6000000  0  1G24
  24551903.117   129021119.984       -3756.961          48.000  
 16  4  2 12  1 57.7000000  0  1G24
  24551974.648   129021495.840       -3760.094          48.000  
 16  4  2 12  1 57.8000000  0  1G24
  24552046.227   129021871.980       -3762.855          48.000  
 16  4  2 12  1 57.9000000  0  1G24
  24552117.875   129022248.488       -3766.422          48.000  
 16  4  2 12  1 58.0000000  0  1G24
  24552189.562   129022625.207       -3768.762          48.000  
 16  4  2 12  1 58.1000000  0  1G24
  24552261.312   129023002.273       -3772.008          48.000  
 16  4  2 12  1 58.2000000  0  1G24
  24552333.125   129023379.656       -3775.395          48.000  
 16  4  2 12  1 58.3000000  0  1G24
  24552404.992   129023757.320       -3777.902          48.000  
 16  4  2 12  1 58.4000000  0  1G24
  24552476.930   129024135.344       -3781.676          48.000  
 16  4  2 12  1 58.5000000  0  1G24
  24552548.914   129024513.641       -3784.328          48.000  
 16  4  2 12  1 58.6000000  0  1G24
  24552620.961   129024892.238       -3787.391          48.000  
 16  4  2 12  1 58.7000000  0  1G24
  24552693.062   129025271.164       -3790.836          48.000  
 16  4  2 12  1 58.8000000  0  1G24
  24552765.234   129025650.410       -3793.938          48.000  
 16  4  2 12  1 58.9000000  0  1G24
  24552837.445   129026029.883       -3796.246          48.000  
 16  4  2 12  1 59.0000000  0  1G24
  24552909.727   129026409.738       -3800.039          48.000  
 16  4  2 12  1 59.1000000  0  1G24
  24552982.062   129026789.887       -3803.023          48.000  
 16  4  2 12  1 59.2000000  0  1G24
  24553054.461   129027170.312       -3805.742          48.000  
 16  4  2 12  1 59.3000000  0  1G24
  24553126.906   129027551.027       -3808.625          48.000  
 16  4  2 12  1 59.4000000  0  1G24
  24553199.414   129027932.039       -3811.527          48.000  
 16  4  2 12  1 59.5000000  0  1G24
  24553271.977   129028313.375       -3814.770          48.000  
 16  4  2 12  1 59.6000000  0  1G24
  24553344.578   129028694.922       -3816.898          48.000  
 16  4  2 12  1 59.7000000  0  1G24
  24553417.250   129029076.781       -3819.859          48.000  
 16  4  2 12  1 59.8000000  0  1G24
  24553489.969   129029458.949       -3823.047          48.000  
 16  4  2 12  1 59.9000000  0  1G24
  24553562.758   129029841.434       -3826.250          48.000  
 16  4  2 12  2  0.0000000  0  1G24
  24553635.602   129030224.238       -3829.438          48.000  
 16  4  2 12  2  0.1000000  0  1G24
  24553708.500   129030607.344       -3832.676          48.000  
 16  4  2 12  2  0.2000000  0  1G24
  24553781.469   129030990.777       -3835.832          48.000  
 16  4  2 12  2  0.3000000  0  1G24
  24553854.500   129031374.551       -3839.246          48.000  
 16  4  2 12  2  0.4000000  0  1G24
  24553927.570   129031758.559       -3841.562          48.000  
 16  4  2 12  2  0.5000000  0  1G24
  24554000.711   129032142.883       -3844.555          48.000  
 16  4  2 12  2  0.6000000  0  1G24
  24554073.922   129032527.605       -3848.719          48.000  
 16  4  2 12  2  0.7000000  0  1G24
  24554147.172   129032912.555       -3851.043          48.000  
 16  4  2 12  2  0.8000000  0  1G24
  24554220.492   129033297.848       -3854.531          48.000  
 16  4  2 12  2  0.9000000  0  1G24
  24554293.859   129033683.414       -3857.129          48.000  
 16  4  2 12  2  1.0000000  0  1G24
  24554367.281   129034069.254       -3859.891          48.000  
 16  4  2 12  2  1.1000000  0  1G24
  24554440.766   129034455.414       -3862.980          48.000  
 16  4  2 12  2  1.2000000  0  1G24
  24554514.305   129034841.844       -3865.730          48.000  
 16  4  2 12  2  1.3000000  0  1G24
  24554587.906   129035228.609       -3869.141          48.000  
 16  4  2 12  2  1.4000000  0  1G24
  24554661.578   129035615.754       -3873.000          48.000  
 16  4  2 12  2  1.5000000  0  1G24
  24554735.297   129036003.164       -3875.621          48.000  
 16  4  2 12  2  1.6000000  0  1G24
  24554809.078   129036390.898       -3878.863          48.000  
 16  4  2 12  2  1.7000000  0  1G24
  24554882.906   129036778.863       -3881.059          48.000  
 16  4  2 12  2  1.8000000  0  1G24
  24554956.797   129037167.152       -3884.094          48.000  
 16  4  2 12  2  1.9000000  0  1G24
  24555030.742   129037555.742       -3887.195          48.000  
 16  4  2 12  2  2.0000000  0  1G24
  24555104.750   129037944.648       -3890.531          48.000  
 16  4  2 12  2  2.1000000  0  1G24
  24555178.812   129038333.832       -3893.359          48.000  
 16  4  2 12  2  2.2000000  0  1G24
  24555252.930   129038723.332       -3896.449          48.000  
 16  4  2 12  2  2.3000000  0  1G24
  24555327.117   129039113.168       -3899.953          48.000  
 16  4  2 12  2  2.4000000  0  1G24
  24555401.359   129039503.332       -3903.055          48.000  
 16  4  2 12  2  2.5000000  0  1G24
  24555475.648   129039893.699       -3905.195          48.000  
 16  4  2 12  2  2.6000000  0  1G24
  24555549.984   129040284.336       -3907.625          48.000  
 16  4  2 12  2  2.7000000  0  1G24
  24555624.398   129040675.375       -3911.691          48.000  
 16  4  2 12  2  2.8000000  0  1G24
  24555698.867   129041066.727       -3915.055          48.000  
 16  4  2 12  2  2.9000000  0  1G24
  24555773.383   129041458.340       -3917.598          48.000  
 16  4  2 12  2  3.0000000  0  1G24
  24555847.969   129041850.258       -3920.645          48.000  
 16  4  2 12  2  3.1000000  0  1G24
  24555922.602   129042242.465       -3923.598          48.000  
 16  4  2 12  2  3.2000000  0  1G24
  24555997.297   129042634.996       -3926.734          48.000  
 16  4  2 12  2  3.3000000  0  1G24
  24556072.055   129043027.828       -3929.730          48.000  
 16  4  2 12  2  3.4000000  0  1G24
  24556146.859   129043420.949       -3932.699          48.000  
 16  4  2 12  2  3.5000000  0  1G24
  24556221.750   129043814.449       -3936.504          48.000  
 16  4  2 12  2  3.6000000  0  1G24
  24556296.672   129044208.188       -3938.852          48.000  
 16  4  2 12  2  3.7000000  0  1G24
  24556371.656   129044602.258       -3942.043          48.000  
 16  4  2 12  2  3.8000000  0  1G24
  24556446.703   129044996.598       -3944.832          48.000  
 16  4  2 12  2  3.9000000  0  1G24
  24556521.797   129045391.203       -3947.527          48.000  
 16  4  2 12  2  4.0000000  0  1G24
  24556596.953   129045786.188       -3951.254          48.000  
 16  4  2 12  2  4.1000000  0  1G24
  24556672.164   129046181.398       -3953.586          48.000  
 16  4  2 12  2  4.2000000  0  1G24
  24556747.430   129046576.926       -3956.652          48.000  
 16  4  2 12  2  4.3000000  0  1G24
  24556822.758   129046972.773       -3959.961          48.000  
 16  4  2 12  2  4.4000000  0  1G24
  24556898.133   129047368.891       -3962.625          48.000  
 16  4  2 12  2  4.5000000  0  1G24
  24556973.570   129047765.312       -3965.695          48.000  
 16  4  2 12  2  4.6000000  0  1G24
  24557049.062   129048162.020       -3968.434          48.000  
 16  4  2 12  2  4.7000000  0  1G24
  24557124.609   129048559.020       -3971.484          48.000  
 16  4  2 12  2  4.8000000  0  1G24
  24557200.219   129048956.359       -3974.844          48.000  
 16  4  2 12  2  4.9000000  0  1G24
  24557275.898   129049354.004       -3977.898          48.000  
 16  4  2 12  2  5.0000000  0  1G24
  24557351.625   129049751.949       -3980.773          48.000  
 16  4  2 12  2  5.1000000  0  1G24
  24557427.406   129050150.176       -3983.812          48.000  
 16  4  2 12  2  5.2000000  0  1G24
  24557503.250   129050548.738       -3987.121          48.000  
 16  4  2 12  2  5.3000000  0  1G24
  24557579.148   129050947.590       -3989.926          48.000  
 16  4  2 12  2  5.4000000  0  1G24
  24557655.102   129051346.738       -3992.887          48.000  
 16  4  2 12  2  5.5000000  0  1G24
  24557731.117   129051746.184       -3995.973          48.000  
 16  4  2 12  2  5.6000000  0  1G24
  24557807.188   129052145.953       -3999.055          48.000  
 16  4  2 12  2  5.7000000  0  1G24
  24557883.312   129052545.996       -4001.758          48.000  
 16  4  2 12  2  5.8000000  0  1G24
  24557959.500   129052946.336       -4004.922          48.000  
 16  4  2 12  2  5.9000000  0  1G24
  24558035.742   129053346.977       -4007.828          48.000  
 16  4  2 12  2  6.0000000  0  1G24
  24558112.039   129053747.898       -4010.691          48.000  
 16  4  2 12  2  6.1000000  0  1G24
  24558188.391   129054149.137       -4013.668          48.000  
 16  4  2 12  2  6.2000000  0  1G24
  24558264.797   129054550.660       -4016.695          48.000  
 16  4  2 12  2  6.3000000  0  1G24
  24558341.250   129054952.441       -4019.148          48.000  
 16  4  2 12  2  6.4000000  0  1G24
  24558417.766   129055354.523       -4022.160          48.000  
 16  4  2 12  2  6.5000000  0  1G24
  24558494.344   129055756.926       -4025.496          48.000  
 16  4  2 12  2  6.6000000  0  1G24
  24558570.969   129056159.621       -4028.496          48.000  
 16  4  2 12  2  6.7000000  0  1G24
  24558647.656   129056562.602       -4031.043          48.000  
 16  4  2 12  2  6.8000000  0  1G24
  24558724.398   129056965.914       -4034.688          48.000  
 16  4  2 12  2  6.9000000  0  1G24
  24558801.203   129057369.512       -4037.496          48.000  
 16  4  2 12  2  7.0000000  0  1G24
  24558878.062   129057773.402       -4040.379          48.000  
 16  4  2 12  2  7.1000000  0  1G24
  24558954.984   129058177.645       -4043.891          48.000  
 16  4  2 12  2  7.2000000  0  1G24
  24559031.969   129058582.207       -4047.148          48.000  
 16  4  2 12  2  7.3000000  0  1G24
  24559109.000   129058987.012       -4049.543          48.000  
 16  4  2 12  2  7.4000000  0  1G24
  24559186.094   129059392.121       -4052.520          48.000  
 16  4  2 12  2  7.5000000  0  1G24
  24559263.258   129059797.617       -4056.414          48.000  
 16  4  2 12  2  7.6000000  0  1G24
  24559340.461   129060203.355       -4058.855          48.000  
 16  4  2 12  2  7.7000000  0  1G24
  24559417.727   129060609.402       -4062.070          48.000  
 16  4  2 12  2  7.8000000  0  1G24
  24559495.055   129061015.766       -4064.941          48.000  
 16  4  2 12  2  7.9000000  0  1G24
  24559572.438   129061422.430       -4068.035          48.000  
 16  4  2 12  2  8.0000000  0  1G24
  24559649.891   129061829.434       -4071.539          48.000  
 16  4  2 12  2  8.1000000  0  1G24
  24559727.383   129062236.668       -4073.785          48.000  
 16  4  2 12  2  8.2000000  0  1G24
  24559804.930   129062644.172       -4076.164          48.000  
 16  4  2 12  2  8.3000000  0  1G24
  24559882.555   129063052.047       -4080.215          48.000  
 16  4  2 12  2  8.4000000  0  1G24
  24559960.227   129063460.215       -4083.125          48.000  
 16  4  2 12  2  8.5000000  0  1G24
  24560037.945   129063868.652       -4085.797          48.000  
 16  4  2 12  2  8.6000000  0  1G24
  24560115.727   129064277.391       -4088.875          48.000  
 16  4  2 12  2  8.7000000  0  1G24
  24560193.562   129064686.430       -4091.793          48.000  
 16  4  2 12  2  8.8000000  0  1G24
  24560271.453   129065095.754       -4094.711          48.000  
 16  4  2 12  2  8.9000000  0  1G24
  24560349.422   129065505.445       -4098.434          48.000  
 16  4  2 12  2  9.0000000  0  1G24
  24560427.430   129065915.391       -4101.082          48.000  
 16  4  2 12  2  9.1000000  0  1G24
  24560505.516   129066325.695       -4104.711          48.000  
 16  4  2 12  2  9.2000000  0  1G24
  24560583.641   129066736.250       -4107.102          48.000  
 16  4  2 12  2  9.3000000  0  1G24
  24560661.828   129067147.121       -4110.336          48.000  
 16  4  2 12  2  9.4000000  0  1G24
  24560740.078   129067558.348       -4113.711          48.000  
 16  4  2 12  2  9.5000000  0  1G24
  24560818.383   129067969.836       -4116.211          48.000  
 16  4  2 12  2  9.6000000  0  1G24
  24560896.742   129068381.637       -4119.266          48.000  
 16  4  2 12  2  9.7000000  0  1G24
  24560975.156   129068793.676       -4121.914          48.000  
 16  4  2 12  2  9.8000000  0  1G24
  24561053.625   129069206.035       -4125.133          48.000  
 16  4  2 12  2  9.9000000  0  1G24
  24561132.164   129069618.754       -4128.594          48.000  
 16  4  2 12  2 10.0000000  0  1G24
  24561210.766   129070031.781       -4131.930          48.000  
 16  4  2 12  2 10.1000000  0  1G24
  24561289.406   129070445.043       -4134.051          48.000  
 16  4  2 12  2 10.2000000  0  1G24
  24561368.102   129070858.602       -4136.832          48.000  
 16  4  2 12  2 10.3000000  0  1G24
  24561446.867   129071272.484       -4140.188          48.000  
 16  4  2 12  2 10.4000000  0  1G24
  24561525.680   129071686.645       -4143.188          48.000  
 16  4  2 12  2 10.5000000  0  1G24
  24561604.539   129072101.070       -4145.699          48.000  
 16  4  2 12  2 10.6000000  0  1G24
  24561683.477   129072515.871       -4149.492          48.000  
 16  4  2 12  2 10.7000000  0  1G24
  24561762.469   129072930.961       -4152.422          48.000  
 16  4  2 12  2 10.8000000  0  1G24
  24561841.508   129073346.316       -4155.047          48.000  
 16  4  2 12  2 10.9000000  0  1G24
  24561920.617   129073762.062       -4158.840          48.000  
 16  4  2 12  2 11.0000000  0  1G24
  24561999.781   129074178.066       -4161.566          48.000  
 16  4  2 12  2 11.1000000  0  1G24
  24562078.992   129074594.312       -4163.906          48.000  
 16  4  2 12  2 11.2000000  0  1G24
  24562158.273   129075010.957       -4167.918          48.000  
 16  4  2 12  2 11.3000000  0  1G24
  24562237.617   129075427.879       -4170.816          48.000  
 16  4  2 12  2 11.4000000  0  1G24
  24562317.023   129075845.168       -4174.488          48.000  
 16  4  2 12  2 11.5000000  0  1G24
  24562396.484   129076262.746       -4177.379          48.000  
 16  4  2 12  2 11.6000000  0  1G24
  24562476.008   129076680.629       -4180.297          48.000  
 16  4  2 12  2 11.7000000  0  1G24
  24562555.586   129077098.805       -4183.117          48.000  
 16  4  2 12  2 11.8000000  0  1G24
  24562635.219   129077517.266       -4186.020          48.000  
 16  4  2 12  2 11.9000000  0  1G24
  24562714.891   129077935.949       -4188.227          48.000  
 16  4  2 12  2 12.0000000  0  1G24
  24562794.641   129078355.039       -4192.309          48.000  
 16  4  2 12  2 12.1000000  0  1G24
  24562874.438   129078774.406       -4195.109          48.000  
 16  4  2 12  2 12.2000000  0  1G24
  24562954.297   129079194.062       -4197.859          48.000  
 16  4  2 12  2 12.3000000  0  1G24
  24563034.219   129079614.012       -4200.820          48.000  
 16  4  2 12  2 12.4000000  0  1G24
  24563114.180   129080034.234       -4203.695          48.000  
 16  4  2 12  2 12.5000000  0  1G24
  24563194.219   129080454.832       -4207.617          48.000  
 16  4  2 12  2 12.6000000  0  1G24
  24563274.305   129080875.684       -4210.051          48.000  
 16  4  2 12  2 12.7000000  0  1G24
  24563354.461   129081296.922       -4214.156          48.000  
 16  4  2 12  2 12.8000000  0  1G24
  24563434.680   129081718.465       -4216.777          48.000  
 16  4  2 12  2 12.9000000  0  1G24
  24563514.930   129082140.176       -4218.520          48.000  
 16  4  2 12  2 13.0000000  0  1G24
  24563595.242   129082562.230       -4221.848          48.000  
 16  4  2 12  2 13.1000000  0  1G24
  24563675.609   129082984.594       -4224.898          48.000  
 16  4  2 12  2 13.2000000  0  1G24
  24563756.047   129083407.273       -4228.355          48.000  
 16  4  2 12  2 13.3000000  0  1G24
  24563836.539   129083830.254       -4231.180          48.000  
 16  4  2 12  2 13.4000000  0  1G24
  24563917.086   129084253.527       -4234.301          48.000  
 16  4  2 12  2 13.5000000  0  1G24
  24563997.688   129084677.102       -4237.246          48.000  
 16  4  2 12  2 13.6000000  0  1G24
  24564078.344   129085100.977       -4240.113          48.000  
 16  4  2 12  2 13.7000000  0  1G24
  24564159.062   129085525.113       -4242.852          48.000  
 16  4  2 12  2 13.8000000  0  1G24
  24564239.828   129085949.574       -4245.762          48.000  
 16  4  2 12  2 13.9000000  0  1G24
  24564320.656   129086374.305       -4248.805          48.000  
 16  4  2 12  2 14.0000000  0  1G24
  24564401.562   129086799.473       -4253.328          48.000  
 16  4  2 12  2 14.1000000  0  1G24
  24564482.500   129087224.840       -4255.121          48.000  
 16  4  2 12  2 14.2000000  0  1G24
  24564563.500   129087650.488       -4257.895          48.000  
 16  4  2 12  2 14.3000000  0  1G24
  24564644.562   129088076.457       -4261.062          48.000  
 16  4  2 12  2 14.4000000  0  1G24
  24564725.680   129088502.719       -4263.855          48.000  
 16  4  2 12  2 14.5000000  0  1G24
  24564806.844   129088929.230       -4266.801          48.000  
 16  4  2 12  2 14.6000000  0  1G24
  24564888.070   129089356.098       -4270.105          48.000  
 16  4  2 12  2 14.7000000  0  1G24
  24564969.367   129089783.266       -4273.242          48.000  
 16  4  2 12  2 14.8000000  0  1G24
  24565050.711   129090210.734       -4276.281          48.000  
 16  4  2 12  2 14.9000000  0  1G24
  24565132.117   129090638.523       -4279.238          48.000  
 16  4  2 12  2 15.0000000  0  1G24
  24565213.562   129091066.543       -4281.641          48.000  
 16  4  2 12  2 15.1000000  0  1G24
  24565295.094   129091494.969       -4285.719          48.000  
 16  4  2 12  2 15.2000000  0  1G24
  24565376.672   129091923.668       -4288.738          48.000  
 16  4  2 12  2 15.3000000  0  1G24
  24565458.320   129092352.730       -4292.188          48.000  
 16  4  2 12  2 15.4000000  0  1G24
  24565540.016   129092782.043       -4294.656          48.000  
 16  4  2 12  2 15.5000000  0  1G24
  24565621.773   129093211.668       -4297.609          48.000  
 16  4  2 12  2 15.6000000  0  1G24
  24565703.586   129093641.613       -4300.922          48.000  
 16  4  2 12  2 15.7000000  0  1G24
  24565785.469   129094071.875       -4304.102          48.000  
 16  4  2 12  2 15.8000000  0  1G24
  24565867.391   129094502.395       -4306.754          48.000  
 16  4  2 12  2 15.9000000  0  1G24
  24565949.375   129094933.211       -4309.422          48.000  
 16  4  2 12  2 16.0000000  0  1G24
  24566031.414   129095364.324       -4312.598          48.000  
 16  4  2 12  2 16.1000000  0  1G24
  24566113.516   129095795.773       -4315.816          48.000  
 16  4  2 12  2 16.2000000  0  1G24
  24566195.672   129096227.523       -4318.863          48.000  
 16  4  2 12  2 16.3000000  0  1G24
  24566277.883   129096659.535       -4321.438          48.000  
 16  4  2 12  2 16.4000000  0  1G24
  24566360.148   129097091.836       -4324.457          48.000  
 16  4  2 12  2 16.5000000  0  1G24
  24566442.477   129097524.469       -4327.676          48.000  
 16  4  2 12  2 16.6000000  0  1G24
  24566524.867   129097957.402       -4330.715          48.000  
 16  4  2 12  2 16.7000000  0  1G24
  24566607.289   129098390.562       -4333.125          48.000  
 16  4  2 12  2 16.8000000  0  1G24
  24566689.789   129098824.070       -4336.527          48.000  
 16  4  2 12  2 16.9000000  0  1G24
  24566772.344   129099257.895       -4339.680          48.000  
 16  4  2 12  2 17.0000000  0  1G24
  24566854.961   129099692.047       -4343.070          48.000  
 16  4  2 12  2 17.1000000  0  1G24
  24566937.617   129100126.414       -4345.203          48.000  
 16  4  2 12  2 17.2000000  0  1G24
  24567020.352   129100561.176       -4348.965          48.000  
 16  4  2 12  2 17.3000000  0  1G24
  24567103.133   129100996.188       -4351.594          48.000  
 16  4  2 12  2 17.4000000  0  1G24
  24567185.969   129101431.480       -4354.477          48.000  
 16  4  2 12  2 17.5000000  0  1G24
  24567268.852   129101867.039       -4356.992          48.000  
 16  4  2 12  2 17.6000000  0  1G24
  24567351.805   129102302.938       -4360.305          48.000  
 16  4  2 12  2 17.7000000  0  1G24
  24567434.812   129102739.168       -4363.598          48.000  
 16  4  2 12  2 17.8000000  0  1G24
  24567517.875   129103175.652       -4366.328          48.000  
 16  4  2 12  2 17.9000000  0  1G24
  24567601.000   129103612.457       -4369.496          48.000  
 16  4  2 12  2 18.0000000  0  1G24
  24567684.172   129104049.559       -4372.328          48.000  
 16  4  2 12  2 18.1000000  0  1G24
  24567767.406   129104486.949       -4375.484          48.000  
 16  4  2 12  2 18.2000000  0  1G24
  24567850.711   129104924.719       -4379.219          48.000  
 16  4  2 12  2 18.3000000  0  1G24
  24567934.062   129105362.742       -4381.742          48.000  
 16  4  2 12  2 18.4000000  0  1G24
  24568017.477   129105801.051       -4384.477          48.000  
 16  4  2 12  2 18.5000000  0  1G24
  24568100.922   129106239.582       -4386.695          48.000  
 16  4  2 12  2 18.6000000  0  1G24
  24568184.445   129106678.492       -4390.500          48.000  
 16  4  2 12  2 18.7000000  0  1G24
  24568268.031   129107117.730       -4393.816          48.000  
 16  4  2 12  2 18.8000000  0  1G24
  24568351.664   129107557.234       -4396.578          48.000  
 16  4  2 12  2 18.9000000  0  1G24
  24568435.352   129107997.035       -4399.480          48.000  
 16  4  2 12  2 19.0000000  0  1G24
  24568519.109   129108437.176       -4402.926          48.000  
 16  4  2 12  2 19.1000000  0  1G24
  24568602.914   129108877.605       -4405.926          48.000  
 16  4  2 12  2 19.2000000  0  1G24
  24568686.789   129109318.336       -4408.621          48.000  
 16  4  2 12  2 19.3000000  0  1G24
  24568770.703   129109759.344       -4411.480          48.000  
 16  4  2 12  2 19.4000000  0  1G24
  24568854.680   129110200.625       -4414.242          48.000  
 16  4  2 12  2 19.5000000  0  1G24
  24568938.711   129110642.191       -4417.098          48.000  
 16  4  2 12  2 19.6000000  0  1G24
  24569022.789   129111084.047       -4419.812          48.000  
 16  4  2 12  2 19.7000000  0  1G24
  24569106.945   129111526.258       -4423.543          48.000  
 16  4  2 12  2 19.8000000  0  1G24
  24569191.164   129111968.836       -4427.348          48.000  
 16  4  2 12  2 19.9000000  0  1G24
  24569275.430   129112411.656       -4429.754          48.000  
 16  4  2 12  2 20.0000000  0  1G24
  24569359.750   129112854.770       -4432.613          48.000  
 16  4  2 12  2 20.1000000  0  1G24
  24569444.125   129113298.152       -4435.184          48.000  
 16  4  2 12  2 20.2000000  0  1G24
  24569528.555   129113741.820       -4437.906          48.000  
 16  4  2 12  2 20.3000000  0  1G24
  24569613.047   129114185.816       -4441.297          48.000  
 16  4  2 12  2 20.4000000  0  1G24
  24569697.602   129114630.141       -4444.719          48.000  
 16  4  2 12  2 20.5000000  0  1G24
  24569782.195   129115074.699       -4447.004          48.000  
 16  4  2 12  2 20.6000000  0  1G24
  24569866.844   129115519.523       -4449.547          48.000  
 16  4  2 12  2 20.7000000  0  1G24
  24569951.555   129115964.660       -4452.859          48.000  
 16  4  2 12  2 20.8000000  0  1G24
  24570036.336   129116410.188       -4456.672          48.000  
 16  4  2 12  2 20.9000000  0  1G24
  24570121.148   129116855.879       -4458.367          48.000  
 16  4  2 12  2 21.0000000  0  1G24
  24570206.023   129117301.891       -4461.316          48.000  
 16  4  2 12  2 21.1000000  0  1G24
  24570290.953   129117748.191       -4464.449          48.000  
 16  4  2 12  2 21.2000000  0  1G24
  24570375.953   129118194.863       -4468.227          48.000  
 16  4  2 12  2 21.3000000  0  1G24
  24570461.000   129118641.809       -4471.062          48.000  
 16  4  2 12  2 21.4000000  0  1G24
  24570546.117   129119089.098       -4474.379          48.000  
 16  4  2 12  2 21.5000000  0  1G24
  24570631.297   129119536.707       -4477.523          48.000  
 16  4  2 12  2 21.6000000  0  1G24
  24570716.531   129119984.605       -4480.449          48.000  
 16  4  2 12  2 21.7000000  0  1G24
  24570801.812   129120432.773       -4483.113          48.000  
 16  4  2 12  2 21.8000000  0  1G24
  24570887.156   129120881.289       -4486.562          48.000  
 16  4  2 12  2 21.9000000  0  1G24
  24570972.562   129121330.078       -4489.301          48.000  
 16  4  2 12  2 22.0000000  0  1G24
  24571058.016   129121779.168       -4492.246          48.000  
 16  4  2 12  2 22.1000000  0  1G24
  24571143.531   129122228.539       -4495.074          48.000  
 16  4  2 12  2 22.2000000  0  1G24
  24571229.102   129122678.227       -4498.223          48.000  
 16  4  2 12  2 22.3000000  0  1G24
  24571314.734   129123128.180       -4500.926          48.000  
 16  4  2 12  2 22.4000000  0  1G24
  24571400.414   129123578.430       -4503.938          48.000  
 16  4  2 12  2 22.5000000  0  1G24
  24571486.141   129124028.949       -4506.387          48.000  
 16  4  2 12  2 22.6000000  0  1G24
  24571571.914   129124479.691       -4508.762          48.000  
 16  4  2 12  2 22.7000000  0  1G24
  24571657.750   129124930.777       -4512.281          48.000  
 16  4  2 12  2 22.8000000  0  1G24
  24571743.656   129125382.191       -4515.500          48.000  
 16  4  2 12  2 22.9000000  0  1G24
  24571829.609   129125833.906       -4518.578          48.000  
 16  4  2 12  2 23.0000000  0  1G24
  24571915.617   129126285.863       -4521.215          48.000  
 16  4  2 12  2 23.1000000  0  1G24
  24572001.680   129126738.129       -4524.078          48.000  
 16  4  2 12  2 23.2000000  0  1G24
  24572087.797   129127190.688       -4526.906          48.000  
 16  4  2 12  2 23.3000000  0  1G24
  24572173.977   129127643.578       -4530.574          48.000  
 16  4  2 12  2 23.4000000  0  1G24
  24572260.219   129128096.766       -4533.355          48.000  
 16  4  2 12  2 23.5000000  0  1G24
  24572346.516   129128550.293       -4536.922          48.000  
 16  4  2 12  2 23.6000000  0  1G24
  24572432.875   129129004.102       -4539.605          48.000  
 16  4  2 12  2 23.7000000  0  1G24
  24572519.289   129129458.219       -4542.586          48.000  
 16  4  2 12  2 23.8000000  0  1G24
  24572605.773   129129912.691       -4546.199          48.000  
 16  4  2 12  2 23.9000000  0  1G24
  24572692.305   129130367.441       -4548.840          48.000  
 16  4  2 12  2 24.0000000  0  1G24
  24572778.898   129130822.457       -4551.629          48.000  
 16  4  2 12  2 24.1000000  0  1G24
  24572865.523   129131277.723       -4554.016          48.000  
 16  4  2 12  2 24.2000000  0  1G24
  24572952.227   129131733.324       -4557.375          48.000  
 16  4  2 12  2 24.3000000  0  1G24
  24573038.977   129132189.227       -4560.500          48.000  
 16  4  2 12  2 24.4000000  0  1G24
  24573125.805   129132645.488       -4564.102          48.000  
 16  4  2 12  2 24.5000000  0  1G24
  24573212.688   129133102.051       -4567.117          48.000  
 16  4  2 12  2 24.6000000  0  1G24
  24573299.609   129133558.844       -4569.371          48.000  
 16  4  2 12 21  6.6000000  0  2G14G22
  18821628.156    98908322.480       -6468.285          49.000  
  19577457.102   102880230.566       -2539.898          50.000  
 16  4  2 12 21  6.7000000  0  2G14G22
  18821751.305    98908969.645       -6474.680          49.000  
  19577505.484   102880484.824       -2545.262          50.000  
 16  4  2 12 21  6.8000000  0  2G14G22
  18821874.586    98909617.480       -6481.492          49.000  
  19577553.977   102880739.660       -2551.184          50.000  
 16  4  2 12 21  6.9000000  0  4G14G21G22G32
  18821997.984    98910265.949       -6487.918          49.000  
  22301809.336   117196798.430       -3875.047          48.000  
  19577602.578   102880995.031       -2556.633          50.000  
  18303736.219    96186782.258       -5227.223          49.000  
 16  4  2 12 41  7.0000000  0  1G04
  21523763.180   113108138.066       -8984.652          49.000  
 16  4  2 12 41  7.1000000  0  1G04
  21523934.188   113109036.734       -8988.805          49.000  
 16  4  2 12 41  7.2000000  0  1G04
  21524105.305   113109935.949       -8994.621          49.000  
 16  4  2 12 41  7.3000000  0  1G04
  21524276.516   113110835.648       -8999.465          49.000  
 16  4  2 12 41  7.4000000  0  1G04
  21524447.836   113111735.922       -9005.246          49.000  
 16  4  2 12 41  7.5000000  0  1G04
  21524619.242   113112636.676       -9010.105          49.000  
 16  4  2 12 41  7.6000000  0  1G04
  21524790.750   113113537.895       -9014.449          49.000  
 16  4  2 12 41  7.7000000  0  1G04
  21524962.336   113114439.602       -9019.465          49.000  
 16  4  2 12 41  7.8000000  0  1G04
  21525134.031   113115341.891       -9025.316          49.000  
 16  4  2 12 41  7.9000000  0  1G04
  21525305.820   113116244.645       -9030.102          49.000  
 16  4  2 12 41  8.0000000  0  1G04
  21525477.695   113117147.918       -9035.141          49.000  
 16  4  2 12 41  8.1000000  0  1G04
  21525649.672   113118051.676       -9039.945          49.000  
 16  4  2 12 41  8.2000000  0  1G04
  21525821.750   113118955.922       -9044.891          49.000  
 16  4  2 12 41  8.3000000  0  1G04
  21525993.914   113119860.660       -9049.605          49.000  
 16  4  2 12 41  8.4000000  0  1G04
  21526166.188   113120765.871       -9054.523          49.000  
 16  4  2 12 41  8.5000000  0  1G04
  21526338.547   113121671.605       -9059.746          49.000  
 16  4  2 12 41  8.6000000  0  1G04
  21526511.000   113122577.848       -9064.820          49.000  
 16  4  2 12 41  8.7000000  0  1G04
  21526683.555   113123484.605       -9070.012          49.000  
 16  4  2 12 41  8.8000000  0  1G04
  21526856.195   113124391.848       -9074.770          49.000  
 16  4  2 12 41  8.9000000  0  1G04
  21527028.938   113125299.582       -9079.617          49.000  
 16  4  2 12 41  9.0000000  0  1G04
  21527201.781   113126207.852       -9085.031          49.000  
 16  4  2 12 41  9.1000000  0  1G04
  21527374.703   113127116.570       -9089.684          49.000  
 16  4  2 12 41  9.2000000  0  1G04
  21527547.719   113128025.789       -9094.656          49.000  
 16  4  2 12 41  9.3000000  0  1G04
  21527720.852   113128935.598       -9100.414          49.000  
 16  4  2 12 41  9.4000000  0  1G04
  21527894.047   113129845.832       -9104.789          49.000  
 16  4  2 12 41  9.5000000  0  1G04
  21528067.352   113130756.523       -9109.102          49.000  
 16  4  2 12 41  9.6000000  0  1G04
  21528240.727   113131667.707       -9114.355          49.000  
 16  4  2 12 41  9.7000000  0  1G04
  21528414.227   113132579.473       -9119.992          49.000  
 16  4  2 12 41  9.8000000  0  1G04
  21528587.859   113133491.723       -9124.883          49.000  
 16  4  2 12 41  9.9000000  0  1G04
  21528761.539   113134404.422       -9129.332          49.000  
 16  4  2 12 41 10.0000000  0  1G04
  21528935.312   113135317.602       -9133.969          49.000  
 16  4  2 12 41 10.1000000  0  1G04
  21529109.188   113136231.312       -9139.426          49.000  
 16  4  2 12 41 10.2000000  0  1G04
  21529283.156   113137145.488       -9144.062          49.000  
 16  4  2 12 41 10.3000000  0  1G04
  21529457.211   113138060.172       -9149.086          49.000  
 16  4  2 12 41 10.4000000  0  1G04
  21529631.359   113138975.453       -9155.254          49.000  
 16  4  2 12 41 10.5000000  0  1G04
  21529805.617   113139891.160       -9159.691          49.000  
 16  4  2 12 41 10.6000000  0  1G04
  21529979.984   113140807.441       -9165.270          49.000  
 16  4  2 12 41 10.7000000  0  1G04
  21530154.438   113141724.211       -9169.984          49.000  
 16  4  2 12 41 10.8000000  0  1G04
  21530329.016   113142641.492       -9175.246          49.000  
 16  4  2 12 41 10.9000000  0  1G04
  21530503.648   113143559.223       -9179.730          49.000  
 16  4  2 12 41 11.0000000  0  1G04
  21530678.398   113144477.516       -9185.273          49.000  
 16  4  2 12 41 11.1000000  0  1G04
  21530853.234   113145396.266       -9189.992          49.000  
 16  4  2 12 41 11.2000000  0  1G04
  21531028.156   113146315.488       -9194.562          49.000  
 16  4  2 12 41 11.3000000  0  1G04
  21531203.164   113147235.172       -9199.160          49.000  
 16  4  2 12 41 11.4000000  0  1G04
  21531378.266   113148155.402       -9204.734          49.000  
 16  4  2 12 41 11.5000000  0  1G04
  21531553.469   113149076.105       -9209.344          49.000  
 16  4  2 12 41 11.6000000  0  1G04
  21531728.773   113149997.328       -9214.762          49.000  
 16  4  2 12 41 11.7000000  0  1G04
  21531904.172   113150919.062       -9219.730          49.000  
 16  4  2 12 41 11.8000000  0  1G04
  21532079.672   113151841.316       -9225.004          49.000  
 16  4  2 12 41 11.9000000  0  1G04
  21532255.266   113152764.062       -9229.883          49.000  
 16  4  2 12 41 12.0000000  0  1G04
  21532430.953   113153687.320       -9234.930          49.000  
 16  4  2 12 41 12.1000000  0  1G04
  21532606.734   113154611.047       -9239.641          49.000  
 16  4  2 12 41 12.2000000  0  1G04
  21532782.609   113155535.262       -9244.387          49.000  
 16  4  2 12 41 12.3000000  0  1G04
  21532958.570   113156459.930       -9248.898          49.000  
 16  4  2 12 41 12.4000000  0  1G04
  21533134.633   113157385.168       -9254.676          49.000  
 16  4  2 12 41 12.5000000  0  1G04
  21533310.781   113158310.828       -9259.156          49.000  
 16  4  2 12 41 12.6000000  0  1G04
  21533487.031   113159236.992       -9263.992          49.000  
 16  4  2 12 41 12.7000000  0  1G04
  21533663.375   113160163.688       -9269.402          49.000  
 16  4  2 12 41 12.8000000  0  1G04
  21533839.820   113161090.898       -9274.461          49.000  
 16  4  2 12 41 12.9000000  0  1G04
  21534016.336   113162018.496       -9278.223          49.000  
 16  4  2 12 41 13.0000000  0  1G04
  21534192.945   113162946.684       -9284.195          49.000  
 16  4  2 12 41 13.1000000  0  1G04
  21534369.664   113163875.348       -9289.133          49.000  
 16  4  2 12 41 13.2000000  0  1G04
  21534546.477   113164804.512       -9293.918          49.000  
 16  4  2 12 41 13.3000000  0  1G04
  21534723.383   113165734.152       -9298.793          49.000  
 16  4  2 12 41 13.4000000  0  1G04
  21534900.398   113166664.293       -9303.742          49.000  
 16  4  2 12 41 13.5000000  0  1G04
  21535077.492   113167594.930       -9308.918          49.000  
 16  4  2 12 41 13.6000000  0  1G04
  21535254.688   113168526.078       -9313.727          49.000  
 16  4  2 12 41 13.7000000  0  1G04
  21535431.969   113169457.672       -9318.309          49.000  
 16  4  2 12 41 13.8000000  0  1G04
  21535609.344   113170389.805       -9323.707          49.000  
 16  4  2 12 41 13.9000000  0  1G04
  21535786.812   113171322.406       -9328.414          49.000  
 16  4  2 12 41 14.0000000  0  1G04
  21535964.391   113172255.559       -9333.805          49.000  
 16  4  2 12 41 14.1000000  0  1G04
  21536142.047   113173189.148       -9338.203          49.000  
 16  4  2 12 41 14.2000000  0  1G04
  21536319.797   113174123.223       -9343.043          49.000  
 16  4  2 12 41 14.3000000  0  1G04
  21536497.648   113175057.855       -9348.727          49.000  
 16  4  2 12 41 14.4000000  0  1G04
  21536675.602   113175992.957       -9353.520          49.000  
 16  4  2 12 41 14.5000000  0  1G04
  21536853.633   113176928.531       -9357.965          49.000  
 16  4  2 12 41 14.6000000  0  1G04
  21537031.758   113177864.609       -9363.008          49.000  
 16  4  2 12 41 14.7000000  0  1G04
  21537209.992   113178801.215       -9368.672          49.000  
 16  4  2 12 41 14.8000000  0  1G04
  21537388.312   113179738.312       -9373.176          49.000  
 16  4  2 12 41 14.9000000  0  1G04
  21537566.727   113180675.883       -9378.316          49.000  
 16  4  2 12 41 15.0000000  0  1G04
  21537745.242   113181613.996       -9383.711          49.000  
 16  4  2 12 41 15.1000000  0  1G04
  21537923.852   113182552.590       -9388.445          49.000  
 16  4  2 12 41 15.2000000  0  1G04
  21538102.555   113183491.652       -9393.090          49.000  
 16  4  2 12 41 15.3000000  0  1G04
  21538281.344   113184431.203       -9397.723          49.000  
 16  4  2 12 41 15.4000000  0  1G04
  21538460.227   113185371.254       -9402.711          49.000  
 16  4  2 12 41 15.5000000  0  1G04
  21538639.211   113186311.820       -9408.199          49.000  
 16  4  2 12 41 15.6000000  0  1G04
  21538818.273   113187252.848       -9412.676          49.000  
 16  4  2 12 41 15.7000000  0  1G04
  21538997.445   113188194.391       -9417.734          49.000  
 16  4  2 12 41 15.8000000  0  1G04
  21539176.711   113189136.438       -9422.770          49.000  
 16  4  2 12 41 15.9000000  0  1G04
  21539356.086   113190079.027       -9428.320          49.000  
 16  4  2 12 41 16.0000000  0  1G04
  21539535.547   113191022.117       -9433.422          49.000  
 16  4  2 12 41 16.1000000  0  1G04
  21539715.102   113191965.660       -9437.801          49.000  
 16  4  2 12 41 16.2000000  0  1G04
  21539894.742   113192909.676       -9442.535          49.000  
 16  4  2 12 41 16.3000000  0  1G04
  21540074.477   113193854.191       -9447.340          49.000  
 16  4  2 12 41 16.4000000  0  1G04
  21540254.320   113194799.172       -9452.121          49.000  
 16  4  2 12 41 16.5000000  0  1G04
  21540434.250   113195744.699       -9457.523          49.000  
 16  4  2 12 41 16.6000000  0  1G04
  21540614.258   113196690.660       -9461.961          49.000  
 16  4  2 12 41 16.7000000  0  1G04
  21540794.367   113197637.117       -9466.977          49.000  
 16  4  2 12 41 16.8000000  0  1G04
  21540974.570   113198584.145       -9472.508          49.000  
 16  4  2 12 41 16.9000000  0  1G04
  21541154.875   113199531.617       -9477.188          49.000  
 16  4  2 12 41 17.0000000  0  1G04
  21541335.258   113200479.609       -9482.344          49.000  
 16  4  2 12 41 17.1000000  0  1G04
  21541515.750   113201428.117       -9487.566          49.000  
 16  4  2 12 41 17.2000000  0  1G04
  21541696.352   113202377.148       -9492.699          49.000  
 16  4  2 12 41 17.3000000  0  1G04
  21541877.031   113203326.605       -9496.797          49.000  
 16  4  2 12 41 17.4000000  0  1G04
  21542057.805   113204276.531       -9501.473          49.000  
 16  4  2 12 41 17.5000000  0  1G04
  21542238.672   113205227.004       -9507.074          49.000  
 16  4  2 12 41 17.6000000  0  1G04
  21542419.625   113206177.949       -9511.988          49.000  
 16  4  2 12 41 17.7000000  0  1G04
  21542600.672   113207129.352       -9516.371          49.000  
 16  4  2 12 41 17.8000000  0  1G04
  21542781.828   113208081.340       -9522.199          49.000  
 16  4  2 12 41 17.9000000  0  1G04
  21542963.070   113209033.797       -9527.023          49.000  
 16  4  2 12 41 18.0000000  0  1G04
  21543144.406   113209986.754       -9532.012          49.000  
 16  4  2 12 41 18.1000000  0  1G04
  21543325.836   113210940.164       -9536.461          49.000  
 16  4  2 12 41 18.2000000  0  1G04
  21543507.367   113211894.117       -9541.770          49.000  
 16  4  2 12 41 18.3000000  0  1G04
  21543688.984   113212848.531       -9546.566          49.000  
 16  4  2 12 41 18.4000000  0  1G04
  21543870.703   113213803.496       -9551.977          49.000  
 16  4  2 12 41 18.5000000  0  1G04
  21544052.523   113214758.965       -9557.152          49.000  
 16  4  2 12 41 18.6000000  0  1G04
  21544234.430   113215714.906       -9561.863          49.000  
 16  4  2 12 41 18.7000000  0  1G04
  21544416.430   113216671.316       -9566.430          49.000  
 16  4  2 12 41 18.8000000  0  1G04
  21544598.523   113217628.266       -9571.895          49.000  
 16  4  2 12 41 18.9000000  0  1G04
  21544780.711   113218585.668       -9576.441          49.000  
 16  4  2 12 41 19.0000000  0  1G04
  21544963.008   113219543.578       -9581.492          49.000  
 16  4  2 12 41 19.1000000  0  1G04
  21545145.383   113220501.977       -9586.387          49.000  
 16  4  2 12 41 19.2000000  0  1G04
  21545327.875   113221460.941       -9592.031          49.000  
 16  4  2 12 41 19.3000000  0  1G04
  21545510.445   113222420.375       -9596.633          49.000  
 16  4  2 12 41 19.4000000  0  1G04
  21545693.102   113223380.203       -9600.590          49.000  
 16  4  2 12 41 19.5000000  0  1G04
  21545875.852   113224340.535       -9605.469          49.000  
 16  4  2 12 41 19.6000000  0  1G04
  21546058.695   113225301.359       -9610.523          49.000  
 16  4  2 12 41 19.7000000  0  1G04
  21546241.625   113226262.684       -9615.613          49.000  
 16  4  2 12 41 19.8000000  0  2G04G29
  21546424.641   113227224.461       -9620.160          49.000  
  22671297.188   119138470.211       15518.414          50.000  
 16  4  2 12 41 19.9000000  0  2G04G29
  21546607.750   113228186.711       -9624.852          49.000  
  22671001.906   119136918.496       15515.602          50.000  
 16  4  2 12 41 20.0000000  0  2G04G29
  21546790.961   113229149.484       -9629.852          49.000  
  22670706.719   119135367.113       15512.449          50.000  
 16  4  2 12 41 20.1000000  0  2G04G29
  21546974.266   113230112.770       -9635.293          49.000  
  22670411.562   119133816.047       15509.004          50.000  
 16  4  2 12 41 20.2000000  0  2G04G29
  21547157.664   113231076.578       -9640.355          49.000  
  22670116.453   119132265.320       15505.785          50.000  
 16  4  2 12 41 20.3000000  0  2G04G29
  21547341.156   113232040.828       -9644.879          49.000  
  22669821.414   119130714.852       15502.996          50.000  
 16  4  2 12 41 20.4000000  0  2G04G29
  21547524.734   113233005.617       -9650.035          49.000  
  22669526.367   119129164.723       15499.938          50.000  
 16  4  2 12 41 20.5000000  0  2G04G29
  21547708.414   113233970.852       -9654.770          49.000  
  22669231.438   119127614.852       15496.977          50.000  
 16  4  2 12 41 20.6000000  0  2G04G29
  21547892.203   113234936.613       -9659.770          49.000  
  22668936.609   119126065.324       15493.891          50.000  
 16  4  2 12 41 20.7000000  0  2G04G29
  21548076.086   113235902.902       -9665.371          49.000  
  22668641.812   119124516.129       15490.121          50.000  
 16  4  2 12 41 20.8000000  0  2G04G29
  21548260.070   113236869.727       -9670.699          49.000  
  22668347.086   119122967.277       15486.816          50.000  
 16  4  2 12 41 20.9000000  0  2G04G29
  21548444.148   113237837.031       -9675.363          49.000  
  22668052.406   119121418.727       15483.941          50.000  
 16  4  2 12 41 21.0000000  0  2G04G29
  21548628.305   113238804.809       -9680.148          49.000  
  22667757.773   119119870.453       15481.121          50.000  
 16  4  2 12 41 21.1000000  0  2G04G29
  21548812.562   113239773.074       -9685.047          49.000  
  22667463.203   119118322.477       15478.129          50.000  
 16  4  2 12 41 21.2000000  0  2G04G29
  21548996.922   113240741.867       -9690.125          49.000  
  22667168.695   119116774.848       15474.969          50.000  
 16  4  2 12 41 21.3000000  0  2G04G29
  21549181.367   113241711.113       -9694.910          49.000  
  22666874.242   119115227.477       15472.043          50.000  
 16  4  2 12 41 21.4000000  0  2G04G29
  21549365.898   113242680.859       -9699.754          49.000  
  22666579.805   119113680.410       15469.195          50.000  
 16  4  2 12 41 21.5000000  0  2G04G29
  21549550.523   113243651.066       -9704.633          49.000  
  22666285.461   119112133.637       15466.047          50.000  
 16  4  2 12 41 21.6000000  0  2G04G29
  21549735.250   113244621.816       -9709.895          49.000  
  22665991.180   119110587.207       15462.746          50.000  
 16  4  2 12 41 21.7000000  0  2G04G29
  21549920.062   113245593.043       -9714.523          49.000  
  22665696.953   119109041.051       15460.000          50.000  
 16  4  2 12 41 21.8000000  0  2G04G29
  21550104.953   113246564.648       -9718.301          49.000  
  22665402.758   119107495.098       15458.129          50.000  
 16  4  2 12 41 21.9000000  0  2G04G29
  21550289.945   113247536.789       -9723.594          49.000  
  22665108.633   119105949.492       15454.656          50.000  
 16  4  2 12 41 22.0000000  0  2G04G29
  21550475.039   113248509.414       -9728.566          49.000  
  22664814.586   119104404.184       15451.617          50.000  
 16  4  2 12 41 22.1000000  0  2G04G29
  21550660.211   113249482.508       -9733.352          49.000  
  22664520.570   119102859.160       15448.586          50.000  
 16  4  2 12 41 22.2000000  0  2G04G29
  21550845.484   113250456.133       -9738.711          49.000  
  22664226.609   119101314.469       15445.273          50.000  
 16  4  2 12 41 22.3000000  0  2G04G29
  21551030.859   113251430.281       -9743.887          49.000  
  22663932.734   119099770.109       15442.004          50.000  
 16  4  2 12 41 22.4000000  0  2G04G29
  21551216.328   113252404.930       -9748.957          49.000  
  22663638.914   119098226.070       15438.785          50.000  
 16  4  2 12 41 22.5000000  0  2G04G29
  21551401.883   113253379.996       -9753.016          49.000  
  22663345.133   119096682.262       15436.492          50.000  
 16  4  2 12 41 22.6000000  0  2G04G29
  21551587.531   113254355.605       -9758.441          49.000  
  22663051.422   119095138.805       15433.020          50.000  
 16  4  2 12 41 22.7000000  0  2G04G29
  21551773.281   113255331.754       -9763.770          49.000  
  22662757.781   119093595.699       15429.582          50.000  
 16  4  2 12 41 22.8000000  0  2G04G29
  21551959.133   113256308.340       -9768.199          49.000  
  22662464.211   119092052.844       15427.102          50.000  
 16  4  2 12 41 22.9000000  0  2G04G29
  21552145.055   113257285.391       -9772.730          49.000  
  22662170.672   119090510.262       15424.375          50.000  
 16  4  2 12 41 23.0000000  0  2G04G29
  21552331.070   113258262.895       -9777.258          49.000  
  22661877.180   119088967.945       15421.707          50.000  
 16  4  2 12 41 23.1000000  0  2G04G29
  21552517.188   113259240.934       -9782.723          49.000  
  22661583.758   119087425.980       15418.094          50.000  
 16  4  2 12 41 23.2000000  0  2G04G29
  21552703.406   113260219.477       -9787.812          49.000  
  22661290.383   119085884.336       15414.930          50.000  
 16  4  2 12 41 23.3000000  0  2G04G29
  21552889.711   113261198.508       -9792.668          49.000  
  22660997.078   119084342.980       15412.027          50.000  
 16  4  2 12 41 23.4000000  0  2G04G29
  21553076.094   113262178.004       -9797.395          49.000  
  22660703.812   119082801.914       15409.094          50.000  
 16  4  2 12 41 23.5000000  0  2G04G29
  21553262.586   113263158.008       -9802.383          49.000  
  22660410.617   119081261.156       15406.023          50.000  
 16  4  2 12 41 23.6000000  0  2G04G29
  21553449.164   113264138.512       -9807.504          49.000  
  22660117.484   119079720.715       15402.734          50.000  
 16  4  2 12 41 23.7000000  0  2G04G29
  21553635.836   113265119.477       -9812.078          49.000  
  22659824.398   119078180.551       15399.988          50.000  
 16  4  2 12 41 23.8000000  0  2G04G29
  21553822.602   113266100.969       -9817.270          49.000  
  22659531.398   119076640.730       15396.512          50.000  
 16  4  2 12 41 23.9000000  0  2G04G29
  21554009.477   113267083.012       -9822.961          49.000  
  22659238.445   119075101.262       15392.844          50.000  
 16  4  2 12 41 24.0000000  0  2G04G29
  21554196.453   113268065.578       -9828.059          49.000  
  22658945.555   119073562.129       15389.652          50.000  
 16  4  2 12 41 24.1000000  0  2G04G29
  21554383.516   113269048.594       -9832.434          49.000  
  22658652.719   119072023.262       15387.211          50.000  
 16  4  2 12 41 24.2000000  0  2G04G29
  21554570.656   113270032.043       -9836.902          49.000  
  22658359.945   119070484.641       15384.605          50.000  
 16  4  2 12 41 24.3000000  0  2G04G29
  21554757.906   113271016.043       -9842.297          49.000  
  22658067.227   119068946.391       15380.984          50.000  
 16  4  2 12 41 24.4000000  0  2G04G29
  21554945.227   113272000.461       -9846.543          49.000  
  22657774.562   119067408.355       15378.742          50.000  
 16  4  2 12 41 24.5000000  0  2G04G29
  21555132.656   113272985.402       -9851.707          49.000  
  22657481.945   119065870.668       15375.336          50.000  
 16  4  2 12 41 24.6000000  0  2G04G29
  21555320.188   113273970.883       -9857.250          49.000  
  22657189.422   119064333.332       15371.703          50.000  
 16  4  2 12 41 24.7000000  0  2G04G29
  21555507.805   113274956.805       -9861.664          49.000  
  22656896.922   119062796.254       15369.133          50.000  
 16  4  2 12 41 24.8000000  0  2G04G29
  21555695.516   113275943.246       -9866.738          49.000  
  22656604.469   119061259.496       15366.066          50.000  
 16  4  2 12 41 24.9000000  0  2G04G29
  21555883.320   113276930.160       -9871.609          49.000  
  22656312.086   119059723.039       15362.945          50.000  
 16  4  2 12 41 25.0000000  0  2G04G29
  21556071.211   113277917.559       -9876.371          49.000  
  22656019.758   119058186.867       15360.082          50.000  
 16  4  2 12 41 25.1000000  0  2G04G29
  21556259.188   113278905.359       -9880.105          49.000  
  22655727.477   119056650.910       15358.301          50.000  
 16  4  2 12 41 25.2000000  0  2G04G29
  21556447.242   113279893.645       -9885.047          49.000  
  22655435.258   119055115.266       15355.023          50.000  
 16  4  2 12 41 25.3000000  0  2G04G29
  21556635.414   113280882.512       -9891.148          49.000  
  22655143.109   119053579.996       15350.902          50.000  
 16  4  2 12 41 25.4000000  0  2G04G29
  21556823.680   113281871.867       -9895.996          49.000  
  22654851.008   119052045.043       15347.957          50.000  
 16  4  2 12 41 25.5000000  0  2G04G29
  21557012.031   113282861.637       -9900.094          49.000  
  22654558.961   119050510.316       15345.652          50.000  
 16  4  2 12 41 25.6000000  0  2G04G29
  21557200.484   113283852.000       -9906.152          49.000  
  22654267.000   119048975.992       15341.500          50.000  
 16  4  2 12 41 25.7000000  0  2G04G29
  21557389.039   113284842.852       -9910.977          49.000  
  22653975.086   119047441.973       15338.516          50.000  
 16  4  2 12 41 25.8000000  0  2G04G29
  21557577.688   113285834.188       -9915.637          49.000  
  22653683.234   119045908.242       15335.766          50.000  
 16  4  2 12 41 25.9000000  0  2G04G29
  21557766.422   113286825.996       -9920.430          49.000  
  22653391.438   119044374.812       15332.754          50.000  
 16  4  2 12 41 26.0000000  0  2G04G29
  21557955.258   113287818.324       -9925.617          49.000  
  22653099.680   119042841.707       15329.543          50.000  
 16  4  2 12 41 26.1000000  0  2G04G29
  21558144.172   113288811.078       -9929.926          49.000  
  22652807.984   119041308.836       15327.074          50.000  
 16  4  2 12 41 26.2000000  0  2G04G29
  21558333.195   113289804.410       -9935.691          49.000  
  22652516.359   119039776.363       15323.148          50.000  
 16  4  2 12 41 26.3000000  0  2G04G29
  21558522.312   113290798.195       -9940.180          49.000  
  22652224.789   119038244.164       15320.457          50.000  
 16  4  2 12 41 26.4000000  0  2G04G29
  21558711.516   113291792.441       -9944.723          49.000  
  22651933.258   119036712.234       15317.887          50.000  
 16  4  2 12 41 26.5000000  0  2G04G29
  21558900.812   113292787.223       -9950.035          49.000  
  22651641.805   119035180.641       15314.512          50.000  
 16  4  2 12 41 26.6000000  0  2G04G29
  21559090.195   113293782.453       -9954.820          49.000  
  22651350.398   119033649.332       15311.402          50.000  
 16  4  2 12 41 26.7000000  0  2G04G29
  21559279.680   113294778.227       -9960.078          49.000  
  22651059.070   119032118.375       15308.012          50.000  
 16  4  2 12 41 26.8000000  0  2G04G29
  21559469.273   113295774.512       -9965.215          49.000  
  22650767.781   119030587.730       15304.699          50.000  
 16  4  2 12 41 26.9000000  0  2G04G29
  21559658.961   113296771.328       -9970.465          49.000  
  22650476.578   119029057.441       15301.426          50.000  
 16  4  2 12 41 27.0000000  0  2G04G29
  21559848.719   113297768.520       -9974.273          49.000  
  22650185.406   119027527.344       15299.422          50.000  
 16  4  2 12 41 27.1000000  0  2G04G29
  21560038.578   113298766.273       -9979.793          49.000  
  22649894.305   119025997.609       15295.801          50.000  
 16  4  2 12 41 27.2000000  0  2G04G29
  21560228.539   113299764.496       -9984.672          49.000  
  22649603.273   119024468.180       15292.715          50.000  
 16  4  2 12 41 27.3000000  0  2G04G29
  21560418.586   113300763.234       -9989.652          49.000  
  22649312.297   119022939.066       15289.633          50.000  
 16  4  2 12 41 27.4000000  0  2G04G29
  21560608.719   113301762.410       -9994.094          49.000  
  22649021.383   119021410.195       15287.098          50.000  
 16  4  2 12 41 27.5000000  0  2G04G29
  21560798.953   113302762.090       -9999.059          49.000  
  22648730.508   119019881.656       15283.836          50.000  
 16  4  2 12 41 27.6000000  0  2G04G29
  21560989.289   113303762.273      -10004.039          49.000  
  22648439.703   119018353.438       15280.848          50.000  
 16  4  2 12 41 27.7000000  0  2G04G29
  21561179.703   113304762.898      -10008.629          49.000  
  22648148.938   119016825.477       15277.988          50.000  
 16  4  2 12 41 27.8000000  0  2G04G29
  21561370.203   113305764.031      -10013.730          49.000  
  22647858.234   119015297.816       15274.941          50.000  
 16  4  2 12 41 27.9000000  0  2G04G29
  21561560.820   113306765.719      -10019.340          49.000  
  22647567.602   119013770.555       15270.961          50.000  
 16  4  2 12 41 28.0000000  0  2G04G29
  21561751.539   113307767.930      -10024.535          49.000  
  22647277.023   119012243.609       15267.785          50.000  
 16  4  2 12 41 28.1000000  0  2G04G29
  21561942.328   113308770.527      -10028.391          49.000  
  22646986.492   119010716.883       15265.641          50.000  
 16  4  2 12 41 28.2000000  0  2G04G29
  21562133.203   113309773.609      -10033.004          49.000  
  22646696.039   119009190.430       15262.980          50.000  
 16  4  2 12 41 28.3000000  0  2G04G29
  21562324.195   113310777.266      -10038.867          49.000  
  22646405.641   119007664.387       15258.977          50.000  
 16  4  2 12 41 28.4000000  0  2G04G29
  21562515.289   113311781.418      -10043.977          49.000  
  22646115.305   119006138.648       15255.746          50.000  
 16  4  2 12 41 28.5000000  0  2G04G29
  21562706.453   113312786.004      -10048.418          49.000  
  22645825.008   119004613.164       15253.242          50.000  
 16  4  2 12 41 28.6000000  0  2G04G29
  21562897.719   113313791.102      -10053.297          49.000  
  22645534.773   119003087.996       15250.031          50.000  
 16  4  2 12 41 28.7000000  0  2G04G29
  21563089.070   113314796.656      -10057.828          49.000  
  22645244.602   119001563.105       15247.441          50.000  
 16  4  2 12 41 28.8000000  0  2G04G29
  21563280.531   113315802.730      -10063.059          49.000  
  22644954.492   119000038.555       15243.918          50.000  
 16  4  2 12 41 28.9000000  0  2G04G29
  21563472.062   113316809.262      -10067.672          49.000  
  22644664.430   118998514.270       15241.203          50.000  
 16  4  2 12 41 29.0000000  0  2G04G29
  21563663.711   113317816.344      -10073.176          49.000  
  22644374.438   118996990.352       15237.551          50.000  
 16  4  2 12 41 29.1000000  0  2G04G29
  21563855.438   113318823.879      -10077.793          49.000  
  22644084.500   118995466.707       15234.797          50.000  
 16  4  2 12 41 29.2000000  0  2G04G29
  21564047.242   113319831.855      -10081.957          49.000  
  22643794.617   118993943.316       15232.453          50.000  
 16  4  2 12 41 29.3000000  0  2G04G29
  21564239.148   113320840.312      -10086.770          49.000  
  22643504.781   118992420.219       15229.473          50.000  
 16  4  2 12 41 29.4000000  0  2G04G29
  21564431.148   113321849.340      -10092.457          49.000  
  22643215.031   118990897.512       15225.602          50.000  
 16  4  2 12 41 29.5000000  0  2G04G29
  21564623.250   113322858.812      -10097.305          49.000  
  22642925.320   118989375.055       15222.730          50.000  
 16  4  2 12 41 29.6000000  0  2G04G29
  21564815.438   113323868.793      -10102.172          49.000  
  22642635.688   118987852.938       15219.543          50.000  
 16  4  2 12 41 29.7000000  0  2G04G29
  21565007.727   113324879.273      -10107.047          49.000  
  22642346.094   118986331.121       15216.641          50.000  
 16  4  2 12 41 29.8000000  0  2G04G29
  21565200.102   113325890.215      -10111.738          49.000  
  22642056.547   118984809.578       15213.812          50.000  
 16  4  2 12 41 29.9000000  0  2G04G29
  21565392.570   113326901.621      -10116.340          49.000  
  22641767.062   118983288.332       15211.055          50.000  
 16  4  2 12 41 30.0000000  0  2G04G29
  21565585.125   113327913.562      -10121.711          49.000  
  22641477.641   118981767.422       15207.504          50.000  
 16  4  2 12 41 30.1000000  0  2G04G29
  21565777.758   113328925.875      -10125.312          49.000  
  22641188.258   118980246.711       15205.660          50.000  
 16  4  2 12 41 30.2000000  0  2G04G29
  21565970.492   113329938.695      -10130.438          49.000  
  22640898.938   118978726.312       15202.469          50.000  
 16  4  2 12 41 30.3000000  0  2G04G29
  21566163.328   113330952.035      -10135.727          49.000  
  22640609.680   118977206.266       15198.918          50.000  
 16  4  2 12 41 30.4000000  0  2G04G29
  21566356.250   113331965.828      -10140.281          49.000  
  22640320.469   118975686.469       15196.348          50.000  
 16  4  2 12 41 30.5000000  0  2G04G29
  21566549.258   113332980.109      -10145.062          49.000  
  22640031.320   118974166.988       15193.355          50.000  
 16  4  2 12 41 30.6000000  0  2G04G29
  21566742.359   113333994.855      -10149.828          49.000  
  22639742.234   118972647.781       15190.496          50.000  
 16  4  2 12 41 30.7000000  0  2G04G29
  21566935.555   113335010.105      -10154.984          49.000  
  22639453.203   118971128.898       15187.160          50.000  
 16  4  2 12 41 30.8000000  0  2G04G29
  21567128.852   113336025.918      -10160.555          49.000  
  22639164.227   118969610.391       15183.430          50.000  
 16  4  2 12 41 30.9000000  0  2G04G29
  21567322.242   113337042.191      -10165.164          49.000  
  22638875.320   118968092.168       15180.566          50.000  
 16  4  2 12 41 31.0000000  0  2G04G29
  21567515.727   113338058.969      -10170.191          49.000  
  22638586.477   118966574.262       15177.430          50.000  
 16  4  2 12 41 31.1000000  0  2G04G29
  21567709.297   113339076.227      -10174.863          49.000  
  22638297.688   118965056.648       15174.621          50.000  
 16  4  2 12 41 31.2000000  0  2G04G29
  21567902.977   113340093.930      -10179.398          49.000  
  22638008.953   118963539.309       15171.871          50.000  
 16  4  2 12 41 31.3000000  0  2G04G29
  21568096.734   113341112.156      -10184.648          49.000  
  22637720.273   118962022.297       15168.473          50.000  
 16  4  2 12 41 31.4000000  0  2G04G29
  21568290.602   113342130.883      -10189.746          49.000  
  22637431.656   118960505.598       15165.277          50.000  
 16  4  2 12 41 31.5000000  0  2G04G29
  21568484.547   113343150.078      -10194.543          49.000  
  22637143.094   118958989.191       15162.301          50.000  
 16  4  2 12 41 31.6000000  0  2G04G29
  21568678.586   113344169.777      -10199.336          49.000  
  22636854.578   118957473.117       15159.141          50.000  
 16  4  2 12 41 31.7000000  0  2G04G29
  21568872.727   113345189.988      -10204.418          49.000  
  22636566.141   118955957.340       15156.145          50.000  
 16  4  2 12 41 31.8000000  0  2G04G29
  21569066.953   113346210.672      -10209.094          49.000  
  22636277.750   118954441.883       15153.094          50.000  
 16  4  2 12 41 31.9000000  0  2G04G29
  21569261.281   113347231.855      -10214.176          49.000  
  22635989.422   118952926.727       15150.012          50.000  
 16  4  2 12 41 32.0000000  0  2G04G29
  21569455.703   113348253.539      -10219.258          49.000  
  22635701.156   118951411.883       15146.762          50.000  
 16  4  2 12 41 32.1000000  0  2G04G29
  21569650.211   113349275.668      -10223.840          49.000  
  22635412.945   118949897.324       15143.879          50.000  
 16  4  2 12 41 32.2000000  0  2G04G29
  21569844.812   113350298.316      -10228.691          49.000  
  22635124.781   118948383.082       15140.867          50.000  
 16  4  2 12 41 32.3000000  0  2G04G29
  21570039.508   113351321.473      -10234.012          49.000  
  22634836.695   118946869.172       15137.398          50.000  
 16  4  2 12 41 32.4000000  0  2G04G29
  21570234.320   113352345.172      -10239.328          49.000  
  22634548.672   118945355.609       15134.039          50.000  
 16  4  2 12 41 32.5000000  0  2G04G29
  21570429.195   113353369.270      -10243.445          49.000  
  22634260.695   118943842.270       15131.750          50.000  
 16  4  2 12 41 32.6000000  0  2G04G29
  21570624.156   113354393.820      -10247.773          49.000  
  22633972.766   118942329.215       15129.188          50.000  
 16  4  2 12 41 32.7000000  0  2G04G29
  21570819.219   113355418.848      -10252.395          49.000  
  22633684.891   118940816.438       15126.402          50.000  
 16  4  2 12 41 32.8000000  0  2G04G29
  21571014.375   113356444.367      -10257.441          49.000  
  22633397.078   118939303.973       15123.176          50.000  
 16  4  2 12 41 32.9000000  0  2G04G29
  21571209.617   113357470.367      -10262.293          49.000  
  22633109.320   118937791.812       15120.051          50.000  
 16  4  2 12 41 33.0000000  0  2G04G29
  21571404.953   113358496.879      -10267.504          49.000  
  22632821.617   118936279.969       15116.867          50.000  
 16  4  2 12 41 33.1000000  0  2G04G29
  21571600.375   113359523.863      -10272.129          49.000  
  22632533.977   118934768.430       15113.852          50.000  
 16  4  2 12 41 33.2000000  0  2G04G29
  21571795.891   113360551.305      -10276.641          49.000  
  22632246.414   118933257.156       15111.152          50.000  
 16  4  2 12 41 33.3000000  0  2G04G29
  21571991.492   113361579.230      -10281.566          49.000  
  22631958.883   118931746.180       15108.227          50.000  
 16  4  2 12 41 33.4000000  0  2G04G29
  21572187.195   113362607.652      -10286.629          49.000  
  22631671.422   118930235.527       15104.871          50.000  
 16  4  2 12 41 33.5000000  0  2G04G29
  21572382.992   113363636.578      -10291.660          49.000  
  22631384.016   118928725.188       15101.801          50.000  
 16  4  2 12 41 33.6000000  0  2G04G29
  21572578.883   113364665.945      -10296.031          49.000  
  22631096.656   118927215.109       15099.223          50.000  
 16  4  2 12 41 33.7000000  0  2G04G29
  21572774.859   113365695.828      -10301.113          49.000  
  22630809.359   118925705.367       15095.926          50.000  
 16  4  2 12 41 33.8000000  0  2G04G29
  21572970.938   113366726.215      -10306.180          49.000  
  22630522.141   118924195.945       15092.641          50.000  
 16  4  2 12 41 33.9000000  0  2G04G29
  21573167.102   113367757.059      -10310.816          49.000  
  22630234.961   118922686.801       15089.848          50.000  
 16  4  2 12 41 34.0000000  0  2G04G29
  21573363.359   113368788.426      -10316.008          49.000  
  22629947.836   118921177.988       15086.551          50.000  
 16  4  2 12 41 34.1000000  0  2G04G29
  21573559.711   113369820.238      -10320.488          49.000  
  22629660.773   118919669.449       15083.734          50.000  
 16  4  2 12 41 34.2000000  0  2G04G29
  21573756.172   113370852.633      -10326.172          49.000  
  22629373.789   118918161.312       15079.852          50.000  
 16  4  2 12 41 34.3000000  0  2G04G29
  21573952.711   113371885.465      -10330.633          49.000  
  22629086.844   118916653.422       15077.363          50.000  
 16  4  2 12 41 34.4000000  0  2G04G29
  21574149.336   113372918.711      -10334.598          49.000  
  22628799.953   118915145.773       15075.156          50.000  
 16  4  2 12 41 34.5000000  0  2G04G29
  21574346.055   113373952.461      -10339.762          49.000  
  22628513.117   118913638.434       15071.840          50.000  
 16  4  2 12 41 34.6000000  0  2G04G29
  21574542.875   113374986.742      -10345.055          49.000  
  22628226.336   118912131.441       15068.316          50.000  
 16  4  2 12 41 34.7000000  0  2G04G29
  21574739.781   113376021.512      -10350.172          49.000  
  22627939.633   118910624.773       15064.969          50.000  
 16  4  2 12 41 34.8000000  0  2G04G29
  21574936.789   113377056.758      -10354.730          49.000  
  22627652.977   118909118.387       15062.285          50.000  
 16  4  2 12 41 34.9000000  0  2G04G29
  21575133.883   113378092.500      -10359.707          49.000  
  22627366.383   118907612.316       15059.211          50.000  
 16  4  2 12 41 35.0000000  0  2G04G29
  21575331.062   113379128.656      -10364.023          49.000  
  22627079.844   118906106.484       15056.664          50.000  
 16  4  2 12 41 35.1000000  0  2G04G29
  21575528.328   113380165.312      -10368.723          49.000  
  22626793.352   118904600.965       15053.828          50.000  
 16  4  2 12 41 35.2000000  0  2G04G29
  21575725.688   113381202.469      -10373.824          49.000  
  22626506.922   118903095.766       15050.492          50.000  
 16  4  2 12 41 35.3000000  0  2G04G29
  21575923.141   113382240.074      -10378.438          49.000  
  22626220.547   118901590.832       15047.641          50.000  
 16  4  2 12 41 35.4000000  0  2G04G29
  21576120.695   113383278.199      -10383.473          49.000  
  22625934.227   118900086.250       15044.484          50.000  
 16  4  2 12 41 35.5000000  0  2G04G29
  21576318.336   113384316.797      -10388.180          49.000  
  22625647.969   118898581.941       15041.555          50.000  
 16  4  2 12 41 35.6000000  0  2G04G29
  21576516.078   113385355.938      -10393.789          49.000  
  22625361.789   118897077.996       15037.844          50.000  
 16  4  2 12 41 35.7000000  0  2G04G29
  21576713.906   113386395.547      -10398.547          49.000  
  22625075.656   118895574.348       15034.805          50.000  
 16  4  2 12 41 35.8000000  0  2G04G29
  21576911.828   113387435.605      -10402.949          49.000  
  22624789.570   118894070.965       15032.297          50.000  
 16  4  2 12 41 35.9000000  0  2G04G29
  21577109.836   113388476.145      -10407.672          49.000  
  22624503.539   118892567.879       15029.410          50.000  
 16  4  2 12 41 36.0000000  0  2G04G29
  21577307.930   113389517.152      -10412.367          49.000  
  22624217.562   118891065.078       15026.410          50.000  
 16  4  2 12 41 36.1000000  0  2G04G29
  21577506.133   113390558.691      -10417.824          49.000  
  22623931.656   118889562.633       15022.723          50.000  
 16  4  2 12 41 36.2000000  0  2G04G29
  21577704.422   113391600.699      -10422.305          49.000  
  22623645.812   118888060.477       15020.043          50.000  
 16  4  2 12 41 36.3000000  0  2G04G29
  21577902.805   113392643.188      -10427.141          49.000  
  22623360.016   118886558.609       15017.164          50.000  
 16  4  2 12 41 36.4000000  0  2G04G29
  21578101.273   113393686.160      -10432.059          49.000  
  22623074.273   118885057.051       15014.062          50.000  
 16  4  2 12 41 36.5000000  0  2G04G29
  21578299.844   113394729.656      -10437.516          49.000  
  22622788.602   118883555.836       15010.484          50.000  
 16  4  2 12 41 36.6000000  0  2G04G29
  21578498.516   113395773.656      -10442.367          49.000  
  22622503.000   118882054.957       15007.172          50.000  
 16  4  2 12 41 36.7000000  0  2G04G29
  21578697.266   113396818.129      -10447.152          49.000  
  22622217.445   118880554.352       15004.312          50.000  
 16  4  2 12 41 36.8000000  0  2G04G29
  21578896.125   113397863.121      -10452.289          49.000  
  22621931.961   118879054.090       15001.059          50.000  
 16  4  2 12 41 36.9000000  0  2G04G29
  21579095.062   113398908.527      -10456.414          49.000  
  22621646.516   118877554.066       14998.652          50.000  
 16  4  2 12 41 37.0000000  0  2G04G29
  21579294.086   113399954.406      -10460.973          49.000  
  22621361.109   118876054.324       14996.004          50.000  
 16  4  2 12 41 37.1000000  0  2G04G29
  21579493.188   113401000.723      -10465.395          49.000  
  22621075.773   118874554.848       14993.328          50.000  
 16  4  2 12 41 37.2000000  0  2G04G29
  21579692.406   113402047.602      -10471.098          49.000  
  22620790.500   118873055.762       14989.242          50.000  
 16  4  2 12 41 37.3000000  0  2G04G29
  21579891.711   113403094.938      -10475.652          49.000  
  22620505.281   118871556.934       14986.633          50.000  
 16  4  2 12 41 37.4000000  0  2G04G29
  21580091.109   113404142.758      -10480.625          49.000  
  22620220.125   118870058.418       14983.531          50.000  
 16  4  2 12 41 37.5000000  0  2G04G29
  21580290.602   113405191.086      -10485.641          49.000  
  22619935.023   118868560.230       14980.293          50.000  
 16  4  2 12 41 37.6000000  0  2G04G29
  21580490.180   113406239.879      -10490.184          49.000  
  22619649.992   118867062.332       14977.574          50.000  
 16  4  2 12 41 37.7000000  0  2G04G29
  21580689.836   113407289.113      -10494.691          49.000  
  22619365.000   118865564.676       14975.012          50.000  
 16  4  2 12 41 37.8000000  0  2G04G29
  21580889.602   113408338.910      -10500.332          49.000  
  22619080.086   118864067.430       14970.934          50.000  
 16  4  2 12 41 37.9000000  0  2G04G29
  21581089.453   113409389.137      -10504.633          49.000  
  22618795.211   118862570.418       14968.531          50.000  
 16  4  2 12 41 38.0000000  0  2G04G29
  21581289.398   113410439.859      -10509.578          49.000  
  22618510.398   118861073.727       14965.266          50.000  
 16  4  2 12 41 38.1000000  0  2G04G29
  21581489.445   113411491.086      -10514.504          49.000  
  22618225.648   118859577.348       14962.328          50.000  
 16  4  2 12 41 38.2000000  0  2G04G29
  21581689.578   113412542.785      -10519.594          49.000  
  22617940.961   118858081.270       14958.891          50.000  
 16  4  2 12 41 38.3000000  0  2G04G29
  21581889.820   113413595.082      -10525.184          49.000  
  22617656.344   118856585.613       14955.102          50.000  
 16  4  2 12 41 38.4000000  0  2G04G29
  21582090.141   113414647.770      -10529.246          49.000  
  22617371.766   118855090.160       14952.910          50.000  
 16  4  2 12 41 38.5000000  0  2G04G29
  21582290.562   113415700.996      -10534.629          49.000  
  22617087.266   118853595.074       14949.211          50.000  
 16  4  2 12 41 38.6000000  0  2G04G29
  21582491.078   113416754.719      -10539.723          49.000  
  22616802.812   118852100.301       14946.016          50.000  
 16  4  2 12 41 38.7000000  0  2G04G29
  21582691.680   113417808.875      -10544.043          49.000  
  22616518.414   118850605.781       14943.473          50.000  
 16  4  2 12 41 38.8000000  0  2G04G29
  21582892.383   113418863.605      -10549.520          49.000  
  22616234.094   118849111.652       14939.871          50.000  
 16  4  2 12 41 38.9000000  0  2G04G29
  21583093.172   113419918.727      -10553.480          49.000  
  22615949.812   118847617.734       14937.711          50.000  
 16  4  2 12 41 39.0000000  0  2G04G29
  21583294.055   113420974.359      -10558.527          49.000  
  22615665.586   118846124.168       14934.195          50.000  
 16  4  2 12 41 39.1000000  0  2G04G29
  21583495.023   113422030.457      -10563.172          49.000  
  22615381.422   118844630.867       14931.578          50.000  
 16  4  2 12 41 39.2000000  0  2G04G29
  21583696.086   113423087.062      -10568.375          49.000  
  22615097.320   118843137.891       14928.227          50.000  
 16  4  2 12 41 39.3000000  0  2G04G29
  21583897.242   113424144.176      -10573.641          49.000  
  22614813.281   118841645.254       14924.629          50.000  
 16  4  2 12 41 39.4000000  0  2G04G29
  21584098.500   113425201.777      -10578.422          49.000  
  22614529.297   118840152.922       14921.703          50.000  
 16  4  2 12 41 39.5000000  0  2G04G29
  21584299.836   113426259.793      -10582.555          49.000  
  22614245.359   118838660.820       14919.461          50.000  
 16  4  2 12 41 39.6000000  0  2G04G29
  21584501.273   113427318.312      -10587.543          49.000  
  22613961.484   118837169.055       14916.113          50.000  
 16  4  2 12 41 39.7000000  0  2G04G29
  21584702.797   113428377.320      -10592.332          49.000  
  22613677.672   118835677.594       14913.070          50.000  
 16  4  2 12 41 39.8000000  0  2G04G29
  21584904.398   113429436.754      -10596.477          49.000  
  22613393.906   118834186.379       14910.801          50.000  
 16  4  2 12 41 39.9000000  0  2G04G29
  21585106.078   113430496.586      -10600.379          49.000  
  22613110.180   118832695.391       14908.586          50.000  
 16  4  2 12 41 40.0000000  0  2G04G29
  21585307.859   113431556.965      -10606.059          49.000  
  22612826.531   118831204.762       14904.609          50.000  
 16  4  2 12 41 40.1000000  0  2G04G29
  21585509.742   113432617.883      -10611.520          49.000  
  22612542.945   118829714.477       14901.199          50.000  
 16  4  2 12 41 40.2000000  0  2G04G29
  21585711.719   113433679.266      -10616.223          49.000  
  22612259.414   118828224.508       14898.129          50.000  
 16  4  2 12 41 40.3000000  0  2G04G29
  21585913.781   113434741.113      -10620.625          49.000  
  22611975.930   118826734.801       14895.641          50.000  
 16  4  2 12 41 40.4000000  0  2G04G29
  21586115.938   113435803.469      -10625.734          49.000  
  22611692.508   118825245.438       14892.262          50.000  
 16  4  2 12 41 40.5000000  0  2G04G29
  21586318.180   113436866.234      -10629.820          49.000  
  22611409.133   118823756.305       14889.902          50.000  
 16  4  2 12 41 40.6000000  0  2G04G29
  21586520.516   113437929.500      -10634.926          49.000  
  22611125.812   118822267.484       14886.723          50.000  
 16  4  2 12 41 40.7000000  0  2G04G29
  21586722.938   113438993.254      -10640.035          49.000  
  22610842.555   118820778.988       14883.359          50.000  
 16  4  2 12 41 40.8000000  0  2G04G29
  21586925.453   113440057.484      -10644.469          49.000  
  22610559.352   118819290.773       14880.676          50.000  
 16  4  2 12 41 40.9000000  0  2G04G29
  21587128.062   113441122.184      -10649.402          49.000  
  22610276.211   118817802.859       14877.488          50.000  
 16  4  2 12 41 41.0000000  0  2G04G29
  21587330.766   113442187.395      -10654.324          49.000  
  22609993.141   118816315.277       14874.426          50.000  
 16  4  2 12 41 41.1000000  0  2G04G29
  21587533.562   113443253.082      -10659.301          49.000  
  22609710.117   118814827.996       14871.094          50.000  
 16  4  2 12 41 41.2000000  0  2G04G29
  21587736.453   113444319.297      -10664.492          49.000  
  22609427.156   118813341.062       14867.695          50.000  
 16  4  2 12 41 41.3000000  0  2G04G29
  21587939.430   113445385.941      -10668.742          49.000  
  22609144.250   118811854.363       14865.449          50.000  
 16  4  2 12 41 41.4000000  0  2G04G29
  21588142.492   113446453.082      -10673.746          49.000  
  22608861.398   118810368.012       14861.879          50.000  
 16  4  2 12 41 41.5000000  0  2G04G29
  21588345.656   113447520.703      -10678.395          49.000  
  22608578.609   118808881.945       14859.219          50.000  
 16  4  2 12 41 41.6000000  0  2G04G29
  21588548.898   113448588.754      -10682.816          49.000  
  22608295.883   118807396.125       14856.648          50.000  
 16  4  2 12 41 41.7000000  0  2G04G29
  21588752.242   113449657.324      -10687.980          49.000  
  22608013.203   118805910.656       14853.082          50.000  
 16  4  2 12 41 41.8000000  0  2G04G29
  21588955.680   113450726.418      -10693.148          49.000  
  22607730.609   118804425.535       14849.754          50.000  
 16  4  2 12 41 41.9000000  0  2G04G29
  21589159.203   113451795.945      -10697.656          49.000  
  22607448.047   118802940.656       14847.133          50.000  
 16  4  2 12 41 42.0000000  0  2G04G29
  21589362.828   113452866.016      -10702.988          49.000  
  22607165.547   118801456.148       14843.523          50.000  
 16  4  2 12 41 42.1000000  0  2G04G29
  21589566.531   113453936.465      -10706.629          49.000  
  22606883.102   118799971.848       14841.586          50.000  
 16  4  2 12 41 42.2000000  0  2G04G29
  21589770.312   113455007.398      -10711.629          49.000  
  22606600.703   118798487.852       14838.344          50.000  
 16  4  2 12 41 42.3000000  0  2G04G29
  21589974.219   113456078.926      -10717.723          49.000  
  22606318.383   118797004.258       14834.258          50.000  
 16  4  2 12 41 42.4000000  0  2G04G29
  21590178.203   113457150.898      -10722.148          49.000  
  22606036.133   118795520.953       14831.422          50.000  
 16  4  2 12 41 42.5000000  0  2G04G29
  21590382.289   113458223.367      -10727.152          49.000  
  22605753.922   118794037.957       14828.281          50.000  
 16  4  2 12 41 42.6000000  0  2G04G29
  21590586.461   113459296.305      -10731.805          49.000  
  22605471.766   118792555.250       14825.477          50.000  
 16  4  2 12 41 42.7000000  0  2G04G29
  21590790.719   113460369.684      -10736.004          49.000  
  22605189.672   118791072.809       14823.031          50.000  
 16  4  2 12 41 42.8000000  0  2G04G29
  21590995.070   113461443.555      -10740.805          49.000  
  22604907.633   118789590.688       14819.875          50.000  
 16  4  2 12 41 42.9000000  0  2G04G29
  21591199.516   113462517.922      -10745.996          49.000  
  22604625.656   118788108.875       14816.523          50.000  
 16  4  2 12 41 43.0000000  0  2G04G29
  21591404.062   113463592.777      -10750.805          49.000  
  22604343.727   118786627.375       14813.543          50.000  
 16  4  2 12 41 43.1000000  0  2G04G29
  21591608.680   113464668.074      -10755.375          49.000  
  22604061.859   118785146.148       14810.617          50.000  
 16  4  2 12 41 43.2000000  0  2G04G29
  21591813.398   113465743.895      -10760.539          49.000  
  22603780.055   118783665.254       14807.273          50.000  
 16  4  2 12 41 43.3000000  0  2G04G29
  21592018.211   113466820.203      -10765.352          49.000  
  22603498.312   118782184.684       14804.230          50.000  
 16  4  2 12 41 43.4000000  0  2G04G29
  21592223.117   113467896.973      -10769.992          49.000  
  22603216.617   118780704.387       14801.465          50.000  
 16  4  2 12 41 43.5000000  0  2G04G29
  21592428.094   113468974.168      -10774.180          49.000  
  22602934.977   118779224.352       14798.832          50.000  
 16  4  2 12 41 43.6000000  0  2G04G29
  21592633.188   113470051.934      -10780.004          49.000  
  22602653.406   118777744.699       14794.836          50.000  
 16  4  2 12 41 43.7000000  0  2G04G29
  21592838.375   113471130.184      -10784.758          49.000  
  22602371.898   118776265.355       14791.875          50.000  
 16  4  2 12 41 43.8000000  0  2G04G29
  21593043.641   113472208.879      -10789.375          49.000  
  22602090.438   118774786.281       14788.945          50.000  
 16  4  2 12 41 43.9000000  0  2G04G29
  21593249.008   113473288.113      -10794.559          49.000  
  22601809.047   118773307.562       14785.734          50.000  
 16  4  2 12 41 44.0000000  0  2G04G29
  21593454.461   113474367.781      -10799.125          49.000  
  22601527.703   118771829.113       14782.902          50.000  
 16  4  2 12 41 44.1000000  0  2G04G29
  21593660.008   113475447.934      -10803.641          49.000  
  22601246.422   118770350.965       14780.098          50.000  
 16  4  2 12 41 44.2000000  0  2G04G29
  21593865.656   113476528.582      -10808.746          49.000  
  22600965.203   118768873.133       14776.793          50.000  
 16  4  2 12 41 44.3000000  0  2G04G29
  21594071.375   113477609.652      -10812.879          49.000  
  22600684.023   118767395.555       14774.289          50.000  
 16  4  2 12 41 44.4000000  0  2G04G29
  21594277.188   113478691.234      -10817.957          49.000  
  22600402.906   118765918.305       14771.074          50.000  
 16  4  2 12 41 44.5000000  0  2G04G29
  21594483.086   113479773.227      -10822.320          49.000  
  22600121.844   118764441.289       14768.336          50.000  
 16  4  2 12 41 44.6000000  0  2G04G29
  21594689.086   113480855.785      -10827.891          49.000  
  22599840.852   118762964.668       14764.672          50.000  
 16  4  2 12 41 44.7000000  0  2G04G29
  21594895.172   113481938.785      -10832.422          49.000  
  22599559.906   118761488.305       14761.777          50.000  
 16  4  2 12 41 44.8000000  0  2G04G29
  21595101.375   113483022.348      -10837.965          49.000  
  22599279.039   118760012.324       14758.281          50.000  
 16  4  2 12 41 44.9000000  0  2G04G29
  21595307.656   113484106.355      -10842.480          49.000  
  22598998.219   118758536.621       14755.445          50.000  
 16  4  2 12 41 45.0000000  0  2G04G29
  21595514.031   113485190.824      -10846.938          49.000  
  22598717.453   118757061.203       14752.684          50.000  
 16  4  2 12 41 45.1000000  0  2G04G29
  21595720.477   113486275.711      -10851.070          49.000  
  22598436.734   118755586.023       14750.332          50.000  
 16  4  2 12 41 45.2000000  0  2G04G29
  21595927.016   113487361.078      -10855.711          49.000  
  22598156.070   118754111.145       14747.418          50.000  
 16  4  2 12 41 45.3000000  0  2G04G29
  21596133.648   113488446.961      -10861.219          49.000  
  22597875.477   118752636.602       14743.801          50.000  
 16  4  2 12 41 45.4000000  0  2G04G29
  21596340.375   113489533.309      -10865.789          49.000  
  22597594.938   118751162.363       14740.945          50.000  
 16  4  2 12 41 45.5000000  0  2G04G29
  21596547.180   113490620.086      -10870.156          49.000  
  22597314.445   118749688.371       14738.242          50.000  
 16  4  2 12 41 45.6000000  0  2G04G29
  21596754.094   113491707.395      -10875.496          49.000  
  22597034.023   118748214.738       14734.586          50.000  
 16  4  2 12 41 45.7000000  0  2G04G29
  21596961.094   113492795.215      -10880.477          49.000  
  22596753.664   118746741.426       14731.590          50.000  
 16  4  2 12 41 45.8000000  0  2G04G29
  21597168.188   113493883.480      -10885.082          49.000  
  22596473.352   118745268.402       14728.570          50.000  
 16  4  2 12 41 45.9000000  0  2G04G29
  21597375.367   113494972.250      -10890.023          49.000  
  22596193.102   118743795.691       14725.422          50.000  
 16  4  2 12 41 46.0000000  0  2G04G29
  21597582.641   113496061.480      -10894.500          49.000  
  22595912.906   118742323.277       14722.727          50.000  
 16  4  2 12 41 46.1000000  0  2G04G29
  21597790.000   113497151.172      -10899.160          49.000  
  22595632.773   118740851.148       14719.855          50.000  
 16  4  2 12 41 46.2000000  0  2G04G29
  21597997.453   113498241.297      -10903.398          49.000  
  22595352.688   118739379.262       14717.465          50.000  
 16  4  2 12 41 46.3000000  0  2G04G29
  21598204.984   113499331.906      -10908.422          49.000  
  22595072.656   118737907.699       14714.094          50.000  
 16  4  2 12 41 46.4000000  0  2G04G29
  21598412.625   113500422.961      -10912.812          49.000  
  22594792.680   118736436.398       14711.492          50.000  
 16  4  2 12 41 46.5000000  0  2G04G29
  21598620.336   113501514.484      -10917.473          49.000  
  22594512.750   118734965.391       14708.633          50.000  
 16  4  2 12 41 46.6000000  0  2G04G29
  21598828.141   113502606.523      -10922.793          49.000  
  22594232.898   118733494.734       14704.934          50.000  
 16  4  2 12 41 46.7000000  0  2G04G29
  21599036.047   113503699.094      -10928.102          49.000  
  22593953.102   118732024.418       14701.430          50.000  
 16  4  2 12 41 46.8000000  0  2G04G29
  21599244.039   113504792.113      -10932.562          49.000  
  22593673.359   118730554.391       14698.699          50.000  
 16  4  2 12 41 46.9000000  0  2G04G29
  21599452.125   113505885.594      -10937.176          49.000  
  22593393.672   118729084.641       14695.895          50.000  
 16  4  2 12 41 47.0000000  0  2G04G29
  21599660.297   113506979.559      -10941.832          49.000  
  22593114.055   118727615.191       14693.102          50.000  
 16  4  2 12 41 47.1000000  0  2G04G29
  21599868.562   113508073.988      -10946.617          49.000  
  22592834.492   118726146.047       14689.949          50.000  
 16  4  2 12 41 47.2000000  0  2G04G29
  21600076.914   113509168.914      -10951.797          49.000  
  22592554.984   118724677.219       14686.387          50.000  
 16  4  2 12 41 47.3000000  0  2G04G29
  21600285.367   113510264.336      -10956.598          49.000  
  22592275.539   118723208.715       14683.512          50.000  
 16  4  2 12 41 47.4000000  0  2G04G29
  21600493.898   113511360.184      -10960.734          49.000  
  22591996.141   118721740.453       14681.047          50.000  
 16  4  2 12 41 47.5000000  0  2G04G29
  21600702.523   113512456.520      -10965.570          49.000  
  22591716.805   118720272.508       14678.020          50.000  
 16  4  2 12 41 47.6000000  0  2G04G29
  21600911.250   113513553.355      -10970.559          49.000  
  22591437.523   118718804.891       14674.719          50.000  
 16  4  2 12 41 47.7000000  0  2G04G29
  21601120.062   113514650.680      -10975.613          49.000  
  22591158.305   118717337.586       14671.395          50.000  
 16  4  2 12 41 47.8000000  0  2G04G29
  21601328.969   113515748.465      -10980.184          49.000  
  22590879.141   118715870.562       14668.719          50.000  
 16  4  2 12 41 47.9000000  0  2G04G29
  21601537.945   113516846.660      -10984.176          49.000  
  22590600.023   118714403.785       14666.270          50.000  
 16  4  2 12 41 48.0000000  0  2G04G29
  21601747.039   113517945.391      -10989.422          49.000  
  22590320.977   118712937.355       14662.820          50.000  
 16  4  2 12 41 48.1000000  0  2G04G29
  21601956.203   113519044.562      -10993.977          49.000  
  22590041.977   118711471.191       14660.082          50.000  
 16  4  2 12 41 48.2000000  0  2G04G29
  21602165.461   113520144.234      -10999.047          49.000  
  22589763.023   118710005.367       14656.699          50.000  
 16  4  2 12 41 48.3000000  0  2G04G29
  21602374.820   113521244.414      -11004.137          49.000  
  22589484.148   118708539.863       14653.426          50.000  
 16  4  2 12 41 48.4000000  0  2G04G29
  21602584.250   113522345.012      -11008.266          49.000  
  22589205.320   118707074.613       14650.859          50.000  
 16  4  2 12 41 48.5000000  0  2G04G29
  21602793.789   113523446.156      -11013.547          49.000  
  22588926.562   118705609.727       14647.508          50.000  
 16  4  2 12 41 48.6000000  0  2G04G29
  21603003.414   113524547.711      -11018.012          49.000  
  22588647.852   118704145.086       14644.633          50.000  
 16  4  2 12 41 48.7000000  0  2G04G29
  21603213.133   113525649.793      -11023.059          49.000  
  22588369.203   118702680.789       14641.402          50.000  
 16  4  2 12 41 48.8000000  0  2G04G29
  21603422.945   113526752.340      -11027.770          49.000  
  22588090.609   118701216.781       14638.441          50.000  
 16  4  2 12 41 48.9000000  0  2G04G29
  21603632.852   113527855.418      -11033.207          49.000  
  22587812.094   118699753.145       14634.684          50.000  
 16  4  2 12 41 49.0000000  0  2G04G29
  21603842.859   113528958.992      -11038.125          49.000  
  22587533.633   118698289.816       14631.582          50.000  
 16  4  2 12 41 49.1000000  0  2G04G29
  21604052.938   113530062.953      -11041.898          49.000  
  22587255.211   118696826.695       14629.621          50.000  
 16  4  2 12 41 49.2000000  0  2G04G29
  21604263.125   113531167.453      -11047.316          49.000  
  22586976.859   118695363.949       14625.988          50.000  
 16  4  2 12 41 49.3000000  0  2G04G29
  21604473.398   113532272.445      -11052.332          49.000  
  22586698.570   118693901.523       14622.703          50.000  
 16  4  2 12 41 49.4000000  0  2G04G29
  21604683.758   113533377.871      -11056.555          49.000  
  22586420.328   118692439.363       14620.051          50.000  
 16  4  2 12 41 49.5000000  0  2G04G29
  21604894.203   113534483.793      -11061.363          49.000  
  22586142.148   118690977.508       14617.055          50.000  
 16  4  2 12 41 49.6000000  0  2G04G29
  21605104.742   113535590.156      -11065.840          49.000  
  22585864.016   118689515.922       14614.426          50.000  
 16  4  2 12 41 49.7000000  0  2G04G29
  21605315.359   113536696.961      -11070.184          49.000  
  22585585.938   118688054.617       14611.754          50.000  
 16  4  2 12 41 49.8000000  0  2G04G29
  21605526.070   113537804.262      -11075.238          49.000  
  22585307.922   118686593.625       14608.453          50.000  
 16  4  2 12 41 49.9000000  0  2G04G29
  21605736.875   113538912.027      -11079.906          49.000  
  22585029.961   118685132.922       14605.535          50.000  
 16  4  2 12 41 50.0000000  0  2G04G29
  21605947.766   113540020.273      -11084.773          49.000  
  22584752.055   118683672.535       14602.355          50.000  
 16  4  2 12 41 50.1000000  0  2G04G29
  21606158.734   113541128.941      -11088.945          49.000  
  22584474.195   118682212.395       14599.820          50.000  
 16  4  2 12 41 50.2000000  0  2G04G29
  21606369.812   113542238.148      -11094.250          49.000  
  22584196.406   118680752.617       14596.230          50.000  
 16  4  2 12 41 50.3000000  0  2G04G29
  21606580.984   113543347.848      -11099.367          49.000  
  22583918.680   118679293.160       14592.895          50.000  
 16  4  2 12 41 50.4000000  0  2G04G29
  21606792.250   113544458.047      -11104.352          49.000  
  22583641.008   118677834.023       14589.762          50.000  
 16  4  2 12 41 50.5000000  0  2G04G29
  21607003.602   113545568.707      -11109.020          49.000  
  22583363.398   118676375.180       14586.723          50.000  
 16  4  2 12 41 50.6000000  0  2G04G29
  21607215.062   113546679.910      -11114.438          49.000  
  22583085.867   118674916.699       14583.098          50.000  
 16  4  2 12 41 50.7000000  0  2G04G29
  21607426.594   113547791.527      -11118.531          49.000  
  22582808.375   118673458.465       14580.738          50.000  
 16  4  2 12 41 50.8000000  0  2G04G29
  21607638.219   113548903.613      -11123.121          49.000  
  22582530.938   118672000.523       14577.980          50.000  
 16  4  2 12 41 50.9000000  0  2G04G29
  21607849.922   113550016.137      -11127.559          49.000  
  22582253.555   118670542.852       14575.180          50.000  
 16  4  2 12 41 51.0000000  0  2G04G29
  21608061.727   113551129.164      -11132.484          49.000  
  22581976.227   118669085.508       14571.961          50.000  
 16  4  2 12 41 51.1000000  0  2G04G29
  21608273.609   113552242.625      -11136.742          49.000  
  22581698.953   118667628.430       14569.367          50.000  
 16  4  2 12 41 51.2000000  0  2G04G29
  21608485.578   113553356.531      -11141.164          49.000  
  22581421.734   118666171.621       14566.672          50.000  
 16  4  2 12 41 51.3000000  0  2G04G29
  21608697.641   113554470.949      -11146.465          49.000  
  22581144.578   118664715.141       14563.164          50.000  
 16  4  2 12 41 51.4000000  0  2G04G29
  21608909.805   113555585.863      -11151.551          49.000  
  22580867.484   118663259.000       14559.648          50.000  
 16  4  2 12 41 51.5000000  0  2G04G29
  21609122.055   113556701.250      -11156.109          49.000  
  22580590.445   118661803.137       14557.117          50.000  
 16  4  2 12 41 51.6000000  0  2G04G29
  21609334.391   113557817.047      -11160.293          49.000  
  22580313.445   118660347.523       14554.598          50.000  
 16  4  2 12 41 51.7000000  0  2G04G29
  21609546.812   113558933.340      -11165.262          49.000  
  22580036.508   118658892.234       14551.379          50.000  
 16  4  2 12 41 51.8000000  0  2G04G29
  21609759.352   113560050.191      -11170.809          49.000  
  22579759.648   118657437.340       14547.469          50.000  
 16  4  2 12 41 51.9000000  0  2G04G29
  21609971.961   113561167.492      -11175.492          49.000  
  22579482.844   118655982.707       14544.602          50.000  
 16  4  2 12 41 52.0000000  0  2G04G29
  21610184.656   113562285.234      -11179.605          49.000  
  22579206.086   118654528.363       14541.961          50.000  
 16  4  2 12 41 52.1000000  0  2G04G29
  21610397.453   113563403.484      -11184.637          49.000  
  22578929.391   118653074.316       14538.965          50.000  
 16  4  2 12 41 52.2000000  0  2G04G29
  21610610.336   113564522.160      -11189.109          49.000  
  22578652.758   118651620.578       14535.871          50.000  
 16  4  2 12 41 52.3000000  0  2G04G29
  21610823.320   113565641.379      -11194.551          49.000  
  22578376.188   118650167.172       14532.492          50.000  
 16  4  2 12 41 52.4000000  0  2G04G29
  21611036.375   113566760.980      -11198.188          49.000  
  22578099.648   118648713.973       14530.562          50.000  
 16  4  2 12 41 52.5000000  0  2G04G29
  21611249.508   113567881.031      -11202.711          49.000  
  22577823.172   118647261.062       14527.680          50.000  
 16  4  2 12 41 52.6000000  0  2G04G29
  21611462.742   113569001.570      -11207.613          49.000  
  22577546.750   118645808.480       14524.449          50.000  
 16  4  2 12 41 52.7000000  0  2G04G29
  21611676.062   113570122.586      -11212.492          49.000  
  22577270.383   118644356.180       14521.402          50.000  
 16  4  2 12 41 52.8000000  0  2G04G29
  21611889.484   113571244.129      -11217.656          49.000  
  22576994.094   118642904.250       14517.785          50.000  
 16  4  2 12 41 52.9000000  0  2G04G29
  21612102.984   113572366.086      -11221.941          49.000  
  22576717.844   118641452.562       14515.250          50.000  
 16  4  2 12 41 53.0000000  0  2G04G29
  21612316.578   113573488.512      -11226.625          49.000  
  22576441.648   118640001.176       14512.188          50.000  
 16  4  2 12 41 53.1000000  0  2G04G29
  21612530.281   113574611.535      -11232.660          49.000  
  22576165.539   118638550.188       14507.988          50.000  
 16  4  2 12 41 53.2000000  0  2G04G29
  21612744.078   113575735.066      -11237.688          49.000  
  22575889.492   118637099.551       14504.762          50.000  
 16  4  2 12 41 53.3000000  0  2G04G29
  21612957.953   113576858.988      -11241.598          49.000  
  22575613.484   118635649.137       14502.512          50.000  
 16  4  2 12 41 53.4000000  0  2G04G29
  21613171.914   113577983.391      -11246.102          49.000  
  22575337.539   118634199.035       14499.730          50.000  
 16  4  2 12 41 53.5000000  0  2G04G29
  21613385.969   113579108.246      -11250.750          49.000  
  22575061.641   118632749.211       14496.734          50.000  
 16  4  2 12 41 53.6000000  0  2G04G29
  21613600.117   113580233.613      -11255.871          49.000  
  22574785.812   118631299.723       14493.430          50.000  
 16  4  2 12 41 53.7000000  0  2G04G29
  21613814.359   113581359.453      -11260.727          49.000  
  22574510.047   118629850.535       14490.297          50.000  
 16  4  2 12 41 53.8000000  0  2G04G29
  21614028.680   113582485.738      -11265.156          49.000  
  22574234.320   118628401.617       14487.734          50.000  
 16  4  2 12 41 53.9000000  0  2G04G29
  21614243.102   113583612.512      -11270.133          49.000  
  22573958.664   118626953.027       14484.312          50.000  
 16  4  2 12 41 54.0000000  0  2G04G29
  21614457.609   113584739.785      -11275.004          49.000  
  22573683.070   118625504.762       14481.039          50.000  
 16  4  2 12 41 54.1000000  0  2G04G29
  21614672.219   113585867.539      -11279.969          49.000  
  22573407.531   118624056.812       14477.762          50.000  
 16  4  2 12 41 54.2000000  0  2G04G29
  21614886.914   113586995.789      -11284.801          49.000  
  22573132.055   118622609.168       14474.793          50.000  
 16  4  2 12 41 54.3000000  0  2G04G29
  21615101.703   113588124.480      -11289.371          49.000  
  22572856.633   118621161.805       14471.910          50.000  
 16  4  2 12 41 54.4000000  0  2G04G29
  21615316.594   113589253.707      -11294.422          49.000  
  22572581.281   118619714.816       14468.383          50.000  
 16  4  2 12 41 54.5000000  0  2G04G29
  21615531.555   113590383.348      -11298.531          49.000  
  22572305.977   118618268.051       14466.219          50.000  
 16  4  2 12 41 54.6000000  0  2G04G29
  21615746.602   113591513.418      -11302.926          49.000  
  22572030.711   118616821.555       14463.508          50.000  
 16  4  2 12 41 54.7000000  0  2G04G29
  21615961.742   113592643.980      -11307.902          49.000  
  22571755.516   118615375.379       14460.297          50.000  
 16  4  2 12 41 54.8000000  0  2G04G29
  21616176.977   113593775.090      -11313.453          49.000  
  22571480.391   118613929.578       14456.383          50.000  
 16  4  2 12 41 54.9000000  0  2G04G29
  21616392.297   113594906.590      -11317.449          49.000  
  22571205.305   118612484.004       14454.082          50.000  
 16  4  2 12 41 55.0000000  0  2G04G29
  21616607.719   113596038.598      -11322.379          49.000  
  22570930.289   118611038.758       14450.840          50.000  
 16  4  2 12 41 55.1000000  0  2G04G29
  21616823.219   113597171.078      -11327.199          49.000  
  22570655.328   118609593.812       14447.750          50.000  
 16  4  2 12 41 55.2000000  0  2G04G29
  21617038.812   113598304.012      -11331.617          49.000  
  22570380.414   118608149.156       14444.949          50.000  
 16  4  2 12 41 55.3000000  0  2G04G29
  21617254.508   113599437.473      -11337.031          49.000  
  22570105.570   118606704.848       14441.492          50.000  
 16  4  2 12 41 55.4000000  0  2G04G29
  21617470.297   113600571.422      -11341.734          49.000  
  22569830.789   118605260.867       14438.309          50.000  
 16  4  2 12 41 55.5000000  0  2G04G29
  21617686.164   113601705.809      -11346.133          49.000  
  22569556.062   118603817.145       14435.727          50.000  
 16  4  2 12 41 55.6000000  0  2G04G29
  21617902.109   113602840.648      -11350.699          49.000  
  22569281.391   118602373.719       14432.766          50.000  
 16  4  2 12 41 55.7000000  0  2G04G29
  21618118.164   113603975.992      -11355.684          49.000  
  22569006.773   118600930.609       14429.574          50.000  
 16  4  2 12 41 55.8000000  0  2G04G29
  21618334.289   113605111.750      -11359.973          49.000  
  22568732.211   118599487.746       14427.020          50.000  
 16  4  2 12 41 55.9000000  0  2G04G29
  21618550.516   113606248.008      -11364.809          49.000  
  22568457.711   118598045.230       14423.664          50.000  
 16  4  2 12 41 56.0000000  0  2G04G29
  21618766.828   113607384.711      -11369.188          49.000  
  22568183.266   118596602.973       14421.055          50.000  
 16  4  2 12 41 56.1000000  0  2G04G29
  21618983.227   113608521.898      -11374.250          49.000  
  22567908.875   118595161.027       14417.848          50.000  
 16  4  2 12 41 56.2000000  0  2G04G29
  21619199.727   113609659.598      -11379.336          49.000  
  22567634.547   118593719.418       14414.512          50.000  
 16  4  2 12 41 56.3000000  0  2G04G29
  21619416.305   113610797.719      -11383.520          49.000  
  22567360.266   118592278.086       14411.828          50.000  
 16  4  2 12 41 56.4000000  0  2G04G29
  21619632.984   113611936.336      -11388.309          49.000  
  22567086.047   118590837.059       14408.746          50.000  
 16  4  2 12 41 56.5000000  0  2G04G29
  21619849.734   113613075.379      -11392.547          49.000  
  22566811.875   118589396.289       14406.230          50.000  
 16  4  2 12 41 56.6000000  0  2G04G29
  21620066.586   113614214.977      -11398.391          49.000  
  22566537.773   118587955.914       14402.121          50.000  
 16  4  2 12 41 56.7000000  0  2G04G29
  21620283.539   113615355.055      -11403.262          49.000  
  22566263.734   118586515.840       14398.969          50.000  
 16  4  2 12 41 56.8000000  0  2G04G29
  21620500.578   113616495.602      -11407.863          49.000  
  22565989.750   118585076.070       14396.082          50.000  
 16  4  2 12 41 56.9000000  0  2G04G29
  21620717.695   113617636.582      -11411.996          49.000  
  22565715.820   118583636.559       14393.574          50.000  
 16  4  2 12 41 57.0000000  0  2G04G29
  21620934.914   113618778.051      -11416.930          49.000  
  22565441.945   118582197.363       14390.387          50.000  
 16  4  2 12 41 57.1000000  0  2G04G29
  21621152.211   113619919.965      -11421.398          49.000  
  22565168.133   118580758.457       14387.492          50.000  
 16  4  2 12 41 57.2000000  0  2G04G29
  21621369.602   113621062.391      -11426.492          49.000  
  22564894.375   118579319.879       14384.242          50.000  
 16  4  2 12 41 57.3000000  0  2G04G29
  21621587.086   113622205.285      -11431.238          49.000  
  22564620.680   118577881.605       14381.062          50.000  
 16  4  2 12 41 57.4000000  0  2G04G29
  21621804.664   113623348.645      -11435.969          49.000  
  22564347.031   118576443.617       14378.258          50.000  
 16  4  2 12 41 57.5000000  0  2G04G29
  21622022.328   113624492.488      -11440.684          49.000  
  22564073.461   118575005.961       14374.988          50.000  
 16  4  2 12 41 57.6000000  0  2G04G29
  21622240.086   113625636.773      -11445.172          49.000  
  22563799.930   118573568.570       14372.355          50.000  
 16  4  2 12 41 57.7000000  0  2G04G29
  21622457.922   113626781.523      -11449.645          49.000  
  22563526.453   118572131.473       14369.531          50.000  
 16  4  2 12 41 57.8000000  0  2G04G29
  21622675.852   113627926.746      -11454.586          49.000  
  22563253.047   118570694.688       14366.160          50.000  
 16  4  2 12 41 57.9000000  0  2G04G29
  21622893.867   113629072.438      -11459.289          49.000  
  22562979.688   118569258.176       14363.414          50.000  
 16  4  2 12 41 58.0000000  0  2G04G29
  21623111.984   113630218.633      -11464.234          49.000  
  22562706.398   118567822.016       14360.074          50.000  
 16  4  2 12 41 58.1000000  0  2G04G29
  21623330.180   113631365.270      -11468.750          49.000  
  22562433.156   118566386.137       14357.188          50.000  
 16  4  2 12 41 58.2000000  0  2G04G29
  21623548.461   113632512.359      -11473.059          49.000  
  22562159.969   118564950.539       14354.480          50.000  
 16  4  2 12 41 58.3000000  0  2G04G29
  21623766.836   113633659.945      -11478.121          49.000  
  22561886.844   118563515.262       14351.188          50.000  
 16  4  2 12 41 58.4000000  0  2G04G29
  21623985.305   113634808.008      -11482.922          49.000  
  22561613.773   118562080.293       14348.027          50.000  
 16  4  2 12 41 58.5000000  0  2G04G29
  21624203.867   113635956.535      -11487.488          49.000  
  22561340.766   118560645.621       14345.180          50.000  
 16  4  2 12 41 58.6000000  0  2G04G29
  21624422.516   113637105.539      -11492.281          49.000  
  22561067.820   118559211.250       14342.168          50.000  
 16  4  2 12 41 58.7000000  0  2G04G29
  21624641.258   113638255.035      -11497.297          49.000  
  22560794.930   118557777.211       14338.738          50.000  
 16  4  2 12 41 58.8000000  0  2G04G29
  21624860.086   113639405.027      -11502.012          49.000  
  22560522.102   118556343.500       14335.664          50.000  
 16  4  2 12 41 58.9000000  0  2G04G29
  21625079.000   113640555.441      -11506.344          49.000  
  22560249.328   118554910.031       14333.129          50.000  
 16  4  2 12 41 59.0000000  0  2G04G29
  21625298.008   113641706.324      -11510.953          49.000  
  22559976.602   118553476.863       14330.203          50.000  
 16  4  2 12 41 59.1000000  0  2G04G29
  21625517.109   113642857.707      -11516.082          49.000  
  22559703.945   118552044.039       14326.785          50.000  
 16  4  2 12 41 59.2000000  0  2G04G29
  21625736.297   113644009.539      -11520.793          49.000  
  22559431.336   118550611.496       14323.586          50.000  
 16  4  2 12 41 59.3000000  0  2G04G29
  21625955.586   113645161.934      -11526.152          49.000  
  22559158.805   118549179.332       14320.039          50.000  
 16  4  2 12 41 59.4000000  0  2G04G29
  21626174.953   113646314.703      -11530.160          49.000  
  22558886.312   118547747.375       14317.797          50.000  
 16  4  2 12 41 59.5000000  0  2G04G29
  21626394.414   113647467.977      -11535.012          49.000  
  22558613.891   118546315.770       14314.508          50.000  
 16  4  2 12 41 59.6000000  0  2G04G29
  21626613.969   113648621.738      -11539.859          49.000  
  22558341.516   118544884.469       14311.512          50.000  
 16  4  2 12 41 59.7000000  0  2G04G29
  21626833.609   113649775.961      -11544.543          49.000  
  22558069.203   118543453.461       14308.574          50.000  
 16  4  2 12 41 59.8000000  0  2G04G29
  21627053.336   113650930.613      -11548.738          49.000  
  22557796.945   118542022.730       14305.875          50.000  
 16  4  2 12 41 59.9000000  0  2G04G29
  21627273.148   113652085.746      -11553.543          49.000  
  22557524.742   118540592.312       14302.656          50.000  
 16  4  2 12 42  0.0000000  0  2G04G29
  21627493.055   113653241.371      -11558.391          49.000  
  22557252.609   118539162.199       14299.531          50.000  
 16  4  2 12 42  0.1000000  0  2G04G29
  21627713.047   113654397.449      -11563.047          49.000  
  22556980.523   118537732.375       14296.602          50.000  
 16  4  2 12 42  0.2000000  0  2G04G29
  21627933.141   113655554.027      -11567.949          49.000  
  22556708.500   118536302.883       14293.449          50.000  
 16  4  2 12 42  0.3000000  0  2G04G29
  21628153.312   113656711.070      -11572.793          49.000  
  22556436.531   118534873.695       14290.258          50.000  
 16  4  2 12 42  0.4000000  0  2G04G29
  21628373.578   113657868.555      -11577.070          49.000  
  22556164.617   118533444.773       14287.789          50.000  
 16  4  2 12 42  0.5000000  0  2G04G29
  21628593.938   113659026.527      -11581.992          49.000  
  22555892.766   118532016.180       14284.426          50.000  
 16  4  2 12 42  0.6000000  0  2G04G29
  21628814.375   113660184.977      -11586.840          49.000  
  22555620.977   118530587.895       14281.242          50.000  
 16  4  2 12 42  0.7000000  0  2G04G29
  21629034.906   113661343.879      -11591.188          49.000  
  22555349.234   118529159.895       14278.547          50.000  
 16  4  2 12 42  0.8000000  0  2G04G29
  21629255.531   113662503.258      -11596.059          49.000  
  22555077.555   118527732.191       14275.438          50.000  
 16  4  2 12 42  0.9000000  0  2G04G29
  21629476.250   113663663.125      -11600.953          49.000  
  22554805.938   118526304.824       14272.109          50.000  
 16  4  2 12 42  1.0000000  0  2G04G29
  21629697.055   113664823.488      -11606.055          49.000  
  22554534.383   118524877.785       14268.523          50.000  
 16  4  2 12 42  1.1000000  0  2G04G29
  21629917.961   113665984.355      -11610.863          49.000  
  22554262.883   118523451.066       14265.652          50.000  
 16  4  2 12 42  1.2000000  0  2G04G29
  21630138.938   113667145.609      -11614.805          49.000  
  22553991.438   118522024.570       14263.324          50.000  
 16  4  2 12 42  1.3000000  0  2G04G29
  21630360.016   113668307.363      -11619.734          49.000  
  22553720.047   118520598.422       14259.988          50.000  
 16  4  2 12 42  1.4000000  0  2G04G29
  21630581.180   113669469.602      -11624.441          49.000  
  22553448.719   118519172.570       14257.168          50.000  
 16  4  2 12 42  1.5000000  0  2G04G29
  21630802.430   113670632.277      -11629.047          49.000  
  22553177.445   118517747.016       14254.051          50.000  
 16  4  2 12 42  1.6000000  0  2G04G29
  21631023.766   113671795.426      -11633.660          49.000  
  22552906.227   118516321.730       14251.250          50.000  
 16  4  2 12 42  1.7000000  0  2G04G29
  21631245.203   113672959.055      -11638.512          49.000  
  22552635.070   118514896.781       14247.891          50.000  
 16  4  2 12 42  1.8000000  0  2G04G29
  21631466.727   113674123.160      -11643.363          49.000  
  22552363.969   118513472.137       14245.004          50.000  
 16  4  2 12 42  1.9000000  0  2G04G29
  21631688.336   113675287.762      -11648.473          49.000  
  22552092.930   118512047.832       14241.414          50.000  
 16  4  2 12 42  2.0000000  0  2G04G29
  21631910.031   113676452.781      -11652.410          49.000  
  22551821.938   118510623.770       14239.164          50.000  
 16  4  2 12 42  2.1000000  0  2G04G29
  21632131.820   113677618.270      -11657.074          49.000  
  22551551.008   118509200.004       14236.117          50.000  
 16  4  2 12 42  2.2000000  0  2G04G29
  21632353.695   113678784.266      -11662.227          49.000  
  22551280.141   118507776.582       14232.629          50.000  
 16  4  2 12 42  2.3000000  0  2G04G29
  21632575.664   113679950.688      -11666.449          49.000  
  22551009.328   118506353.430       14229.949          50.000  
 16  4  2 12 42  2.4000000  0  2G04G29
  21632797.727   113681117.645      -11671.766          49.000  
  22550738.570   118504930.617       14226.609          50.000  
 16  4  2 12 42  2.5000000  0  2G04G29
  21633019.859   113682284.980      -11675.781          49.000  
  22550467.867   118503508.047       14224.035          50.000  
 16  4  2 12 42  2.6000000  0  2G04G29
  21633242.086   113683452.809      -11680.301          49.000  
  22550197.219   118502085.781       14221.250          50.000  
 16  4  2 12 42  2.7000000  0  2G04G29
  21633464.414   113684621.141      -11685.641          49.000  
  22549926.633   118500663.867       14217.637          50.000  
 16  4  2 12 42  2.8000000  0  2G04G29
  21633686.828   113685789.938      -11690.289          49.000  
  22549656.109   118499242.242       14214.711          50.000  
 16  4  2 12 42  2.9000000  0  2G04G29
  21633909.320   113686959.152      -11694.480          49.000  
  22549385.633   118497820.875       14212.129          50.000  
 16  4  2 12 42  3.0000000  0  2G04G29
  21634131.922   113688128.922      -11700.055          49.000  
  22549115.219   118496399.883       14208.250          50.000  
 16  4  2 12 42  3.1000000  0  2G04G29
  21634354.609   113689299.145      -11704.594          49.000  
  22548844.875   118494979.211       14205.113          50.000  
 16  4  2 12 42  3.2000000  0  2G04G29
  21634577.383   113690469.816      -11708.871          49.000  
  22548574.578   118493558.781       14202.688          50.000  
 16  4  2 12 42  3.3000000  0  2G04G29
  21634800.234   113691640.906      -11712.980          49.000  
  22548304.328   118492138.621       14200.340          50.000  
 16  4  2 12 42  3.4000000  0  2G04G29
  21635023.172   113692812.461      -11717.883          49.000  
  22548034.133   118490718.762       14196.992          50.000  
 16  4  2 12 42  3.5000000  0  2G04G29
  21635246.211   113693984.527      -11722.902          49.000  
  22547764.008   118489299.242       14193.680          50.000  
 16  4  2 12 42  3.6000000  0  2G04G29
  21635469.336   113695157.062      -11727.672          49.000  
  22547493.945   118487880.035       14190.508          50.000  
 16  4  2 12 42  3.7000000  0  2G04G29
  21635692.562   113696330.125      -11732.820          49.000  
  22547223.945   118486461.172       14187.074          50.000  
 16  4  2 12 42  3.8000000  0  2G04G29
  21635915.875   113697503.641      -11737.688          49.000  
  22546954.000   118485042.605       14183.895          50.000  
 16  4  2 12 42  3.9000000  0  2G04G29
  21636139.281   113698677.660      -11742.402          49.000  
  22546684.125   118483624.395       14180.656          50.000  
 16  4  2 12 42  4.0000000  0  2G04G29
  21636362.766   113699852.086      -11746.414          49.000  
  22546414.281   118482206.395       14178.453          50.000  
 16  4  2 12 42  4.1000000  0  2G04G29
  21636586.328   113701026.902      -11750.266          49.000  
  22546144.492   118480788.629       14176.348          50.000  
 16  4  2 12 42  4.2000000  0  2G04G29
  21636809.969   113702202.176      -11754.977          49.000  
  22545874.758   118479371.168       14173.164          50.000  
 16  4  2 12 42  4.3000000  0  2G04G29
  21637033.711   113703377.945      -11759.797          49.000  
  22545605.086   118477954.031       14169.883          50.000  
 16  4  2 12 42  4.4000000  0  2G04G29
  21637257.547   113704554.211      -11764.742          49.000  
  22545335.477   118476537.203       14166.852          50.000  
 16  4  2 12 42  4.5000000  0  2G04G29
  21637481.461   113705730.883      -11769.090          49.000  
  22545065.906   118475120.629       14164.102          50.000  
 16  4  2 12 42  4.6000000  0  2G04G29
  21637705.469   113706908.047      -11773.887          49.000  
  22544796.406   118473704.395       14160.805          50.000  
 16  4  2 12 42  4.7000000  0  2G04G29
  21637929.578   113708085.762      -11779.441          49.000  
  22544526.977   118472288.523       14157.105          50.000  
 16  4  2 12 42  4.8000000  0  2G04G29
  21638153.773   113709263.898      -11783.699          49.000  
  22544257.602   118470872.930       14154.289          50.000  
 16  4  2 12 42  4.9000000  0  2G04G29
  21638378.055   113710442.508      -11788.383          49.000  
  22543988.273   118469457.621       14151.453          50.000  
 16  4  2 12 42  5.0000000  0  2G04G29
  21638602.438   113711621.637      -11793.707          49.000  
  22543719.016   118468042.680       14147.699          50.000  
 16  4  2 12 42  5.1000000  0  2G04G29
  21638826.891   113712801.152      -11797.336          49.000  
  22543449.805   118466627.961       14145.699          50.000  
 16  4  2 12 42  5.2000000  0  2G04G29
  21639051.438   113713981.164      -11802.316          49.000  
  22543180.664   118465213.574       14142.336          50.000  
 16  4  2 12 42  5.3000000  0  2G04G29
  21639276.078   113715161.629      -11806.984          49.000  
  22542911.562   118463799.469       14139.484          50.000  
 16  4  2 12 42  5.4000000  0  2G04G29
  21639500.805   113716342.617      -11812.000          49.000  
  22542642.531   118462385.723       14135.953          50.000  
 16  4  2 12 42  5.5000000  0  2G04G29
  21639725.617   113717524.000      -11816.023          49.000  
  22542373.555   118460972.207       14133.582          50.000  
 16  4  2 12 42  5.6000000  0  2G04G29
  21639950.516   113718705.844      -11820.664          49.000  
  22542104.625   118459558.992       14130.613          50.000  
 16  4  2 12 42  5.7000000  0  2G04G29
  21640175.508   113719888.207      -11825.703          49.000  
  22541835.766   118458146.121       14127.277          50.000  
 16  4  2 12 42  5.8000000  0  2G04G29
  21640400.594   113721071.039      -11830.746          49.000  
  22541566.961   118456733.551       14123.961          50.000  
 16  4  2 12 42  5.9000000  0  2G04G29
  21640625.758   113722254.297      -11834.906          49.000  
  22541298.211   118455321.262       14121.324          50.000  
 16  4  2 12 42  6.0000000  0  2G04G29
  21640851.023   113723438.066      -11839.957          49.000  
  22541029.531   118453909.301       14118.008          50.000  
 16  4  2 12 42  6.1000000  0  2G04G29
  21641076.367   113724622.250      -11844.090          49.000  
  22540760.891   118452497.598       14115.555          50.000  
 16  4  2 12 42  6.2000000  0  2G04G29
  21641301.805   113725806.965      -11849.531          49.000  
  22540492.320   118451086.266       14111.617          50.000  
 16  4  2 12 42  6.3000000  0  2G04G29
  21641527.328   113726992.078      -11853.258          49.000  
  22540223.797   118449675.164       14109.492          50.000  
 16  4  2 12 42  6.4000000  0  2G04G29
  21641752.938   113728177.664      -11857.941          49.000  
  22539955.328   118448264.352       14106.613          50.000  
 16  4  2 12 42  6.5000000  0  2G04G29
  21641978.625   113729363.680      -11862.340          49.000  
  22539686.914   118446853.828       14103.754          50.000  
 16  4  2 12 42  6.6000000  0  2G04G29
  21642204.406   113730550.180      -11867.230          49.000  
  22539418.555   118445443.625       14100.422          50.000  
 16  4  2 12 42  6.7000000  0  2G04G29
  21642430.289   113731737.188      -11872.379          49.000  
  22539150.266   118444033.746       14097.133          50.000  
 16  4  2 12 42  6.8000000  0  2G04G29
  21642656.242   113732924.590      -11876.434          49.000  
  22538882.023   118442624.113       14094.605          50.000  
 16  4  2 12 42  6.9000000  0  2G04G29
  21642882.305   113734112.570      -11882.008          49.000  
  22538613.852   118441214.875       14090.852          50.000  
 16  4  2 12 42  7.0000000  0  2G04G29
  21643108.461   113735301.004      -11886.719          49.000  
  22538345.742   118439805.945       14087.648          50.000  
 16  4  2 12 42  7.1000000  0  2G04G29
  21643334.688   113736489.852      -11890.820          49.000  
  22538077.680   118438397.258       14085.242          50.000  
 16  4  2 12 42  7.2000000  0  2G04G29
  21643561.016   113737679.219      -11895.953          49.000  
  22537809.680   118436988.926       14081.707          50.000  
 16  4  2 12 42  7.3000000  0  2G04G29
  21643787.430   113738869.023      -11900.434          49.000  
  22537541.734   118435580.867       14078.898          50.000  
 16  4  2 12 42  7.4000000  0  2G04G29
  21644013.938   113740059.328      -11905.395          49.000  
  22537273.844   118434173.141       14075.641          50.000  
 16  4  2 12 42  7.5000000  0  2G04G29
  21644240.539   113741250.152      -11910.578          49.000  
  22537006.031   118432765.773       14072.129          50.000  
 16  4  2 12 42  7.6000000  0  2G04G29
  21644467.227   113742441.395      -11914.691          49.000  
  22536738.266   118431358.664       14069.574          50.000  
 16  4  2 12 42  7.7000000  0  2G04G29
  21644693.992   113743633.059      -11918.648          49.000  
  22536470.555   118429951.816       14067.137          50.000  
 16  4  2 12 42  7.8000000  0  2G04G29
  21644920.844   113744825.176      -11923.414          49.000  
  22536202.891   118428545.227       14064.352          50.000  
 16  4  2 12 42  7.9000000  0  2G04G29
  21645147.789   113746017.758      -11928.070          49.000  
  22535935.289   118427138.977       14060.957          50.000  
 16  4  2 12 42  8.0000000  0  2G04G29
  21645374.828   113747210.867      -11933.508          49.000  
  22535667.750   118425733.070       14057.453          50.000  
 16  4  2 12 42  8.1000000  0  2G04G29
  21645601.961   113748404.461      -11938.395          49.000  
  22535400.281   118424327.488       14054.230          50.000  
 16  4  2 12 42  8.2000000  0  2G04G29
  21645829.188   113749598.543      -11942.996          49.000  
  22535132.859   118422922.234       14051.102          50.000  
 16  4  2 12 42  8.3000000  0  2G04G29
  21646056.492   113750793.020      -11947.082          49.000  
  22534865.492   118421517.203       14048.766          50.000  
 16  4  2 12 42  8.4000000  0  2G04G29
  21646283.875   113751987.930      -11951.238          49.000  
  22534598.180   118420112.449       14046.332          50.000  
 16  4  2 12 42  8.5000000  0  2G04G29
  21646511.336   113753183.281      -11955.668          49.000  
  22534330.922   118418707.988       14043.098          50.000  
 16  4  2 12 42  8.6000000  0  2G04G29
  21646738.914   113754379.191      -11961.398          49.000  
  22534063.727   118417303.895       14039.340          50.000  
 16  4  2 12 42  8.7000000  0  2G04G29
  21646966.578   113755575.590      -11966.516          49.000  
  22533796.602   118415900.148       14035.660          50.000  
 16  4  2 12 42  8.8000000  0  2G04G29
  21647194.320   113756772.410      -11970.469          49.000  
  22533529.523   118414496.633       14033.555          50.000  
 16  4  2 12 42  8.9000000  0  2G04G29
  21647422.164   113757969.734      -11975.543          49.000  
  22533262.516   118413093.477       14029.887          50.000  
 16  4  2 12 42  9.0000000  0  2G04G29
  21647650.102   113759167.520      -11979.988          49.000  
  22532995.562   118411690.609       14027.242          50.000  
 16  4  2 12 42  9.1000000  0  2G04G29
  21647878.102   113760365.699      -11984.031          49.000  
  22532728.656   118410287.980       14024.875          50.000  
 16  4  2 12 42  9.2000000  0  2G04G29
  21648106.203   113761564.379      -11988.945          49.000  
  22532461.812   118408885.691       14021.484          50.000  
 16  4  2 12 42  9.3000000  0  2G04G29
  21648334.391   113762763.500      -11993.508          49.000  
  22532195.016   118407483.676       14018.449          50.000  
 16  4  2 12 42  9.4000000  0  2G04G29
  21648562.672   113763963.121      -11998.336          49.000  
  22531928.289   118406081.996       14015.270          50.000  
 16  4  2 12 42  9.5000000  0  2G04G29
  21648791.039   113765163.227      -12003.250          49.000  
  22531661.617   118404680.648       14011.949          50.000  
 16  4  2 12 42  9.6000000  0  2G04G29
  21649019.492   113766363.699      -12006.930          49.000  
  22531394.992   118403279.480       14010.152          50.000  
 16  4  2 12 42  9.7000000  0  2G04G29
  21649248.023   113767564.648      -12011.688          49.000  
  22531128.422   118401878.641       14006.828          50.000  
 16  4  2 12 42  9.8000000  0  2G04G29
  21649476.656   113768766.121      -12016.953          49.000  
  22530861.914   118400478.172       14003.164          50.000  
 16  4  2 12 42  9.9000000  0  2G04G29
  21649705.367   113769968.000      -12021.176          49.000  
  22530595.461   118399077.941       14000.680          50.000  
 16  4  2 12 42 10.0000000  0  2G04G29
  21649934.164   113771170.344      -12025.488          49.000  
  22530329.062   118397678.000       13998.059          50.000  
 16  4  2 12 42 10.1000000  0  2G04G29
  21650163.055   113772373.133      -12029.973          49.000  
  22530062.719   118396278.355       13994.949          50.000  
 16  4  2 12 42 10.2000000  0  2G04G29
  21650392.031   113773576.434      -12035.254          49.000  
  22529796.445   118394879.047       13991.484          50.000  
 16  4  2 12 42 10.3000000  0  2G04G29
  21650621.086   113774780.137      -12039.270          49.000  
  22529530.211   118393479.984       13989.094          50.000  
 16  4  2 12 42 10.4000000  0  2G04G29
  21650850.234   113775984.332      -12044.270          49.000  
  22529264.047   118392081.254       13985.859          50.000  
 16  4  2 12 42 10.5000000  0  2G04G29
  21651079.484   113777189.055      -12049.539          49.000  
  22528997.945   118390682.891       13982.012          50.000  
 16  4  2 12 42 10.6000000  0  2G04G29
  21651308.828   113778394.246      -12054.391          49.000  
  22528731.898   118389284.828       13978.746          50.000  
 16  4  2 12 42 10.7000000  0  2G04G29
  21651538.266   113779599.957      -12059.605          49.000  
  22528465.930   118387887.129       13975.176          50.000  
 16  4  2 12 42 10.8000000  0  2G04G29
  21651767.797   113780806.121      -12063.758          49.000  
  22528200.008   118386489.723       13972.609          50.000  
 16  4  2 12 42 10.9000000  0  2G04G29
  21651997.391   113782012.668      -12067.668          49.000  
  22527934.125   118385092.516       13970.547          50.000  
 16  4  2 12 42 11.0000000  0  2G04G29
  21652227.086   113783219.680      -12072.195          49.000  
  22527668.305   118383695.633       13967.465          50.000  
 16  4  2 12 42 11.1000000  0  2G04G29
  21652456.867   113784427.199      -12077.434          49.000  
  22527402.547   118382299.086       13963.984          50.000  
 16  4  2 12 42 11.2000000  0  2G04G29
  21652686.734   113785635.168      -12081.867          49.000  
  22527136.852   118380902.828       13961.250          50.000  
 16  4  2 12 42 11.3000000  0  2G04G29
  21652916.688   113786843.562      -12086.234          49.000  
  22526871.203   118379506.836       13958.418          50.000  
 16  4  2 12 42 11.4000000  0  2G04G29
  21653146.727   113788052.422      -12090.738          49.000  
  22526605.609   118378111.141       13955.574          50.000  
 16  4  2 12 42 11.5000000  0  2G04G29
  21653376.852   113789261.750      -12095.574          49.000  
  22526340.078   118376715.777       13952.078          50.000  
 16  4  2 12 42 11.6000000  0  2G04G29
  21653607.078   113790471.613      -12101.020          49.000  
  22526074.617   118375320.750       13948.641          50.000  
 16  4  2 12 42 11.7000000  0  2G04G29
  21653837.391   113791681.910      -12105.273          49.000  
  22525809.211   118373926.020       13945.785          50.000  
 16  4  2 12 42 11.8000000  0  2G04G29
  21654067.789   113792892.648      -12109.641          49.000  
  22525543.859   118372531.551       13943.141          50.000  
 16  4  2 12 42 11.9000000  0  2G04G29
  21654298.273   113794103.859      -12114.246          49.000  
  22525278.562   118371137.414       13939.836          50.000  
 16  4  2 12 42 12.0000000  0  2G04G29
  21654528.859   113795315.578      -12119.387          49.000  
  22525013.328   118369743.609       13936.504          50.000  
 16  4  2 12 42 12.1000000  0  2G04G29
  21654759.523   113796527.742      -12123.789          49.000  
  22524748.148   118368350.094       13933.723          50.000  
 16  4  2 12 42 12.2000000  0  2G04G29
  21654990.281   113797740.383      -12128.773          49.000  
  22524483.031   118366956.895       13930.250          50.000  
 16  4  2 12 42 12.3000000  0  2G04G29
  21655221.141   113798953.539      -12133.922          49.000  
  22524217.984   118365564.039       13926.840          50.000  
 16  4  2 12 42 12.4000000  0  2G04G29
  21655452.086   113800167.180      -12138.551          49.000  
  22523952.992   118364171.523       13923.637          50.000  
 16  4  2 12 42 12.5000000  0  2G04G29
  21655683.117   113801381.254      -12142.879          49.000  
  22523688.055   118362779.270       13921.027          50.000  
 16  4  2 12 42 12.6000000  0  2G04G29
  21655914.242   113802595.812      -12147.801          49.000  
  22523423.180   118361387.328       13917.758          50.000  
 16  4  2 12 42 12.7000000  0  2G04G29
  21656145.438   113803810.781      -12151.777          49.000  
  22523158.352   118359995.645       13915.453          50.000  
 16  4  2 12 42 12.8000000  0  2G04G29
  21656376.727   113805026.199      -12156.391          49.000  
  22522893.570   118358604.250       13912.461          50.000  
 16  4  2 12 42 12.9000000  0  2G04G29
  21656608.102   113806242.062      -12161.102          49.000  
  22522628.852   118357213.145       13909.371          50.000  
 16  4  2 12 42 13.0000000  0  2G04G29
  21656839.555   113807458.406      -12165.625          49.000  
  22522364.195   118355822.355       13906.336          50.000  
 16  4  2 12 42 13.1000000  0  2G04G29
  21657071.102   113808675.176      -12169.891          49.000  
  22522099.586   118354431.832       13903.719          50.000  
 16  4  2 12 42 13.2000000  0  2G04G29
  21657302.742   113809892.480      -12175.238          49.000  
  22521835.047   118353041.684       13900.074          50.000  
 16  4  2 12 42 13.3000000  0  2G04G29
  21657534.477   113811110.234      -12179.910          49.000  
  22521570.562   118351651.812       13897.004          50.000  
 16  4  2 12 42 13.4000000  0  2G04G29
  21657766.297   113812328.473      -12184.754          49.000  
  22521306.148   118350262.285       13893.609          50.000  
 16  4  2 12 42 13.5000000  0  2G04G29
  21657998.203   113813547.168      -12189.168          49.000  
  22521041.781   118348873.031       13890.992          50.000  
 16  4  2 12 42 13.6000000  0  2G04G29
  21658230.203   113814766.301      -12193.547          49.000  
  22520777.477   118347484.070       13888.113          50.000  
 16  4  2 12 42 13.7000000  0  2G04G29
  21658462.281   113815985.887      -12198.066          49.000  
  22520513.219   118346095.391       13885.305          50.000  
 16  4  2 12 42 13.8000000  0  2G04G29
  21658694.445   113817205.910      -12202.328          49.000  
  22520249.016   118344707.000       13882.543          50.000  
 16  4  2 12 42 13.9000000  0  2G04G29
  21658926.695   113818426.387      -12206.840          49.000  
  22519984.875   118343318.898       13879.625          50.000  
 16  4  2 12 42 14.0000000  0  2G04G29
  21659159.039   113819647.375      -12212.102          49.000  
  22519720.789   118341931.141       13876.062          50.000  
 16  4  2 12 42 14.1000000  0  2G04G29
  21659391.461   113820868.770      -12216.316          49.000  
  22519456.758   118340543.633       13873.336          50.000  
 16  4  2 12 42 14.2000000  0  2G04G29
  21659623.984   113822090.652      -12221.129          49.000  
  22519192.789   118339156.453       13870.238          50.000  
 16  4  2 12 42 14.3000000  0  2G04G29
  21659856.586   113823313.012      -12225.848          49.000  
  22518928.883   118337769.594       13866.988          50.000  
 16  4  2 12 42 14.4000000  0  2G04G29
  21660089.297   113824535.898      -12231.148          49.000  
  22518665.039   118336383.102       13863.285          50.000  
 16  4  2 12 42 14.5000000  0  2G04G29
  21660322.078   113825759.184      -12235.219          49.000  
  22518401.242   118334996.836       13860.926          50.000  
 16  4  2 12 42 14.6000000  0  2G04G29
  21660554.961   113826982.961      -12239.945          49.000  
  22518137.508   118333610.918       13857.695          50.000  
 16  4  2 12 42 14.7000000  0  2G04G29
  21660787.930   113828207.238      -12245.078          49.000  
  22517873.844   118332225.324       13854.242          50.000  
 16  4  2 12 42 14.8000000  0  2G04G29
  21661020.984   113829431.980      -12249.746          49.000  
  22517610.227   118330840.047       13851.102          50.000  
 16  4  2 12 42 14.9000000  0  2G04G29
  21661254.133   113830657.188      -12254.465          49.000  
  22517346.672   118329455.059       13848.121          50.000  
 16  4  2 12 42 15.0000000  0  2G04G29
  21661487.375   113831882.848      -12258.758          49.000  
  22517083.180   118328070.383       13845.297          50.000  
 16  4  2 12 42 15.1000000  0  2G04G29
  21661720.680   113833108.898      -12262.879          49.000  
  22516819.727   118326685.926       13842.906          50.000  
 16  4  2 12 42 15.2000000  0  2G04G29
  21661954.094   113834335.504      -12268.238          49.000  
  22516556.344   118325301.867       13839.086          50.000  
 16  4  2 12 42 15.3000000  0  2G04G29
  21662187.586   113835562.531      -12272.637          49.000  
  22516293.016   118323918.078       13836.242          50.000  
 16  4  2 12 42 15.4000000  0  2G04G29
  21662421.172   113836790.016      -12276.895          49.000  
  22516029.750   118322534.574       13833.598          50.000  
 16  4  2 12 42 15.5000000  0  2G04G29
  21662654.852   113838017.992      -12281.980          49.000  
  22515766.539   118321151.402       13830.145          50.000  
 16  4  2 12 42 15.6000000  0  2G04G29
  21662888.617   113839246.426      -12286.688          49.000  
  22515503.391   118319768.543       13826.996          50.000  
 16  4  2 12 42 15.7000000  0  2G04G29
  21663122.477   113840475.367      -12291.594          49.000  
  22515240.305   118318386.016       13823.738          50.000  
 16  4  2 12 42 15.8000000  0  2G04G29
  21663356.406   113841704.676      -12295.309          49.000  
  22514977.258   118317003.703       13821.605          50.000  
 16  4  2 12 42 15.9000000  0  2G04G29
  21663590.430   113842934.477      -12300.059          49.000  
  22514714.281   118315621.730       13818.391          50.000  
 16  4  2 12 42 16.0000000  0  2G04G29
  21663824.531   113844164.699      -12304.406          49.000  
  22514451.336   118314240.008       13815.688          50.000  
 16  4  2 12 42 16.1000000  0  2G04G29
  21664058.727   113845395.383      -12309.070          49.000  
  22514188.461   118312858.590       13812.684          50.000  
 16  4  2 12 42 16.2000000  0  2G04G29
  21664293.016   113846626.582      -12314.117          49.000  
  22513925.656   118311477.535       13809.062          50.000  
 16  4  2 12 42 16.3000000  0  2G04G29
  21664527.375   113847858.168      -12317.992          49.000  
  22513662.891   118310096.695       13806.910          50.000  
 16  4  2 12 42 16.4000000  0  2G04G29
  21664761.836   113849090.238      -12322.953          49.000  
  22513400.195   118308716.188       13803.410          50.000  
 16  4  2 12 42 16.5000000  0  2G04G29
  21664996.391   113850322.855      -12328.617          49.000  
  22513137.570   118307336.074       13799.445          50.000  
 16  4  2 12 42 16.6000000  0  2G04G29
  21665231.039   113851555.910      -12332.789          49.000  
  22512874.992   118305956.227       13796.934          50.000  
 16  4  2 12 42 16.7000000  0  2G04G29
  21665465.758   113852789.383      -12337.176          49.000  
  22512612.469   118304576.645       13794.074          50.000  
 16  4  2 12 42 16.8000000  0  2G04G29
  21665700.586   113854023.426      -12342.602          49.000  
  22512350.016   118303197.469       13790.379          50.000  
 16  4  2 12 42 16.9000000  0  2G04G29
  21665935.492   113855257.867      -12346.789          49.000  
  22512087.617   118301818.543       13787.586          50.000  
 16  4  2 12 42 17.0000000  0  2G04G29
  21666170.477   113856492.742      -12350.832          49.000  
  22511825.266   118300439.887       13785.125          50.000  
 16  4  2 12 42 17.1000000  0  2G04G29
  21666405.562   113857728.125      -12356.098          49.000  
  22511562.984   118299061.578       13781.457          50.000  
 16  4  2 12 42 17.2000000  0  2G04G29
  21666640.742   113858964.000      -12361.012          49.000  
  22511300.766   118297683.605       13778.137          50.000  
 16  4  2 12 42 17.3000000  0  2G04G29
  21666876.000   113860200.293      -12365.262          49.000  
  22511038.594   118296305.883       13775.633          50.000  
 16  4  2 12 42 17.4000000  0  2G04G29
  21667111.344   113861437.039      -12369.527          49.000  
  22510776.477   118294928.473       13772.797          50.000  
 16  4  2 12 42 17.5000000  0  2G04G29
  21667346.773   113862674.207      -12373.910          49.000  
  22510514.414   118293551.312       13769.934          50.000  
 16  4  2 12 42 17.6000000  0  2G04G29
  21667582.312   113863911.965      -12379.871          49.000  
  22510252.430   118292174.594       13765.496          50.000  
 16  4  2 12 42 17.7000000  0  2G04G29
  21667817.914   113865150.082      -12383.301          49.000  
  22509990.484   118290798.051       13763.957          50.000  
 16  4  2 12 42 17.8000000  0  2G04G29
  21668053.609   113866388.660      -12387.977          49.000  
  22509728.602   118289421.836       13760.648          50.000  
 16  4  2 12 42 17.9000000  0  2G04G29
  21668289.383   113867627.680      -12392.367          49.000  
  22509466.766   118288045.887       13758.039          50.000  
 16  4  2 12 42 18.0000000  0  2G04G29
  21668525.250   113868867.156      -12396.934          49.000  
  22509204.992   118286670.254       13754.824          50.000  
 16  4  2 12 42 18.1000000  0  2G04G29
  21668761.195   113870107.062      -12401.223          49.000  
  22508943.273   118285294.891       13752.051          50.000  
 16  4  2 12 42 18.2000000  0  2G04G29
  21668997.250   113871347.523      -12406.715          49.000  
  22508681.625   118283919.906       13748.465          50.000  
 16  4  2 12 42 18.3000000  0  2G04G29
  21669233.391   113872588.445      -12411.871          49.000  
  22508420.031   118282545.246       13744.621          50.000  
 16  4  2 12 42 18.4000000  0  2G04G29
  21669469.617   113873829.832      -12416.215          49.000  
  22508158.500   118281170.871       13742.004          50.000  
 16  4  2 12 42 18.5000000  0  2G04G29
  21669705.922   113875071.633      -12420.230          49.000  
  22507897.023   118279796.777       13739.406          50.000  
 16  4  2 12 42 18.6000000  0  2G04G29
  21669942.328   113876313.934      -12425.086          49.000  
  22507635.602   118278423.004       13736.242          50.000  
 16  4  2 12 42 18.7000000  0  2G04G29
  21670178.797   113877556.602      -12428.812          49.000  
  22507374.227   118277049.438       13734.195          50.000  
 16  4  2 12 42 18.8000000  0  2G04G29
  21670415.367   113878799.773      -12433.914          49.000  
  22507112.914   118275676.238       13730.477          50.000  
 16  4  2 12 42 18.9000000  0  2G04G29
  21670652.047   113880043.500      -12439.621          49.000  
  22506851.672   118274303.422       13726.465          50.000  
 16  4  2 12 42 19.0000000  0  2G04G29
  21670888.797   113881287.629      -12443.660          49.000  
  22506590.484   118272930.852       13724.031          50.000  
 16  4  2 12 42 19.1000000  0  2G04G29
  21671125.633   113882532.227      -12448.246          49.000  
  22506329.352   118271558.590       13720.938          50.000  
 16  4  2 12 42 19.2000000  0  2G04G29
  21671362.578   113883777.352      -12453.469          49.000  
  22506068.289   118270186.711       13717.250          50.000  
 16  4  2 12 42 19.3000000  0  2G04G29
  21671599.602   113885022.902      -12457.695          49.000  
  22505807.273   118268815.086       13714.680          50.000  
 16  4  2 12 42 19.4000000  0  2G04G29
  21671836.703   113886268.883      -12461.848          49.000  
  22505546.312   118267443.738       13712.023          50.000  
 16  4  2 12 42 19.5000000  0  2G04G29
  21672073.891   113887515.324      -12466.492          49.000  
  22505285.414   118266072.695       13709.039          50.000  
 16  4  2 12 42 19.6000000  0  2G04G29
  21672311.164   113888762.230      -12471.184          49.000  
  22505024.570   118264701.957       13705.914          50.000  
 16  4  2 12 42 19.7000000  0  2G04G29
  21672548.531   113890009.586      -12475.809          49.000  
  22504763.781   118263331.516       13702.844          50.000  
 16  4  2 12 42 19.8000000  0  2G04G29
  21672785.977   113891257.367      -12479.910          49.000  
  22504503.047   118261961.324       13700.430          50.000  
 16  4  2 12 42 19.9000000  0  2G04G29
  21673023.516   113892505.641      -12484.969          49.000  
  22504242.375   118260591.496       13696.785          50.000  
 16  4  2 12 42 20.0000000  0  2G04G29
  21673261.141   113893754.363      -12489.547          49.000  
  22503981.758   118259221.941       13693.965          50.000  
 16  4  2 12 42 20.1000000  0  2G04G29
  21673498.844   113895003.484      -12493.484          49.000  
  22503721.188   118257852.637       13691.434          50.000  
 16  4  2 12 42 20.2000000  0  2G04G29
  21673736.648   113896253.141      -12498.746          49.000  
  22503460.695   118256483.703       13687.812          50.000  
 16  4  2 12 42 20.3000000  0  2G04G29
  21673974.539   113897503.266      -12503.492          49.000  
  22503200.250   118255115.074       13684.688          50.000  
 16  4  2 12 42 20.4000000  0  2G04G29
  21674212.523   113898753.895      -12508.645          49.000  
  22502939.883   118253746.816       13680.867          50.000  
 16  4  2 12 42 20.5000000  0  2G04G29
  21674450.594   113900004.957      -12512.734          49.000  
  22502679.555   118252378.820       13678.570          50.000  
 16  4  2 12 42 20.6000000  0  2G04G29
  21674688.750   113901256.465      -12517.293          49.000  
  22502419.297   118251011.117       13675.352          50.000  
 16  4  2 12 42 20.7000000  0  2G04G29
  21674926.992   113902508.438      -12521.781          49.000  
  22502159.086   118249643.707       13672.711          50.000  
 16  4  2 12 42 20.8000000  0  2G04G29
  21675165.328   113903760.887      -12526.785          49.000  
  22501898.945   118248276.633       13669.113          50.000  
 16  4  2 12 42 20.9000000  0  2G04G29
  21675403.742   113905013.781      -12531.180          49.000  
  22501638.852   118246909.844       13666.355          50.000  
 16  4  2 12 42 21.0000000  0  2G04G29
  21675642.250   113906267.141      -12535.742          49.000  
  22501378.820   118245543.363       13663.285          50.000  
 16  4  2 12 42 21.1000000  0  2G04G29
  21675880.836   113907520.926      -12539.992          49.000  
  22501118.836   118244177.145       13660.652          50.000  
 16  4  2 12 42 21.2000000  0  2G04G29
  21676119.516   113908775.203      -12545.016          49.000  
  22500858.914   118242811.270       13657.109          50.000  
 16  4  2 12 42 21.3000000  0  2G04G29
  21676358.297   113910029.992      -12550.199          49.000  
  22500599.062   118241445.742       13653.652          50.000  
 16  4  2 12 42 21.4000000  0  2G04G29
  21676597.156   113911285.199      -12554.332          49.000  
  22500339.266   118240080.480       13650.938          50.000  
 16  4  2 12 42 21.5000000  0  2G04G29
  21676836.109   113912540.906      -12559.219          49.000  
  22500079.531   118238715.578       13647.523          50.000  
 16  4  2 12 42 21.6000000  0  2G04G29
  21677075.141   113913797.027      -12563.367          49.000  
  22499819.844   118237350.910       13645.109          50.000  
 16  4  2 12 42 21.7000000  0  2G04G29
  21677314.258   113915053.609      -12568.133          49.000  
  22499560.211   118235986.547       13641.961          50.000  
 16  4  2 12 42 21.8000000  0  2G04G29
  21677553.469   113916310.688      -12572.918          49.000  
  22499300.656   118234622.539       13638.680          50.000  
 16  4  2 12 42 21.9000000  0  2G04G29
  21677792.773   113917568.242      -12577.992          49.000  
  22499041.148   118233258.844       13635.133          50.000  
 16  4  2 12 42 22.0000000  0  2G04G29
  21678032.164   113918826.234      -12582.270          49.000  
  22498781.703   118231895.430       13632.516          50.000  
 16  4  2 12 42 22.1000000  0  2G04G29
  21678271.633   113920084.648      -12586.211          49.000  
  22498522.305   118230532.293       13629.941          50.000  
 16  4  2 12 42 22.2000000  0  2G04G29
  21678511.188   113921343.551      -12591.238          49.000  
  22498262.969   118229169.465       13626.754          50.000  
 16  4  2 12 42 22.3000000  0  2G04G29
  21678750.828   113922602.887      -12595.625          49.000  
  22498003.688   118227806.938       13623.742          50.000  
 16  4  2 12 42 22.4000000  0  2G04G29
  21678990.570   113923862.715      -12600.457          49.000  
  22497744.469   118226444.727       13620.520          50.000  
 16  4  2 12 42 22.5000000  0  2G04G29
  21679230.391   113925122.969      -12604.770          49.000  
  22497485.305   118225082.805       13617.688          50.000  
 16  4  2 12 42 22.6000000  0  2G04G29
  21679470.289   113926383.660      -12609.000          49.000  
  22497226.188   118223721.145       13615.105          50.000  
 16  4  2 12 42 22.7000000  0  2G04G29
  21679710.289   113927644.840      -12613.770          49.000  
  22496967.141   118222359.840       13611.727          50.000  
 16  4  2 12 42 22.8000000  0  2G04G29
  21679950.359   113928906.426      -12618.148          49.000  
  22496708.133   118220998.770       13609.023          50.000  
 16  4  2 12 42 22.9000000  0  2G04G29
  21680190.523   113930168.492      -12622.852          49.000  
  22496449.195   118219638.023       13605.934          50.000  
 16  4  2 12 42 23.0000000  0  2G04G29
  21680430.781   113931431.039      -12627.680          49.000  
  22496190.320   118218277.613       13602.617          50.000  
 16  4  2 12 42 23.1000000  0  2G04G29
  21680671.117   113932694.027      -12632.094          49.000  
  22495931.492   118216917.480       13599.754          50.000  
 16  4  2 12 42 23.2000000  0  2G04G29
  21680911.539   113933957.449      -12636.328          49.000  
  22495672.727   118215557.629       13597.109          50.000  
 16  4  2 12 42 23.3000000  0  2G04G29
  21681152.047   113935221.320      -12640.934          49.000  
  22495414.008   118214198.070       13593.977          50.000  
 16  4  2 12 42 23.4000000  0  2G04G29
  21681392.648   113936485.672      -12645.641          49.000  
  22495155.359   118212838.836       13590.938          50.000  
 16  4  2 12 42 23.5000000  0  2G04G29
  21681633.320   113937750.441      -12650.020          49.000  
  22494896.750   118211479.863       13588.105          50.000  
 16  4  2 12 42 23.6000000  0  2G04G29
  21681874.094   113939015.699      -12654.793          49.000  
  22494638.219   118210121.230       13584.832          50.000  
 16  4  2 12 42 23.7000000  0  2G04G29
  21682114.953   113940281.426      -12659.660          49.000  
  22494379.734   118208762.898       13581.559          50.000  
 16  4  2 12 42 23.8000000  0  2G04G29
  21682355.898   113941547.602      -12664.059          49.000  
  22494121.305   118207404.879       13578.586          50.000  
 16  4  2 12 42 23.9000000  0  2G04G29
  21682596.938   113942814.289      -12669.020          49.000  
  22493862.953   118206047.203       13575.285          50.000  
 16  4  2 12 42 24.0000000  0  2G04G29
  21682838.078   113944081.457      -12674.125          49.000  
  22493604.656   118204689.863       13571.617          50.000  
 16  4  2 12 42 24.1000000  0  2G04G29
  21683079.297   113945349.086      -12678.566          49.000  
  22493346.422   118203332.812       13568.812          50.000  
 16  4  2 12 42 24.2000000  0  2G04G29
  21683320.602   113946617.145      -12682.816          49.000  
  22493088.234   118201976.051       13565.996          50.000  
 16  4  2 12 42 24.3000000  0  2G04G29
  21683562.008   113947885.734      -12688.047          49.000  
  22492830.125   118200619.660       13562.457          50.000  
 16  4  2 12 42 24.4000000  0  2G04G29
  21683803.492   113949154.707      -12691.898          49.000  
  22492572.047   118199263.492       13560.102          50.000  
 16  4  2 12 42 24.5000000  0  2G04G29
  21684045.062   113950424.195      -12697.105          49.000  
  22492314.055   118197907.699       13556.336          50.000  
 16  4  2 12 42 24.6000000  0  2G04G29
  21684286.734   113951694.195      -12702.328          49.000  
  22492056.117   118196552.254       13552.840          50.000  
 16  4  2 12 51  6.8000000  0  1G29
  20925764.867   109965635.723       -4007.453          50.000  
 16  4  2 12 51  6.9000000  0  1G29
  20925841.164   109966036.652       -4011.301          50.000  
 16  4  2 12 51  7.0000000  0  1G29
  20925917.531   109966437.945       -4015.195          50.000  
 16  4  2 12 51  7.1000000  0  1G29
  20925993.961   109966839.594       -4018.379          49.000  
 16  4  2 12 51  7.2000000  0  1G29
  20926070.469   109967241.633       -4022.562          50.000  
 16  4  2 12 51  7.3000000  0  1G29
  20926147.047   109967644.059       -4026.121          49.000  
 16  4  2 12 51  7.4000000  0  1G29
  20926223.688   109968046.805       -4029.578          49.000  
 16  4  2 12 51  7.5000000  0  1G29
  20926300.414   109968449.996       -4034.113          49.000  
 16  4  2 12 51  7.6000000  0  1G29
  20926377.219   109968853.617       -4038.176          49.000  
 16  4  2 12 51  7.7000000  0  1G29
  20926454.078   109969257.543       -4041.496          49.000  
 16  4  2 12 51  7.8000000  0  1G29
  20926531.016   109969661.871       -4045.406          49.000  
 16  4  2 12 51  7.9000000  0  1G29
  20926608.039   109970066.594       -4049.387          49.000  
 16  4  2 12 51  8.0000000  0  1G29
  20926685.125   109970471.680       -4053.023          49.000  
 16  4  2 12 51  8.1000000  0  1G29
  20926762.273   109970877.141       -4056.648          49.000  
 16  4  2 12 51  8.2000000  0  1G29
  20926839.500   109971282.973       -4060.383          49.000  
 16  4  2 12 51  8.3000000  0  1G29
  20926916.805   109971689.195       -4064.469          49.000  
 16  4  2 12 51  8.4000000  0  1G29
  20926994.180   109972095.820       -4068.367          49.000  
 16  4  2 12 51  8.5000000  0  1G29
  20927071.633   109972502.844       -4072.293          49.000  
 16  4  2 12 51  8.6000000  0  1G29
  20927149.156   109972910.219       -4076.066          49.000  
 16  4  2 12 51  8.7000000  0  1G29
  20927226.758   109973318.012       -4080.180          50.000  
 16  4  2 12 51  8.8000000  0  1G29
  20927304.422   109973726.148       -4083.320          50.000  
 16  4  2 12 51  8.9000000  0  1G29
  20927382.172   109974134.648       -4087.051          50.000  
 16  4  2 12 51  9.0000000  0  1G29
  20927459.984   109974543.559       -4091.355          50.000  
 16  4  2 12 51  9.1000000  0  1G29
  20927537.859   109974952.832       -4094.754          50.000  
 16  4  2 12 51  9.2000000  0  1G29
  20927615.812   109975362.488       -4098.781          50.000  
 16  4  2 12 51  9.3000000  0  1G29
  20927693.859   109975772.539       -4102.504          50.000  
 16  4  2 12 51  9.4000000  0  1G29
  20927771.953   109976182.918       -4105.953          50.000  
 16  4  2 12 51  9.5000000  0  1G29
  20927850.109   109976593.691       -4109.766          49.000  
 16  4  2 12 51  9.6000000  0  1G29
  20927928.367   109977004.914       -4114.238          49.000  
 16  4  2 12 51  9.7000000  0  1G29
  20928006.688   109977416.520       -4118.441          50.000  
 16  4  2 12 51  9.8000000  0  1G29
  20928085.086   109977828.512       -4122.008          50.000  
 16  4  2 12 51  9.9000000  0  1G29
  20928163.547   109978240.801       -4124.883          50.000  
 16  4  2 12 51 10.0000000  0  1G29
  20928242.078   109978653.492       -4129.086          50.000  
 16  4  2 12 51 10.1000000  0  1G29
  20928320.680   109979066.574       -4132.645          50.000  
 16  4  2 12 51 10.2000000  0  1G29
  20928399.359   109979480.023       -4136.953          50.000  
 16  4  2 12 51 10.3000000  0  1G29
  20928478.133   109979893.969       -4141.609          50.000  
 16  4  2 12 51 10.4000000  0  1G29
  20928556.961   109980308.230       -4144.719          50.000  
 16  4  2 12 51 10.5000000  0  1G29
  20928635.852   109980722.828       -4147.996          50.000  
 16  4  2 12 51 10.6000000  0  1G29
  20928714.820   109981137.820       -4152.074          50.000  
 16  4  2 12 51 10.7000000  0  1G29
  20928793.859   109981553.199       -4155.758          50.000  
 16  4  2 12 51 10.8000000  0  1G29
  20928872.969   109981968.934       -4159.797          50.000  
 16  4  2 12 51 10.9000000  0  1G29
  20928952.148   109982385.047       -4163.152          50.000  
 16  4  2 12 51 11.0000000  0  1G29
  20929031.406   109982801.520       -4166.883          50.000  
 16  4  2 12 51 11.1000000  0  1G29
  20929110.742   109983218.438       -4171.355          50.000  
 16  4  2 12 51 11.2000000  0  1G29
  20929190.141   109983635.688       -4174.688          50.000  
 16  4  2 12 51 11.3000000  0  1G29
  20929269.617   109984053.309       -4178.285          50.000  
 16  4  2 12 51 11.4000000  0  1G29
  20929349.164   109984471.328       -4182.348          50.000  
 16  4  2 12 51 11.5000000  0  1G29
  20929428.789   109984889.758       -4186.453          50.000  
 16  4  2 12 51 11.6000000  0  1G29
  20929508.492   109985308.602       -4190.605          50.000  
 16  4  2 12 51 11.7000000  0  1G29
  20929588.266   109985727.820       -4194.293          50.000  
 16  4  2 12 51 11.8000000  0  1G29
  20929668.109   109986147.402       -4198.012          50.000  
 16  4  2 12 51 11.9000000  0  1G29
  20929748.023   109986567.352       -4201.352          50.000  
 16  4  2 12 51 12.0000000  0  1G29
  20929828.008   109986987.668       -4205.297          50.000  
 16  4  2 12 51 12.1000000  0  1G29
  20929908.062   109987408.332       -4208.543          50.000  
 16  4  2 12 51 12.2000000  0  1G29
  20929988.180   109987829.367       -4212.559          50.000  
 16  4  2 12 51 12.3000000  0  1G29
  20930068.375   109988250.820       -4216.656          50.000  
 16  4  2 12 51 12.4000000  0  1G29
  20930148.648   109988672.656       -4220.434          50.000  
 16  4  2 12 51 12.5000000  0  1G29
  20930228.984   109989094.875       -4224.469          50.000  
 16  4  2 12 51 12.6000000  0  1G29
  20930309.398   109989517.461       -4227.938          50.000  
 16  4  2 12 51 12.7000000  0  1G29
  20930389.875   109989940.348       -4230.902          50.000  
 16  4  2 12 51 12.8000000  0  1G29
  20930470.430   109990363.668       -4235.340          50.000  
 16  4  2 12 51 12.9000000  0  1G29
  20930551.062   109990787.426       -4239.973          50.000  
 16  4  2 12 51 13.0000000  0  1G29
  20930631.781   109991211.605       -4244.055          50.000  
 16  4  2 12 51 13.1000000  0  1G29
  20930712.562   109991636.105       -4247.230          50.000  
 16  4  2 12 51 13.2000000  0  1G29
  20930793.414   109992061.000       -4250.750          50.000  
 16  4  2 12 51 13.3000000  0  2G25G29
  23724867.164   124675017.715        9099.711          49.000  
  20930874.328   109992486.246       -4254.559          50.000  
 16  4  2 12 51 13.4000000  0  2G25G29
  23724694.016   124674107.816        9097.988          49.000  
  20930955.320   109992911.863       -4258.242          50.000  
 16  4  2 12 51 13.5000000  0  2G25G29
  23724520.875   124673198.133        9095.723          49.000  
  20931036.391   109993337.879       -4262.355          50.000  
 16  4  2 12 51 13.6000000  0  2G25G29
  23724347.797   124672288.586        9094.469          49.000  
  20931117.523   109993764.234       -4265.570          50.000  
 16  4  2 12 51 13.7000000  0  2G25G29
  23724174.805   124671379.281        9092.020          49.000  
  20931198.734   109994191.000       -4269.828          50.000  
 16  4  2 12 51 13.8000000  0  2G25G29
  23724001.812   124670470.172        9089.844          49.000  
  20931280.023   109994618.168       -4273.945          50.000  
 16  4  2 12 51 13.9000000  0  2G25G29
  23723828.836   124669561.250        9088.164          49.000  
  20931361.383   109995045.699       -4277.512          50.000  
 16  4  2 12 51 14.0000000  0  2G25G29
  23723655.906   124668652.465        9086.844          49.000  
  20931442.805   109995473.570       -4280.758          50.000  
 16  4  2 12 51 14.1000000  0  2G25G29
  23723483.008   124667743.938        9084.230          49.000  
  20931524.312   109995901.891       -4285.352          50.000  
 16  4  2 12 51 14.2000000  0  2G25G29
  23723310.148   124666835.574        9082.520          49.000  
  20931605.883   109996330.566       -4288.848          50.000  
 16  4  2 12 51 14.3000000  0  2G25G29
  23723137.367   124665927.395        9080.645          49.000  
  20931687.523   109996759.617       -4292.742          50.000  
 16  4  2 12 51 14.4000000  0  2G25G29
  23722964.586   124665019.418        9078.656          49.000  
  20931769.242   109997189.043       -4296.500          50.000  
 16  4  2 12 51 14.5000000  0  2G25G29
  23722791.828   124664111.598        9077.336          49.000  
  20931851.023   109997618.844       -4300.023          50.000  
 16  4  2 12 51 14.6000000  0  2G25G29
  23722619.117   124663204.020        9074.699          49.000  
  20931932.891   109998049.043       -4304.281          50.000  
 16  4  2 12 51 14.7000000  0  2G25G29
  23722446.453   124662296.602        9072.980          49.000  
  20932014.844   109998479.621       -4308.012          50.000  
 16  4  2 12 51 14.8000000  0  2G25G29
  23722273.812   124661389.355        9071.477          49.000  
  20932096.844   109998910.547       -4311.375          50.000  
 16  4  2 12 51 14.9000000  0  2G25G29
  23722101.211   124660482.309        9069.496          49.000  
  20932178.914   109999341.855       -4315.137          50.000  
 16  4  2 12 51 15.0000000  0  2G25G29
  23721928.641   124659575.445        9067.598          49.000  
  20932261.062   109999773.555       -4319.027          50.000  
 16  4  2 12 51 15.1000000  0  2G25G29
  23721756.102   124658668.754        9065.832          49.000  
  20932343.281   110000205.613       -4322.750          50.000  
 16  4  2 12 51 15.2000000  0  2G25G29
  23721583.609   124657762.266        9063.887          49.000  
  20932425.578   110000638.062       -4326.414          50.000  
 16  4  2 12 51 15.3000000  0  2G25G29
  23721411.125   124656855.980        9061.641          49.000  
  20932507.945   110001070.898       -4330.586          50.000  
 16  4  2 12 51 15.4000000  0  2G25G29
  23721238.695   124655949.887        9060.070          49.000  
  20932590.383   110001504.129       -4334.199          50.000  
 16  4  2 12 51 15.5000000  0  2G25G29
  23721066.328   124655043.945        9058.156          49.000  
  20932672.891   110001937.695       -4337.969          50.000  
 16  4  2 12 51 15.6000000  0  2G25G29
  23720893.969   124654138.199        9056.547          49.000  
  20932755.469   110002371.645       -4341.520          50.000  
 16  4  2 12 51 15.7000000  0  2G25G29
  23720721.641   124653232.617        9054.766          49.000  
  20932838.109   110002805.949       -4345.086          50.000  
 16  4  2 12 51 15.8000000  0  2G25G29
  23720549.352   124652327.230        9052.789          49.000  
  20932920.828   110003240.633       -4348.992          50.000  
 16  4  2 12 51 15.9000000  0  2G25G29
  23720377.086   124651422.020        9051.047          49.000  
  20933003.617   110003675.699       -4352.781          50.000  
 16  4  2 12 51 16.0000000  0  2G25G29
  23720204.867   124650517.012        9048.973          49.000  
  20933086.477   110004111.148       -4356.688          50.000  
 16  4  2 12 51 16.1000000  0  2G25G29
  23720032.688   124649612.258        9046.324          49.000  
  20933169.422   110004547.051       -4361.289          50.000  
 16  4  2 12 51 16.2000000  0  2G25G29
  23719860.562   124648707.715        9044.695          49.000  
  20933252.445   110004983.332       -4364.625          50.000  
 16  4  2 12 51 16.3000000  0  2G25G29
  23719688.453   124647803.227        9043.770          49.000  
  20933335.523   110005419.887       -4367.680          50.000  
 16  4  2 12 51 16.4000000  0  2G25G29
  23719516.391   124646899.020        9041.340          49.000  
  20933418.680   110005856.887       -4371.891          50.000  
 16  4  2 12 51 16.5000000  0  2G25G29
  23719344.375   124645994.961        9039.504          49.000  
  20933501.906   110006294.246       -4375.691          50.000  
 16  4  2 12 51 16.6000000  0  2G25G29
  23719172.375   124645091.082        9037.750          49.000  
  20933585.203   110006731.961       -4379.379          50.000  
 16  4  2 12 51 16.7000000  0  2G25G29
  23719000.406   124644187.344        9036.434          49.000  
  20933668.562   110007170.008       -4382.531          50.000  
 16  4  2 12 51 16.8000000  0  2G25G29
  23718828.477   124643283.875        9033.605          49.000  
  20933752.008   110007608.516       -4387.262          50.000  
 16  4  2 12 51 16.9000000  0  2G25G29
  23718656.586   124642380.562        9032.023          49.000  
  20933835.516   110008047.379       -4390.738          50.000  
 16  4  2 12 51 17.0000000  0  2G25G29
  23718484.727   124641477.453        9029.992          49.000  
  20933919.102   110008486.621       -4394.594          50.000  
 16  4  2 12 51 17.1000000  0  2G25G29
  23718312.906   124640574.523        9028.305          49.000  
  20934002.758   110008926.242       -4398.312          50.000  
 16  4  2 12 51 17.2000000  0  2G25G29
  23718141.125   124639671.785        9026.250          49.000  
  20934086.484   110009366.242       -4402.223          50.000  
 16  4  2 12 51 17.3000000  0  2G25G29
  23717969.406   124638769.262        9023.996          49.000  
  20934170.297   110009806.652       -4406.383          50.000  
 16  4  2 12 51 17.4000000  0  2G25G29
  23717797.695   124637866.926        9022.457          49.000  
  20934254.172   110010247.426       -4409.750          50.000  
 16  4  2 12 51 17.5000000  0  2G25G29
  23717626.016   124636964.734        9020.875          49.000  
  20934338.109   110010688.539       -4413.289          50.000  
 16  4  2 12 51 17.6000000  0  2G25G29
  23717454.375   124636062.754        9018.707          49.000  
  20934422.125   110011130.062       -4417.305          50.000  
 16  4  2 12 51 17.7000000  0  2G25G29
  23717282.758   124635160.926        9017.559          49.000  
  20934506.211   110011571.922       -4420.445          50.000  
 16  4  2 12 51 17.8000000  0  2G25G29
  23717111.180   124634259.293        9015.332          49.000  
  20934590.367   110012014.164       -4424.461          50.000  
 16  4  2 12 51 17.9000000  0  2G25G29
  23716939.617   124633357.832        9013.703          49.000  
  20934674.586   110012456.777       -4428.070          50.000  
 16  4  2 12 51 18.0000000  0  2G25G29
  23716768.117   124632456.598        9011.184          49.000  
  20934758.891   110012899.789       -4432.387          50.000  
 16  4  2 12 51 18.1000000  0  2G25G29
  23716596.641   124631555.477        9010.199          49.000  
  20934843.242   110013343.113       -4435.270          50.000  
 16  4  2 12 51 18.2000000  0  2G25G29
  23716425.195   124630654.527        9008.527          49.000  
  20934927.680   110013786.812       -4438.980          50.000  
 16  4  2 12 51 18.3000000  0  2G25G29
  23716253.805   124629753.859        9005.434          49.000  
  20935012.195   110014230.969       -4443.816          50.000  
 16  4  2 12 51 18.4000000  0  2G25G29
  23716082.445   124628853.352        9004.105          49.000  
  20935096.781   110014675.480       -4447.199          50.000  
 16  4  2 12 51 18.5000000  0  2G25G29
  23715911.102   124627953.008        9002.570          49.000  
  20935181.438   110015120.340       -4450.633          50.000  
 16  4  2 12 51 18.6000000  0  2G25G29
  23715739.805   124627052.820        9000.945          49.000  
  20935266.164   110015565.543       -4454.129          50.000  
 16  4  2 12 51 18.7000000  0  2G25G29
  23715568.547   124626152.816        8999.262          49.000  
  20935350.953   110016011.125       -4457.598          50.000  
 16  4  2 12 51 18.8000000  0  2G25G29
  23715397.312   124625253.000        8997.250          49.000  
  20935435.820   110016457.086       -4461.582          50.000  
 16  4  2 12 51 18.9000000  0  2G25G29
  23715226.117   124624353.336        8995.598          49.000  
  20935520.750   110016903.379       -4465.086          50.000  
 16  4  2 12 51 19.0000000  0  2G25G29
  23715054.977   124623453.984        8992.332          49.000  
  20935605.773   110017350.188       -4470.289          50.000  
 16  4  2 12 51 19.1000000  0  2G25G29
  23714883.844   124622554.762        8991.227          49.000  
  20935690.859   110017797.301       -4473.207          50.000  
 16  4  2 12 51 19.2000000  0  2G25G29
  23714712.750   124621655.645        8990.121          49.000  
  20935776.000   110018244.730       -4476.367          50.000  
 16  4  2 12 51 19.3000000  0  2G25G29
  23714541.703   124620756.793        8987.543          49.000  
  20935861.227   110018692.602       -4480.750          50.000  
 16  4  2 12 51 19.4000000  0  2G25G29
  23714370.695   124619858.121        8985.461          49.000  
  20935946.523   110019140.836       -4484.711          50.000  
 16  4  2 12 51 19.5000000  0  2G25G29
  23714199.711   124618959.672        8983.367          49.000  
  20936031.898   110019589.492       -4488.770          50.000  
 16  4  2 12 51 19.6000000  0  2G25G29
  23714028.766   124618061.340        8982.336          49.000  
  20936117.336   110020038.461       -4491.855          50.000  
 16  4  2 12 51 19.7000000  0  2G25G29
  23713857.867   124617163.266        8979.832          49.000  
  20936202.852   110020487.859       -4496.020          50.000  
 16  4  2 12 51 19.8000000  0  2G25G29
  23713687.008   124616265.387        8977.449          49.000  
  20936288.445   110020937.652       -4500.246          50.000  
 16  4  2 12 51 19.9000000  0  2G25G29
  23713516.164   124615367.715        8975.379          49.000  
  20936374.117   110021387.844       -4504.352          50.000  
 16  4  2 12 51 20.0000000  0  2G25G29
  23713345.375   124614470.211        8974.051          49.000  
  20936459.852   110021838.387       -4507.586          50.000  
 16  4  2 12 51 20.1000000  0  2G25G29
  23713174.602   124613572.887        8972.367          49.000  
  20936545.656   110022289.301       -4511.125          50.000  
 16  4  2 12 51 20.2000000  0  2G25G29
  23713003.891   124612675.770        8970.066          49.000  
  20936631.539   110022740.605       -4515.188          50.000  
 16  4  2 12 51 20.3000000  0  2G25G29
  23712833.188   124611778.875        8967.875          49.000  
  20936717.500   110023192.340       -4519.445          50.000  
 16  4  2 12 51 20.4000000  0  2G25G29
  23712662.539   124610882.094        8966.684          49.000  
  20936803.516   110023644.367       -4522.477          50.000  
 16  4  2 12 51 20.5000000  0  2G25G29
  23712491.906   124609985.504        8965.004          49.000  
  20936889.602   110024096.777       -4525.980          50.000  
 16  4  2 12 51 20.6000000  0  2G25G29
  23712321.320   124609089.070        8963.363          49.000  
  20936975.758   110024549.543       -4529.680          50.000  
 16  4  2 12 51 20.7000000  0  2G25G29
  23712150.750   124608192.805        8961.770          49.000  
  20937061.992   110025002.645       -4532.953          50.000  
 16  4  2 12 51 20.8000000  0  2G25G29
  23711980.242   124607296.762        8959.277          49.000  
  20937148.297   110025456.172       -4537.496          50.000  
 16  4  2 12 51 20.9000000  0  2G25G29
  23711809.750   124606400.902        8957.574          49.000  
  20937234.664   110025910.059       -4540.898          50.000  
 16  4  2 12 51 21.0000000  0  2G25G29
  23711639.312   124605505.219        8955.711          49.000  
  20937321.109   110026364.336       -4544.844          50.000  
 16  4  2 12 51 21.1000000  0  2G25G29
  23711468.898   124604609.738        8953.867          49.000  
  20937407.617   110026818.973       -4548.457          50.000  
 16  4  2 12 51 21.2000000  0  2G25G29
  23711298.523   124603714.414        8952.246          49.000  
  20937494.203   110027273.992       -4552.184          50.000  
 16  4  2 12 51 21.3000000  0  2G25G29
  23711128.211   124602819.293        8950.254          49.000  
  20937580.867   110027729.375       -4555.895          50.000  
 16  4  2 12 51 21.4000000  0  2G25G29
  23710957.906   124601924.363        8948.168          49.000  
  20937667.594   110028185.145       -4559.961          50.000  
 16  4  2 12 51 21.5000000  0  2G25G29
  23710787.664   124601029.625        8946.445          49.000  
  20937754.398   110028641.301       -4563.555          50.000  
 16  4  2 12 51 21.6000000  0  2G25G29
  23710617.438   124600135.074        8944.391          49.000  
  20937841.273   110029097.836       -4567.480          50.000  
 16  4  2 12 51 21.7000000  0  2G25G29
  23710447.266   124599240.688        8942.859          49.000  
  20937928.219   110029554.727       -4570.957          50.000  
 16  4  2 12 51 21.8000000  0  2G25G29
  23710277.102   124598346.465        8941.238          49.000  
  20938015.234   110030011.961       -4574.379          50.000  
 16  4  2 12 51 21.9000000  0  2G25G29
  23710106.961   124597452.438        8939.211          49.000  
  20938102.320   110030469.578       -4578.277          50.000  
 16  4  2 12 51 22.0000000  0  2G25G29
  23709936.875   124596558.637        8936.957          49.000  
  20938189.484   110030927.629       -4582.500          50.000  
 16  4  2 12 51 22.1000000  0  2G25G29
  23709766.820   124595664.953        8935.859          49.000  
  20938276.703   110031385.965       -4585.426          50.000  
 16  4  2 12 51 22.2000000  0  2G25G29
  23709596.805   124594771.504        8933.453          49.000  
  20938364.008   110031844.746       -4589.855          50.000  
 16  4  2 12 51 22.3000000  0  2G25G29
  23709426.836   124593878.289        8931.207          49.000  
  20938451.383   110032303.922       -4593.910          50.000  
 16  4  2 12 51 22.4000000  0  2G25G29
  23709256.891   124592985.227        8929.367          49.000  
  20938538.828   110032763.465       -4597.754          50.000  
 16  4  2 12 51 22.5000000  0  2G25G29
  23709086.992   124592092.344        8927.715          49.000  
  20938626.344   110033223.367       -4601.273          50.000  
 16  4  2 12 51 22.6000000  0  2G25G29
  23708917.125   124591199.688        8925.617          49.000  
  20938713.938   110033683.684       -4605.113          50.000  
 16  4  2 12 51 22.7000000  0  2G25G29
  23708747.273   124590307.109        8924.836          49.000  
  20938801.594   110034144.270       -4607.852          50.000  
 16  4  2 12 51 22.8000000  0  2G25G29
  23708577.461   124589414.762        8922.660          49.000  
  20938889.320   110034605.281       -4612.047          50.000  
 16  4  2 12 51 22.9000000  0  2G25G29
  23708407.703   124588522.590        8920.848          49.000  
  20938977.125   110035066.645       -4615.605          50.000  
 16  4  2 12 51 23.0000000  0  2G25G29
  23708237.953   124587630.566        8919.309          49.000  
  20939064.984   110035528.355       -4619.031          50.000  
 16  4  2 12 51 23.1000000  0  2G25G29
  23708068.211   124586738.684        8917.820          49.000  
  20939152.906   110035990.398       -4622.414          50.000  
 16  4  2 12 51 23.2000000  0  2G25G29
  23707898.531   124585847.004        8915.777          49.000  
  20939240.898   110036452.820       -4626.430          50.000  
 16  4  2 12 51 23.3000000  0  2G25G29
  23707728.891   124584955.555        8913.418          49.000  
  20939328.977   110036915.680       -4630.727          50.000  
 16  4  2 12 51 23.4000000  0  2G25G29
  23707559.289   124584064.277        8911.637          49.000  
  20939417.125   110037378.887       -4634.336          50.000  
 16  4  2 12 51 23.5000000  0  2G25G29
  23707389.734   124583173.207        8909.805          49.000  
  20939505.344   110037842.492       -4637.973          50.000  
 16  4  2 12 51 23.6000000  0  2G25G29
  23707220.195   124582282.270        8908.289          49.000  
  20939593.625   110038306.422       -4641.324          50.000  
 16  4  2 12 51 23.7000000  0  2G25G29
  23707050.703   124581391.547        8906.254          49.000  
  20939681.992   110038770.754       -4645.453          50.000  
 16  4  2 12 51 23.8000000  0  2G25G29
  23706881.250   124580501.078        8903.754          49.000  
  20939770.430   110039235.531       -4649.828          50.000  
 16  4  2 12 51 23.9000000  0  2G25G29
  23706711.812   124579610.699        8902.691          49.000  
  20939858.930   110039700.586       -4652.719          50.000  
 16  4  2 12 51 24.0000000  0  2G25G29
  23706542.430   124578720.555        8900.285          49.000  
  20939947.508   110040166.074       -4657.016          50.000  
 16  4  2 12 51 24.1000000  0  2G25G29
  23706373.078   124577830.605        8898.648          49.000  
  20940036.156   110040631.926       -4660.500          50.000  
 16  4  2 12 51 24.2000000  0  2G25G29
  23706203.758   124576940.812        8896.836          49.000  
  20940124.867   110041098.125       -4664.176          50.000  
 16  4  2 12 51 24.3000000  0  2G25G29
  23706034.461   124576051.215        8894.996          49.000  
  20940213.664   110041564.738       -4668.031          50.000  
 16  4  2 12 51 24.4000000  0  2G25G29
  23705865.219   124575161.809        8892.801          49.000  
  20940302.523   110042031.699       -4671.980          50.000  
 16  4  2 12 51 24.5000000  0  2G25G29
  23705696.016   124574272.648        8890.383          49.000  
  20940391.469   110042499.113       -4676.266          50.000  
 16  4  2 12 51 24.6000000  0  2G25G29
  23705526.852   124573383.707        8888.352          49.000  
  20940480.492   110042966.922       -4680.238          50.000  
 16  4  2 12 51 24.7000000  0  2G25G29
  23705357.727   124572494.895        8886.953          49.000  
  20940569.578   110043435.059       -4683.508          50.000  
 16  4  2 12 51 24.8000000  0  2G25G29
  23705188.625   124571606.250        8885.512          49.000  
  20940658.734   110043903.547       -4686.977          50.000  
 16  4  2 12 51 24.9000000  0  2G25G29
  23705019.562   124570717.859        8882.953          49.000  
  20940747.961   110044372.480       -4691.277          50.000  
 16  4  2 12 51 25.0000000  0  2G25G29
  23704850.531   124569829.582        8881.656          49.000  
  20940837.258   110044841.719       -4694.480          50.000  
 16  4  2 12 51 25.1000000  0  2G25G29
  23704681.523   124568941.496        8879.914          49.000  
  20940926.617   110045311.324       -4698.070          50.000  
 16  4  2 12 51 25.2000000  0  2G25G29
  23704512.562   124568053.594        8878.008          49.000  
  20941016.055   110045781.328       -4702.098          50.000  
 16  4  2 12 51 25.3000000  0  2G25G29
  23704343.633   124567165.898        8875.816          49.000  
  20941105.562   110046251.711       -4706.031          50.000  
 16  4  2 12 51 25.4000000  0  2G25G29
  23704174.758   124566278.484        8872.793          49.000  
  20941195.164   110046722.559       -4710.918          50.000  
 16  4  2 12 51 25.5000000  0  2G25G29
  23704005.922   124565391.203        8871.656          49.000  
  20941284.836   110047193.742       -4713.984          50.000  
 16  4  2 12 51 25.6000000  0  2G25G29
  23703837.102   124564504.078        8870.324          49.000  
  20941374.562   110047665.258       -4717.137          50.000  
 16  4  2 12 51 25.7000000  0  2G25G29
  23703668.297   124563617.117        8868.719          49.000  
  20941464.352   110048137.129       -4720.598          50.000  
 16  4  2 12 51 25.8000000  0  2G25G29
  23703499.555   124562730.340        8866.828          49.000  
  20941554.211   110048609.375       -4724.539          50.000  
 16  4  2 12 51 25.9000000  0  2G25G29
  23703330.852   124561843.789        8864.234          49.000  
  20941644.164   110049082.047       -4728.957          50.000  
 16  4  2 12 51 26.0000000  0  2G25G29
  23703162.172   124560957.402        8862.820          49.000  
  20941734.172   110049555.055       -4732.215          50.000  
 16  4  2 12 51 26.1000000  0  2G25G29
  23702993.539   124560071.211        8861.043          49.000  
  20941824.258   110050028.461       -4736.066          50.000  
 16  4  2 12 51 26.2000000  0  2G25G29
  23702824.922   124559185.133        8859.965          49.000  
  20941914.398   110050502.156       -4738.902          50.000  
 16  4  2 12 51 26.3000000  0  2G25G29
  23702656.352   124558299.289        8857.516          49.000  
  20942004.625   110050976.270       -4743.195          50.000  
 16  4  2 12 51 26.4000000  0  2G25G29
  23702487.812   124557413.594        8855.859          49.000  
  20942094.914   110051450.738       -4746.602          50.000  
 16  4  2 12 51 26.5000000  0  2G25G29
  23702319.297   124556528.074        8854.086          49.000  
  20942185.266   110051925.570       -4750.547          50.000  
 16  4  2 12 51 26.6000000  0  2G25G29
  23702150.844   124555642.844        8851.203          49.000  
  20942275.711   110052400.855       -4755.078          50.000  
 16  4  2 12 51 26.7000000  0  2G25G29
  23701982.391   124554757.684        8850.531          49.000  
  20942366.219   110052876.445       -4757.852          50.000  
 16  4  2 12 51 26.8000000  0  2G25G29
  23701814.000   124553872.762        8848.281          49.000  
  20942456.789   110053352.414       -4761.852          50.000  
 16  4  2 12 51 26.9000000  0  2G25G29
  23701645.641   124552988.035        8846.109          49.000  
  20942547.445   110053828.801       -4765.945          50.000  
 16  4  2 12 51 27.0000000  0  2G25G29
  23701477.320   124552103.484        8844.547          49.000  
  20942638.164   110054305.531       -4769.371          50.000  
 16  4  2 12 51 27.1000000  0  2G25G29
  23701309.023   124551219.102        8842.832          49.000  
  20942728.961   110054782.629       -4772.984          50.000  
 16  4  2 12 51 27.2000000  0  2G25G29
  23701140.758   124550334.895        8840.973          49.000  
  20942819.812   110055260.078       -4776.680          50.000  
 16  4  2 12 51 27.3000000  0  2G25G29
  23700972.539   124549450.898        8838.938          49.000  
  20942910.750   110055737.941       -4780.797          50.000  
 16  4  2 12 51 27.4000000  0  2G25G29
  23700804.359   124548567.094        8837.121          49.000  
  20943001.758   110056216.176       -4784.250          50.000  
 16  4  2 12 51 27.5000000  0  2G25G29
  23700636.195   124547683.430        8835.738          49.000  
  20943092.836   110056694.738       -4787.605          50.000  
 16  4  2 12 51 27.6000000  0  2G25G29
  23700468.078   124546799.965        8833.523          49.000  
  20943183.977   110057173.699       -4791.684          50.000  
 16  4  2 12 51 27.7000000  0  2G25G29
  23700300.000   124545916.707        8831.531          49.000  
  20943275.195   110057653.047       -4795.547          50.000  
 16  4  2 12 51 27.8000000  0  2G25G29
  23700131.953   124545033.609        8829.871          49.000  
  20943366.477   110058132.762       -4799.371          50.000  
 16  4  2 12 51 27.9000000  0  2G25G29
  23699963.961   124544150.766        8827.633          49.000  
  20943457.844   110058612.883       -4803.262          50.000  
 16  4  2 12 51 28.0000000  0  2G25G29
  23699795.977   124543268.035        8826.121          49.000  
  20943549.273   110059093.336       -4806.719          50.000  
 16  4  2 12 51 28.1000000  0  2G25G29
  23699628.039   124542385.527        8824.008          49.000  
  20943640.773   110059574.199       -4810.656          50.000  
 16  4  2 12 51 28.2000000  0  2G25G29
  23699460.133   124541503.176        8822.410          49.000  
  20943732.344   110060055.391       -4814.246          50.000  
 16  4  2 12 51 28.3000000  0  2G25G29
  23699292.281   124540621.090        8819.945          49.000  
  20943823.992   110060537.035       -4818.391          50.000  
 16  4  2 12 51 28.4000000  0  2G25G29
  23699124.445   124539739.086        8818.711          49.000  
  20943915.703   110061018.977       -4821.684          50.000  
 16  4  2 12 51 28.5000000  0  2G25G29
  23698956.656   124538857.395        8815.793          49.000  
  20944007.508   110061501.391       -4826.465          50.000  
 16  4  2 12 51 28.6000000  0  2G25G29
  23698788.906   124537975.848        8814.539          49.000  
  20944099.375   110061984.152       -4829.512          50.000  
 16  4  2 12 51 28.7000000  0  2G25G29
  23698621.188   124537094.480        8812.449          49.000  
  20944191.305   110062467.277       -4833.617          50.000  
 16  4  2 12 51 28.8000000  0  2G25G29
  23698453.500   124536213.285        8811.289          49.000  
  20944283.312   110062950.770       -4836.703          50.000  
 16  4  2 12 51 28.9000000  0  2G25G29
  23698285.844   124535332.219        8809.758          49.000  
  20944375.375   110063434.570       -4840.031          50.000  
 16  4  2 12 51 29.0000000  0  2G25G29
  23698118.227   124534451.375        8807.285          49.000  
  20944467.516   110063918.773       -4844.180          50.000  
 16  4  2 12 51 29.1000000  0  2G25G29
  23697950.633   124533570.684        8805.922          49.000  
  20944559.727   110064403.348       -4847.793          50.000  
 16  4  2 12 51 29.2000000  0  2G25G29
  23697783.078   124532690.203        8803.719          49.000  
  20944652.008   110064888.293       -4851.656          50.000  
 16  4  2 12 51 29.3000000  0  2G25G29
  23697615.570   124531809.918        8801.969          49.000  
  20944744.367   110065373.645       -4855.559          50.000  
 16  4  2 12 51 29.4000000  0  2G25G29
  23697448.086   124530929.805        8800.113          49.000  
  20944836.797   110065859.336       -4859.016          50.000  
 16  4  2 12 51 29.5000000  0  2G25G29
  23697280.633   124530049.844        8798.434          49.000  
  20944929.289   110066345.371       -4862.637          50.000  
 16  4  2 12 51 29.6000000  0  2G25G29
  23697113.219   124529170.102        8796.379          49.000  
  20945021.852   110066831.809       -4866.539          50.000  
 16  4  2 12 51 29.7000000  0  2G25G29
  23696945.867   124528290.531        8794.570          49.000  
  20945114.492   110067318.625       -4870.363          50.000  
 16  4  2 12 51 29.8000000  0  2G25G29
  23696778.531   124527411.195        8792.312          49.000  
  20945207.211   110067805.852       -4874.289          50.000  
 16  4  2 12 51 29.9000000  0  2G25G29
  23696611.234   124526532.035        8790.461          49.000  
  20945299.992   110068293.445       -4878.059          50.000  
 16  4  2 12 51 30.0000000  0  2G25G29
  23696443.969   124525653.027        8789.383          49.000  
  20945392.844   110068781.383       -4881.207          50.000  
 16  4  2 12 51 30.1000000  0  2G25G29
  23696276.711   124524774.152        8787.957          49.000  
  20945485.758   110069269.629       -4884.512          50.000  
 16  4  2 12 51 30.2000000  0  2G25G29
  23696109.508   124523895.520        8785.324          49.000  
  20945578.750   110069758.320       -4889.055          50.000  
 16  4  2 12 51 30.3000000  0  2G25G29
  23695942.344   124523017.035        8783.758          49.000  
  20945671.812   110070247.340       -4892.293          50.000  
 16  4  2 12 51 30.4000000  0  2G25G29
  23695775.203   124522138.727        8781.969          49.000  
  20945764.938   110070736.734       -4896.023          50.000  
 16  4  2 12 51 30.5000000  0  2G25G29
  23695608.125   124521260.695        8779.188          49.000  
  20945858.148   110071226.578       -4900.719          50.000  
 16  4  2 12 51 30.6000000  0  2G25G29
  23695441.055   124520382.742        8778.398          49.000  
  20945951.414   110071716.703       -4903.426          50.000  
 16  4  2 12 51 30.7000000  0  2G25G29
  23695274.039   124519505.055        8775.934          49.000  
  20946044.766   110072207.273       -4907.742          50.000  
 16  4  2 12 51 30.8000000  0  2G25G29
  23695107.055   124518627.559        8773.891          49.000  
  20946138.188   110072698.223       -4911.578          50.000  
 16  4  2 12 51 30.9000000  0  2G25G29
  23694940.117   124517750.215        8772.500          49.000  
  20946231.688   110073189.512       -4914.945          50.000  
 16  4  2 12 51 31.0000000  0  2G25G29
  23694773.188   124516872.992        8771.305          49.000  
  20946325.234   110073681.109       -4918.098          50.000  
 16  4  2 12 51 31.1000000  0  2G25G29
  23694606.297   124515996.016        8768.957          49.000  
  20946418.867   110074173.137       -4922.137          50.000  
 16  4  2 12 51 31.2000000  0  2G25G29
  23694439.453   124515119.227        8766.945          49.000  
  20946512.578   110074665.562       -4926.234          50.000  
 16  4  2 12 51 31.3000000  0  2G25G29
  23694272.633   124514242.602        8765.074          49.000  
  20946606.344   110075158.320       -4929.816          50.000  
 16  4  2 12 51 31.4000000  0  2G25G29
  23694105.859   124513366.207        8762.863          49.000  
  20946700.195   110075651.508       -4933.984          50.000  
 16  4  2 12 51 31.5000000  0  2G25G29
  23693939.109   124512489.969        8761.434          49.000  
  20946794.109   110076145.027       -4937.234          50.000  
 16  4  2 12 51 31.6000000  0  2G25G29
  23693772.398   124511613.879        8759.934          49.000  
  20946888.086   110076638.891       -4940.703          50.000  
 16  4  2 12 51 31.7000000  0  2G25G29
  23693605.719   124510737.965        8758.176          49.000  
  20946982.141   110077133.117       -4944.285          50.000  
 16  4  2 12 51 31.8000000  0  2G25G29
  23693439.086   124509862.309        8755.508          49.000  
  20947076.273   110077627.785       -4948.762          50.000  
 16  4  2 12 51 31.9000000  0  2G25G29
  23693272.492   124508986.844        8753.574          49.000  
  20947170.484   110078122.844       -4952.855          50.000  
 16  4  2 12 51 32.0000000  0  2G25G29
  23693105.922   124508111.535        8751.953          49.000  
  20947264.750   110078618.227       -4956.035          50.000  
 16  4  2 12 51 32.1000000  0  2G25G29
  23692939.383   124507236.371        8750.613          49.000  
  20947359.078   110079113.961       -4959.398          50.000  
 16  4  2 12 51 32.2000000  0  2G25G29
  23692772.883   124506361.422        8748.406          49.000  
  20947453.492   110079610.082       -4963.430          50.000  
 16  4  2 12 51 32.3000000  0  2G25G29
  23692606.422   124505486.672        8746.484          49.000  
  20947547.977   110080106.609       -4967.324          50.000  
 16  4  2 12 51 32.4000000  0  2G25G29
  23692440.000   124504612.125        8744.625          49.000  
  20947642.539   110080603.512       -4971.055          50.000  
 16  4  2 12 51 32.5000000  0  2G25G29
  23692273.594   124503737.664        8743.496          49.000  
  20947737.148   110081100.695       -4974.016          50.000  
 16  4  2 12 51 32.6000000  0  2G25G29
  23692107.242   124502863.473        8740.938          49.000  
  20947831.844   110081598.324       -4978.234          50.000  
 16  4  2 12 51 32.7000000  0  2G25G29
  23691940.906   124501989.418        8739.496          49.000  
  20947926.602   110082096.305       -4981.777          50.000  
 16  4  2 12 51 32.8000000  0  2G25G29
  23691774.609   124501115.527        8737.742          49.000  
  20948021.430   110082594.617       -4985.387          50.000  
 16  4  2 12 51 32.9000000  0  2G25G29
  23691608.359   124500241.918        8734.969          49.000  
  20948116.336   110083093.391       -4989.762          50.000  
 16  4  2 12 51 33.0000000  0  2G25G29
  23691442.148   124499368.453        8733.664          49.000  
  20948211.320   110083592.523       -4993.352          50.000  
 16  4  2 12 51 33.1000000  0  2G25G29
  23691275.977   124498495.145        8732.105          49.000  
  20948306.367   110084091.984       -4996.656          50.000  
 16  4  2 12 51 33.2000000  0  2G25G29
  23691109.828   124497622.031        8730.211          49.000  
  20948401.484   110084591.820       -5000.328          50.000  
 16  4  2 12 51 33.3000000  0  2G25G29
  23690943.711   124496749.094        8728.199          49.000  
  20948496.672   110085092.043       -5004.523          50.000  
 16  4  2 12 51 33.4000000  0  2G25G29
  23690777.641   124495876.367        8726.352          49.000  
  20948591.930   110085592.641       -5008.055          50.000  
 16  4  2 12 51 33.5000000  0  2G25G29
  23690611.594   124495003.789        8724.562          49.000  
  20948687.258   110086093.586       -5011.551          50.000  
 16  4  2 12 51 33.6000000  0  2G25G29
  23690445.594   124494131.469        8722.113          49.000  
  20948782.672   110086594.980       -5016.066          50.000  
 16  4  2 12 51 33.7000000  0  2G25G29
  23690279.617   124493259.238        8721.336          49.000  
  20948878.133   110087096.637       -5018.562          50.000  
 16  4  2 12 51 33.8000000  0  2G25G29
  23690113.680   124492387.254        8718.754          49.000  
  20948973.680   110087598.750       -5023.301          50.000  
 16  4  2 12 51 33.9000000  0  2G25G29
  23689947.781   124491515.457        8717.031          49.000  
  20949069.297   110088101.223       -5026.766          50.000  
 16  4  2 12 51 34.0000000  0  2G25G29
  23689781.906   124490643.777        8715.719          49.000  
  20949164.977   110088604.004       -5030.082          50.000  
 16  4  2 12 51 34.1000000  0  2G25G29
  23689616.086   124489772.359        8713.203          49.000  
  20949260.734   110089107.234       -5034.344          50.000  
 16  4  2 12 51 34.2000000  0  2G25G29
  23689450.289   124488901.113        8711.434          49.000  
  20949356.562   110089610.824       -5038.027          50.000  
 16  4  2 12 51 34.3000000  0  2G25G29
  23689284.531   124488030.016        8710.008          49.000  
  20949452.453   110090114.750       -5041.262          50.000  
 16  4  2 12 51 34.4000000  0  2G25G29
  23689118.805   124487159.109        8708.086          49.000  
  20949548.414   110090619.051       -5044.957          50.000  
 16  4  2 12 51 34.5000000  0  2G25G29
  23688953.117   124486288.340        8706.520          49.000  
  20949644.445   110091123.688       -5048.594          50.000  
 16  4  2 12 51 34.6000000  0  2G25G29
  23688787.453   124485417.766        8704.824          49.000  
  20949740.547   110091628.691       -5052.129          50.000  
 16  4  2 12 51 34.7000000  0  2G25G29
  23688621.828   124484547.398        8702.848          49.000  
  20949836.719   110092134.102       -5055.934          50.000  
 16  4  2 12 51 34.8000000  0  2G25G29
  23688456.227   124483677.172        8701.062          49.000  
  20949932.953   110092639.824       -5059.543          50.000  
 16  4  2 12 51 34.9000000  0  2G25G29
  23688290.672   124482807.172        8699.043          49.000  
  20950029.266   110093145.980       -5063.523          50.000  
 16  4  2 12 51 35.0000000  0  2G25G29
  23688125.156   124481937.383        8696.754          49.000  
  20950125.656   110093652.527       -5067.727          50.000  
 16  4  2 12 51 35.1000000  0  2G25G29
  23687959.688   124481067.777        8695.141          49.000  
  20950222.125   110094159.453       -5071.242          50.000  
 16  4  2 12 51 35.2000000  0  2G25G29
  23687794.227   124480198.293        8693.793          49.000  
  20950318.648   110094666.676       -5074.410          50.000  
 16  4  2 12 51 35.3000000  0  2G25G29
  23687628.812   124479329.023        8691.586          49.000  
  20950415.242   110095174.309       -5078.355          50.000  
 16  4  2 12 51 35.4000000  0  2G25G29
  23687463.430   124478459.906        8690.570          49.000  
  20950511.906   110095682.273       -5081.414          50.000  
 16  4  2 12 51 35.5000000  0  2G25G29
  23687298.070   124477590.957        8688.242          49.000  
  20950608.633   110096190.602       -5085.543          50.000  
 16  4  2 12 51 35.6000000  0  2G25G29
  23687132.758   124476722.250        8686.094          49.000  
  20950705.445   110096699.363       -5089.605          50.000  
 16  4  2 12 51 35.7000000  0  2G25G29
  23686967.477   124475853.695        8684.223          49.000  
  20950802.320   110097208.457       -5093.332          50.000  
 16  4  2 12 51 35.8000000  0  2G25G29
  23686802.250   124474985.414        8681.816          49.000  
  20950899.281   110097718.004       -5097.504          50.000  
 16  4  2 12 51 35.9000000  0  2G25G29
  23686637.047   124474117.227        8680.664          49.000  
  20950996.305   110098227.848       -5100.660          50.000  
 16  4  2 12 51 36.0000000  0  2G25G29
  23686471.883   124473249.297        8678.355          49.000  
  20951093.406   110098738.125       -5104.758          50.000  
 16  4  2 12 51 36.1000000  0  2G25G29
  23686306.742   124472381.504        8677.102          49.000  
  20951190.562   110099248.730       -5107.938          50.000  
 16  4  2 12 51 36.2000000  0  2G25G29
  23686141.641   124471513.875        8675.215          49.000  
  20951287.797   110099759.684       -5111.676          50.000  
 16  4  2 12 51 36.3000000  0  2G25G29
  23685976.586   124470646.480        8672.922          49.000  
  20951385.109   110100271.059       -5115.836          50.000  
 16  4  2 12 51 36.4000000  0  2G25G29
  23685811.547   124469779.191        8672.027          49.000  
  20951482.477   110100782.746       -5118.746          50.000  
 16  4  2 12 51 36.5000000  0  2G25G29
  23685646.539   124468912.102        8669.555          49.000  
  20951579.922   110101294.793       -5122.922          50.000  
 16  4  2 12 51 36.6000000  0  2G25G29
  23685481.602   124468045.336        8666.426          49.000  
  20951677.461   110101807.375       -5127.988          50.000  
 16  4  2 12 51 36.7000000  0  2G25G29
  23685316.695   124467178.699        8665.418          49.000  
  20951775.062   110102320.258       -5130.887          50.000  
 16  4  2 12 51 36.8000000  0  2G25G29
  23685151.805   124466312.199        8664.090          49.000  
  20951872.719   110102833.469       -5134.168          50.000  
 16  4  2 12 51 36.9000000  0  2G25G29
  23684986.930   124465445.852        8662.414          49.000  
  20951970.445   110103347.016       -5137.578          50.000  
 16  4  2 12 51 37.0000000  0  2G25G29
  23684822.117   124464579.730        8660.211          49.000  
  20952068.242   110103860.973       -5141.621          50.000  
 16  4  2 12 51 37.1000000  0  2G25G29
  23684657.336   124463713.793        8658.410          49.000  
  20952166.117   110104375.316       -5145.453          50.000  
 16  4  2 12 51 37.2000000  0  2G25G29
  23684492.578   124462847.984        8656.988          49.000  
  20952264.055   110104889.973       -5148.711          50.000  
 16  4  2 12 51 37.3000000  0  2G25G29
  23684327.844   124461982.359        8655.562          49.000  
  20952362.055   110105404.988       -5152.008          50.000  
 16  4  2 12 51 37.4000000  0  2G25G29
  23684163.156   124461116.930        8653.266          49.000  
  20952460.133   110105920.387       -5156.074          50.000  
 16  4  2 12 51 37.5000000  0  2G25G29
  23683998.516   124460251.707        8651.445          49.000  
  20952558.281   110106436.191       -5159.883          50.000  
 16  4  2 12 51 37.6000000  0  2G25G29
  23683833.898   124459386.637        8649.691          49.000  
  20952656.500   110106952.328       -5163.469          50.000  
 16  4  2 12 51 37.7000000  0  2G25G29
  23683669.312   124458521.734        8648.145          49.000  
  20952754.789   110107468.824       -5166.859          50.000  
 16  4  2 12 51 37.8000000  0  2G25G29
  23683504.758   124457656.965        8646.781          49.000  
  20952853.133   110107985.637       -5170.137          50.000  
 16  4  2 12 51 37.9000000  0  2G25G29
  23683340.242   124456792.422        8644.441          49.000  
  20952951.562   110108502.863       -5174.328          50.000  
 16  4  2 12 51 38.0000000  0  2G25G29
  23683175.766   124455928.078        8642.457          49.000  
  20953050.062   110109020.477       -5178.195          50.000  
 16  4  2 12 51 38.1000000  0  2G25G29
  23683011.312   124455063.895        8640.707          49.000  
  20953148.625   110109538.438       -5181.770          50.000  
 16  4  2 12 51 38.2000000  0  2G25G29
  23682846.898   124454199.891        8639.023          49.000  
  20953247.266   110110056.766       -5185.328          50.000  
 16  4  2 12 51 38.3000000  0  2G25G29
  23682682.523   124453336.086        8636.906          49.000  
  20953345.969   110110575.473       -5189.234          50.000  
 16  4  2 12 51 38.4000000  0  2G25G29
  23682518.188   124452472.496        8634.582          49.000  
  20953444.758   110111094.598       -5193.629          50.000  
 16  4  2 12 51 38.5000000  0  2G25G29
  23682353.867   124451609.055        8633.578          49.000  
  20953543.602   110111614.043       -5196.418          50.000  
 16  4  2 12 51 38.6000000  0  2G25G29
  23682189.602   124450745.836        8631.074          49.000  
  20953642.531   110112133.906       -5200.812          50.000  
 16  4  2 12 51 38.7000000  0  2G25G29
  23682025.383   124449882.832        8628.934          49.000  
  20953741.531   110112654.164       -5204.766          50.000  
 16  4  2 12 51 38.8000000  0  2G25G29
  23681861.180   124449019.965        8627.746          49.000  
  20953840.594   110113174.754       -5207.770          50.000  
 16  4  2 12 51 38.9000000  0  2G25G29
  23681697.016   124448157.250        8626.266          49.000  
  20953939.719   110113695.680       -5211.102          50.000  
 16  4  2 12 51 39.0000000  0  2G25G29
  23681532.883   124447294.742        8624.188          49.000  
  20954038.930   110114217.008       -5215.230          50.000  
 16  4  2 12 51 39.1000000  0  2G25G29
  23681368.781   124446432.383        8622.648          49.000  
  20954138.195   110114738.664       -5218.578          50.000  
 16  4  2 12 51 39.2000000  0  2G25G29
  23681204.719   124445570.234        8620.562          49.000  
  20954237.539   110115260.715       -5222.562          50.000  
 16  4  2 12 51 39.3000000  0  2G25G29
  23681040.680   124444708.234        8618.895          49.000  
  20954336.953   110115783.105       -5226.086          50.000  
 16  4  2 12 51 39.4000000  0  2G25G29
  23680876.703   124443846.508        8616.223          49.000  
  20954436.445   110116305.953       -5230.605          50.000  
 16  4  2 12 51 39.5000000  0  2G25G29
  23680712.742   124442984.898        8615.098          49.000  
  20954535.992   110116829.105       -5233.695          50.000  
 16  4  2 12 51 39.6000000  0  2G25G29
  23680548.812   124442123.473        8613.223          49.000  
  20954635.617   110117352.637       -5237.469          50.000  
 16  4  2 12 51 39.7000000  0  2G25G29
  23680384.938   124441262.285        8610.840          49.000  
  20954735.320   110117876.574       -5241.566          50.000  
 16  4  2 12 51 39.8000000  0  2G25G29
  23680221.086   124440401.238        8609.582          49.000  
  20954835.086   110118400.855       -5244.691          50.000  
 16  4  2 12 51 39.9000000  0  2G25G29
  23680057.266   124439540.352        8608.027          49.000  
  20954934.922   110118925.480       -5248.145          50.000  
 16  4  2 12 51 40.0000000  0  2G25G29
  23679893.477   124438679.633        8606.191          49.000  
  20955034.820   110119450.453       -5251.754          50.000  
 16  4  2 12 51 40.1000000  0  2G25G29
  23679729.719   124437819.109        8604.234          49.000  
  20955134.789   110119975.809       -5255.602          50.000  
 16  4  2 12 51 40.2000000  0  2G25G29
  23679566.008   124436958.797        8601.922          49.000  
  20955234.844   110120501.574       -5259.809          50.000  
 16  4  2 12 51 40.3000000  0  2G25G29
  23679402.328   124436098.707        8599.766          49.000  
  20955334.969   110121027.746       -5263.836          50.000  
 16  4  2 12 51 40.4000000  0  2G25G29
  23679238.688   124435238.754        8598.566          49.000  
  20955435.156   110121554.230       -5266.945          50.000  
 16  4  2 12 51 40.5000000  0  2G25G29
  23679075.070   124434378.953        8596.984          49.000  
  20955535.414   110122081.066       -5270.344          50.000  
 16  4  2 12 51 40.6000000  0  2G25G29
  23678911.500   124433519.371        8594.734          49.000  
  20955635.742   110122608.305       -5274.551          50.000  
 16  4  2 12 51 40.7000000  0  2G25G29
  23678747.961   124432659.992        8592.938          49.000  
  20955736.148   110123135.926       -5278.219          50.000  
 16  4  2 12 51 40.8000000  0  2G25G29
  23678584.445   124431800.707        8591.957          49.000  
  20955836.609   110123663.836       -5281.039          50.000  
 16  4  2 12 51 40.9000000  0  2G25G29
  23678420.953   124430941.613        8590.199          49.000  
  20955937.141   110124192.117       -5284.594          50.000  
 16  4  2 12 51 41.0000000  0  2G25G29
  23678257.508   124430082.707        8587.980          49.000  
  20956037.734   110124720.773       -5288.727          50.000  
 16  4  2 12 51 41.1000000  0  2G25G29
  23678094.102   124429223.949        8586.797          49.000  
  20956138.406   110125249.777       -5291.859          50.000  
 16  4  2 12 51 41.2000000  0  2G25G29
  23677930.727   124428365.410        8584.270          49.000  
  20956239.141   110125779.172       -5296.055          50.000  
 16  4  2 12 51 41.3000000  0  2G25G29
  23677767.375   124427507.027        8582.805          49.000  
  20956339.953   110126308.910       -5299.520          50.000  
 16  4  2 12 51 41.4000000  0  2G25G29
  23677604.078   124426648.898        8580.109          49.000  
  20956440.844   110126839.098       -5304.059          50.000  
 16  4  2 12 51 41.5000000  0  2G25G29
  23677440.805   124425790.922        8578.789          49.000  
  20956541.805   110127369.617       -5307.281          50.000  
 16  4  2 12 51 41.6000000  0  2G25G29
  23677277.594   124424933.215        8575.863          49.000  
  20956642.844   110127900.598       -5312.062          50.000  
 16  4  2 12 51 41.7000000  0  2G25G29
  23677114.406   124424075.664        8574.551          49.000  
  20956743.953   110128431.914       -5315.133          50.000  
 16  4  2 12 51 41.8000000  0  2G25G29
  23676951.242   124423218.246        8573.273          49.000  
  20956845.125   110128963.562       -5318.426          50.000  
 16  4  2 12 51 41.9000000  0  2G25G29
  23676788.109   124422361.012        8571.480          49.000  
  20956946.359   110129495.574       -5321.988          50.000  
 16  4  2 12 51 42.0000000  0  2G25G29
  23676625.023   124421503.984        8569.207          49.000  
  20957047.672   110130027.977       -5326.137          50.000  
 16  4  2 12 51 42.1000000  0  2G25G29
  23676461.977   124420647.156        8567.160          49.000  
  20957149.055   110130560.770       -5330.078          50.000  
 16  4  2 12 51 42.2000000  0  2G25G29
  23676298.961   124419790.504        8565.602          49.000  
  20957250.508   110131093.922       -5333.496          50.000  
 16  4  2 12 51 42.3000000  0  2G25G29
  23676135.984   124418934.000        8563.840          49.000  
  20957352.031   110131627.406       -5337.062          50.000  
 16  4  2 12 51 42.4000000  0  2G25G29
  23675973.039   124418077.730        8561.848          49.000  
  20957453.633   110132161.320       -5341.043          50.000  
 16  4  2 12 51 42.5000000  0  2G25G29
  23675810.109   124417221.566        8560.770          49.000  
  20957555.289   110132695.520       -5343.934          50.000  
 16  4  2 12 51 42.6000000  0  2G25G29
  23675647.227   124416365.598        8558.605          49.000  
  20957657.016   110133230.098       -5347.988          50.000  
 16  4  2 12 51 42.7000000  0  2G25G29
  23675484.375   124415509.828        8556.922          49.000  
  20957758.820   110133765.074       -5351.676          50.000  
 16  4  2 12 51 42.8000000  0  2G25G29
  23675321.547   124414654.180        8555.582          49.000  
  20957860.680   110134300.340       -5354.664          50.000  
 16  4  2 12 51 42.9000000  0  2G25G29
  23675158.758   124413798.707        8553.812          49.000  
  20957962.609   110134835.984       -5358.406          50.000  
 16  4  2 12 51 43.0000000  0  2G25G29
  23674996.016   124412943.488        8551.211          49.000  
  20958064.617   110135372.051       -5362.785          50.000  
 16  4  2 12 51 43.1000000  0  2G25G29
  23674833.297   124412088.406        8549.578          49.000  
  20958166.695   110135908.465       -5366.270          50.000  
 16  4  2 12 51 43.2000000  0  2G25G29
  23674670.617   124411233.520        8547.875          49.000  
  20958268.836   110136445.242       -5369.895          50.000  
 16  4  2 12 51 43.3000000  0  2G25G29
  23674507.969   124410378.797        8546.219          49.000  
  20958371.055   110136982.371       -5373.383          50.000  
 16  4  2 12 51 43.4000000  0  2G25G29
  23674345.367   124409524.293        8544.129          49.000  
  20958473.344   110137519.922       -5377.484          50.000  
 16  4  2 12 51 43.5000000  0  2G25G29
  23674182.781   124408669.934        8542.551          49.000  
  20958575.703   110138057.777       -5380.684          50.000  
 16  4  2 12 51 43.6000000  0  2G25G29
  23674020.234   124407815.727        8541.047          49.000  
  20958678.117   110138595.992       -5384.133          50.000  
 16  4  2 12 51 43.7000000  0  2G25G29
  23673857.711   124406961.754        8538.895          49.000  
  20958780.617   110139134.625       -5388.293          50.000  
 16  4  2 12 51 43.8000000  0  2G25G29
  23673695.234   124406107.926        8537.441          49.000  
  20958883.180   110139673.578       -5391.484          50.000  
 16  4  2 12 51 43.9000000  0  2G25G29
  23673532.773   124405254.230        8535.938          49.000  
  20958985.805   110140212.867       -5394.910          50.000  
 16  4  2 12 51 44.0000000  0  2G25G29
  23673370.359   124404400.750        8533.930          49.000  
  20959088.500   110140752.543       -5398.625          50.000  
 16  4  2 12 51 44.1000000  0  2G25G29
  23673207.977   124403547.391        8532.887          49.000  
  20959191.258   110141292.527       -5401.691          50.000  
 16  4  2 12 51 44.2000000  0  2G25G29
  23673045.625   124402694.246        8530.449          49.000  
  20959294.094   110141832.918       -5405.949          50.000  
 16  4  2 12 51 44.3000000  0  2G25G29
  23672883.328   124401841.371        8527.516          49.000  
  20959397.016   110142373.762       -5410.711          50.000  
 16  4  2 12 51 44.4000000  0  2G25G29
  23672721.062   124400988.648        8526.141          49.000  
  20959500.000   110142914.953       -5413.961          50.000  
 16  4  2 12 51 44.5000000  0  2G25G29
  23672558.812   124400136.082        8524.461          49.000  
  20959603.047   110143456.473       -5417.574          50.000  
 16  4  2 12 51 44.6000000  0  2G25G29
  23672396.609   124399283.699        8522.945          49.000  
  20959706.172   110143998.367       -5421.004          50.000  
 16  4  2 12 51 44.7000000  0  2G25G29
  23672234.445   124398431.520        8520.973          49.000  
  20959809.359   110144540.648       -5424.621          50.000  
 16  4  2 12 51 44.8000000  0  2G25G29
  23672072.320   124397579.535        8518.582          49.000  
  20959912.625   110145083.316       -5428.969          50.000  
 16  4  2 12 51 44.9000000  0  2G25G29
  23671910.227   124396727.797        8516.293          49.000  
  20960015.969   110145626.414       -5433.125          50.000  
 16  4  2 12 51 45.0000000  0  2G25G29
  23671748.164   124395876.133        8515.430          49.000  
  20960119.367   110146169.777       -5435.840          50.000  
 16  4  2 12 51 45.1000000  0  2G25G29
  23671586.133   124395024.672        8513.863          49.000  
  20960222.844   110146713.531       -5439.328          50.000  
 16  4  2 12 51 45.2000000  0  2G25G29
  23671424.133   124394173.352        8512.289          49.000  
  20960326.375   110147257.598       -5442.590          50.000  
 16  4  2 12 51 45.3000000  0  2G25G29
  23671262.180   124393322.258        8509.945          49.000  
  20960429.992   110147802.098       -5446.992          50.000  
 16  4  2 12 51 45.4000000  0  2G25G29
  23671100.258   124392471.367        8507.840          49.000  
  20960533.672   110148346.965       -5450.746          50.000  
 16  4  2 12 51 45.5000000  0  2G25G29
  23670938.359   124391620.617        8506.348          49.000  
  20960637.422   110148892.164       -5454.156          50.000  
 16  4  2 12 51 45.6000000  0  2G25G29
  23670776.508   124390770.066        8504.555          49.000  
  20960741.242   110149437.754       -5457.832          50.000  
 16  4  2 12 51 45.7000000  0  2G25G29
  23670614.680   124389919.691        8502.711          49.000  
  20960845.133   110149983.711       -5461.648          50.000  
 16  4  2 12 51 45.8000000  0  2G25G29
  23670452.898   124389069.516        8500.840          49.000  
  20960949.094   110150530.043       -5465.422          50.000  
 16  4  2 12 51 45.9000000  0  2G25G29
  23670291.141   124388219.484        8499.242          49.000  
  20961053.125   110151076.707       -5468.766          50.000  
 16  4  2 12 51 46.0000000  0  2G25G29
  23670129.422   124387369.645        8497.277          49.000  
  20961157.227   110151623.758       -5472.594          50.000  
 16  4  2 12 51 46.1000000  0  2G25G29
  23669967.734   124386519.961        8495.984          49.000  
  20961261.391   110152171.145       -5475.957          50.000  
 16  4  2 12 51 46.2000000  0  2G25G29
  23669806.078   124385670.449        8494.090          49.000  
  20961365.617   110152718.879       -5479.441          50.000  
 16  4  2 12 51 46.3000000  0  2G25G29
  23669644.477   124384821.195        8491.344          49.000  
  20961469.930   110153267.066       -5484.117          50.000  
 16  4  2 12 51 46.4000000  0  2G25G29
  23669482.891   124383972.043        8490.660          49.000  
  20961574.305   110153815.555       -5486.809          50.000  
 16  4  2 12 51 46.5000000  0  2G25G29
  23669321.344   124383123.094        8488.418          49.000  
  20961678.750   110154364.410       -5490.734          50.000  
 16  4  2 12 51 46.6000000  0  2G25G29
  23669159.836   124382274.383        8486.062          49.000  
  20961783.273   110154913.695       -5494.945          50.000  
 16  4  2 12 51 46.7000000  0  2G25G29
  23668998.367   124381425.816        8484.637          49.000  
  20961887.859   110155463.328       -5498.301          50.000  
 16  4  2 12 51 46.8000000  0  2G25G29
  23668836.922   124380577.422        8483.023          49.000  
  20961992.516   110156013.301       -5501.719          50.000  
 16  4  2 12 51 46.9000000  0  2G25G29
  23668675.500   124379729.156        8481.672          49.000  
  20962097.227   110156563.590       -5504.898          50.000  
 16  4  2 12 51 47.0000000  0  2G25G29
  23668514.125   124378881.125        8479.504          49.000  
  20962202.031   110157114.309       -5509.160          50.000  
 16  4  2 12 51 47.1000000  0  2G25G29
  23668352.781   124378033.246        8477.996          49.000  
  20962306.891   110157665.352       -5512.449          50.000  
 16  4  2 12 51 47.2000000  0  2G25G29
  23668191.469   124377185.535        8476.168          49.000  
  20962411.812   110158216.758       -5516.094          50.000  
 16  4  2 12 51 47.3000000  0  2G25G29
  23668030.195   124376338.035        8473.961          49.000  
  20962516.820   110158768.555       -5520.047          50.000  
 16  4  2 12 51 47.4000000  0  2G25G29
  23667868.953   124375490.727        8471.914          49.000  
  20962621.898   110159320.730       -5523.914          50.000  
 16  4  2 12 51 47.5000000  0  2G25G29
  23667707.758   124374643.621        8470.020          49.000  
  20962727.047   110159873.309       -5527.887          50.000  
 16  4  2 12 51 47.6000000  0  2G25G29
  23667546.594   124373796.699        8468.168          49.000  
  20962832.266   110160426.238       -5531.473          50.000  
 16  4  2 12 51 47.7000000  0  2G25G29
  23667385.469   124372949.961        8466.176          49.000  
  20962937.555   110160979.559       -5535.492          50.000  
 16  4  2 12 51 47.8000000  0  2G25G29
  23667224.375   124372103.406        8464.734          49.000  
  20963042.914   110161533.223       -5538.676          50.000  
 16  4  2 12 51 47.9000000  0  2G25G29
  23667063.320   124371257.031        8462.871          49.000  
  20963148.344   110162087.266       -5542.316          50.000  
 16  4  2 12 51 48.0000000  0  2G25G29
  23666902.289   124370410.840        8460.812          49.000  
  20963253.844   110162641.668       -5546.133          50.000  
 16  4  2 12 51 48.1000000  0  2G25G29
  23666741.289   124369564.770        8459.953          49.000  
  20963359.406   110163196.398       -5549.012          50.000  
 16  4  2 12 51 48.2000000  0  2G25G29
  23666580.312   124368718.852        8458.168          49.000  
  20963465.031   110163751.445       -5552.738          50.000  
 16  4  2 12 51 48.3000000  0  2G25G29
  23666419.383   124367873.141        8456.086          49.000  
  20963570.727   110164306.895       -5556.500          50.000  
 16  4  2 12 51 48.4000000  0  2G25G29
  23666258.484   124367027.602        8454.344          49.000  
  20963676.484   110164862.691       -5560.199          50.000  
 16  4  2 12 51 48.5000000  0  2G25G29
  23666097.617   124366182.273        8452.434          49.000  
  20963782.328   110165418.895       -5563.938          50.000  
 16  4  2 12 51 48.6000000  0  2G25G29
  23665936.781   124365337.086        8450.531          49.000  
  20963888.227   110165975.422       -5567.641          50.000  
 16  4  2 12 51 48.7000000  0  2G25G29
  23665775.992   124364492.137        8448.660          49.000  
  20963994.219   110166532.383       -5571.531          50.000  
 16  4  2 12 51 48.8000000  0  2G25G29
  23665615.234   124363647.383        8446.527          49.000  
  20964100.273   110167089.711       -5575.348          50.000  
 16  4  2 12 51 48.9000000  0  2G25G29
  23665454.516   124362802.785        8444.945          49.000  
  20964206.398   110167647.379       -5578.789          50.000  
 16  4  2 12 51 49.0000000  0  2G25G29
  23665293.820   124361958.352        8443.426          49.000  
  20964312.586   110168205.410       -5582.109          50.000  
 16  4  2 12 51 49.1000000  0  2G25G29
  23665133.148   124361114.047        8442.043          49.000  
  20964418.836   110168763.742       -5585.504          50.000  
 16  4  2 12 51 49.2000000  0  2G25G29
  23664972.523   124360269.953        8440.211          49.000  
  20964525.164   110169322.484       -5589.199          50.000  
 16  4  2 12 51 49.3000000  0  2G25G29
  23664811.930   124359425.996        8438.461          49.000  
  20964631.547   110169881.543       -5592.754          50.000  
 16  4  2 12 51 49.4000000  0  2G25G29
  23664651.367   124358582.254        8436.578          49.000  
  20964738.008   110170440.996       -5596.496          50.000  
 16  4  2 12 51 49.5000000  0  2G25G29
  23664490.844   124357738.703        8434.406          49.000  
  20964844.539   110171000.836       -5600.629          50.000  
 16  4  2 12 51 49.6000000  0  2G25G29
  23664330.367   124356895.371        8432.254          49.000  
  20964951.148   110171561.062       -5604.445          50.000  
 16  4  2 12 51 49.7000000  0  2G25G29
  23664169.914   124356052.238        8430.164          49.000  
  20965057.828   110172121.691       -5608.500          50.000  
 16  4  2 12 51 49.8000000  0  2G25G29
  23664009.500   124355209.242        8428.906          49.000  
  20965164.578   110172682.637       -5611.473          50.000  
 16  4  2 12 51 49.9000000  0  2G25G29
  23663849.117   124354366.445        8426.902          49.000  
  20965271.398   110173243.984       -5615.629          50.000  
 16  4  2 12 51 50.0000000  0  2G25G29
  23663688.773   124353523.824        8425.422          49.000  
  20965378.281   110173805.664       -5618.559          50.000  
 16  4  2 12 51 50.1000000  0  2G25G29
  23663528.445   124352681.297        8424.289          49.000  
  20965485.219   110174367.637       -5621.684          50.000  
 16  4  2 12 51 50.2000000  0  2G25G29
  23663368.156   124351838.961        8422.562          49.000  
  20965592.227   110174929.973       -5625.285          50.000  
 16  4  2 12 51 50.3000000  0  2G25G29
  23663207.891   124350996.781        8420.746          49.000  
  20965699.305   110175492.672       -5628.918          50.000  
 16  4  2 12 51 50.4000000  0  2G25G29
  23663047.672   124350154.820        8418.879          49.000  
  20965806.461   110176055.770       -5632.801          50.000  
 16  4  2 12 51 50.5000000  0  2G25G29
  23662887.469   124349312.984        8416.957          49.000  
  20965913.688   110176619.172       -5636.398          50.000  
 16  4  2 12 51 50.6000000  0  2G25G29
  23662727.328   124348471.406        8415.000          49.000  
  20966020.977   110177183.020       -5640.441          50.000  
 16  4  2 12 51 50.7000000  0  2G25G29
  23662567.195   124347629.938        8413.684          49.000  
  20966128.336   110177747.168       -5643.488          50.000  
 16  4  2 12 51 50.8000000  0  2G25G29
  23662407.117   124346788.715        8411.246          49.000  
  20966235.766   110178311.727       -5647.469          50.000  
 16  4  2 12 51 50.9000000  0  2G25G29
  23662247.070   124345947.656        8409.312          49.000  
  20966343.273   110178876.672       -5651.707          50.000  
 16  4  2 12 51 51.0000000  0  2G25G29
  23662087.070   124345106.855        8406.949          49.000  
  20966450.852   110179442.023       -5655.695          50.000  
 16  4  2 12 51 51.1000000  0  2G25G29
  23661927.109   124344266.180        8405.766          49.000  
  20966558.492   110180007.699       -5658.738          50.000  
 16  4  2 12 51 51.2000000  0  2G25G29
  23661767.156   124343425.645        8404.383          49.000  
  20966666.203   110180573.707       -5662.113          50.000  
 16  4  2 12 51 51.3000000  0  2G25G29
  23661607.242   124342585.312        8402.461          49.000  
  20966773.984   110181140.094       -5665.746          50.000  
 16  4  2 12 51 51.4000000  0  2G25G29
  23661447.352   124341745.098        8401.359          49.000  
  20966881.828   110181706.789       -5668.848          50.000  
 16  4  2 12 51 51.5000000  0  2G25G29
  23661287.508   124340905.109        8398.680          49.000  
  20966989.742   110182273.895       -5673.324          50.000  
 16  4  2 12 51 51.6000000  0  2G25G29
  23661127.711   124340065.371        8396.434          49.000  
  20967097.742   110182841.438       -5677.492          50.000  
 16  4  2 12 51 51.7000000  0  2G25G29
  23660967.938   124339225.766        8394.957          49.000  
  20967205.797   110183409.289       -5680.762          50.000  
 16  4  2 12 51 51.8000000  0  2G25G29
  23660808.203   124338386.375        8392.902          49.000  
  20967313.930   110183977.547       -5684.617          50.000  
 16  4  2 12 51 51.9000000  0  2G25G29
  23660648.500   124337547.176        8390.934          49.000  
  20967422.141   110184546.180       -5688.406          50.000  
 16  4  2 12 51 52.0000000  0  2G25G29
  23660488.836   124336708.113        8389.496          49.000  
  20967530.414   110185115.145       -5691.855          50.000  
 16  4  2 12 51 52.1000000  0  2G25G29
  23660329.211   124335869.297        8387.121          49.000  
  20967638.766   110185684.523       -5695.906          50.000  
 16  4  2 12 51 52.2000000  0  2G25G29
  23660169.617   124335030.617        8385.914          49.000  
  20967747.172   110186254.234       -5699.000          50.000  
 16  4  2 12 51 52.3000000  0  2G25G29
  23660010.062   124334192.125        8383.984          49.000  
  20967855.656   110186824.316       -5702.859          50.000  
 16  4  2 12 51 52.4000000  0  2G25G29
  23659850.539   124333353.805        8382.172          49.000  
  20967964.211   110187394.754       -5706.434          50.000  
 16  4  2 12 51 52.5000000  0  2G25G29
  23659691.031   124332515.668        8380.297          49.000  
  20968072.828   110187965.562       -5710.184          50.000  
 16  4  2 12 51 52.6000000  0  2G25G29
  23659531.570   124331677.660        8379.020          49.000  
  20968181.508   110188536.691       -5713.453          50.000  
 16  4  2 12 51 52.7000000  0  2G25G29
  23659372.148   124330839.879        8376.980          49.000  
  20968290.266   110189108.219       -5717.168          50.000  
 16  4  2 12 51 52.8000000  0  2G25G29
  23659212.750   124330002.242        8375.258          49.000  
  20968399.094   110189680.098       -5720.875          50.000  
 16  4  2 12 51 52.9000000  0  2G25G29
  23659053.391   124329164.777        8373.844          49.000  
  20968507.984   110190252.305       -5723.977          50.000  
 16  4  2 12 51 53.0000000  0  2G25G29
  23658894.062   124328327.480        8372.230          49.000  
  20968616.938   110190824.871       -5727.465          50.000  
 16  4  2 12 51 53.1000000  0  2G25G29
  23658734.758   124327490.367        8369.977          49.000  
  20968725.969   110191397.816       -5731.621          50.000  
 16  4  2 12 51 53.2000000  0  2G25G29
  23658575.492   124326653.402        8368.621          49.000  
  20968835.062   110191971.094       -5734.691          50.000  
 16  4  2 12 51 53.3000000  0  2G25G29
  23658416.273   124325816.703        8365.852          49.000  
  20968944.234   110192544.816       -5739.414          50.000  
 16  4  2 12 51 53.4000000  0  2G25G29
  23658257.078   124324980.141        8364.609          49.000  
  20969053.477   110193118.867       -5742.555          50.000  
 16  4  2 12 51 53.5000000  0  2G25G29
  23658097.922   124324143.746        8362.949          49.000  
  20969162.781   110193693.266       -5746.000          50.000  
 16  4  2 12 51 53.6000000  0  2G25G29
  23657938.797   124323307.527        8361.078          49.000  
  20969272.156   110194268.031       -5749.797          50.000  
 16  4  2 12 51 53.7000000  0  2G25G29
  23657779.711   124322471.543        8358.867          49.000  
  20969381.617   110194843.219       -5754.031          50.000  
 16  4  2 12 51 53.8000000  0  2G25G29
  23657620.672   124321635.797        8356.188          49.000  
  20969491.148   110195418.809       -5758.258          50.000  
 16  4  2 12 51 53.9000000  0  2G25G29
  23657461.656   124320800.211        8354.891          49.000  
  20969600.750   110195994.766       -5761.637          50.000  
 16  4  2 12 51 54.0000000  0  2G25G29
  23657302.680   124319964.750        8353.621          49.000  
  20969710.414   110196571.020       -5764.586          50.000  
 16  4  2 12 51 54.1000000  0  2G25G29
  23657143.734   124319129.496        8351.727          49.000  
  20969820.141   110197147.660       -5768.465          50.000  
 16  4  2 12 51 54.2000000  0  2G25G29
  23656984.828   124318294.438        8349.742          49.000  
  20969929.945   110197724.695       -5772.137          50.000  
 16  4  2 12 51 54.3000000  0  2G25G29
  23656825.938   124317459.465        8348.773          49.000  
  20970039.805   110198301.996       -5774.977          50.000  
 16  4  2 12 51 54.4000000  0  2G25G29
  23656667.094   124316624.746        8346.109          49.000  
  20970149.750   110198879.742       -5779.500          50.000  
 16  4  2 12 51 54.5000000  0  2G25G29
  23656508.289   124315790.238        8344.129          49.000  
  20970259.766   110199457.879       -5783.469          50.000  
 16  4  2 12 51 54.6000000  0  2G25G29
  23656349.523   124314955.902        8342.203          49.000  
  20970369.844   110200036.363       -5786.973          50.000  
 16  4  2 12 51 54.7000000  0  2G25G29
  23656190.789   124314121.754        8340.684          49.000  
  20970480.000   110200615.223       -5790.492          50.000  
 16  4  2 12 51 54.8000000  0  2G25G29
  23656032.078   124313287.719        8339.270          49.000  
  20970590.211   110201194.391       -5793.715          50.000  
 16  4  2 12 51 54.9000000  0  2G25G29
  23655873.406   124312453.863        8337.801          49.000  
  20970700.500   110201773.914       -5797.094          50.000  
 16  4  2 12 51 55.0000000  0  2G25G29
  23655714.766   124311620.207        8335.465          49.000  
  20970810.852   110202353.832       -5801.277          50.000  
 16  4  2 12 51 55.1000000  0  2G25G29
  23655556.164   124310786.758        8333.484          49.000  
  20970921.281   110202934.133       -5805.199          50.000  
 16  4  2 12 51 55.2000000  0  2G25G29
  23655397.586   124309953.418        8332.828          49.000  
  20971031.766   110203514.738       -5807.680          50.000  
 16  4  2 12 51 55.3000000  0  2G25G29
  23655239.039   124309120.270        8330.605          49.000  
  20971142.320   110204095.707       -5811.598          50.000  
 16  4  2 12 51 55.4000000  0  2G25G29
  23655080.531   124308287.312        8328.805          49.000  
  20971252.953   110204677.055       -5815.312          50.000  
 16  4  2 12 51 55.5000000  0  2G25G29
  23654922.039   124307454.434        8328.043          49.000  
  20971363.625   110205258.660       -5818.043          50.000  
 16  4  2 12 51 55.6000000  0  2G25G29
  23654763.586   124306621.766        8325.789          49.000  
  20971474.375   110205840.672       -5821.973          50.000  
 16  4  2 12 51 55.7000000  0  2G25G29
  23654605.172   124305789.301        8323.734          49.000  
  20971585.203   110206423.059       -5825.883          50.000  
 16  4  2 12 51 55.8000000  0  2G25G29
  23654446.797   124304957.023        8321.512          49.000  
  20971696.102   110207005.836       -5830.004          50.000  
 16  4  2 12 51 55.9000000  0  2G25G29
  23654288.461   124304124.965        8319.586          49.000  
  20971807.070   110207589.000       -5833.766          50.000  
 16  4  2 12 51 56.0000000  0  2G25G29
  23654130.164   124303293.094        8317.766          49.000  
  20971918.117   110208172.547       -5837.426          50.000  
 16  4  2 12 51 56.1000000  0  2G25G29
  23653971.898   124302461.398        8315.797          49.000  
  20972029.227   110208756.449       -5841.246          50.000  
 16  4  2 12 51 56.2000000  0  2G25G29
  23653813.656   124301629.836        8314.684          49.000  
  20972140.398   110209340.668       -5844.203          50.000  
 16  4  2 12 51 56.3000000  0  2G25G29
  23653655.453   124300798.457        8312.863          49.000  
  20972251.641   110209925.250       -5847.879          50.000  
 16  4  2 12 51 56.4000000  0  2G25G29
  23653497.289   124299967.289        8310.812          49.000  
  20972362.961   110210510.246       -5851.855          50.000  
 16  4  2 12 51 56.5000000  0  2G25G29
  23653339.148   124299136.285        8309.238          49.000  
  20972474.352   110211095.570       -5855.293          50.000  
 16  4  2 12 51 56.6000000  0  2G25G29
  23653181.047   124298305.449        8307.449          49.000  
  20972585.797   110211681.246       -5858.707          50.000  
 16  4  2 12 51 56.7000000  0  2G25G29
  23653022.969   124297474.770        8305.609          49.000  
  20972697.320   110212267.277       -5862.359          50.000  
 16  4  2 12 51 56.8000000  0  2G25G29
  23652864.930   124296644.289        8303.812          49.000  
  20972808.906   110212853.688       -5866.129          50.000  
 16  4  2 12 51 56.9000000  0  2G25G29
  23652706.945   124295814.066        8301.191          49.000  
  20972920.586   110213440.555       -5870.766          50.000  
 16  4  2 12 51 57.0000000  0  2G25G29
  23652548.992   124294984.008        8299.711          49.000  
  20973032.320   110214027.742       -5873.773          50.000  
 16  4  2 12 51 57.1000000  0  2G25G29
  23652391.055   124294154.035        8298.816          49.000  
  20973144.109   110214615.211       -5876.668          50.000  
 16  4  2 12 51 57.2000000  0  2G25G29
  23652233.156   124293324.250        8296.926          49.000  
  20973255.977   110215203.055       -5880.418          50.000  
 16  4  2 12 51 57.3000000  0  2G25G29
  23652075.281   124292494.625        8295.375          49.000  
  20973367.906   110215791.238       -5883.848          50.000  
 16  4  2 12 51 57.4000000  0  2G25G29
  23651917.453   124291665.203        8293.383          49.000  
  20973479.906   110216379.809       -5887.562          50.000  
 16  4  2 12 51 57.5000000  0  2G25G29
  23651759.648   124290835.977        8291.148          49.000  
  20973591.984   110216968.766       -5891.652          50.000  
 16  4  2 12 51 57.6000000  0  2G25G29
  23651601.891   124290006.934        8289.277          49.000  
  20973704.125   110217558.094       -5895.500          50.000  
 16  4  2 12 51 57.7000000  0  2G25G29
  23651444.164   124289178.062        8287.930          49.000  
  20973816.336   110218147.762       -5898.656          50.000  
 16  4  2 12 51 57.8000000  0  2G25G29
  23651286.461   124288349.352        8286.199          49.000  
  20973928.617   110218737.789       -5902.168          50.000  
 16  4  2 12 51 57.9000000  0  2G25G29
  23651128.789   124287520.824        8284.312          49.000  
  20974040.969   110219328.180       -5905.922          50.000  
 16  4  2 12 51 58.0000000  0  2G25G29
  23650971.164   124286692.488        8282.395          49.000  
  20974153.383   110219918.949       -5909.688          50.000  
 16  4  2 12 51 58.1000000  0  2G25G29
  23650813.555   124285864.297        8281.043          49.000  
  20974265.867   110220510.031       -5912.691          50.000  
 16  4  2 12 51 58.2000000  0  2G25G29
  23650655.977   124285036.211        8280.078          49.000  
  20974378.406   110221101.426       -5915.734          50.000  
 16  4  2 12 51 58.3000000  0  2G25G29
  23650498.438   124284208.340        8277.738          49.000  
  20974491.016   110221693.195       -5919.812          50.000  
 16  4  2 12 51 58.4000000  0  2G25G29
  23650340.938   124283380.656        8275.934          49.000  
  20974603.695   110222285.359       -5923.512          50.000  
 16  4  2 12 51 58.5000000  0  2G25G29
  23650183.469   124282553.145        8274.004          49.000  
  20974716.445   110222877.875       -5927.262          50.000  
 16  4  2 12 51 58.6000000  0  2G25G29
  23650026.047   124281725.875        8271.484          49.000  
  20974829.273   110223470.805       -5931.543          50.000  
 16  4  2 12 51 58.7000000  0  2G25G29
  23649868.656   124280898.781        8269.980          49.000  
  20974942.180   110224064.105       -5934.914          50.000  
 16  4  2 12 51 58.8000000  0  2G25G29
  23649711.289   124280071.820        8268.656          49.000  
  20975055.141   110224657.719       -5938.168          50.000  
 16  4  2 12 51 58.9000000  0  2G25G29
  23649553.953   124279245.012        8267.266          49.000  
  20975168.172   110225251.668       -5941.289          50.000  
 16  4  2 12 51 59.0000000  0  2G25G29
  23649396.641   124278418.355        8265.570          49.000  
  20975281.258   110225845.953       -5944.820          50.000  
 16  4  2 12 51 59.1000000  0  2G25G29
  23649239.367   124277591.895        8263.699          49.000  
  20975394.414   110226440.625       -5948.656          50.000  
 16  4  2 12 51 59.2000000  0  2G25G29
  23649082.141   124276765.645        8261.539          49.000  
  20975507.656   110227035.684       -5952.727          50.000  
 16  4  2 12 51 59.3000000  0  2G25G29
  23648924.930   124275939.551        8260.047          49.000  
  20975620.953   110227631.090       -5955.992          50.000  
 16  4  2 12 51 59.4000000  0  2G25G29
  23648767.758   124275113.613        8258.199          49.000  
  20975734.320   110228226.836       -5959.730          50.000  
 16  4  2 12 51 59.5000000  0  2G25G29
  23648610.641   124274287.965        8255.352          49.000  
  20975847.773   110228823.039       -5964.234          50.000  
 16  4  2 12 51 59.6000000  0  2G25G29
  23648453.555   124273462.473        8253.848          49.000  
  20975961.297   110229419.605       -5967.828          50.000  
 16  4  2 12 51 59.7000000  0  2G25G29
  23648296.508   124272637.168        8252.043          49.000  
  20976074.891   110230016.527       -5971.289          50.000  
 16  4  2 12 51 59.8000000  0  2G25G29
  23648139.477   124271811.984        8250.926          49.000  
  20976188.539   110230613.758       -5974.355          50.000  
 16  4  2 12 51 59.9000000  0  2G25G29
  23647982.484   124270986.961        8249.379          49.000  
  20976302.258   110231211.344       -5977.703          50.000  
 16  4  2 12 52  0.0000000  0  2G25G29
  23647825.539   124270162.180        8246.844          49.000  
  20976416.047   110231809.344       -5981.938          50.000  
 16  4  2 12 52  0.1000000  0  2G25G29
  23647668.617   124269337.582        8244.973          49.000  
  20976529.914   110232407.707       -5985.656          50.000  
 16  4  2 12 52  0.2000000  0  2G25G29
  23647511.727   124268513.125        8243.480          49.000  
  20976643.844   110233006.398       -5989.078          50.000  
 16  4  2 12 52  0.3000000  0  2G25G29
  23647354.859   124267688.801        8242.039          49.000  
  20976757.836   110233605.422       -5992.559          50.000  
 16  4  2 12 52  0.4000000  0  2G25G29
  23647198.055   124266864.773        8239.359          49.000  
  20976871.914   110234204.910       -5996.906          50.000  
 16  4  2 12 52  0.5000000  0  2G25G29
  23647041.273   124266040.895        8237.805          49.000  
  20976986.055   110234804.730       -6000.145          50.000  
 16  4  2 12 52  0.6000000  0  2G25G29
  23646884.523   124265217.172        8236.281          49.000  
  20977100.266   110235404.906       -6003.777          50.000  
 16  4  2 12 52  0.7000000  0  2G25G29
  23646727.812   124264393.652        8234.168          49.000  
  20977214.547   110236005.449       -6007.566          50.000  
 16  4  2 12 52  0.8000000  0  2G25G29
  23646571.133   124263570.312        8232.488          49.000  
  20977328.898   110236606.367       -6011.117          50.000  
 16  4  2 12 52  0.9000000  0  2G25G29
  23646414.492   124262747.172        8230.414          49.000  
  20977443.312   110237207.664       -6015.062          50.000  
 16  4  2 12 52  1.0000000  0  2G25G29
  23646257.891   124261924.215        8228.477          49.000  
  20977557.812   110237809.324       -6018.766          50.000  
 16  4  2 12 52  1.1000000  0  2G25G29
  23646101.320   124261101.391        8227.207          49.000  
  20977672.367   110238411.320       -6021.898          50.000  
 16  4  2 12 52  1.2000000  0  2G25G29
  23645944.781   124260278.770        8225.395          49.000  
  20977786.992   110239013.680       -6025.574          50.000  
 16  4  2 12 52  1.3000000  0  2G25G29
  23645788.266   124259456.289        8223.711          49.000  
  20977901.680   110239616.375       -6029.074          50.000  
 16  4  2 12 52  1.4000000  0  2G25G29
  23645631.797   124258634.020        8221.691          49.000  
  20978016.445   110240219.477       -6033.066          50.000  
 16  4  2 12 52  1.5000000  0  2G25G29
  23645475.359   124257811.957        8219.676          49.000  
  20978131.281   110240822.945       -6036.664          50.000  
 16  4  2 12 52  1.6000000  0  2G25G29
  23645318.945   124256990.000        8218.602          49.000  
  20978246.180   110241426.711       -6039.715          50.000  
 16  4  2 12 52  1.7000000  0  2G25G29
  23645162.562   124256168.188        8217.188          49.000  
  20978361.133   110242030.816       -6043.016          50.000  
 16  4  2 12 52  1.8000000  0  2G25G29
  23645006.211   124255346.590        8215.121          49.000  
  20978476.164   110242635.301       -6046.836          50.000  
 16  4  2 12 52  1.9000000  0  2G25G29
  23644849.898   124254525.160        8213.375          49.000  
  20978591.266   110243240.156       -6050.527          50.000  
 16  4  2 12 52  2.0000000  0  2G25G29
  23644693.617   124253703.922        8211.383          49.000  
  20978706.438   110243845.375       -6054.250          50.000  
 16  4  2 12 52  2.1000000  0  2G25G29
  23644537.375   124252882.855        8209.621          49.000  
  20978821.672   110244450.957       -6057.934          50.000  
 16  4  2 12 52  2.2000000  0  2G25G29
  23644381.172   124252061.988        8207.738          49.000  
  20978936.984   110245056.918       -6061.609          50.000  
 16  4  2 12 52  2.3000000  0  2G25G29
  23644225.000   124251241.312        8205.719          49.000  
  20979052.367   110245663.242       -6065.512          50.000  
 16  4  2 12 52  2.4000000  0  2G25G29
  23644068.852   124250420.746        8204.809          49.000  
  20979167.805   110246269.879       -6068.246          50.000  
 16  4  2 12 52  2.5000000  0  2G25G29
  23643912.742   124249600.402        8202.402          49.000  
  20979283.320   110246876.918       -6072.426          50.000  
 16  4  2 12 52  2.6000000  0  2G25G29
  23643756.680   124248780.270        8200.266          49.000  
  20979398.906   110247484.340       -6076.395          50.000  
 16  4  2 12 52  2.7000000  0  2G25G29
  23643600.648   124247960.312        8198.543          49.000  
  20979514.570   110248092.137       -6080.082          50.000  
 16  4  2 12 52  2.8000000  0  2G25G29
  23643444.648   124247140.512        8197.152          49.000  
  20979630.297   110248700.262       -6083.148          50.000  
 16  4  2 12 52  2.9000000  0  2G25G29
  23643288.688   124246320.938        8194.562          49.000  
  20979746.094   110249308.793       -6087.547          50.000  
 16  4  2 12 52  3.0000000  0  2G25G29
  23643132.758   124245501.535        8192.824          49.000  
  20979861.961   110249917.688       -6091.035          50.000  
 16  4  2 12 52  3.1000000  0  2G25G29
  23642976.883   124244682.328        8191.125          49.000  
  20979977.906   110250526.969       -6094.828          50.000  
 16  4  2 12 52  3.2000000  0  2G25G29
  23642821.023   124243863.277        8189.316          49.000  
  20980093.914   110251136.570       -6098.324          50.000  
 16  4  2 12 52  3.3000000  0  2G25G29
  23642665.203   124243044.418        8187.785          49.000  
  20980209.992   110251746.570       -6101.734          50.000  
 16  4  2 12 52  3.4000000  0  2G25G29
  23642509.398   124242225.664        8186.770          49.000  
  20980326.125   110252356.836       -6104.441          50.000  
 16  4  2 12 52  3.5000000  0  2G25G29
  23642353.625   124241407.090        8184.906          49.000  
  20980442.328   110252967.484       -6108.309          50.000  
 16  4  2 12 52  3.6000000  0  2G25G29
  23642197.891   124240588.719        8182.840          49.000  
  20980558.594   110253578.500       -6112.164          50.000  
 16  4  2 12 52  3.7000000  0  2G25G29
  23642042.195   124239770.508        8180.961          49.000  
  20980674.938   110254189.875       -6115.895          50.000  
 16  4  2 12 52  3.8000000  0  2G25G29
  23641886.547   124238952.578        8178.047          49.000  
  20980791.367   110254801.711       -6120.660          50.000  
 16  4  2 12 52  3.9000000  0  2G25G29
  23641730.938   124238134.832        8176.383          49.000  
  20980907.867   110255413.910       -6124.273          50.000  
 16  4  2 12 52  4.0000000  0  2G25G29
  23641575.359   124237317.254        8174.781          49.000  
  20981024.430   110256026.465       -6127.594          50.000  
 16  4  2 12 52  4.1000000  0  2G25G29
  23641419.805   124236499.793        8173.582          49.000  
  20981141.055   110256639.312       -6130.578          50.000  
 16  4  2 12 52  4.2000000  0  2G25G29
  23641264.289   124235682.547        8171.465          49.000  
  20981257.750   110257252.574       -6134.680          50.000  
 16  4  2 12 52  4.3000000  0  2G25G29
  23641108.812   124234865.496        8169.602          49.000  
  20981374.523   110257866.203       -6138.273          50.000  
 16  4  2 12 52  4.4000000  0  2G25G29
  23640953.359   124234048.594        8168.188          49.000  
  20981491.352   110258480.164       -6141.613          50.000  
 16  4  2 12 52  4.5000000  0  2G25G29
  23640797.938   124233231.855        8166.336          49.000  
  20981608.250   110259094.473       -6145.191          50.000  
 16  4  2 12 52  4.6000000  0  2G25G29
  23640642.547   124232415.301        8164.746          49.000  
  20981725.219   110259709.141       -6148.523          50.000  
 16  4  2 12 52  4.7000000  0  2G25G29
  23640487.195   124231598.902        8162.844          49.000  
  20981842.258   110260324.172       -6152.488          50.000  
 16  4  2 12 52  4.8000000  0  2G25G29
  23640331.891   124230782.770        8160.102          49.000  
  20981959.375   110260939.621       -6156.844          50.000  
 16  4  2 12 52  4.9000000  0  2G25G29
  23640176.617   124229966.824        8158.520          49.000  
  20982076.562   110261555.465       -6160.395          50.000  
 16  4  2 12 52  5.0000000  0  2G25G29
  23640021.367   124229150.988        8157.531          49.000  
  20982193.805   110262171.586       -6163.168          50.000  
 16  4  2 12 52  5.1000000  0  2G25G29
  23639866.156   124228335.363        8155.387          49.000  
  20982311.125   110262788.113       -6167.145          50.000  
 16  4  2 12 52  5.2000000  0  2G25G29
  23639710.984   124227519.910        8153.660          49.000  
  20982428.516   110263404.984       -6170.570          50.000  
 16  4  2 12 52  5.3000000  0  2G25G29
  23639555.812   124226704.520        8152.820          49.000  
  20982545.953   110264022.113       -6173.480          50.000  
 16  4  2 12 52  5.4000000  0  2G25G29
  23639400.703   124225889.375        8150.609          49.000  
  20982663.461   110264639.660       -6177.383          50.000  
