     2.10           OBSERVATION DATA    G (GPS)             RINEX VERSION / TYPE
Convert v1.8.0                          09-Jun-2016 15:03   PGM / RUN BY / DATE 
Signal Strength values S1,S2 are in dBHz                    COMMENT             
                                                            MARKER NAME         
                                                            MARKER NUMBER       
                                                            OBSERVER / AGENCY   
                    NovAtel GPSCard                         REC # / TYPE / VERS 
                                                            ANT # / TYPE        
0.0000        0.0000        0.0000                          APPROX POSITION XYZ 
        0.0000        0.0000        0.0000                  ANTENNA: DELTA H/E/N
     1     0                                                WAVELENGTH FACT L1/2
     1     0     5   G04   G07   G09   G16   G26            WAVELENGTH FACT L1/2
                                                            COMMENT             
                                                            COMMENT             
                                                            COMMENT             
                                                            COMMENT             
                                                            COMMENT             
                                                            COMMENT             
     4    C1    L1    D1    S1                              # / TYPES OF OBSERV 
     0.100                                                  INTERVAL            
  2016    04    02    14    11     7.3000000    GPS         TIME OF FIRST OBS   
  2016    04    02    14    13    23.6000000    GPS         TIME OF LAST OBS    
Leap Seconds Unknown                                        COMMENT             
                                                            END OF HEADER       
 16 04 02 14 11  7.3000000  0  1G09                                             
  22508733.39849 118284191.53159      3213.42649        49.000  
 16 04 02 14 11  7.4000000  0  1G09                                             
  22508672.30549 118283870.51249      3207.00049        49.000  
 16 04 02 14 11  7.5000000  0  1G09                                             
  22508611.34449 118283550.14149      3200.42649        49.000  
 16 04 02 14 11  7.6000000  0  1G09                                             
  22508550.50049 118283230.41449      3193.87549        49.000  
 16 04 02 14 11  7.7000000  0  2G09G16                                          
  22508489.79749 118282911.37549      3187.09049        49.000  
  22176348.37549 116537495.94959     10015.79349        49.000  
 16 04 02 14 11  7.8000000  0  2G09G16                                          
  22508429.20349 118282592.95349      3180.91449        49.000  
  22176157.82049 116536494.56649     10011.48849        49.000  
 16 04 02 14 11  7.9000000  0  2G09G16                                          
  22508368.73449 118282275.18849      3174.09849        49.000  
  22175967.39849 116535493.65649     10006.63349        49.000  
 16 04 02 14 11  8.0000000  0  2G09G16                                          
  22508308.39849 118281958.10949      3167.51649        49.000  
  22175777.02349 116534493.25849     10001.75049        49.000  
 16 04 02 14 11  8.1000000  0  2G09G16                                          
  22508248.17249 118281641.62949      3161.35249        49.000  
  22175586.78149 116533493.27749      9997.32049        49.000  
 16 04 02 14 11  8.2000000  0  2G09G16                                          
  22508188.07049 118281325.80549      3154.87149        49.000  
  22175396.57849 116532493.75849      9992.82849        49.000  
 16 04 02 14 11  8.3000000  0  2G09G16                                          
  22508128.10249 118281010.64549      3148.36349        49.000  
  22175206.50049 116531494.73049      9987.97749        49.000  
 16 04 02 14 11  8.4000000  0  2G09G16                                          
  22508068.25049 118280696.10949      3142.13749        49.000  
  22175016.46949 116530496.13749      9983.66449        49.000  
 16 04 02 14 11  8.5000000  0  2G09G16                                          
  22508008.52349 118280382.23449      3135.42649        49.000  
  22174826.43849 116529498.01249      9978.93449        49.000  
 16 04 02 14 11  8.6000000  0  2G09G16                                          
  22507948.90649 118280068.92649      3129.89549        49.000  
  22174636.57049 116528500.28549      9975.04349        49.000  
 16 04 02 14 11  8.7000000  0  2G09G16                                          
  22507889.43049 118279756.34049      3122.69949        49.000  
  22174446.79749 116527503.08249      9969.90249        49.000  
 16 04 02 14 11  8.8000000  0  2G09G16                                          
  22507830.06249 118279444.37549      3116.20349        49.000  
  22174257.11749 116526506.33649      9965.02349        49.000  
 16 04 02 14 11  8.9000000  0  2G09G16                                          
  22507770.82049 118279133.08649      3109.51249        49.000  
  22174067.53949 116525510.05949      9960.43449        49.000  
 16 04 02 14 11  9.0000000  0  2G09G16                                          
  22507711.71149 118278822.46149      3102.80949        49.000  
  22173878.04749 116524514.27349      9955.47749        49.000  
 16 04 02 14 11  9.1000000  0  2G09G16                                          
  22507652.72749 118278512.48049      3096.54749        49.000  
  22173688.66449 116523518.96949      9950.77749        49.000  
 16 04 02 14 11  9.2000000  0  2G09G16                                          
  22507593.85249 118278203.08649      3090.63749        49.000  
  22173499.33649 116522524.03149      9946.92249        49.000  
 16 04 02 14 11  9.3000000  0  2G09G16                                          
  22507535.11749 118277894.43849      3083.05149        49.000  
  22173310.10949 116521529.67249      9941.24249        49.000  
 16 04 02 14 11  9.4000000  0  2G09G16                                          
  22507476.51649 118277586.46549      3076.29349        49.000  
  22173120.97749 116520535.80549      9936.24649        49.000  
 16 04 02 14 11  9.5000000  0  2G09G16                                          
  22507418.01649 118277279.03949      3070.93849        49.000  
  22172931.88349 116519542.31249      9932.58249        49.000  
 16 04 02 14 11  9.6000000  0  2G09G16                                          
  22507359.64149 118276972.27349      3064.43849        49.000  
  22172742.91449 116518549.28149      9927.99249        49.000  
 16 04 02 14 11  9.7000000  0  2G09G16                                          
  22507301.37549 118276666.14849      3058.11749        49.000  
  22172554.03149 116517556.71549      9923.52749        49.000  
 16 04 02 14 11  9.8000000  0  2G09G16                                          
  22507243.25049 118276360.67649      3051.38349        49.000  
  22172365.24249 116516564.61749      9918.67249        49.000  
 16 04 02 14 11  9.9000000  0  2G09G16                                          
  22507185.24249 118276055.86749      3044.67649        49.000  
  22172176.55549 116515572.98449      9913.94149        49.000  
 16 04 02 14 11 10.0000000  0  2G09G16                                          
  22507127.36749 118275751.71949      3038.17649        49.000  
  22171987.94549 116514581.84849      9909.04349        49.000  
 16 04 02 14 11 10.1000000  0  2G09G16                                          
  22507069.60949 118275448.18049      3032.01249        49.000  
  22171799.41449 116513591.13349      9904.75049        49.000  
 16 04 02 14 11 10.2000000  0  2G09G16                                          
  22507011.96949 118275145.30949      3025.55949        49.000  
  22171610.97749 116512600.89549      9900.13749        49.000  
 16 04 02 14 11 10.3000000  0  2G09G16                                          
  22506954.46149 118274843.09049      3018.80949        49.000  
  22171422.64849 116511611.13349      9895.23049        49.000  
 16 04 02 14 11 10.4000000  0  2G09G16                                          
  22506897.07049 118274541.49649      3012.57849        49.000  
  22171234.39149 116510621.81249      9890.80949        49.000  
 16 04 02 14 11 10.5000000  0  2G09G16                                          
  22506839.82049 118274240.59449      3005.59849        49.000  
  22171046.21949 116509633.00049      9885.64149        49.000  
 16 04 02 14 11 10.6000000  0  2G09G16                                          
  22506782.68849 118273940.37949      2998.75049        49.000  
  22170858.14849 116508644.68849      9880.66049        49.000  
 16 04 02 14 11 10.7000000  0  2G09G16                                          
  22506725.68049 118273640.77349      2992.68449        49.000  
  22170670.16449 116507656.80149      9876.39149        49.000  
 16 04 02 14 11 10.8000000  0  2G09G16                                          
  22506668.78949 118273341.82849      2986.12949        49.000  
  22170482.26649 116506669.39549      9871.77349        49.000  
 16 04 02 14 11 10.9000000  0  2G09G16                                          
  22506612.03149 118273043.53149      2979.69949        49.000  
  22170294.46149 116505682.44949      9867.05549        49.000  
 16 04 02 14 11 11.0000000  0  2G09G16                                          
  22506555.39149 118272745.90649      2972.86749        50.000  
  22170106.74249 116504695.98849      9862.20349        49.000  
 16 04 02 14 11 11.1000000  0  2G09G16                                          
  22506498.88349 118272448.90249      2966.77049        50.000  
  22169919.10949 116503709.98049      9857.88749        49.000  
 16 04 02 14 11 11.2000000  0  2G09G16                                          
  22506442.47749 118272152.50449      2960.70349        50.000  
  22169731.55549 116502724.38349      9853.68049        49.000  
 16 04 02 14 11 11.3000000  0  2G09G16                                          
  22506386.21949 118271856.82849      2953.42649        50.000  
  22169544.12549 116501739.32449      9848.20749        49.000  
 16 04 02 14 11 11.4000000  0  2G09G16                                          
  22506330.07049 118271561.76249      2947.14549        49.000  
  22169356.75849 116500754.69549      9843.82049        49.000  
 16 04 02 14 11 11.5000000  0  2G09G16                                          
  22506274.05549 118271267.38349      2940.25849        49.000  
  22169169.49249 116499770.57449      9838.69149        49.000  
 16 04 02 14 11 11.6000000  0  2G09G16                                          
  22506218.15649 118270973.62149      2934.43849        49.000  
  22168982.30549 116498786.87949      9834.74249        49.000  
 16 04 02 14 11 11.7000000  0  2G09G16                                          
  22506162.38349 118270680.51249      2927.80149        49.000  
  22168795.22749 116497803.65649      9829.91449        49.000  
 16 04 02 14 11 11.8000000  0  2G09G16                                          
  22506106.72749 118270388.04749      2921.07449        49.000  
  22168608.21949 116496820.90249      9825.00049        49.000  
 16 04 02 14 11 11.9000000  0  2G09G16                                          
  22506051.19549 118270096.26649      2914.64849        49.000  
  22168421.31249 116495838.63349      9820.52749        49.000  
 16 04 02 14 11 12.0000000  0  2G09G16                                          
  22505995.78949 118269805.08649      2908.39149        49.000  
  22168234.47749 116494856.78949      9815.99249        49.000  
 16 04 02 14 11 12.1000000  0  2G09G16                                          
  22505940.51649 118269514.58249      2901.53549        49.000  
  22168047.71149 116493875.44149      9811.03549        49.000  
 16 04 02 14 11 12.2000000  0  2G09G16                                          
  22505885.35249 118269224.69949      2895.68849        49.000  
  22167861.05549 116492894.53149      9806.93049        49.000  
 16 04 02 14 11 12.3000000  0  2G09G16                                          
  22505830.31249 118268935.43849      2889.39849        49.000  
  22167674.47749 116491914.05549      9802.50049        49.000  
 16 04 02 14 11 12.4000000  0  2G09G16                                          
  22505775.39149 118268646.83649      2882.68849        49.000  
  22167487.99249 116490934.04349      9797.81649        49.000  
 16 04 02 14 11 12.5000000  0  2G09G16                                          
  22505720.60249 118268358.85549      2876.61749        49.000  
  22167301.57049 116489954.50049      9793.26649        49.000  
 16 04 02 14 11 12.6000000  0  2G09G16                                          
  22505665.93049 118268071.55949      2869.52049        49.000  
  22167115.25849 116488975.42249      9788.25849        49.000  
 16 04 02 14 11 12.7000000  0  2G09G16                                          
  22505611.37549 118267784.86749      2863.80149        49.000  
  22166929.03149 116487996.79349      9784.24649        49.000  
 16 04 02 14 11 12.8000000  0  2G09G16                                          
  22505556.93849 118267498.81249      2857.05149        49.000  
  22166742.89149 116487018.61749      9779.24249        49.000  
 16 04 02 14 11 12.9000000  0  2G09G16                                          
  22505502.64149 118267213.46149      2850.30949        49.000  
  22166556.85949 116486040.94149      9774.50449        49.000  
 16 04 02 14 11 13.0000000  0  2G09G16                                          
  22505448.46149 118266928.73049      2843.68449        49.000  
  22166370.89849 116485063.71549      9769.76249        49.000  
 16 04 02 14 11 13.1000000  0  2G09G16                                          
  22505394.41449 118266644.69949      2836.90249        49.000  
  22166185.02349 116484087.00449      9764.61349        49.000  
 16 04 02 14 11 13.2000000  0  2G09G16                                          
  22505340.47749 118266361.28949      2830.96949        49.000  
  22165999.24249 116483110.73049      9760.51249        49.000  
 16 04 02 14 11 13.3000000  0  2G09G16                                          
  22505286.66449 118266078.47749      2824.85249        49.000  
  22165813.54749 116482134.86749      9756.32049        49.000  
 16 04 02 14 11 13.4000000  0  2G09G16                                          
  22505232.97749 118265796.32849      2818.37149        49.000  
  22165627.93849 116481159.49249      9751.70749        49.000  
 16 04 02 14 11 13.5000000  0  2G09G16                                          
  22505179.39849 118265514.82849      2811.70349        49.000  
  22165442.42249 116480184.57849      9746.85549        49.000  
 16 04 02 14 11 13.6000000  0  2G09G16                                          
  22505125.95349 118265233.97749      2805.01649        49.000  
  22165256.98449 116479210.12949      9741.99249        49.000  
 16 04 02 14 11 13.7000000  0  3G07G09G16                                       
  24294834.40649 127670215.82459     13636.82849        49.000  
  22505072.64149 118264953.84449      2797.90249        49.000  
  22165071.64849 116478236.22349      9736.62549        49.000  
 16 04 02 14 11 13.8000000  0  3G07G09G16                                       
  24294574.93849 127668852.30949     13633.55949        49.000  
  22505019.46149 118264674.35249      2791.63349        49.000  
  22164886.40649 116477262.76249      9732.28549        49.000  
 16 04 02 14 11 13.9000000  0  3G07G09G16                                       
  24294315.53949 127667489.13749     13630.03149        49.000  
  22504966.40649 118264395.52349      2784.89849        49.000  
  22164701.25049 116476289.77749      9727.41449        49.000  
 16 04 02 14 11 14.0000000  0  3G07G09G16                                       
  24294056.20349 127666126.32049     13626.53549        49.000  
  22504913.46949 118264117.35549      2778.26249        49.000  
  22164516.18849 116475317.28549      9722.58649        49.000  
 16 04 02 14 11 14.1000000  0  3G07G09G16                                       
  24293796.95349 127664763.82449     13623.43849        49.000  
  22504860.65649 118263839.81249      2772.14549        49.000  
  22164331.19549 116474345.23049      9718.17249        49.000  
 16 04 02 14 11 14.2000000  0  3G07G09G16                                       
  24293537.73449 127663401.64149     13620.37149        49.000  
  22504807.96149 118263562.89849      2765.98449        49.000  
  22164146.30549 116473373.61349      9714.03549        49.000  
 16 04 02 14 11 14.3000000  0  3G07G09G16                                       
  24293278.59449 127662039.71949     13617.64149        49.000  
  22504755.36749 118263286.55549      2760.22749        49.000  
  22163961.47749 116472402.40249      9709.86349        49.000  
 16 04 02 14 11 14.4000000  0  3G07G09G16                                       
  24293019.50049 127660678.17249     13614.02349        49.000  
  22504702.91449 118263010.90649      2753.43049        49.000  
  22163776.75849 116471431.68049      9705.08249        49.000  
 16 04 02 14 11 14.5000000  0  3G07G09G16                                       
  24292760.46949 127659316.93449     13610.88349        49.000  
  22504650.57849 118262735.87149      2747.09849        49.000  
  22163592.10949 116470461.40249      9700.53949        49.000  
 16 04 02 14 11 14.6000000  0  3G07G09G16                                       
  24292501.50049 127657956.06249     13607.18849        49.000  
  22504598.37549 118262461.51249      2740.20749        49.000  
  22163407.56249 116469491.60949      9695.62549        49.000  
 16 04 02 14 11 14.7000000  0  3G07G09G16                                       
  24292242.61749 127656595.55149     13603.46949        49.000  
  22504546.29749 118262187.82049      2733.51249        49.000  
  22163223.10949 116468522.32049      9690.44149        49.000  
 16 04 02 14 11 14.8000000  0  3G07G09G16                                       
  24291983.78149 127655235.38349     13600.10249        49.000  
  22504494.33649 118261914.78549      2727.16449        49.000  
  22163038.74249 116467553.48449      9686.03549        49.000  
 16 04 02 14 11 14.9000000  0  3G07G09G16                                       
  24291725.00849 127653875.53949     13596.78549        49.000  
  22504442.50849 118261642.39549      2720.58649        49.000  
  22162854.44549 116466585.11349      9681.30149        49.000  
 16 04 02 14 11 15.0000000  0  3G07G09G16                                       
  24291466.31249 127652516.07849     13593.09849        49.000  
  22504390.80549 118261370.68449      2713.83249        49.000  
  22162670.26649 116465617.23849      9676.44149        49.000  
 16 04 02 14 11 15.1000000  0  3G07G09G16                                       
  24291207.66449 127651156.86349     13590.48049        49.000  
  22504339.21149 118261099.54749      2708.02349        49.000  
  22162486.16449 116464649.75449      9672.39149        49.000  
 16 04 02 14 11 15.2000000  0  3G07G09G16                                       
  24290949.08649 127649798.01649     13587.09049        49.000  
  22504287.74249 118260829.07449      2701.63349        49.000  
  22162302.14849 116463682.74649      9667.94949        49.000  
 16 04 02 14 11 15.3000000  0  3G07G09G16                                       
  24290690.55549 127648439.53949     13583.03949        49.000  
  22504236.40649 118260559.28549      2694.41849        49.000  
  22162118.22749 116462716.25049      9662.52049        49.000  
 16 04 02 14 11 15.4000000  0  3G07G09G16                                       
  24290432.10949 127647081.39849     13579.64149        49.000  
  22504185.18849 118260290.14849      2687.97749        49.000  
  22161934.39149 116461750.21549      9657.83649        49.000  
 16 04 02 14 11 15.5000000  0  3G07G09G16                                       
  24290173.74249 127645723.60549     13576.21949        49.000  
  22504134.10249 118260021.67249      2681.37149        49.000  
  22161750.64849 116460784.65249      9653.14549        49.000  
 16 04 02 14 11 15.6000000  0  3G07G09G16                                       
  24289915.43849 127644366.22349     13572.25849        49.000  
  22504083.14849 118259753.91449      2674.27749        49.000  
  22161567.00849 116459819.64549      9647.85949        49.000  
 16 04 02 14 11 15.7000000  0  3G07G09G16                                       
  24289657.15649 127643009.05949     13570.05949        49.000  
  22504032.29749 118259486.68849      2669.00449        49.000  
  22161383.43849 116458854.96549      9644.54749        49.000  
 16 04 02 14 11 15.8000000  0  3G07G09G16                                       
  24289398.96149 127641652.25049     13566.55549        49.000  
  22503981.57049 118259220.10949      2662.51649        49.000  
  22161199.96149 116457890.77349      9639.60549        49.000  
 16 04 02 14 11 15.9000000  0  3G07G09G16                                       
  24289140.86749 127640295.84049     13562.55149        49.000  
  22503930.97749 118258954.27049      2655.13349        49.000  
  22161016.60949 116456927.11749      9634.28549        49.000  
 16 04 02 14 11 16.0000000  0  3G07G09G16                                       
  24288882.81249 127638939.76649     13559.14549        49.000  
  22503880.50849 118258689.04749      2648.80949        49.000  
  22160833.31249 116455963.91049      9629.75449        49.000  
 16 04 02 14 11 16.1000000  0  3G07G09G16                                       
  24288624.78149 127637583.98449     13556.24649        49.000  
  22503830.14849 118258424.45349      2642.77049        49.000  
  22160650.10949 116455001.12949      9625.44549        49.000  
 16 04 02 14 11 16.2000000  0  3G07G09G16                                       
  24288366.84449 127636228.51649     13553.23849        49.000  
  22503779.91449 118258160.46949      2636.65249        49.000  
  22160466.97749 116454038.78149      9621.25449        49.000  
 16 04 02 14 11 16.3000000  0  3G07G09G16                                       
  24288108.91449 127634873.33249     13550.43449        49.000  
  22503729.80549 118257897.09049      2630.60549        49.000  
  22160283.93049 116453076.86349      9616.96549        49.000  
 16 04 02 14 11 16.4000000  0  3G07G09G16                                       
  24287851.10249 127633518.51249     13546.66449        49.000  
  22503679.81249 118257634.36749      2623.87149        49.000  
  22160100.96949 116452115.42249      9612.04749        49.000  
 16 04 02 14 11 16.5000000  0  3G07G09G16                                       
  24287593.35949 127632164.05149     13542.91449        49.000  
  22503629.96149 118257372.32849      2616.96149        49.000  
  22159918.10949 116451154.46149      9607.17649        49.000  
 16 04 02 14 11 16.6000000  0  3G07G09G16                                       
  24287335.68049 127630809.96149     13539.23449        49.000  
  22503580.22749 118257110.97749      2610.08649        49.000  
  22159735.34449 116450194.01649      9601.99249        49.000  
 16 04 02 14 11 16.7000000  0  3G07G09G16                                       
  24287078.07049 127629456.17649     13536.24649        49.000  
  22503530.60249 118256850.23049      2604.09049        49.000  
  22159552.66449 116449234.00049      9597.76249        49.000  
 16 04 02 14 11 16.8000000  0  3G07G09G16                                       
  24286820.53149 127628102.80149     13532.16049        49.000  
  22503481.11749 118256590.20349      2596.89849        49.000  
  22159370.07849 116448274.50849      9592.55149        49.000  
 16 04 02 14 11 16.9000000  0  3G07G09G16                                       
  24286563.05549 127626749.73449     13529.02749        49.000  
  22503431.76649 118256330.79749      2590.78949        49.000  
  22159187.58649 116447315.46149      9588.12949        49.000  
 16 04 02 14 11 17.0000000  0  3G07G09G16                                       
  24286305.63349 127625396.98849     13525.92649        49.000  
  22503382.51649 118256072.01649      2584.48049        49.000  
  22159005.16449 116446356.85549      9583.79349        49.000  
 16 04 02 14 11 17.1000000  0  3G07G09G16                                       
  24286048.26649 127624044.55149     13522.71949        49.000  
  22503333.39149 118255813.86349      2578.14849        49.000  
  22158822.80549 116445398.68449      9579.37549        49.000  
 16 04 02 14 11 17.2000000  0  3G07G09G16                                       
  24285790.96949 127622692.44949     13519.33249        49.000  
  22503284.39149 118255556.36749      2571.47349        49.000  
  22158640.56249 116444440.99249      9574.58249        49.000  
 16 04 02 14 11 17.3000000  0  3G07G09G16                                       
  24285533.72749 127621340.73849     13515.48449        49.000  
  22503235.51649 118255299.54749      2564.78549        49.000  
  22158458.40649 116443483.81249      9569.56649        49.000  
 16 04 02 14 11 17.4000000  0  3G07G09G16                                       
  24285276.56249 127619989.34849     13512.33249        49.000  
  22503186.76649 118255043.36749      2558.62549        49.000  
  22158276.34449 116442527.08249      9564.96149        49.000  
 16 04 02 14 11 17.5000000  0  3G07G09G16                                       
  24285019.46149 127618638.28149     13509.02749        49.000  
  22503138.13349 118254787.83649      2551.95349        49.000  
  22158094.38349 116441570.78949      9560.51649        49.000  
 16 04 02 14 11 17.6000000  0  3G07G09G16                                       
  24284762.42249 127617287.56249     13505.49649        49.000  
  22503089.63349 118254532.94149      2545.37149        49.000  
  22157912.50049 116440614.98449      9555.70749        49.000  
 16 04 02 14 11 17.7000000  0  3G07G09G16                                       
  24284505.47749 127615937.22749     13501.85949        49.000  
  22503041.25849 118254278.75049      2538.71149        49.000  
  22157730.71149 116439659.69149      9550.60249        49.000  
 16 04 02 14 11 17.8000000  0  3G07G09G16                                       
  24284248.57049 127614587.16049     13498.97349        49.000  
  22502993.00049 118254025.14549      2532.65249        49.000  
  22157548.99249 116438704.77749      9546.71549        49.000  
 16 04 02 14 11 17.9000000  0  3G07G09G16                                       
  24283991.71949 127613237.49649     13495.11749        49.000  
  22502944.87549 118253772.23849      2525.75049        49.000  
  22157367.38349 116437750.42249      9541.31649        49.000  
 16 04 02 14 11 18.0000000  0  3G07G09G16                                       
  24283734.94549 127611888.16049     13491.61749        49.000  
  22502896.86749 118253519.97749      2519.04349        49.000  
  22157185.85949 116436796.49649      9536.73849        49.000  
 16 04 02 14 11 18.1000000  0  3G07G09G16                                       
  24283478.22749 127610539.19549     13488.10949        49.000  
  22502849.00049 118253268.39849      2512.56249        49.000  
  22157004.41449 116435843.07849      9531.89849        49.000  
 16 04 02 14 11 18.2000000  0  3G07G09G16                                       
  24283221.60249 127609190.60249     13484.12949        49.000  
  22502801.25849 118253017.48849      2505.56649        49.000  
  22156823.07849 116434890.14849      9526.76649        49.000  
 16 04 02 14 11 18.3000000  0  3G07G09G16                                       
  24282965.00049 127607842.31649     13481.23049        49.000  
  22502753.63349 118252767.22749      2499.26649        49.000  
  22156641.82849 116433937.68049      9522.23849        49.000  
 16 04 02 14 11 18.4000000  0  3G07G09G16                                       
  24282708.50049 127606494.38349     13477.75849        49.000  
  22502706.13349 118252517.59449      2492.86749        49.000  
  22156460.66449 116432985.66449      9517.78149        49.000  
 16 04 02 14 11 18.5000000  0  3G07G09G16                                       
  24282452.04749 127605146.78949     13474.29749        49.000  
  22502658.75849 118252268.62549      2486.42249        49.000  
  22156279.57849 116432034.12949      9512.90649        49.000  
 16 04 02 14 11 18.6000000  0  3G07G09G16                                       
  24282195.67249 127603799.53949     13471.03549        49.000  
  22502611.50849 118252020.31249      2479.96149        49.000  
  22156098.59449 116431083.05549      9508.50849        49.000  
 16 04 02 14 11 18.7000000  0  3G07G09G16                                       
  24281939.36749 127602452.55549     13468.37549        49.000  
  22502564.36749 118251772.57449      2473.92249        49.000  
  22155917.68049 116430132.37149      9504.63349        49.000  
 16 04 02 14 11 18.8000000  0  3G07G09G16                                       
  24281683.11749 127601105.93449     13464.67249        49.000  
  22502517.35249 118251525.49649      2467.47349        49.000  
  22155736.86749 116429182.19149      9499.59849        49.000  
 16 04 02 14 11 18.9000000  0  3G07G09G16                                       
  24281426.91449 127599759.68449     13460.91849        49.000  
  22502470.46149 118251279.11749      2460.44549        49.000  
  22155556.16449 116428232.50449      9494.47749        49.000  
 16 04 02 14 11 19.0000000  0  3G07G09G16                                       
  24281170.79749 127598413.77749     13457.50849        49.000  
  22502423.70349 118251033.38749      2453.89549        49.000  
  22155375.53149 116427283.28549      9489.85249        49.000  
 16 04 02 14 11 19.1000000  0  3G07G09G16                                       
  24280914.71149 127597068.11749     13455.14849        49.000  
  22502377.04749 118250788.21949      2448.44949        49.000  
  22155194.96949 116426334.45349      9486.04349        49.000  
 16 04 02 14 11 19.2000000  0  3G07G09G16                                       
  24280658.71149 127595722.82049     13451.59049        49.000  
  22502330.51649 118250543.70749      2441.89549        49.000  
  22155014.50049 116425386.08649      9481.49249        49.000  
 16 04 02 14 11 19.3000000  0  3G07G09G16                                       
  24280402.76649 127594377.82449     13448.45349        49.000  
  22502284.10249 118250299.82049      2435.56649        49.000  
  22154834.10949 116424438.16849      9476.89149        49.000  
 16 04 02 14 11 19.4000000  0  3G07G09G16                                       
  24280146.89849 127593033.26249     13444.09449        49.000  
  22502237.82849 118250056.66849      2428.37549        49.000  
  22154653.82849 116423490.80149      9471.34449        49.000  
 16 04 02 14 11 19.5000000  0  3G07G09G16                                       
  24279891.10949 127591688.99649     13440.98049        49.000  
  22502191.68049 118249814.12949      2421.84849        49.000  
  22154473.64849 116422543.85249      9466.90249        49.000  
 16 04 02 14 11 19.6000000  0  3G07G09G16                                       
  24279635.36749 127590345.07849     13437.63349        49.000  
  22502145.64849 118249572.23449      2415.61349        49.000  
  22154293.53949 116421597.38749      9462.46549        49.000  
 16 04 02 14 11 19.7000000  0  4G07G09G26G16                                    
  24279379.68049 127589001.46549     13434.67649        49.000  
  22502099.74249 118249330.96149      2409.58249        49.000  
  24196969.68849 127155932.85559     16103.61749        50.000  
  22154113.51649 116420651.34849      9458.18449        49.000  
 16 04 02 14 11 19.8000000  0  4G07G09G26G16                                    
  24279124.06249 127587658.19149     13431.16049        49.000  
  22502053.95349 118249090.34449      2402.89849        49.000  
  24196663.28149 127154322.68049     16100.37149        50.000  
  22153933.58649 116419705.77749      9453.37149        49.000  
 16 04 02 14 11 19.9000000  0  4G07G09G26G16                                    
  24278868.47749 127586315.24649     13427.82849        49.000  
  22502008.28149 118248850.36349      2396.51649        49.000  
  24196356.95349 127152712.79749     16097.33249        50.000  
  22153753.72749 116418760.66849      9448.76649        49.000  
 16 04 02 14 11 20.0000000  0  4G07G09G26G16                                    
  24278613.00049 127584972.69549     13423.79349        49.000  
  22501962.75049 118248611.07449      2389.33249        49.000  
  24196050.67249 127151103.28549     16093.53149        50.000  
  22153573.97749 116417816.06249      9443.46949        49.000  
 16 04 02 14 11 20.1000000  0  4G07G09G26G16                                    
  24278357.59449 127583630.50049     13420.37549        49.000  
  22501917.34449 118248372.46149      2382.86749        49.000  
  24195744.44549 127149494.09049     16090.56649        50.000  
  22153394.32849 116416871.95349      9438.90249        49.000  
 16 04 02 14 11 20.2000000  0  4G07G09G26G16                                    
  24278102.23449 127582288.53949     13417.99649        49.000  
  22501872.03949 118248134.39849      2377.42249        49.000  
  24195438.26649 127147885.11349     16088.37949        50.000  
  22153214.74249 116415928.20349      9435.33649        49.000  
 16 04 02 14 11 20.3000000  0  4G07G09G26G16                                    
  24277846.93849 127580946.97749     13414.09849        49.000  
  22501826.86749 118247897.02749      2370.41849        49.000  
  24195132.17249 127146276.48849     16084.87149        50.000  
  22153035.25049 116414984.97749      9430.00449        49.000  
 16 04 02 14 11 20.4000000  0  4G07G09G26G16                                    
  24277591.71149 127579605.76249     13410.50049        49.000  
  22501781.82849 118247660.33649      2363.52349        49.000  
  24194826.12549 127144668.20749     16081.34849        50.000  
  22152855.85249 116414042.24249      9424.91849        49.000  
 16 04 02 14 11 20.5000000  0  4G07G09G26G16                                    
  24277336.54749 127578264.89849     13407.17649        49.000  
  22501736.89849 118247424.27349      2357.37949        49.000  
  24194520.11749 127143060.21149     16078.53549        50.000  
  22152676.53149 116413099.95349      9420.59449        49.000  
 16 04 02 14 11 20.6000000  0  4G07G09G26G16                                    
  24277081.43849 127576924.28949     13404.57849        49.000  
  22501692.08649 118247188.79749      2351.53549        49.000  
  24194214.17249 127141452.46149     16076.22749        50.000  
  22152497.29749 116412158.05949      9416.68449        49.000  
 16 04 02 14 11 20.7000000  0  4G07G09G26G16                                    
  24276826.41449 127575584.07449     13400.66849        49.000  
  22501647.40649 118246954.01649      2344.69149        49.000  
  24193908.28949 127139845.07049     16072.59449        50.000  
  22152318.17249 116411216.69149      9411.52349        49.000  
 16 04 02 14 11 20.8000000  0  4G07G09G26G16                                    
  24276571.45349 127574244.22349     13396.91849        49.000  
  22501602.85949 118246719.91849      2337.71149        49.000  
  24193602.47749 127138238.01649     16069.07049        50.000  
  22152139.12549 116410275.81249      9406.38749        49.000  
 16 04 02 14 11 20.9000000  0  4G07G09G26G16                                    
  24276316.53149 127572904.63349     13394.39149        49.000  
  22501558.42249 118246486.39149      2332.02349        49.000  
  24193296.69549 127136631.20349     16066.71949        50.000  
  22151960.15649 116409335.33649      9402.34849        49.000  
 16 04 02 14 11 21.0000000  0  4G07G09G26G16                                    
  24276061.69549 127571565.46949     13390.16849        49.000  
  22501514.11749 118246253.57449      2324.89549        49.000  
  24192991.00049 127135024.75849     16062.99649        50.000  
  22151781.28149 116408395.36349      9397.22749        49.000  
 16 04 02 14 11 21.1000000  0  4G07G09G26G16                                    
  24275806.92249 127570226.60249     13387.04749        49.000  
  22501469.93849 118246021.39149      2318.52749        49.000  
  24192685.33649 127133418.60549     16060.04749        50.000  
  22151602.50049 116407455.84849      9392.94949        49.000  
 16 04 02 14 11 21.2000000  0  4G07G09G26G16                                    
  24275552.20349 127568888.07849     13383.74249        49.000  
  22501425.87549 118245789.85249      2312.14149        49.000  
  24192379.75049 127131812.75849     16057.08649        50.000  
  22151423.80549 116406516.81649      9388.19149        49.000  
 16 04 02 14 11 21.3000000  0  4G07G09G26G16                                    
  24275297.53949 127567549.85549     13380.64549        49.000  
  22501381.92249 118245558.91449      2306.19149        49.000  
  24192074.21149 127130207.16449     16054.58649        50.000  
  22151245.17249 116405578.17649      9384.11749        49.000  
 16 04 02 14 11 21.4000000  0  4G07G09G26G16                                    
  24275042.94549 127566211.94949     13377.53549        49.000  
  22501338.10249 118245328.60949      2299.84049        49.000  
  24191768.73449 127128601.87949     16051.53949        50.000  
  22151066.64849 116404639.99649      9379.62549        49.000  
 16 04 02 14 11 21.5000000  0  4G07G09G26G16                                    
  24274788.42249 127564874.40649     13373.73449        49.000  
  22501294.40649 118245098.97749      2292.95749        49.000  
  24191463.32049 127126996.91849     16048.06649        50.000  
  22150888.21949 116403702.31649      9374.38749        49.000  
 16 04 02 14 11 21.6000000  0  4G07G09G26G16                                    
  24274533.96149 127563537.20349     13370.35949        49.000  
  22501250.83649 118244870.00449      2286.33649        49.000  
  24191157.96949 127125392.27749     16044.85949        50.000  
  22150709.87549 116402765.10549      9369.71149        49.000  
 16 04 02 14 11 21.7000000  0  4G07G09G26G16                                    
  24274279.56249 127562200.35549     13366.85249        49.000  
  22501207.38349 118244641.68449      2279.89849        49.000  
  24190852.68049 127123787.95349     16041.69549        50.000  
  22150531.60249 116401828.36349      9364.98449        49.000  
 16 04 02 14 11 21.8000000  0  4G07G09G26G16                                    
  24274025.22749 127560863.80549     13363.98049        49.000  
  22501164.05549 118244413.97749      2273.84449        49.000  
  24190547.43849 127122183.89849     16039.12549        50.000  
  22150353.43049 116400892.05149      9360.85249        49.000  
 16 04 02 14 11 21.9000000  0  4G07G09G26G16                                    
  24273770.94549 127559527.59449     13360.53149        49.000  
  22501120.84449 118244186.90249      2267.41849        49.000  
  24190242.26649 127120580.14549     16036.01649        50.000  
  22150175.33649 116399956.19549      9356.16049        49.000  
 16 04 02 14 11 22.0000000  0  4G07G09G26G16                                    
  24273516.75049 127558191.77749     13356.63749        49.000  
  22501077.77349 118243960.54349      2260.37149        49.000  
  24189937.14849 127118976.75449     16032.50449        50.000  
  22149997.34449 116399020.85549      9351.08249        49.000  
 16 04 02 14 12 37.0000000  0  1G09                                             
  22424311.41449 117840551.07459     -2566.87549        50.000  
 16 04 02 14 12 37.1000000  0  1G09                                             
  22424360.32849 117840808.09449     -2573.35949        50.000  
 16 04 02 14 12 37.2000000  0  1G09                                             
  22424409.35949 117841065.75049     -2579.72349        50.000  
 16 04 02 14 12 37.3000000  0  1G09                                             
  22424458.50849 117841324.00449     -2585.76649        50.000  
 16 04 02 14 12 37.4000000  0  1G09                                             
  22424507.80549 117841582.88349     -2591.90649        50.000  
 16 04 02 14 12 37.5000000  0  1G09                                             
  22424557.18049 117841842.38749     -2598.32449        50.000  
 16 04 02 14 12 37.6000000  0  1G09                                             
  22424606.68049 117842102.60249     -2605.43849        50.000  
 16 04 02 14 12 37.7000000  0  1G09                                             
  22424656.31249 117842363.43849     -2611.75849        50.000  
 16 04 02 14 12 37.8000000  0  1G09                                             
  22424706.08649 117842624.93849     -2618.20749        50.000  
 16 04 02 14 12 37.9000000  0  1G09                                             
  22424755.96949 117842887.06249     -2624.52349        49.000  
 16 04 02 14 12 38.0000000  0  1G09                                             
  22424805.97749 117843149.89849     -2631.58249        50.000  
 16 04 02 14 12 38.1000000  0  1G09                                             
  22424856.10949 117843413.34049     -2637.85549        50.000  
 16 04 02 14 12 38.2000000  0  1G09                                             
  22424906.35249 117843677.46949     -2644.60249        50.000  
 16 04 02 14 12 38.3000000  0  1G09                                             
  22424956.73449 117843942.21549     -2650.86749        50.000  
 16 04 02 14 12 38.4000000  0  1G09                                             
  22425007.23449 117844207.61749     -2657.43449        50.000  
 16 04 02 14 12 38.5000000  0  1G09                                             
  22425057.86749 117844473.72349     -2664.64149        49.000  
 16 04 02 14 12 38.6000000  0  1G09                                             
  22425108.62549 117844740.42249     -2670.17249        49.000  
 16 04 02 14 12 38.7000000  0  1G09                                             
  22425159.49249 117845007.76249     -2676.68849        49.000  
 16 04 02 14 12 38.8000000  0  1G09                                             
  22425210.50049 117845275.76649     -2683.27749        49.000  
 16 04 02 14 12 38.9000000  0  1G09                                             
  22425261.61749 117845544.40649     -2689.65649        49.000  
 16 04 02 14 12 39.0000000  0  1G09                                             
  22425312.88349 117845813.71149     -2696.39149        49.000  
 16 04 02 14 12 39.1000000  0  1G09                                             
  22425364.24249 117846083.60549     -2702.22749        49.000  
 16 04 02 14 12 39.2000000  0  1G09                                             
  22425415.75049 117846354.15249     -2708.66849        50.000  
 16 04 02 14 12 39.3000000  0  1G09                                             
  22425467.35249 117846625.35549     -2715.30149        50.000  
 16 04 02 14 12 39.4000000  0  1G09                                             
  22425519.08649 117846897.18449     -2721.45349        50.000  
 16 04 02 14 12 39.5000000  0  1G09                                             
  22425570.93049 117847169.65649     -2728.00449        50.000  
 16 04 02 14 12 39.6000000  0  1G09                                             
  22425622.88349 117847442.77349     -2734.46549        50.000  
 16 04 02 14 12 39.7000000  0  1G09                                             
  22425674.98449 117847716.58649     -2741.50449        50.000  
 16 04 02 14 12 39.8000000  0  1G09                                             
  22425727.18849 117847990.98849     -2747.33649        49.000  
 16 04 02 14 12 39.9000000  0  1G09                                             
  22425779.53949 117848266.08249     -2754.28549        49.000  
 16 04 02 14 12 40.0000000  0  1G09                                             
  22425832.00849 117848541.78949     -2760.32849        49.000  
 16 04 02 14 12 40.1000000  0  1G09                                             
  22425884.58649 117848818.12549     -2766.59449        49.000  
 16 04 02 14 12 40.2000000  0  1G09                                             
  22425937.28149 117849095.14149     -2773.49649        49.000  
 16 04 02 14 12 40.3000000  0  1G09                                             
  22425990.10949 117849372.74649     -2779.33649        49.000  
 16 04 02 14 12 40.4000000  0  1G09                                             
  22426043.05549 117849650.99249     -2785.57049        49.000  
 16 04 02 14 12 40.5000000  0  1G09                                             
  22426096.13349 117849929.92649     -2792.55949        49.000  
 16 04 02 14 12 40.6000000  0  1G09                                             
  22426149.33649 117850209.50449     -2799.00449        49.000  
 16 04 02 14 12 40.7000000  0  1G09                                             
  22426202.65649 117850489.72349     -2805.60249        49.000  
 16 04 02 14 12 40.8000000  0  1G09                                             
  22426256.10249 117850770.59449     -2811.84849        49.000  
 16 04 02 14 12 40.9000000  0  1G09                                             
  22426309.67249 117851052.09449     -2818.14849        49.000  
 16 04 02 14 12 41.0000000  0  1G09                                             
  22426363.35949 117851334.27349     -2825.21149        49.000  
 16 04 02 14 12 41.1000000  0  1G09                                             
  22426417.18049 117851617.08249     -2831.18449        49.000  
 16 04 02 14 12 41.2000000  0  1G09                                             
  22426471.08649 117851900.47349     -2837.18849        49.000  
 16 04 02 14 12 41.3000000  0  1G09                                             
  22426525.14149 117852184.53549     -2843.66849        49.000  
 16 04 02 14 12 41.4000000  0  1G09                                             
  22426579.31249 117852469.21549     -2850.08649        49.000  
 16 04 02 14 12 41.5000000  0  1G09                                             
  22426633.62549 117852754.60949     -2857.14849        49.000  
 16 04 02 14 12 41.6000000  0  1G09                                             
  22426688.04749 117853040.61349     -2863.47749        49.000  
 16 04 02 14 12 41.7000000  0  1G09                                             
  22426742.59449 117853327.27349     -2869.76249        49.000  
 16 04 02 14 12 41.8000000  0  1G09                                             
  22426797.29749 117853614.56249     -2876.05149        49.000  
 16 04 02 14 12 41.9000000  0  1G09                                             
  22426852.07049 117853902.42649     -2881.73449        49.000  
 16 04 02 14 12 42.0000000  0  1G09                                             
  22426906.96149 117854190.87549     -2887.49649        49.000  
 16 04 02 14 12 42.1000000  0  1G09                                             
  22426961.96949 117854479.94549     -2893.75049        49.000  
 16 04 02 14 12 42.2000000  0  1G09                                             
  22427017.08649 117854769.71149     -2900.98849        49.000  
 16 04 02 14 12 42.3000000  0  1G09                                             
  22427072.36749 117855060.21549     -2908.43049        49.000  
 16 04 02 14 12 42.4000000  0  1G09                                             
  22427127.74249 117855351.30149     -2914.36749        49.000  
 16 04 02 14 12 42.5000000  0  1G09                                             
  22427183.27349 117855643.11749     -2921.41849        49.000  
 16 04 02 14 12 42.6000000  0  1G09                                             
  22427238.89149 117855935.46549     -2926.82449        49.000  
 16 04 02 14 12 42.7000000  0  1G09                                             
  22427294.64849 117856228.50049     -2933.63349        50.000  
 16 04 02 14 12 42.8000000  0  1G09                                             
  22427350.52349 117856522.21149     -2940.24649        49.000  
 16 04 02 14 12 42.9000000  0  1G09                                             
  22427406.52349 117856816.50049     -2946.00449        49.000  
 16 04 02 14 12 43.0000000  0  1G09                                             
  22427462.65649 117857111.46949     -2952.80149        49.000  
 16 04 02 14 12 43.1000000  0  1G09                                             
  22427518.90649 117857407.04349     -2959.07449        49.000  
 16 04 02 14 12 43.2000000  0  1G09                                             
  22427575.25049 117857703.27049     -2965.35949        49.000  
 16 04 02 14 12 43.3000000  0  1G09                                             
  22427631.73449 117858000.11749     -2971.73849        49.000  
 16 04 02 14 12 43.4000000  0  1G09                                             
  22427688.35949 117858297.61349     -2978.30949        49.000  
 16 04 02 14 12 43.5000000  0  1G09                                             
  22427745.10249 117858595.77749     -2984.92649        49.000  
 16 04 02 14 12 43.6000000  0  1G09                                             
  22427801.94549 117858894.52349     -2990.82849        49.000  
 16 04 02 14 12 43.7000000  0  1G09                                             
  22427858.93049 117859193.98849     -2997.86349        49.000  
 16 04 02 14 12 43.8000000  0  2G16G09                                          
  21954991.49249 115374258.74259      5547.33649        49.000  
  22427916.03149 117859494.08649     -3004.40249        49.000  
 16 04 02 14 12 43.9000000  0  2G16G09                                          
  21954885.96949 115373704.21949      5542.86749        49.000  
  22427973.25849 117859794.81649     -3010.68049        49.000  
 16 04 02 14 12 44.0000000  0  2G16G09                                          
  21954780.55549 115373150.13749      5538.58249        49.000  
  22428030.59449 117860096.17249     -3016.71149        49.000  
 16 04 02 14 12 44.1000000  0  2G16G09                                          
  21954675.21949 115372596.59049      5533.14849        49.000  
  22428088.07049 117860398.21549     -3023.71949        49.000  
 16 04 02 14 12 44.2000000  0  2G16G09                                          
  21954569.99249 115372043.52049      5528.14849        49.000  
  22428145.68849 117860700.92649     -3030.52749        49.000  
 16 04 02 14 12 44.3000000  0  2G16G09                                          
  21954464.85249 115371491.00849      5522.85549        49.000  
  22428203.43049 117861004.35949     -3037.62549        49.000  
 16 04 02 14 12 44.4000000  0  2G16G09                                          
  21954359.79749 115370938.90249      5518.53549        49.000  
  22428261.25849 117861308.37149     -3043.55149        49.000  
 16 04 02 14 12 44.5000000  0  2G16G09                                          
  21954254.83649 115370387.32449      5513.51649        49.000  
  22428319.25049 117861613.09049     -3050.32449        49.000  
 16 04 02 14 12 44.6000000  0  2G16G09                                          
  21954149.93049 115369836.10249      5509.86349        49.000  
  22428377.34449 117861918.33249     -3055.72349        49.000  
 16 04 02 14 12 44.7000000  0  2G16G09                                          
  21954045.13349 115369285.39849      5504.87949        49.000  
  22428435.56249 117862224.27049     -3062.41049        49.000  
 16 04 02 14 12 44.8000000  0  2G16G09                                          
  21953940.42249 115368735.09449      5500.86749        49.000  
  22428493.87549 117862530.78549     -3068.28549        49.000  
 16 04 02 14 12 44.9000000  0  2G16G09                                          
  21953835.80549 115368185.32049      5495.57449        49.000  
  22428552.32849 117862837.99249     -3075.22349        49.000  
 16 04 02 14 12 45.0000000  0  2G16G09                                          
  21953731.25849 115367635.94549      5491.36349        49.000  
  22428610.89149 117863145.78149     -3081.25449        49.000  
 16 04 02 14 12 45.1000000  0  2G16G09                                          
  21953626.81249 115367087.10949      5485.90649        49.000  
  22428669.59449 117863454.27049     -3088.26649        49.000  
 16 04 02 14 12 45.2000000  0  2G16G09                                          
  21953522.46149 115366538.66849      5482.15649        49.000  
  22428728.40649 117863763.34849     -3094.01649        49.000  
 16 04 02 14 12 45.3000000  0  2G16G09                                          
  21953418.18849 115365990.71949      5477.25049        49.000  
  22428787.34449 117864073.06649     -3100.44549        49.000  
 16 04 02 14 12 45.4000000  0  2G16G09                                          
  21953314.02349 115365443.32049      5471.59049        49.000  
  22428846.41449 117864383.52349     -3107.97749        49.000  
 16 04 02 14 12 45.5000000  0  2G16G09                                          
  21953209.94549 115364896.35549      5467.28149        49.000  
  22428905.60949 117864694.59049     -3113.94149        49.000  
 16 04 02 14 12 45.6000000  0  2G16G09                                          
  21953105.93049 115364349.80549      5463.17249        49.000  
  22428964.91449 117865006.24249     -3119.84049        49.000  
 16 04 02 14 12 45.7000000  0  2G16G09                                          
  21953002.02349 115363803.77349      5458.09849        49.000  
  22429024.35249 117865318.57449     -3126.51649        49.000  
 16 04 02 14 12 45.8000000  0  2G16G09                                          
  21952898.21949 115363258.19949      5453.41449        49.000  
  22429083.90649 117865631.54749     -3132.93449        49.000  
 16 04 02 14 12 45.9000000  0  2G16G09                                          
  21952794.47749 115362713.05549      5449.08649        49.000  
  22429143.57849 117865945.11349     -3138.94549        49.000  
 16 04 02 14 12 46.0000000  0  2G16G09                                          
  21952690.85249 115362168.39849      5444.31249        49.000  
  22429203.38349 117866259.35549     -3145.69949        49.000  
 16 04 02 14 12 46.1000000  0  2G16G09                                          
  21952587.28949 115361624.20749      5439.53149        49.000  
  22429263.29749 117866574.21949     -3152.03949        49.000  
 16 04 02 14 12 46.2000000  0  2G16G09                                          
  21952483.80549 115361080.47349      5435.02749        49.000  
  22429323.35249 117866889.73049     -3158.34049        49.000  
 16 04 02 14 12 46.3000000  0  2G16G09                                          
  21952380.43849 115360537.25849      5430.03549        49.000  
  22429383.51649 117867205.92249     -3164.95349        49.000  
 16 04 02 14 12 46.4000000  0  2G16G09                                          
  21952277.13349 115359994.47349      5425.43049        49.000  
  22429443.78949 117867522.72749     -3171.44149        49.000  
 16 04 02 14 12 46.5000000  0  2G16G09                                          
  21952173.93849 115359452.18449      5420.65249        49.000  
  22429504.20349 117867840.18849     -3177.82049        49.000  
 16 04 02 14 12 46.6000000  0  2G16G09                                          
  21952070.82049 115358910.31249      5416.50449        49.000  
  22429564.72749 117868158.25049     -3183.91049        49.000  
 16 04 02 14 12 46.7000000  0  2G16G09                                          
  21951967.81249 115358368.99649      5410.78549        49.000  
  22429625.38349 117868477.02049     -3191.00049        49.000  
 16 04 02 14 12 46.8000000  0  2G16G09                                          
  21951864.89149 115357828.13349      5406.11349        49.000  
  22429686.18849 117868796.45349     -3197.77349        49.000  
 16 04 02 14 12 46.9000000  0  2G16G09                                          
  21951762.05549 115357287.73849      5401.71949        49.000  
  22429747.08649 117869116.49649     -3203.63749        50.000  
 16 04 02 14 12 47.0000000  0  2G16G09                                          
  21951659.28149 115356747.73449      5397.68449        49.000  
  22429808.09449 117869437.09849     -3209.19149        50.000  
 16 04 02 14 12 47.1000000  0  2G16G09                                          
  21951556.61749 115356208.24649      5392.55149        49.000  
  22429869.24249 117869758.41849     -3216.39149        50.000  
 16 04 02 14 12 47.2000000  0  2G16G09                                          
  21951454.04749 115355669.27049      5387.18449        49.000  
  22429930.50849 117870080.40249     -3223.37549        50.000  
 16 04 02 14 12 47.3000000  0  2G16G09                                          
  21951351.57049 115355130.75849      5382.82449        49.000  
  22429991.90649 117870403.03949     -3229.75849        50.000  
 16 04 02 14 12 47.4000000  0  2G16G09                                          
  21951249.18049 115354592.71549      5378.23849        49.000  
  22430053.42249 117870726.29749     -3235.78949        50.000  
 16 04 02 14 12 47.5000000  0  2G16G09                                          
  21951146.87549 115354055.09449      5374.12149        49.000  
  22430115.04749 117871050.16849     -3241.71549        50.000  
 16 04 02 14 12 47.6000000  0  2G16G09                                          
  21951044.65649 115353517.93849      5369.39149        49.000  
  22430176.79749 117871374.66849     -3248.10949        49.000  
 16 04 02 14 12 47.7000000  0  2G16G09                                          
  21950942.52349 115352981.23449      5364.80549        49.000  
  22430238.66449 117871699.78549     -3254.35249        49.000  
 16 04 02 14 12 47.8000000  0  2G16G09                                          
  21950840.49249 115352444.97749      5360.28949        49.000  
  22430300.64849 117872025.52749     -3260.68049        49.000  
 16 04 02 14 12 47.9000000  0  2G16G09                                          
  21950738.52349 115351909.15249      5355.85249        49.000  
  22430362.75849 117872351.89549     -3267.04749        49.000  
 16 04 02 14 12 48.0000000  0  2G16G09                                          
  21950636.68049 115351373.86749      5350.63349        49.000  
  22430425.00049 117872678.94949     -3273.72749        49.000  
 16 04 02 14 12 48.1000000  0  2G16G09                                          
  21950534.90649 115350839.06649      5345.49249        49.000  
  22430487.35949 117873006.66449     -3280.71149        50.000  
 16 04 02 14 12 48.2000000  0  2G16G09                                          
  21950433.21949 115350304.73449      5340.99249        49.000  
  22430549.84449 117873335.02749     -3286.86349        50.000  
 16 04 02 14 12 48.3000000  0  2G16G09                                          
  21950331.63349 115349770.87549      5336.19949        49.000  
  22430612.45349 117873664.03149     -3293.35949        50.000  
 16 04 02 14 12 48.4000000  0  2G16G09                                          
  21950230.13349 115349237.50449      5331.45749        49.000  
  22430675.18049 117873993.69549     -3299.84849        50.000  
 16 04 02 14 12 48.5000000  0  2G16G09                                          
  21950128.71149 115348704.54349      5327.31249        49.000  
  22430738.02349 117874323.93849     -3305.64149        50.000  
 16 04 02 14 12 48.6000000  0  2G16G09                                          
  21950027.36749 115348172.01649      5323.15649        49.000  
  22430800.99249 117874654.80949     -3311.77749        49.000  
 16 04 02 14 12 48.7000000  0  2G16G09                                          
  21949926.13349 115347639.99249      5317.99249        49.000  
  22430864.07849 117874986.33649     -3318.43849        50.000  
 16 04 02 14 12 48.8000000  0  2G16G09                                          
  21949825.00049 115347108.45349      5313.07049        49.000  
  22430927.28949 117875318.52749     -3325.15249        50.000  
 16 04 02 14 12 48.9000000  0  2G16G09                                          
  21949723.94549 115346577.39149      5308.22749        49.000  
  22430990.62549 117875651.35949     -3331.57049        50.000  
 16 04 02 14 12 49.0000000  0  2G16G09                                          
  21949622.99249 115346046.83649      5303.07449        49.000  
  22431054.09449 117875984.87949     -3338.53549        50.000  
 16 04 02 14 12 49.1000000  0  2G16G09                                          
  21949522.11749 115345516.74649      5298.37949        49.000  
  22431117.68849 117876319.05149     -3345.10249        50.000  
 16 04 02 14 12 49.2000000  0  2G16G09                                          
  21949421.33649 115344987.09849      5294.21149        49.000  
  22431181.37549 117876653.80949     -3350.94549        49.000  
 16 04 02 14 12 49.3000000  0  2G16G09                                          
  21949320.64849 115344457.97349      5288.92649        49.000  
  22431245.21949 117876989.27049     -3357.88349        49.000  
 16 04 02 14 12 49.4000000  0  2G16G09                                          
  21949220.03949 115343929.34049      5283.85949        49.000  
  22431309.18849 117877325.40649     -3364.76649        50.000  
 16 04 02 14 12 49.5000000  0  2G16G09                                          
  21949119.52349 115343401.14849      5279.59849        49.000  
  22431373.26649 117877662.14849     -3370.68449        49.000  
 16 04 02 14 12 49.6000000  0  2G16G09                                          
  21949019.12549 115342873.47349      5274.53149        49.000  
  22431437.46949 117877999.57849     -3377.37549        50.000  
 16 04 02 14 12 49.7000000  0  2G16G09                                          
  21948918.78949 115342346.18449      5270.66849        49.000  
  22431501.78949 117878337.57049     -3383.12949        50.000  
 16 04 02 14 12 49.8000000  0  2G16G09                                          
  21948818.53949 115341819.40649      5265.44149        49.000  
  22431566.23449 117878676.25049     -3390.14149        50.000  
 16 04 02 14 12 49.9000000  0  2G16G09                                          
  21948718.38349 115341293.06649      5261.02349        49.000  
  22431630.79749 117879015.54349     -3396.14849        50.000  
 16 04 02 14 12 50.0000000  0  2G16G09                                          
  21948618.32049 115340767.24649      5255.77749        49.000  
  22431695.48449 117879355.50449     -3403.02349        49.000  
 16 04 02 14 12 50.1000000  0  2G16G09                                          
  21948518.34449 115340241.83649      5251.78949        49.000  
  22431760.29749 117879696.07849     -3408.99649        50.000  
 16 04 02 14 12 50.2000000  0  2G16G09                                          
  21948418.43849 115339716.89149      5247.22349        49.000  
  22431825.21149 117880037.25849     -3414.94149        50.000  
 16 04 02 14 12 50.3000000  0  2G16G09                                          
  21948318.61749 115339192.35549      5243.02049        49.000  
  22431890.25049 117880379.04349     -3421.03549        49.000  
 16 04 02 14 12 50.4000000  0  2G16G09                                          
  21948218.90649 115338668.36749      5237.85949        49.000  
  22431955.43049 117880721.55549     -3428.05949        49.000  
 16 04 02 14 12 50.5000000  0  2G16G09                                          
  21948119.26649 115338144.77349      5233.49249        49.000  
  22432020.71149 117881064.61349     -3434.00449        49.000  
 16 04 02 14 12 50.6000000  0  2G16G09                                          
  21948019.72749 115337621.73849      5227.97349        49.000  
  22432086.13349 117881408.41049     -3441.31649        49.000  
 16 04 02 14 12 50.7000000  0  2G16G09                                          
  21947920.28149 115337099.14849      5223.66449        49.000  
  22432151.67249 117881752.82049     -3447.41049        49.000  
 16 04 02 14 12 50.8000000  0  2G16G09                                          
  21947820.89849 115336576.98449      5219.31649        49.000  
  22432217.33649 117882097.84049     -3453.35249        49.000  
 16 04 02 14 12 50.9000000  0  2G16G09                                          
  21947721.63349 115336055.33649      5214.18049        49.000  
  22432283.11749 117882443.53549     -3460.35949        49.000  
 16 04 02 14 12 51.0000000  0  2G16G09                                          
  21947622.43849 115335534.14149      5209.70749        49.000  
  22432349.03949 117882789.86349     -3466.56649        49.000  
 16 04 02 14 12 51.1000000  0  2G16G09                                          
  21947523.35249 115335013.45349      5204.55149        49.000  
  22432415.07049 117883136.86749     -3473.32449        49.000  
 16 04 02 14 12 51.2000000  0  2G16G09                                          
  21947424.35249 115334493.19949      5200.33649        49.000  
  22432481.21149 117883484.48849     -3479.34049        49.000  
 16 04 02 14 12 51.3000000  0  2G16G09                                          
  21947325.44549 115333973.43849      5195.33249        49.000  
  22432547.48449 117883832.74649     -3485.94549        49.000  
 16 04 02 14 12 51.4000000  0  2G16G09                                          
  21947226.61749 115333454.07049      5191.33649        49.000  
  22432613.87549 117884181.59449     -3491.70349        50.000  
 16 04 02 14 12 51.5000000  0  2G16G09                                          
  21947127.88349 115332935.22749      5186.07449        49.000  
  22432680.38349 117884531.13349     -3498.72349        50.000  
 16 04 02 14 12 51.6000000  0  2G16G09                                          
  21947029.25849 115332416.83249      5181.67649        49.000  
  22432747.00849 117884881.28549     -3504.78949        49.000  
 16 04 02 14 12 51.7000000  0  2G16G09                                          
  21946930.69549 115331898.89149      5177.08649        49.000  
  22432813.76649 117885232.07849     -3511.21949        50.000  
 16 04 02 14 12 51.8000000  0  2G16G09                                          
  21946832.24249 115331381.41049      5172.50449        49.000  
  22432880.63349 117885583.49249     -3517.50849        50.000  
 16 04 02 14 12 51.9000000  0  2G16G09                                          
  21946733.86749 115330864.45349      5167.32849        49.000  
  22432947.63349 117885935.60249     -3524.28149        50.000  
 16 04 02 14 12 52.0000000  0  2G16G09                                          
  21946635.57049 115330347.94549      5162.69949        49.000  
  22433014.74249 117886288.33649     -3530.63749        49.000  
 16 04 02 14 12 52.1000000  0  2G16G09                                          
  21946537.36749 115329831.88349      5158.23849        49.000  
  22433081.97749 117886641.68449     -3536.79749        49.000  
 16 04 02 14 12 52.2000000  0  2G16G09                                          
  21946439.25049 115329316.27749      5153.81249        49.000  
  22433149.33649 117886995.66049     -3542.91049        49.000  
 16 04 02 14 12 52.3000000  0  2G16G09                                          
  21946341.22749 115328801.14849      5148.87949        49.000  
  22433216.82049 117887350.30149     -3549.68849        49.000  
 16 04 02 14 12 52.4000000  0  2G16G09                                          
  21946243.29749 115328286.49249      5144.28149        49.000  
  22433284.42249 117887705.57049     -3555.97349        49.000  
 16 04 02 14 12 52.5000000  0  2G16G09                                          
  21946145.45349 115327772.29349      5139.63749        49.000  
  22433352.14849 117888061.46549     -3562.23449        49.000  
 16 04 02 14 12 52.6000000  0  2G16G09                                          
  21946047.68849 115327258.57849      5134.75449        49.000  
  22433420.00049 117888418.03149     -3568.95749        50.000  
 16 04 02 14 12 52.7000000  0  2G16G09                                          
  21945950.02349 115326745.33649      5130.20749        49.000  
  22433487.97749 117888775.22749     -3575.11749        50.000  
 16 04 02 14 12 52.8000000  0  2G16G09                                          
  21945852.44549 115326232.58249      5125.00849        49.000  
  22433556.07049 117889133.10249     -3582.14849        50.000  
 16 04 02 14 12 52.9000000  0  2G16G09                                          
  21945754.95349 115325720.25849      5120.97749        49.000  
  22433624.28949 117889491.56249     -3587.98449        50.000  
 16 04 02 14 12 53.0000000  0  2G16G09                                          
  21945657.55549 115325208.44549      5116.13749        49.000  
  22433692.63349 117889850.70749     -3594.41849        49.000  
 16 04 02 14 12 53.1000000  0  2G16G09                                          
  21945560.23449 115324696.99249      5112.32849        49.000  
  22433761.07849 117890210.39149     -3600.01649        50.000  
 16 04 02 14 12 53.2000000  0  2G16G09                                          
  21945463.00049 115324186.01649      5107.66849        49.000  
  22433829.65649 117890570.72349     -3606.44149        49.000  
 16 04 02 14 12 53.3000000  0  2G16G09                                          
  21945365.87549 115323675.61349      5101.73049        49.000  
  22433898.35949 117890931.78549     -3613.88749        49.000  
 16 04 02 14 12 53.4000000  0  2G16G09                                          
  21945268.83649 115323165.62549      5097.50049        49.000  
  22433967.18849 117891293.44949     -3619.97749        49.000  
 16 04 02 14 12 53.5000000  0  2G16G09                                          
  21945171.87549 115322656.09849      5092.84049        49.000  
  22434036.12549 117891655.73049     -3626.12949        49.000  
 16 04 02 14 12 53.6000000  0  2G16G09                                          
  21945074.99249 115322147.02749      5088.37549        49.000  
  22434105.18849 117892018.66449     -3632.48849        49.000  
 16 04 02 14 12 53.7000000  0  2G16G09                                          
  21944978.21949 115321638.45749      5083.37149        49.000  
  22434174.37549 117892382.25049     -3639.16049        49.000  
 16 04 02 14 12 53.8000000  0  2G16G09                                          
  21944881.53949 115321130.38749      5078.23049        49.000  
  22434243.70349 117892746.52049     -3646.09849        49.000  
 16 04 02 14 12 53.9000000  0  2G16G09                                          
  21944784.93049 115320622.71149      5074.57049        49.000  
  22434313.12549 117893111.36349     -3651.52049        49.000  
 16 04 02 14 12 54.0000000  0  2G16G09                                          
  21944688.42249 115320115.51649      5069.67249        49.000  
  22434382.66449 117893476.83249     -3658.02049        49.000  
 16 04 02 14 12 54.1000000  0  2G16G09                                          
  21944591.99249 115319608.75049      5065.44549        49.000  
  22434452.32849 117893842.92249     -3664.00049        49.000  
 16 04 02 14 12 54.2000000  0  2G16G09                                          
  21944495.64849 115319102.44149      5061.05949        49.000  
  22434522.10249 117894209.63349     -3670.07449        49.000  
 16 04 02 14 12 54.3000000  0  2G16G09                                          
  21944399.39149 115318596.60549      5056.11749        49.000  
  22434592.00849 117894576.99249     -3676.79349        49.000  
 16 04 02 14 12 54.4000000  0  2G16G09                                          
  21944303.21149 115318091.23849      5051.29749        49.000  
  22434662.03149 117894944.98849     -3683.30549        49.000  
 16 04 02 14 12 54.5000000  0  2G16G09                                          
  21944207.14149 115317586.38749      5046.15249        49.000  
  22434732.18849 117895313.66849     -3690.09449        50.000  
 16 04 02 14 12 54.6000000  0  2G16G09                                          
  21944111.15649 115317081.96949      5041.78149        49.000  
  22434802.46949 117895682.96949     -3696.37149        50.000  
 16 04 02 14 12 54.7000000  0  2G16G09                                          
  21944015.25049 115316578.00449      5037.41449        49.000  
  22434872.85949 117896052.88349     -3702.34049        50.000  
 16 04 02 14 12 54.8000000  0  2G16G09                                          
  21943919.43049 115316074.48449      5032.97749        49.000  
  22434943.39149 117896423.41049     -3708.47749        50.000  
 16 04 02 14 12 54.9000000  0  2G16G09                                          
  21943823.70349 115315571.43049      5028.39549        49.000  
  22435014.01649 117896794.57449     -3714.69549        49.000  
 16 04 02 14 12 55.0000000  0  2G16G09                                          
  21943728.07049 115315068.80949      5023.81649        49.000  
  22435084.76649 117897166.35549     -3721.18049        50.000  
 16 04 02 14 12 55.1000000  0  2G16G09                                          
  21943632.52349 115314566.71149      5018.80149        49.000  
  22435155.64149 117897538.82449     -3727.80149        49.000  
 16 04 02 14 12 55.2000000  0  2G16G09                                          
  21943537.05549 115314065.04749      5014.18049        49.000  
  22435226.64149 117897911.89149     -3734.01249        49.000  
 16 04 02 14 12 55.3000000  0  2G16G09                                          
  21943441.68049 115313563.84049      5009.80949        49.000  
  22435297.75849 117898285.60249     -3740.21149        49.000  
 16 04 02 14 12 55.4000000  0  2G16G09                                          
  21943346.39149 115313063.12549      5004.82049        49.000  
  22435369.00049 117898659.96549     -3746.91449        49.000  
 16 04 02 14 12 55.5000000  0  2G16G09                                          
  21943251.20349 115312562.91449      4999.81649        49.000  
  22435440.36749 117899035.00849     -3753.61749        49.000  
 16 04 02 14 12 55.6000000  0  2G16G09                                          
  21943156.10949 115312063.13749      4995.46149        49.000  
  22435511.85249 117899410.64849     -3759.67649        49.000  
 16 04 02 14 12 55.7000000  0  2G16G09                                          
  21943061.08649 115311563.80149      4990.95349        49.000  
  22435583.44549 117899786.89849     -3765.77749        49.000  
 16 04 02 14 12 55.8000000  0  2G16G09                                          
  21942966.15649 115311064.91449      4986.58649        49.000  
  22435655.15649 117900163.79349     -3772.14549        49.000  
 16 04 02 14 12 55.9000000  0  2G16G09                                          
  21942871.31249 115310566.50849      4981.78549        49.000  
  22435727.00049 117900541.31649     -3778.50849        49.000  
 16 04 02 14 12 56.0000000  0  2G16G09                                          
  21942776.53949 115310068.54349      4977.43449        49.000  
  22435798.95349 117900919.46549     -3784.60249        49.000  
 16 04 02 14 12 56.1000000  0  2G16G09                                          
  21942681.86749 115309571.04349      4972.83649        49.000  
  22435871.03149 117901298.23849     -3790.86349        49.000  
 16 04 02 14 12 56.2000000  0  2G16G09                                          
  21942587.28949 115309074.00849      4968.07449        49.000  
  22435943.21949 117901677.66449     -3797.49649        49.000  
 16 04 02 14 12 56.3000000  0  2G16G09                                          
  21942492.80549 115308577.48049      4962.87149        49.000  
  22436015.54749 117902057.76249     -3804.42649        49.000  
 16 04 02 14 12 56.4000000  0  2G16G09                                          
  21942398.40649 115308081.41049      4958.29749        49.000  
  22436087.98449 117902438.47749     -3810.46149        49.000  
 16 04 02 14 12 56.5000000  0  2G16G09                                          
  21942304.09449 115307585.80549      4953.70749        49.000  
  22436160.55549 117902819.83649     -3816.86349        49.000  
 16 04 02 14 12 56.6000000  0  2G16G09                                          
  21942209.87549 115307090.67249      4949.06249        49.000  
  22436233.24249 117903201.84449     -3823.28949        49.000  
 16 04 02 14 12 56.7000000  0  2G16G09                                          
  21942115.74249 115306596.00049      4944.41449        49.000  
  22436306.05549 117903584.48049     -3829.62549        49.000  
 16 04 02 14 12 56.8000000  0  2G16G09                                          
  21942021.71149 115306101.82849      4939.41449        49.000  
  22436378.98449 117903967.78949     -3836.41849        49.000  
 16 04 02 14 12 56.9000000  0  2G16G09                                          
  21941927.75849 115305608.11749      4934.78549        49.000  
  22436452.04749 117904351.71949     -3842.49649        49.000  
 16 04 02 14 12 57.0000000  0  2G16G09                                          
  21941833.89849 115305114.85949      4930.30149        49.000  
  22436525.23449 117904736.28949     -3848.91049        49.000  
 16 04 02 14 12 57.1000000  0  2G16G09                                          
  21941740.12549 115304622.09849      4925.41049        49.000  
  22436598.53949 117905121.51649     -3855.43449        49.000  
 16 04 02 14 12 57.2000000  0  2G16G09                                          
  21941646.45349 115304129.81649      4920.45349        49.000  
  22436671.97749 117905507.39549     -3862.03149        49.000  
 16 04 02 14 12 57.3000000  0  2G16G09                                          
  21941552.85249 115303637.95749      4916.30949        49.000  
  22436745.52349 117905893.87949     -3868.08249        49.000  
 16 04 02 14 12 57.4000000  0  2G16G09                                          
  21941459.35949 115303146.55549      4911.87149        49.000  
  22436819.18849 117906280.98449     -3874.10249        49.000  
 16 04 02 14 12 57.5000000  0  2G16G09                                          
  21941365.93849 115302655.64549      4906.89149        49.000  
  22436892.97749 117906668.74649     -3880.78549        49.000  
 16 04 02 14 12 57.6000000  0  2G16G09                                          
  21941272.60249 115302165.12549      4902.93849        49.000  
  22436966.88349 117907057.08249     -3886.51649        49.000  
 16 04 02 14 12 57.7000000  0  2G16G09                                          
  21941179.35249 115301675.10249      4897.92249        49.000  
  22437040.90649 117907446.07849     -3893.26649        49.000  
 16 04 02 14 12 57.8000000  0  2G16G09                                          
  21941086.20349 115301185.56649      4893.07449        49.000  
  22437115.05549 117907835.73049     -3899.85949        49.000  
 16 04 02 14 12 57.9000000  0  2G16G09                                          
  21940993.14149 115300696.54749      4887.85549        49.000  
  22437189.33649 117908226.07449     -3906.83249        49.000  
 16 04 02 14 12 58.0000000  0  2G16G09                                          
  21940900.18049 115300208.00449      4883.10549        49.000  
  22437263.73449 117908617.05949     -3913.17649        49.000  
 16 04 02 14 12 58.1000000  0  2G16G09                                          
  21940807.28949 115299719.85249      4879.34849        49.000  
  22437338.24249 117909008.60949     -3918.59849        49.000  
 16 04 02 14 12 58.2000000  0  2G16G09                                          
  21940714.48449 115299232.11749      4874.96149        49.000  
  22437412.87549 117909400.75849     -3924.76249        49.000  
 16 04 02 14 12 58.3000000  0  2G16G09                                          
  21940621.77349 115298744.88749      4870.17249        49.000  
  22437487.62549 117909793.57049     -3931.25049        49.000  
 16 04 02 14 12 58.4000000  0  2G16G09                                          
  21940529.13349 115298258.12549      4865.40249        49.000  
  22437562.50049 117910187.01649     -3937.60949        49.000  
 16 04 02 14 12 58.5000000  0  2G16G09                                          
  21940436.58649 115297771.77049      4861.23049        49.000  
  22437637.48449 117910581.05149     -3943.55949        49.000  
 16 04 02 14 12 58.6000000  0  2G16G09                                          
  21940344.13349 115297285.91449      4856.30549        49.000  
  22437712.59449 117910975.75449     -3950.18449        49.000  
 16 04 02 14 12 58.7000000  0  2G16G09                                          
  21940251.76649 115296800.50449      4851.87549        49.000  
  22437787.82049 117911371.07049     -3956.37549        49.000  
 16 04 02 14 12 58.8000000  0  2G16G09                                          
  21940159.47749 115296315.55149      4847.30549        49.000  
  22437863.16449 117911767.02349     -3962.68049        49.000  
 16 04 02 14 12 58.9000000  0  2G16G09                                          
  21940067.28149 115295831.07449      4842.36749        49.000  
  22437938.63349 117912163.62549     -3969.32049        49.000  
 16 04 02 14 12 59.0000000  0  2G16G09                                          
  21939975.17249 115295347.08649      4837.63749        49.000  
  22438014.22749 117912560.86749     -3975.60949        49.000  
 16 04 02 14 12 59.1000000  0  2G16G09                                          
  21939883.14849 115294863.48449      4833.64149        49.000  
  22438089.93049 117912958.68449     -3981.43849        49.000  
 16 04 02 14 12 59.2000000  0  2G16G09                                          
  21939791.20349 115294380.39549      4828.64849        49.000  
  22438165.76649 117913357.17649     -3988.19549        49.000  
 16 04 02 14 12 59.3000000  0  2G16G09                                          
  21939699.37549 115293897.82049      4823.32849        49.000  
  22438241.72749 117913756.35549     -3995.20749        49.000  
 16 04 02 14 12 59.4000000  0  2G16G09                                          
  21939607.63349 115293415.72749      4818.51649        49.000  
  22438317.81249 117914156.18449     -4001.59049        49.000  
 16 04 02 14 12 59.5000000  0  2G16G09                                          
  21939515.98449 115292934.09449      4813.76649        49.000  
  22438394.01649 117914556.64549     -4008.07449        49.000  
 16 04 02 14 12 59.6000000  0  2G16G09                                          
  21939424.42249 115292452.96949      4808.88749        49.000  
  22438470.35249 117914957.78549     -4014.64849        49.000  
 16 04 02 14 12 59.7000000  0  2G16G09                                          
  21939332.94549 115291972.25449      4804.82849        49.000  
  22438546.79749 117915359.51249     -4020.54749        49.000  
 16 04 02 14 12 59.8000000  0  2G16G09                                          
  21939241.57849 115291492.11749      4798.99249        49.000  
  22438623.39149 117915761.98049     -4027.97349        49.000  
 16 04 02 14 12 59.9000000  0  2G16G09                                          
  21939150.28149 115291012.36349      4795.07449        49.000  
  22438700.08649 117916165.00449     -4033.62149        49.000  
 16 04 02 14 13  0.0000000  0  2G16G09                                          
  21939059.07849 115290533.04749      4791.05949        49.000  
  22438776.89849 117916568.63749     -4039.30949        49.000  
 16 04 02 14 13  0.1000000  0  2G16G09                                          
  21938967.95349 115290054.16849      4786.48049        49.000  
  22438853.82049 117916972.87549     -4045.59849        49.000  
 16 04 02 14 13  0.2000000  0  2G16G09                                          
  21938876.91449 115289575.77049      4781.74249        49.000  
  22438930.87549 117917377.77349     -4052.10549        49.000  
 16 04 02 14 13  0.3000000  0  2G16G09                                          
  21938785.96949 115289097.81649      4777.27049        49.000  
  22439008.03949 117917783.28549     -4058.32449        49.000  
 16 04 02 14 13  0.4000000  0  2G16G09                                          
  21938695.11749 115288620.35549      4772.37949        49.000  
  22439085.34449 117918189.45749     -4064.87149        49.000  
 16 04 02 14 13  0.5000000  0  2G16G09                                          
  21938604.34449 115288143.33649      4767.77049        49.000  
  22439162.75049 117918596.22749     -4071.03549        49.000  
 16 04 02 14 13  0.6000000  0  2G16G09                                          
  21938513.67249 115287666.79749      4762.89149        49.000  
  22439240.27349 117919003.66849     -4077.76249        49.000  
 16 04 02 14 13  0.7000000  0  2G16G09                                          
  21938423.08649 115287190.77049      4758.01649        49.000  
  22439317.93849 117919411.78949     -4084.37549        49.000  
 16 04 02 14 13  0.8000000  0  2G16G09                                          
  21938332.58649 115286715.16849      4753.60949        49.000  
  22439395.71149 117919820.50449     -4090.51249        49.000  
 16 04 02 14 13  0.9000000  0  2G16G09                                          
  21938242.17249 115286240.06249      4748.90649        49.000  
  22439473.60949 117920229.87149     -4096.77349        49.000  
 16 04 02 14 13  1.0000000  0  2G16G09                                          
  21938151.86749 115285765.42649      4743.96949        49.000  
  22439551.64149 117920639.90249     -4103.60549        49.000  
 16 04 02 14 13  1.1000000  0  2G16G09                                          
  21938061.63349 115285291.23449      4739.70749        49.000  
  22439629.78149 117921050.53149     -4109.49649        49.000  
 16 04 02 14 13  1.2000000  0  2G16G09                                          
  21937971.48449 115284817.49249      4735.19949        49.000  
  22439708.03949 117921461.79749     -4115.88749        49.000  
 16 04 02 14 13  1.3000000  0  2G16G09                                          
  21937881.42249 115284344.22349      4730.53549        49.000  
  22439786.41449 117921873.68049     -4122.05149        49.000  
 16 04 02 14 13  1.4000000  0  2G16G09                                          
  21937791.43849 115283871.38349      4725.86749        49.000  
  22439864.91449 117922286.18049     -4128.38749        49.000  
 16 04 02 14 13  1.5000000  0  2G16G09                                          
  21937701.57049 115283399.14549      4719.96149        49.000  
  22439943.55549 117922699.44949     -4136.22349        49.000  
 16 04 02 14 13  1.6000000  0  2G16G09                                          
  21937611.80549 115282927.38349      4715.26649        49.000  
  22440022.32049 117923113.35949     -4142.40649        49.000  
 16 04 02 14 13  1.7000000  0  2G16G09                                          
  21937522.10249 115282455.98449      4711.84849        49.000  
  22440101.18849 117923527.81249     -4147.43449        49.000  
 16 04 02 14 13  1.8000000  0  2G16G09                                          
  21937432.49249 115281985.04349      4707.03949        49.000  
  22440180.18049 117923942.89549     -4154.13349        49.000  
 16 04 02 14 13  1.9000000  0  2G16G09                                          
  21937342.98449 115281514.64549      4701.77349        49.000  
  22440259.30549 117924358.69149     -4161.18049        49.000  
 16 04 02 14 13  2.0000000  0  2G16G09                                          
  21937253.53949 115281044.62549      4697.74649        49.000  
  22440338.53149 117924775.02349     -4166.76249        49.000  
 16 04 02 14 13  2.1000000  0  2G16G09                                          
  21937164.21149 115280575.17249      4692.28549        49.000  
  22440417.89849 117925192.10249     -4173.99249        49.000  
 16 04 02 14 13  2.2000000  0  2G16G09                                          
  21937074.96149 115280106.13349      4688.19949        49.000  
  22440497.37549 117925609.75449     -4179.75449        49.000  
 16 04 02 14 13  2.3000000  0  2G16G09                                          
  21936985.79749 115279637.54749      4683.68049        49.000  
  22440576.96949 117926028.03949     -4185.96549        49.000  
 16 04 02 14 13  2.4000000  0  2G16G09                                          
  21936896.71149 115279169.42649      4679.00049        49.000  
  22440656.69549 117926446.96149     -4192.46149        49.000  
 16 04 02 14 13  2.5000000  0  2G16G09                                          
  21936807.71949 115278701.78949      4674.10249        49.000  
  22440736.53149 117926866.52749     -4198.83649        49.000  
 16 04 02 14 13  2.6000000  0  2G16G09                                          
  21936718.82049 115278234.62149      4669.30149        49.000  
  22440816.49249 117927286.73849     -4205.37149        49.000  
 16 04 02 14 13  2.7000000  0  2G16G09                                          
  21936630.00849 115277767.89149      4664.97349        49.000  
  22440896.57849 117927707.57449     -4211.60249        49.000  
 16 04 02 14 13  2.8000000  0  2G16G09                                          
  21936541.28949 115277301.71149      4659.56649        49.000  
  22440976.79749 117928129.10249     -4218.38349        49.000  
 16 04 02 14 13  2.9000000  0  2G16G09                                          
  21936452.65649 115276835.93049      4655.39549        49.000  
  22441057.12549 117928551.21949     -4224.48449        49.000  
 16 04 02 14 13  3.0000000  0  2G16G09                                          
  21936364.11749 115276370.60249      4651.12149        49.000  
  22441137.55549 117928973.94949     -4230.34449        49.000  
 16 04 02 14 13  3.1000000  0  2G16G09                                          
  21936275.64149 115275905.66849      4647.00849        49.000  
  22441218.10949 117929397.24649     -4236.26649        49.000  
 16 04 02 14 13  3.2000000  0  2G16G09                                          
  21936187.27349 115275441.25449      4642.01649        49.000  
  22441298.78949 117929821.23849     -4242.94149        49.000  
 16 04 02 14 13  3.3000000  0  2G16G09                                          
  21936098.99249 115274977.33249      4636.80549        49.000  
  22441379.59449 117930245.88749     -4249.94149        49.000  
 16 04 02 14 13  3.4000000  0  2G16G09                                          
  21936010.80549 115274513.87949      4632.26249        49.000  
  22441460.53149 117930671.18449     -4256.17249        49.000  
 16 04 02 14 13  3.5000000  0  2G16G09                                          
  21935922.69549 115274050.85949      4627.87949        49.000  
  22441541.57049 117931097.05549     -4262.00449        49.000  
 16 04 02 14 13  3.6000000  0  2G16G09                                          
  21935834.67249 115273588.34049      4622.84849        49.000  
  22441622.75049 117931523.62949     -4269.05949        49.000  
 16 04 02 14 13  3.7000000  0  2G16G09                                          
  21935746.75849 115273126.31649      4617.98049        49.000  
  22441704.04749 117931950.85249     -4275.37149        49.000  
 16 04 02 14 13  3.8000000  0  2G16G09                                          
  21935658.90649 115272664.70349      4613.68049        49.000  
  22441785.45349 117932378.67249     -4281.57049        49.000  
 16 04 02 14 13  3.9000000  0  2G16G09                                          
  21935571.16449 115272203.60249      4608.93049        49.000  
  22441866.98449 117932807.14849     -4287.83249        49.000  
 16 04 02 14 13  4.0000000  0  2G16G09                                          
  21935483.49249 115271742.91849      4604.49249        49.000  
  22441948.64149 117933236.23449     -4294.09049        49.000  
 16 04 02 14 13  4.1000000  0  2G16G09                                          
  21935395.92249 115271282.72349      4599.71949        49.000  
  22442030.41449 117933665.96949     -4300.50049        49.000  
 16 04 02 14 13  4.2000000  0  2G16G09                                          
  21935308.43049 115270822.94549      4595.72349        49.000  
  22442112.31249 117934096.30149     -4306.29349        49.000  
 16 04 02 14 13  4.3000000  0  2G16G09                                          
  21935221.02349 115270363.63349      4590.94549        49.000  
  22442194.32049 117934527.25449     -4312.64149        49.000  
 16 04 02 14 13  4.4000000  0  2G16G09                                          
  21935133.69549 115269904.78549      4586.28949        49.000  
  22442276.46149 117934958.84449     -4319.07449        49.000  
 16 04 02 14 13  4.5000000  0  2G16G09                                          
  21935046.46949 115269446.39549      4581.72349        49.000  
  22442358.70349 117935391.05549     -4325.20749        49.000  
 16 04 02 14 13  4.6000000  0  2G16G09                                          
  21934959.32049 115268988.39849      4577.66049        49.000  
  22442441.07049 117935823.86349     -4331.19149        49.000  
 16 04 02 14 13  4.7000000  0  2G16G09                                          
  21934872.25849 115268530.89149      4572.80549        49.000  
  22442523.54749 117936257.29349     -4337.59449        49.000  
 16 04 02 14 13  4.8000000  0  2G16G09                                          
  21934785.28949 115268073.87949      4567.87549        49.000  
  22442606.16449 117936691.41449     -4344.34449        49.000  
 16 04 02 14 13  4.9000000  0  2G16G09                                          
  21934698.40649 115267617.27749      4563.66049        49.000  
  22442688.88349 117937126.09449     -4350.16849        49.000  
 16 04 02 14 13  5.0000000  0  2G16G09                                          
  21934611.61749 115267161.19149      4558.67649        49.000  
  22442771.72749 117937561.46949     -4356.75449        49.000  
 16 04 02 14 13  5.1000000  0  2G16G09                                          
  21934524.92249 115266705.58649      4553.62949        49.000  
  22442854.70349 117937997.49249     -4363.62149        50.000  
 16 04 02 14 13  5.2000000  0  2G16G09                                          
  21934438.29749 115266250.36349      4549.84849        49.000  
  22442937.78949 117938434.07449     -4369.06649        49.000  
 16 04 02 14 13  5.3000000  0  2G16G09                                          
  21934351.75849 115265795.62549      4545.39149        49.000  
  22443020.99249 117938871.30149     -4375.25849        50.000  
 16 04 02 14 13  5.4000000  0  2G16G09                                          
  21934265.30549 115265341.27349      4541.20349        49.000  
  22443104.30549 117939309.10549     -4381.34049        49.000  
 16 04 02 14 13  5.5000000  0  2G16G09                                          
  21934178.94549 115264887.46949      4535.77749        49.000  
  22443187.74249 117939747.59449     -4388.13749        49.000  
 16 04 02 14 13  5.6000000  0  2G16G09                                          
  21934092.69549 115264434.16849      4530.67249        49.000  
  22443271.32049 117940186.78149     -4395.10949        49.000  
 16 04 02 14 13  5.7000000  0  2G16G09                                          
  21934006.52349 115263981.34449      4525.94549        49.000  
  22443355.01649 117940626.60249     -4401.52349        49.000  
 16 04 02 14 13  5.8000000  0  2G16G09                                          
  21933920.42249 115263528.89849      4522.19149        49.000  
  22443438.81249 117941066.96949     -4406.87549        49.000  
 16 04 02 14 13  5.9000000  0  2G16G09                                          
  21933834.41449 115263076.94549      4517.25449        49.000  
  22443522.74249 117941508.00849     -4413.68049        49.000  
 16 04 02 14 13  6.0000000  0  2G16G09                                          
  21933748.50049 115262625.48849      4512.32049        49.000  
  22443606.79749 117941949.69149     -4419.98449        49.000  
 16 04 02 14 13  6.1000000  0  2G16G09                                          
  21933662.68049 115262174.48049      4507.62949        49.000  
  22443690.96949 117942392.03549     -4426.68449        49.000  
 16 04 02 14 13  6.2000000  0  2G16G09                                          
  21933576.94549 115261723.91849      4503.29349        49.000  
  22443775.25849 117942834.96149     -4432.62549        50.000  
 16 04 02 14 13  6.3000000  0  2G16G09                                          
  21933491.30549 115261273.87549      4498.01249        49.000  
  22443859.68049 117943278.58649     -4439.57449        50.000  
 16 04 02 14 13  6.4000000  0  2G16G09                                          
  21933405.75049 115260824.33249      4492.96949        49.000  
  22443944.21949 117943722.87149     -4446.19949        50.000  
 16 04 02 14 13  6.5000000  0  2G16G09                                          
  21933320.27349 115260375.15249      4489.55949        49.000  
  22444028.87549 117944167.71149     -4451.53149        50.000  
 16 04 02 14 13  6.6000000  0  2G16G09                                          
  21933234.89149 115259926.45749      4484.73449        49.000  
  22444113.64149 117944613.16849     -4457.81649        50.000  
 16 04 02 14 13  6.7000000  0  2G16G09                                          
  21933149.58649 115259478.17249      4480.67249        49.000  
  22444198.52349 117945059.25049     -4463.75849        50.000  
 16 04 02 14 13  6.8000000  0  2G16G09                                          
  21933064.38349 115259030.41849      4475.25449        49.000  
  22444283.53949 117945506.00849     -4470.85949        50.000  
 16 04 02 14 13  6.9000000  0  2G16G09                                          
  21932979.26649 115258583.12949      4470.68049        49.000  
  22444368.68049 117945953.39549     -4477.10949        50.000  
 16 04 02 14 13  7.0000000  0  2G16G09                                          
  21932894.23449 115258136.30149      4465.93449        49.000  
  22444453.93849 117946401.43049     -4483.84049        50.000  
 16 04 02 14 13  7.1000000  0  2G16G09                                          
  21932809.29749 115257689.98049      4460.96949        49.000  
  22444539.32049 117946850.12149     -4490.09049        50.000  
 16 04 02 14 13  7.2000000  0  2G16G09                                          
  21932724.43049 115257243.98449      4457.89549        49.000  
  22444624.79749 117947299.32049     -4495.01249        50.000  
 16 04 02 14 13  7.3000000  0  2G16G09                                          
  21932639.66449 115256798.52049      4452.53149        49.000  
  22444710.41449 117947749.22749     -4502.10249        49.000  
 16 04 02 14 13  7.4000000  0  2G16G09                                          
  21932554.98449 115256353.51249      4447.73849        49.000  
  22444796.13349 117948199.73449     -4508.40249        49.000  
 16 04 02 14 13  7.5000000  0  2G16G09                                          
  21932470.39849 115255909.02749      4442.78149        49.000  
  22444882.00049 117948650.94949     -4515.10949        49.000  
 16 04 02 14 13  7.6000000  0  2G16G09                                          
  21932385.89149 115255464.91449      4438.59849        49.000  
  22444967.96149 117949102.71149     -4520.97749        49.000  
 16 04 02 14 13  7.7000000  0  2G16G09                                          
  21932301.47749 115255021.34449      4433.53149        49.000  
  22445054.06249 117949555.18049     -4527.92249        49.000  
 16 04 02 14 13  7.8000000  0  2G16G09                                          
  21932217.14149 115254578.14849      4429.62949        49.000  
  22445140.26649 117950008.19949     -4533.56249        49.000  
 16 04 02 14 13  7.9000000  0  2G16G09                                          
  21932132.88349 115254135.39849      4425.34449        49.000  
  22445226.58649 117950461.82449     -4539.44549        50.000  
 16 04 02 14 13  8.0000000  0  2G16G09                                          
  21932048.74249 115253693.18449      4419.93849        49.000  
  22445313.04749 117950916.14849     -4546.47749        49.000  
 16 04 02 14 13  8.1000000  0  2G16G09                                          
  21931964.68849 115253251.44149      4415.02049        49.000  
  22445399.62549 117951371.12549     -4553.16049        49.000  
 16 04 02 14 13  8.2000000  0  2G16G09                                          
  21931880.71149 115252810.11349      4410.91849        49.000  
  22445486.32049 117951826.67649     -4558.88749        50.000  
 16 04 02 14 13  8.3000000  0  2G16G09                                          
  21931796.81249 115252369.25049      4406.35549        49.000  
  22445573.13349 117952282.86349     -4565.07049        49.000  
 16 04 02 14 13  8.4000000  0  2G16G09                                          
  21931713.00849 115251928.84049      4401.83249        49.000  
  22445660.07049 117952739.68049     -4571.19949        50.000  
 16 04 02 14 13  8.5000000  0  2G16G09                                          
  21931629.28949 115251488.89849      4397.13749        49.000  
  22445747.11749 117953197.13749     -4577.77049        49.000  
 16 04 02 14 13  8.6000000  0  2G16G09                                          
  21931545.68849 115251049.46949      4391.96149        49.000  
  22445834.29749 117953655.27049     -4584.71549        49.000  
 16 04 02 14 13  8.7000000  0  2G16G09                                          
  21931462.14849 115250610.48849      4387.55549        49.000  
  22445921.59449 117954114.02049     -4590.68449        49.000  
 16 04 02 14 13  8.8000000  0  2G16G09                                          
  21931378.69549 115250171.94549      4383.04749        49.000  
  22446009.00849 117954573.35249     -4596.65649        49.000  
 16 04 02 14 13  8.9000000  0  2G16G09                                          
  21931295.34449 115249733.92249      4378.00049        49.000  
  22446096.55549 117955033.41849     -4603.64149        49.000  
 16 04 02 14 13  9.0000000  0  2G16G09                                          
  21931212.07049 115249296.30149      4373.91849        49.000  
  22446184.20349 117955494.03949     -4609.40249        49.000  
 16 04 02 14 13  9.1000000  0  2G16G09                                          
  21931128.89149 115248859.19549      4368.80949        49.000  
  22446271.98449 117955955.32849     -4616.18449        49.000  
 16 04 02 14 13  9.2000000  0  2G16G09                                          
  21931045.79749 115248422.56249      4364.07049        49.000  
  22446359.89149 117956417.28149     -4622.71949        49.000  
 16 04 02 14 13  9.3000000  0  2G16G09                                          
  21930962.78949 115247986.33649      4360.02749        49.000  
  22446447.90649 117956879.79349     -4628.35249        50.000  
 16 04 02 14 13  9.4000000  0  2G16G09                                          
  21930879.86749 115247550.56249      4355.68849        49.000  
  22446536.03949 117957342.94149     -4634.56649        49.000  
 16 04 02 14 13  9.5000000  0  2G16G09                                          
  21930797.03949 115247115.30149      4350.12949        49.000  
  22446624.29749 117957806.75449     -4641.59049        49.000  
 16 04 02 14 13  9.6000000  0  2G16G09                                          
  21930714.29749 115246680.51649      4345.57449        49.000  
  22446712.68849 117958271.22349     -4647.80549        49.000  
 16 04 02 14 13  9.7000000  0  2G16G09                                          
  21930631.64849 115246246.18449      4340.86749        49.000  
  22446801.18849 117958736.31249     -4654.17649        49.000  
 16 04 02 14 13  9.8000000  0  2G16G09                                          
  21930549.07849 115245812.30149      4336.52049        49.000  
  22446889.80549 117959202.02749     -4660.44549        49.000  
 16 04 02 14 13  9.9000000  0  2G16G09                                          
  21930466.60249 115245378.89149      4331.94949        49.000  
  22446978.54749 117959668.36349     -4666.64849        49.000  
 16 04 02 14 13 10.0000000  0  2G16G09                                          
  21930384.21149 115244945.93449      4327.23849        49.000  
  22447067.40649 117960135.34449     -4673.07849        49.000  
 16 04 02 14 13 10.1000000  0  2G16G09                                          
  21930301.91449 115244513.45349      4322.54349        49.000  
  22447156.39149 117960602.95349     -4679.43449        49.000  
 16 04 02 14 13 10.2000000  0  2G16G09                                          
  21930219.71149 115244081.43449      4317.89849        49.000  
  22447245.49249 117961071.20749     -4685.73849        49.000  
 16 04 02 14 13 10.3000000  0  2G16G09                                          
  21930137.58649 115243649.89149      4313.23049        49.000  
  22447334.71949 117961540.09049     -4692.05949        49.000  
 16 04 02 14 13 10.4000000  0  2G16G09                                          
  21930055.57049 115243218.78949      4308.70749        49.000  
  22447424.06249 117962009.58649     -4698.12549        49.000  
 16 04 02 14 13 10.5000000  0  2G16G09                                          
  21929973.61749 115242788.14549      4304.18849        49.000  
  22447513.52349 117962479.72749     -4704.58249        49.000  
 16 04 02 14 13 10.6000000  0  2G16G09                                          
  21929891.77349 115242358.00049      4299.07049        49.000  
  22447603.10949 117962950.51249     -4711.21149        49.000  
 16 04 02 14 13 10.7000000  0  2G16G09                                          
  21929810.00049 115241928.30549      4294.43849        49.000  
  22447692.82049 117963421.93449     -4717.61349        49.000  
 16 04 02 14 13 10.8000000  0  2G16G09                                          
  21929728.32849 115241499.08249      4289.85949        49.000  
  22447782.64149 117963893.98449     -4723.88349        49.000  
 16 04 02 14 13 10.9000000  0  2G16G09                                          
  21929646.73449 115241070.33649      4285.19549        49.000  
  22447872.59449 117964366.68849     -4730.27049        49.000  
 16 04 02 14 13 11.0000000  0  2G16G09                                          
  21929565.24249 115240642.05149      4280.78549        49.000  
  22447962.65649 117964840.01249     -4736.20349        50.000  
 16 04 02 14 13 11.1000000  0  2G16G09                                          
  21929483.82049 115240214.17649      4276.67249        49.000  
  22448052.84449 117965313.93049     -4742.29349        49.000  
 16 04 02 14 13 11.2000000  0  2G16G09                                          
  21929402.47749 115239786.73449      4272.37149        49.000  
  22448143.14849 117965788.44149     -4748.32049        49.000  
 16 04 02 14 13 11.3000000  0  2G16G09                                          
  21929321.22749 115239359.78549      4267.14549        49.000  
  22448233.57049 117966263.59849     -4754.89849        49.000  
 16 04 02 14 13 11.4000000  0  2G16G09                                          
  21929240.05549 115238933.18849      4263.90649        49.000  
  22448324.08649 117966739.30549     -4760.09849        49.000  
 16 04 02 14 13 11.5000000  0  2G16G09                                          
  21929158.97749 115238507.12149      4258.37949        49.000  
  22448414.74249 117967215.68449     -4767.01649        49.000  
 16 04 02 14 13 11.6000000  0  2G16G09                                          
  21929078.00049 115238081.53949      4253.52049        49.000  
  22448505.51649 117967692.73449     -4773.73449        49.000  
 16 04 02 14 13 11.7000000  0  2G16G09                                          
  21928997.10249 115237656.40649      4248.80149        49.000  
  22448596.41449 117968170.39849     -4780.14549        49.000  
 16 04 02 14 13 11.8000000  0  2G16G09                                          
  21928916.28949 115237231.78549      4243.92249        49.000  
  22448687.44549 117968648.74649     -4786.73849        49.000  
 16 04 02 14 13 11.9000000  0  2G16G09                                          
  21928835.58649 115236807.69149      4238.62949        49.000  
  22448778.60249 117969127.77749     -4793.53149        49.000  
 16 04 02 14 13 12.0000000  0  2G16G09                                          
  21928754.95349 115236383.97749      4234.71149        49.000  
  22448869.86749 117969607.37149     -4799.21149        49.000  
 16 04 02 14 13 12.1000000  0  2G16G09                                          
  21928674.41449 115235960.71949      4230.31249        49.000  
  22448961.25049 117970087.57849     -4805.31649        49.000  
 16 04 02 14 13 12.2000000  0  2G16G09                                          
  21928593.96149 115235537.92249      4225.82049        49.000  
  22449052.75049 117970568.41849     -4811.45749        49.000  
 16 04 02 14 13 12.3000000  0  2G16G09                                          
  21928513.58649 115235115.54349      4221.60249        49.000  
  22449144.35949 117971049.85249     -4817.45349        50.000  
 16 04 02 14 13 12.4000000  0  2G16G09                                          
  21928433.30549 115234693.63349      4216.87549        49.000  
  22449236.10249 117971531.91449     -4823.72749        50.000  
 16 04 02 14 13 12.5000000  0  2G16G09                                          
  21928353.10949 115234272.23449      4211.76249        49.000  
  22449327.96149 117972014.66449     -4830.65649        50.000  
 16 04 02 14 13 12.6000000  0  2G16G09                                          
  21928272.99249 115233851.23849      4207.64149        49.000  
  22449419.93849 117972497.98049     -4836.43449        50.000  
 16 04 02 14 13 12.7000000  0  2G16G09                                          
  21928192.97749 115233430.73849      4202.74649        49.000  
  22449512.03149 117972981.96549     -4843.10949        49.000  
 16 04 02 14 13 12.8000000  0  2G16G09                                          
  21928113.03949 115233010.73449      4197.73049        49.000  
  22449604.26649 117973466.60249     -4849.69149        50.000  
 16 04 02 14 13 12.9000000  0  2G16G09                                          
  21928033.20349 115232591.22349      4192.68849        49.000  
  22449696.61749 117973951.90649     -4856.41049        49.000  
 16 04 02 14 13 13.0000000  0  2G16G09                                          
  21927953.46149 115232172.17249      4188.30149        49.000  
  22449789.08649 117974437.84449     -4862.52049        49.000  
 16 04 02 14 13 13.1000000  0  2G16G09                                          
  21927873.79749 115231753.53549      4184.03549        49.000  
  22449881.66449 117974924.35949     -4868.44149        49.000  
 16 04 02 14 13 13.2000000  0  2G16G09                                          
  21927794.23449 115231335.41049      4179.00849        49.000  
  22449974.37549 117975411.55949     -4875.22749        49.000  
 16 04 02 14 13 13.3000000  0  2G16G09                                          
  21927714.75849 115230917.75049      4174.35949        49.000  
  22450067.21149 117975899.39149     -4881.52049        49.000  
 16 04 02 14 13 13.4000000  0  2G16G09                                          
  21927635.35949 115230500.55949      4169.73049        49.000  
  22450160.16449 117976387.85949     -4887.85249        49.000  
 16 04 02 14 13 13.5000000  0  2G16G09                                          
  21927556.05549 115230083.80549      4165.09849        49.000  
  22450253.22749 117976876.93449     -4894.12149        49.000  
 16 04 02 14 13 13.6000000  0  2G16G09                                          
  21927476.83649 115229667.48449      4160.93049        49.000  
  22450346.41449 117977366.60549     -4899.94549        49.000  
 16 04 02 14 13 13.7000000  0  2G16G09                                          
  21927397.70349 115229251.64149      4156.32049        49.000  
  22450439.71949 117977856.93049     -4906.28549        49.000  
 16 04 02 14 13 13.8000000  0  3G16G07G09                                       
  21927318.65649 115228836.26649      4151.34849        49.000  
  23951618.10949 125866602.30159      9422.98849        49.000  
  22450533.14849 117978347.88349     -4912.94949        49.000  
 16 04 02 14 13 13.9000000  0  3G16G07G09                                       
  21927239.70349 115228421.37149      4146.62549        49.000  
  23951438.82849 125865660.15249      9419.32849        50.000  
  22450626.69549 117978839.47749     -4919.21149        49.000  
 16 04 02 14 13 14.0000000  0  3G16G07G09                                       
  21927160.84449 115228006.94149      4142.07849        49.000  
  23951259.58649 125864718.39149      9415.60549        49.000  
  22450720.35949 117979331.73049     -4925.65649        49.000  
 16 04 02 14 13 14.1000000  0  3G16G07G09                                       
  21927082.07049 115227592.96949      4137.35949        49.000  
  23951080.44549 125863776.98449      9411.95349        49.000  
  22450814.14849 117979824.58649     -4931.84449        49.000  
 16 04 02 14 13 14.2000000  0  3G16G07G09                                       
  21927003.37549 115227179.43849      4133.19949        49.000  
  23950901.42249 125862835.90649      9408.95349        49.000  
  22450908.05549 117980318.06249     -4937.82849        49.000  
 16 04 02 14 13 14.3000000  0  3G16G07G09                                       
  21926924.77349 115226766.40249      4128.06249        49.000  
  23950722.42249 125861895.24249      9404.57049        49.000  
  22451002.08649 117980812.19949     -4944.60949        49.000  
 16 04 02 14 13 14.4000000  0  3G16G07G09                                       
  21926846.26649 115226353.80949      4123.66049        49.000  
  23950543.44549 125860954.91049      9401.16449        49.000  
  22451096.23449 117981306.94549     -4950.75449        50.000  
 16 04 02 14 13 14.5000000  0  3G16G07G09                                       
  21926767.84449 115225941.70349      4118.71549        49.000  
  23950364.57849 125860014.96949      9397.27049        49.000  
  22451190.50049 117981802.34449     -4957.22349        49.000  
 16 04 02 14 13 14.6000000  0  3G16G07G09                                       
  21926689.50849 115225530.03949      4114.36749        49.000  
  23950185.80549 125859075.35549      9394.11349        49.000  
  22451284.89849 117982298.35949     -4963.33649        50.000  
 16 04 02 14 13 14.7000000  0  3G16G07G09                                       
  21926611.25849 115225118.84049      4109.76649        49.000  
  23950007.07049 125858136.13349      9390.21549        50.000  
  22451379.40649 117982795.00849     -4969.65249        49.000  
 16 04 02 14 13 14.8000000  0  3G16G07G09                                       
  21926533.08649 115224708.12549      4105.03949        49.000  
  23949828.44549 125857197.27349      9386.82849        50.000  
  22451474.03949 117983292.29749     -4975.89549        50.000  
 16 04 02 14 13 14.9000000  0  3G16G07G09                                       
  21926455.00049 115224297.77749      4101.11749        49.000  
  23949649.83649 125856258.69949      9383.60249        50.000  
  22451568.78149 117983790.13749     -4981.69549        49.000  
 16 04 02 14 13 15.0000000  0  3G16G07G09                                       
  21926377.02349 115223888.02049      4095.31649        49.000  
  23949471.34449 125855320.60549      9378.95749        49.000  
  22451663.65649 117984288.73049     -4989.14549        49.000  
 16 04 02 14 13 15.1000000  0  3G16G07G09                                       
  21926299.11749 115223478.62549      4091.68849        49.000  
  23949292.88349 125854382.78549      9376.19949        50.000  
  22451758.63349 117984787.84849     -4994.35949        49.000  
 16 04 02 14 13 15.2000000  0  3G16G07G09                                       
  21926221.30549 115223069.68049      4087.35949        49.000  
  23949114.48449 125853445.30949      9372.89849        50.000  
  22451853.71949 117985287.58649     -5000.46549        50.000  
 16 04 02 14 13 15.3000000  0  3G16G07G09                                       
  21926143.57849 115222661.22749      4082.27749        49.000  
  23948936.15649 125852508.22349      9368.75449        50.000  
  22451948.94549 117985788.00049     -5007.43449        50.000  
 16 04 02 14 13 15.4000000  0  3G16G07G09                                       
  21926065.94549 115222253.25449      4077.46149        49.000  
  23948757.89849 125851571.52049      9365.03949        50.000  
  22452044.29749 117986289.03149     -5013.64549        50.000  
 16 04 02 14 13 15.5000000  0  3G16G07G09                                       
  21925988.39849 115221845.73849      4072.81249        49.000  
  23948579.71949 125850635.17249      9361.39549        50.000  
  22452139.76649 117986790.70749     -5019.95349        50.000  
 16 04 02 14 13 15.6000000  0  3G16G07G09                                       
  21925910.93049 115221438.66449      4068.46949        49.000  
  23948401.57049 125849699.18049      9357.94949        50.000  
  22452235.34449 117987292.99249     -5026.02049        49.000  
 16 04 02 14 13 15.7000000  0  3G16G07G09                                       
  21925833.56249 115221032.09049      4063.46949        49.000  
  23948223.53149 125848763.57449      9353.94149        50.000  
  22452331.05549 117987795.94549     -5032.79349        50.000  
 16 04 02 14 13 15.8000000  0  3G16G07G09                                       
  21925756.28149 115220625.97349      4059.03549        49.000  
  23948045.54749 125847828.34049      9350.48849        50.000  
  22452426.88349 117988299.52749     -5038.98849        50.000  
 16 04 02 14 13 15.9000000  0  3G16G07G09                                       
  21925679.09449 115220220.34049      4053.97349        49.000  
  23947867.64849 125846893.47749      9346.31249        50.000  
  22452522.82849 117988803.73449     -5045.56249        50.000  
 16 04 02 14 13 16.0000000  0  3G16G07G09                                       
  21925602.00049 115219815.22749      4048.82049        49.000  
  23947689.86749 125845959.03549      9342.31249        50.000  
  22452618.91449 117989308.65249     -5052.41049        50.000  
 16 04 02 14 13 16.1000000  0  3G16G07G09                                       
  21925524.99249 115219410.51249      4044.89849        49.000  
  23947512.10949 125845024.90249      9339.35949        50.000  
  22452715.10249 117989814.13749     -5058.03949        50.000  
 16 04 02 14 13 16.2000000  0  3G16G07G09                                       
  21925448.05549 115219006.21949      4040.80549        49.000  
  23947334.40649 125844091.08249      9336.18049        50.000  
  22452811.39849 117990320.19949     -5063.73849        50.000  
 16 04 02 14 13 16.3000000  0  3G16G07G09                                       
  21925371.21149 115218602.37549      4036.19149        49.000  
  23947156.77349 125843157.62149      9332.58249        50.000  
  22452907.82049 117990826.89549     -5070.13349        50.000  
 16 04 02 14 13 16.4000000  0  3G16G07G09                                       
  21925294.45349 115218199.04349      4031.14849        49.000  
  23946979.20349 125842224.57449      9328.63349        50.000  
  22453004.36749 117991334.25049     -5076.65649        50.000  
 16 04 02 14 13 16.5000000  0  3G16G07G09                                       
  21925217.78149 115217796.12149      4026.68849        49.000  
  23946801.70349 125841291.83649      9325.01249        50.000  
  22453101.03149 117991842.19949     -5082.96949        50.000  
 16 04 02 14 13 16.6000000  0  3G16G07G09                                       
  21925141.19549 115217393.73449      4021.66849        49.000  
  23946624.28149 125840359.52349      9321.14549        50.000  
  22453197.82049 117992350.84049     -5089.56249        50.000  
 16 04 02 14 13 16.7000000  0  3G16G07G09                                       
  21925064.71149 115216991.78549      4017.12949        49.000  
  23946446.93849 125839427.56649      9317.45349        50.000  
  22453294.73449 117992860.09849     -5095.80949        50.000  
 16 04 02 14 13 16.8000000  0  3G16G07G09                                       
  21924988.30549 115216590.31249      4012.47349        49.000  
  23946269.67249 125838495.98449      9313.84849        50.000  
  22453391.76649 117993370.00049     -5102.24649        50.000  
 16 04 02 14 13 16.9000000  0  3G16G07G09                                       
  21924911.99249 115216189.26249      4008.42249        49.000  
  23946092.45349 125837564.72349      9310.71549        50.000  
  22453488.90649 117993880.48049     -5107.93449        49.000  
 16 04 02 14 13 17.0000000  0  3G16G07G09                                       
  21924835.76649 115215788.69549      4003.44149        49.000  
  23945915.30549 125836633.84449      9306.87549        50.000  
  22453586.17249 117994391.61749     -5114.49249        49.000  
 16 04 02 14 13 17.1000000  0  3G16G07G09                                       
  21924759.60249 115215388.46149      4000.19549        49.000  
  23945738.21149 125835703.19549      9304.60949        50.000  
  22453683.53149 117994903.25049     -5119.36749        49.000  
 16 04 02 14 13 17.2000000  0  3G16G07G09                                       
  21924683.53949 115214988.75449      3994.88349        49.000  
  23945561.19549 125834772.98849      9300.23449        50.000  
  22453781.02349 117995415.59049     -5126.41849        50.000  
 16 04 02 14 13 17.3000000  0  3G16G07G09                                       
  21924607.56249 115214589.48049      3990.34449        49.000  
  23945384.24249 125833843.10949      9296.43049        50.000  
  22453878.63349 117995928.52349     -5132.78549        50.000  
 16 04 02 14 13 17.4000000  0  3G16G07G09                                       
  21924531.68049 115214190.74649      3985.02049        49.000  
  23945207.37549 125832913.65649      9292.34849        50.000  
  22453976.37549 117996442.15249     -5139.54349        49.000  
 16 04 02 14 13 17.5000000  0  3G16G07G09                                       
  21924455.89849 115213792.49249      3980.23449        49.000  
  23945030.57849 125831984.60949      9288.69149        50.000  
  22454074.24249 117996956.44949     -5146.16049        49.000  
 16 04 02 14 13 17.6000000  0  3G16G07G09                                       
  21924380.17249 115213394.58649      3976.70349        49.000  
  23944853.85949 125831055.80549      9285.82449        50.000  
  22454172.20349 117997471.25449     -5151.41849        49.000  
 16 04 02 14 13 17.7000000  0  3G16G07G09                                       
  21924304.55549 115212997.19949      3971.83249        49.000  
  23944677.19549 125830127.41849      9282.14549        50.000  
  22454270.29749 117997986.73849     -5157.82849        49.000  
 16 04 02 14 13 17.8000000  0  3G16G07G09                                       
  21924229.02349 115212600.27749      3966.77049        49.000  
  23944500.60949 125829199.38349      9278.13349        50.000  
  22454368.51649 117998502.85549     -5164.53949        50.000  
 16 04 02 14 13 17.9000000  0  3G16G07G09                                       
  21924153.57049 115212203.77049      3962.91449        49.000  
  23944324.07849 125828271.69949      9274.86349        50.000  
  22454466.84449 117999019.57449     -5170.32449        50.000  
 16 04 02 14 13 18.0000000  0  3G16G07G09                                       
  21924078.21949 115211807.78949      3957.48449        49.000  
  23944147.64849 125827344.41049      9270.64149        50.000  
  22454565.29749 117999536.95749     -5177.16049        50.000  
 16 04 02 14 13 18.1000000  0  3G16G07G09                                       
  21924002.95349 115211412.25049      3953.03949        49.000  
  23943971.25849 125826417.47749      9267.28949        50.000  
  22454663.87549 118000054.96949     -5183.29749        49.000  
 16 04 02 14 13 18.2000000  0  3G16G07G09                                       
  21923927.76649 115211017.15649      3948.61349        49.000  
  23943794.93849 125825490.89849      9263.70749        50.000  
  22454762.55549 118000573.59049     -5189.46149        49.000  
 16 04 02 14 13 18.3000000  0  3G16G07G09                                       
  21923852.66449 115210622.51649      3944.34449        49.000  
  23943618.68049 125824564.66449      9260.48849        50.000  
  22454861.36749 118001092.82849     -5195.38749        49.000  
 16 04 02 14 13 18.4000000  0  3G16G07G09                                       
  21923777.64849 115210228.29749      3939.97349        49.000  
  23943442.47749 125823638.75449      9257.19549        50.000  
  22454960.28949 118001612.65649     -5201.45749        49.000  
 16 04 02 14 13 18.5000000  0  3G16G07G09                                       
  21923702.71949 115209834.56649      3934.98449        49.000  
  23943266.35949 125822713.23849      9253.08649        50.000  
  22455059.33649 118002133.14149     -5208.13349        49.000  
 16 04 02 14 13 18.6000000  0  3G16G07G09                                       
  21923627.88349 115209441.31649      3930.18449        49.000  
  23943090.30549 125821788.10949      9249.11749        50.000  
  22455158.50849 118002654.28149     -5214.66849        50.000  
 16 04 02 14 13 18.7000000  0  3G16G07G09                                       
  21923553.14149 115209048.51249      3925.71949        49.000  
  23942914.32049 125820863.31249      9245.93049        50.000  
  22455257.78949 118003176.01649     -5220.52049        50.000  
 16 04 02 14 13 18.8000000  0  3G16G07G09                                       
  21923478.46149 115208656.11349      3921.67249        49.000  
  23942738.43049 125819938.83249      9242.69149        50.000  
  22455357.18849 118003698.34049     -5226.41449        49.000  
 16 04 02 14 13 18.9000000  0  3G16G07G09                                       
  21923403.89149 115208264.23049      3916.54749        49.000  
  23942562.58649 125819014.77749      9238.52749        50.000  
  22455456.71149 118004221.34449     -5233.28149        49.000  
 16 04 02 14 13 19.0000000  0  3G16G07G09                                       
  21923329.40649 115207872.84449      3911.73449        49.000  
  23942386.81249 125818091.10549      9234.75049        50.000  
  22455556.36749 118004745.01249     -5239.84449        49.000  
 16 04 02 14 13 19.1000000  0  3G16G07G09                                       
  21923255.00849 115207481.85949      3907.44949        49.000  
  23942211.10249 125817167.75049      9231.34449        50.000  
  22455656.12549 118005269.24249     -5245.68049        49.000  
 16 04 02 14 13 19.2000000  0  3G16G07G09                                       
  21923180.71149 115207091.41449      3902.24649        49.000  
  23942035.45349 125816244.83649      9227.19949        50.000  
  22455756.02349 118005794.18449     -5252.60549        49.000  
 16 04 02 14 13 19.3000000  0  3G16G07G09                                       
  21923106.48449 115206701.36749      3898.15649        49.000  
  23941859.88349 125815322.21549      9223.96549        50.000  
  22455856.02349 118006319.69149     -5258.34849        49.000  
 16 04 02 14 13 19.4000000  0  3G16G07G09                                       
  21923032.33649 115206311.75049      3894.19149        49.000  
  23941684.36749 125814399.92249      9221.15249        50.000  
  22455956.13349 118006845.78949     -5263.90249        49.000  
 16 04 02 14 13 19.5000000  0  4G16G07G04G09                                    
  21922958.28149 115205922.59449      3889.31249        49.000  
  23941508.93049 125813478.00049      9217.25049        50.000  
  24894403.31249 130820971.78959     16282.02749        49.000  
  22456056.36749 118007372.53149     -5270.60949        49.000  
 16 04 02 14 13 19.6000000  0  4G16G07G04G09                                    
  21922884.32849 115205533.95349      3883.98849        49.000  
  23941333.56249 125812556.49249      9212.75449        50.000  
  24894093.50849 130819343.76649     16279.00049        49.000  
  22456156.73449 118007899.93449     -5277.49649        49.000  
 16 04 02 14 13 19.7000000  0  4G16G07G04G09                                    
  21922810.45349 115205145.77349      3879.44949        49.000  
  23941158.27349 125811635.35249      9209.28149        50.000  
  24893783.75849 130817715.97749     16276.71549        49.000  
  22456257.21949 118008427.97349     -5283.66849        50.000  
 16 04 02 14 13 19.8000000  0  4G16G07G04G09                                    
  21922736.66449 115204757.99249      3875.75849        49.000  
  23940983.01649 125810714.51249      9206.64849        50.000  
  24893474.03149 130816088.35949     16275.20349        49.000  
  22456357.80549 118008956.59049     -5289.15649        49.000  
 16 04 02 14 13 19.9000000  0  4G16G07G04G09                                    
  21922662.95349 115204370.65249      3871.10249        49.000  
  23940807.84449 125809794.00449      9202.97749        50.000  
  24893164.33649 130814460.94549     16272.95349        49.000  
  22456458.50849 118009485.80149     -5295.35549        49.000  
 16 04 02 14 13 20.0000000  0  4G16G07G04G09                                    
  21922589.34449 115203983.83649      3865.91449        49.000  
  23940632.75849 125808873.94149      9198.65249        50.000  
  24892854.70349 130812833.84049     16270.01249        49.000  
  22456559.35249 118010015.70749     -5302.27749        49.000  
 16 04 02 14 13 20.1000000  0  4G16G07G04G09                                    
  21922515.82849 115203597.50849      3860.87549        49.000  
  23940457.75049 125807954.25849      9194.56249        50.000  
  24892545.14849 130811206.98049     16267.28149        49.000  
  22456660.31249 118010546.27049     -5308.96549        49.000  
 16 04 02 14 13 20.2000000  0  4G16G07G04G09                                    
  21922442.39849 115203211.66449      3856.07849        49.000  
  23940282.83649 125807034.94949      9190.93449        50.000  
  24892235.61749 130809580.38349     16264.74249        49.000  
  22456761.39149 118011077.48049     -5315.40649        49.000  
 16 04 02 14 13 20.3000000  0  4G16G07G04G09                                    
  21922369.05549 115202826.23849      3851.94949        49.000  
  23940107.96149 125806115.98449      9187.77049        50.000  
  24891926.13349 130807953.97349     16263.00049        49.000  
  22456862.59449 118011609.28549     -5321.25849        49.000  
 16 04 02 14 13 20.4000000  0  4G16G07G04G09                                    
  21922295.79749 115202441.25849      3847.48849        49.000  
  23939933.14849 125805197.34849      9184.14549        50.000  
  24891616.67249 130806327.77749     16260.76649        49.000  
  22456963.90649 118012141.68849     -5327.36749        49.000  
 16 04 02 14 13 20.5000000  0  4G16G07G04G09                                    
  21922222.64149 115202056.82849      3842.06649        49.000  
  23939758.42249 125804279.17649      9179.77749        50.000  
  24891307.28149 130804701.91049     16257.59449        49.000  
  22457065.35949 118012674.81649     -5334.46149        49.000  
 16 04 02 14 13 20.6000000  0  4G16G07G04G09                                    
  21922149.55549 115201672.75849      3838.30549        49.000  
  23939583.75049 125803361.26249      9177.07049        50.000  
  24890997.91449 130803076.17249     16256.14149        49.000  
  22457166.91449 118013208.46949     -5339.81249        49.000  
 16 04 02 14 13 20.7000000  0  4G16G07G04G09                                    
  21922076.55549 115201289.16449      3833.74249        49.000  
  23939409.14849 125802443.72349      9173.37549        50.000  
  24890688.61749 130801450.67249     16253.87149        49.000  
  22457268.58649 118013742.75849     -5345.96949        49.000  
 16 04 02 14 13 20.8000000  0  4G16G07G04G09                                    
  21922003.64149 115200906.04349      3828.93049        49.000  
  23939234.61749 125801526.56649      9169.53949        50.000  
  24890379.34449 130799825.42249     16251.34849        49.000  
  22457370.38349 118014277.70749     -5352.62549        49.000  
 16 04 02 14 13 20.9000000  0  4G16G07G04G09                                    
  21921930.82049 115200523.37549      3824.40249        49.000  
  23939060.15649 125800609.76649      9165.99249        50.000  
  24890070.10249 130798200.39549     16249.14149        49.000  
  22457472.29749 118014813.25849     -5358.78549        49.000  
 16 04 02 14 13 21.0000000  0  4G16G07G04G09                                    
  21921858.08649 115200141.14849      3819.98449        49.000  
  23938885.76649 125799693.30149      9162.57049        50.000  
  24889760.91449 130796575.59049     16246.93849        49.000  
  22457574.32049 118015349.43049     -5364.84049        49.000  
 16 04 02 14 13 21.1000000  0  4G16G07G04G09                                    
  21921785.43849 115199759.35249      3815.78949        49.000  
  23938711.43049 125798777.17649      9159.19149        50.000  
  24889451.74249 130794950.98049     16244.98449        49.000  
  22457676.46149 118015886.19149     -5370.86749        49.000  
 16 04 02 14 13 21.2000000  0  4G16G07G04G09                                    
  21921712.88349 115199378.10249      3810.22749        49.000  
  23938537.19549 125797861.49649      9154.72749        50.000  
  24889142.64849 130793326.68049     16241.86349        49.000  
  22457778.74249 118016423.66849     -5377.96549        49.000  
 16 04 02 14 13 21.3000000  0  4G16G07G04G09                                    
  21921640.41449 115198997.27349      3805.98449        49.000  
  23938363.00849 125796946.13349      9151.55949        50.000  
  24888833.61749 130791702.57849     16239.86749        49.000  
  22457881.13349 118016961.72349     -5383.78949        49.000  
 16 04 02 14 13 21.4000000  0  4G16G07G04G09                                    
  21921568.03949 115198616.89849      3801.59849        49.000  
  23938188.89149 125796031.14149      9148.07449        49.000  
  24888524.60249 130790078.70349     16237.73449        49.000  
  22457983.64149 118017500.40649     -5389.80149        49.000  
 16 04 02 14 13 21.5000000  0  4G16G07G04G09                                    
  21921495.74249 115198236.98049      3796.89849        49.000  
  23938014.83649 125795116.49249      9144.31649        49.000  
  24888215.61749 130788455.06249     16235.23449        49.000  
  22458086.26649 118018039.71949     -5396.23449        49.000  
 16 04 02 14 13 21.6000000  0  4G16G07G04G09                                    
  21921423.53949 115197857.53949      3792.08649        49.000  
  23937840.87549 125794202.25049      9140.38749        50.000  
  24887906.69549 130786831.66449     16232.75449        49.000  
  22458189.01649 118018579.68049     -5402.85549        49.000  
 16 04 02 14 13 21.7000000  0  4G16G07G04G09                                    
  21921351.43049 115197478.59049      3787.03949        49.000  
  23937666.96949 125793288.37549      9136.43849        50.000  
  24887597.83649 130785208.51649     16230.08249        49.000  
  22458291.88349 118019120.27349     -5409.41049        49.000  
 16 04 02 14 13 21.8000000  0  4G16G07G04G09                                    
  21921279.40649 115197100.09449      3782.67649        49.000  
  23937493.14849 125792374.87149      9132.93049        50.000  
  24887289.00849 130783585.60949     16227.93849        49.000  
  22458394.88349 118019661.51649     -5415.67249        49.000  
 16 04 02 14 13 21.9000000  0  4G16G07G04G09                                    
  21921207.47749 115196722.08649      3777.85249        49.000  
  23937319.38349 125791461.73449      9129.28149        50.000  
  24886980.24249 130781962.95349     16225.47349        49.000  
  22458498.00049 118020203.38749     -5421.87949        49.000  
 16 04 02 14 13 22.0000000  0  4G16G07G04G09                                    
  21921135.60949 115196344.46549      3774.04749        49.000  
  23937145.70349 125790548.92249      9126.28949        50.000  
  24886671.49249 130780340.46149     16223.88349        49.000  
  22458601.21949 118020745.83249     -5427.53949        49.000  
 16 04 02 14 13 22.1000000  0  4G16G07G04G09                                    
  21921063.85249 115195967.35249      3769.02749        49.000  
  23936972.07049 125789636.50449      9122.34849        50.000  
  24886362.78949 130778718.25049     16221.16849        49.000  
  22458704.57049 118021288.94949     -5434.18449        49.000  
 16 04 02 14 13 22.2000000  0  4G16G07G04G09                                    
  21920992.18049 115195590.67649      3764.56649        49.000  
  23936798.50049 125788724.41849      9118.90649        50.000  
  24886054.13349 130777096.23849     16219.02749        49.000  
  22458808.03949 118021832.65249     -5440.13349        49.000  
 16 04 02 14 13 22.3000000  0  4G16G07G04G09                                    
  21920920.57849 115195214.43449      3760.27749        49.000  
  23936625.00049 125787812.67649      9115.40249        50.000  
  24885745.50049 130775474.43849     16216.89149        49.000  
  22458911.61749 118022376.97749     -5446.39149        49.000  
 16 04 02 14 13 22.4000000  0  4G16G07G04G09                                    
  21920849.07849 115194838.69149      3755.15249        49.000  
  23936451.57849 125786901.34049      9111.39149        50.000  
  24885436.93049 130773852.90249     16214.24649        49.000  
  22459015.32849 118022921.96549     -5453.03549        49.000  
 16 04 02 14 13 22.5000000  0  4G16G07G04G09                                    
  21920777.67249 115194463.44549      3750.21549        49.000  
  23936278.23449 125785990.39549      9107.50049        50.000  
  24885128.41449 130772231.64549     16211.53149        49.000  
  22459119.16449 118023467.60249     -5459.48849        49.000  
 16 04 02 14 13 22.6000000  0  4G16G07G04G09                                    
  21920706.34449 115194088.58649      3746.39849        49.000  
  23936104.94549 125785079.75849      9104.42649        50.000  
  24884819.93049 130770610.54349     16209.91049        49.000  
  22459223.10249 118024013.80949     -5465.17249        49.000  
 16 04 02 14 13 22.7000000  0  4G16G07G04G09                                    
  21920635.08649 115193714.16049      3741.97749        49.000  
  23935931.71149 125784169.42649      9101.11749        50.000  
  24884511.46149 130768989.63349     16207.87149        49.000  
  22459327.15649 118024560.60249     -5471.15649        49.000  
 16 04 02 14 13 22.8000000  0  4G16G07G04G09                                    
  21920563.94549 115193340.30149      3736.23449        49.000  
  23935758.57049 125783259.58649      9096.22349        50.000  
  24884203.07849 130767369.08249     16204.27749        49.000  
  22459431.34449 118025108.13749     -5478.64549        50.000  
 16 04 02 14 13 22.9000000  0  4G16G07G04G09                                    
  21920492.89149 115192966.89849      3731.65649        49.000  
  23935585.50049 125782350.10249      9092.70749        50.000  
  24883894.71949 130765748.74649     16202.07449        49.000  
  22459535.64849 118025656.28549     -5484.76249        50.000  
 16 04 02 14 13 23.0000000  0  4G16G07G04G09                                    
  21920421.90649 115192593.89549      3727.85949        49.000  
  23935412.49249 125781440.92649      9089.85249        50.000  
  24883586.41449 130764128.58649     16200.42649        49.000  
  22459640.06249 118026205.01249     -5490.36349        50.000  
 16 04 02 14 13 23.1000000  0  4G16G07G04G09                                    
  21920351.00849 115192221.32049      3723.75849        49.000  
  23935239.53949 125780532.05949      9086.91449        50.000  
  24883278.15649 130762508.61349     16198.80149        49.000  
  22459744.59449 118026754.32449     -5496.05149        50.000  
 16 04 02 14 13 23.2000000  0  4G16G07G04G09                                    
  21920280.21149 115191849.23049      3718.62149        49.000  
  23935066.66449 125779623.59449      9082.60949        50.000  
  24882969.93049 130760888.91049     16195.94149        49.000  
  22459849.25849 118027304.29349     -5502.87549        50.000  
 16 04 02 14 13 23.3000000  0  4G16G07G04G09                                    
  21920209.49249 115191477.62949      3713.74649        49.000  
  23934893.86749 125778715.53149      9078.58249        49.000  
  24882661.77349 130759269.46549     16193.24649        49.000  
  22459954.03149 118027854.91449     -5509.48449        50.000  
 16 04 02 14 13 23.4000000  0  4G16G07G04G09                                    
  21920138.85249 115191106.42649      3709.85249        49.000  
  23934721.13349 125777807.76249      9075.65649        49.000  
  24882353.63349 130757650.18849     16191.69149        49.000  
  22460058.91449 118028406.09849     -5515.05149        49.000  
 16 04 02 14 13 23.5000000  0  4G16G07G04G09                                    
  21920068.30549 115190735.70749      3704.92649        49.000  
  23934548.46149 125776900.37949      9071.81649        49.000  
  24882045.53949 130756031.17249     16189.07049        49.000  
  22460163.92249 118028957.93849     -5521.53949        50.000  
 16 04 02 14 13 23.6000000  0  4G16G07G04G09                                    
  21919997.83649 115190365.38349      3701.10249        49.000  
  23934375.82049 125775993.28549      9069.01249        49.000  
  24881737.47749 130754412.30549     16187.64149        49.000  
  22460269.04749 118029510.33249     -5526.96949        50.000  
