     2.10           OBSERVATION DATA    G (GPS)             RINEX VERSION / TYPE
Convert v1.8.0                          09-Jun-2016 15:02   PGM / RUN BY / DATE 
Signal Strength values S1,S2 are in dBHz                    COMMENT             
                                                            MARKER NAME         
                                                            MARKER NUMBER       
                                                            OBSERVER / AGENCY   
                    NovAtel GPSCard                         REC # / TYPE / VERS 
                                                            ANT # / TYPE        
0.0000        0.0000        0.0000                          APPROX POSITION XYZ 
        0.0000        0.0000        0.0000                  ANTENNA: DELTA H/E/N
     1     0                                                WAVELENGTH FACT L1/2
     1     0     2   G02   G05                              WAVELENGTH FACT L1/2
                                                            COMMENT             
                                                            COMMENT             
                                                            COMMENT             
                                                            COMMENT             
                                                            COMMENT             
                                                            COMMENT             
     4    C1    L1    D1    S1                              # / TYPES OF OBSERV 
     0.100                                                  INTERVAL            
  2016    04    02    13    01     7.1000000    GPS         TIME OF FIRST OBS   
  2016    04    02    13    03    24.0000000    GPS         TIME OF LAST OBS    
Leap Seconds Unknown                                        COMMENT             
                                                            END OF HEADER       
 16 04 02 13 01  7.1000000  0  1G05                                             
  19538863.96949 102677421.68459      1163.66849        49.000  
 16 04 02 13 01  7.2000000  0  1G05                                             
  19538841.88349 102677305.64549      1156.71949        49.000  
 16 04 02 13 01  7.3000000  0  1G05                                             
  19538819.93849 102677190.30949      1150.02049        49.000  
 16 04 02 13 01  7.4000000  0  1G05                                             
  19538798.11749 102677075.62149      1143.43849        49.000  
 16 04 02 13 01  7.5000000  0  2G05G02                                          
  19538776.43049 102676961.59849      1136.77049        49.000  
  19420817.70349 102057084.38359     -9888.99249        49.000  
 16 04 02 13 01  7.6000000  0  2G05G02                                          
  19538754.85949 102676848.27049      1129.68449        49.000  
  19421005.93849 102058073.57049     -9894.46549        49.000  
 16 04 02 13 01  7.7000000  0  2G05G02                                          
  19538733.43049 102676735.65249      1122.61349        49.000  
  19421194.25849 102059063.27749     -9899.76649        49.000  
 16 04 02 13 01  7.8000000  0  2G05G02                                          
  19538712.13349 102676623.73049      1115.62149        49.000  
  19421382.68849 102060053.48049     -9904.72349        49.000  
 16 04 02 13 01  7.9000000  0  2G05G02                                          
  19538690.95349 102676512.46149      1109.36349        49.000  
  19421571.22749 102061044.17249     -9909.24649        49.000  
 16 04 02 13 01  8.0000000  0  2G05G02                                          
  19538669.90649 102676401.87149      1102.34449        49.000  
  19421759.84449 102062035.35249     -9914.44149        49.000  
 16 04 02 13 01  8.1000000  0  2G05G02                                          
  19538649.01649 102676292.01649      1095.10549        49.000  
  19421948.56249 102063027.09049     -9919.93849        49.000  
 16 04 02 13 01  8.2000000  0  2G05G02                                          
  19538628.24249 102676182.84849      1088.05549        49.000  
  19422137.37549 102064019.32049     -9924.94549        49.000  
 16 04 02 13 01  8.3000000  0  2G05G02                                          
  19538607.58649 102676074.28149      1082.10249        49.000  
  19422326.27349 102065011.99649     -9929.22349        49.000  
 16 04 02 13 01  8.4000000  0  2G05G02                                          
  19538587.06249 102675966.43049      1075.15649        49.000  
  19422515.28149 102066005.21549     -9934.62149        49.000  
 16 04 02 13 01  8.5000000  0  2G05G02                                          
  19538566.68049 102675859.25849      1068.25449        49.000  
  19422704.37549 102066998.89149     -9939.30549        49.000  
 16 04 02 13 01  8.6000000  0  2G05G02                                          
  19538546.42249 102675752.80549      1060.85249        49.000  
  19422893.57849 102067993.12949     -9945.10949        49.000  
 16 04 02 13 01  8.7000000  0  2G05G02                                          
  19538526.30549 102675647.05549      1054.09449        49.000  
  19423082.88349 102068987.87949     -9949.94149        49.000  
 16 04 02 13 01  8.8000000  0  2G05G02                                          
  19538506.29749 102675541.91049      1048.06649        49.000  
  19423272.25849 102069983.06249     -9954.14149        49.000  
 16 04 02 13 01  8.9000000  0  2G05G02                                          
  19538486.41449 102675437.44549      1041.17249        49.000  
  19423461.74249 102070978.73049     -9959.26249        49.000  
 16 04 02 13 01  9.0000000  0  2G05G02                                          
  19538466.66449 102675333.66849      1034.31249        49.000  
  19423651.30549 102071974.91449     -9964.28149        49.000  
 16 04 02 13 01  9.1000000  0  2G05G02                                          
  19538447.03949 102675230.55149      1027.88349        49.000  
  19423840.96149 102072971.57849     -9969.05149        49.000  
 16 04 02 13 01  9.2000000  0  2G05G02                                          
  19538427.55549 102675128.14849      1020.39549        49.000  
  19424030.71949 102073968.76649     -9974.41849        49.000  
 16 04 02 13 01  9.3000000  0  2G05G02                                          
  19538408.21949 102675026.46549      1013.25449        49.000  
  19424220.57049 102074966.49649     -9980.00849        49.000  
 16 04 02 13 01  9.4000000  0  2G05G02                                          
  19538388.98449 102674925.40249      1007.08249        49.000  
  19424410.51649 102075964.66049     -9984.15649        49.000  
 16 04 02 13 01  9.5000000  0  2G05G02                                          
  19538369.89149 102674825.02049      1000.34049        49.000  
  19424600.57849 102076963.32849     -9989.21549        49.000  
 16 04 02 13 01  9.6000000  0  2G05G02                                          
  19538350.93049 102674725.36349       993.01649        49.000  
  19424790.71949 102077962.52749     -9994.69949        49.000  
 16 04 02 13 01  9.7000000  0  2G05G02                                          
  19538332.09449 102674626.39849       985.97349        49.000  
  19424980.95349 102078962.25049     -9999.92249        49.000  
 16 04 02 13 01  9.8000000  0  2G05G02                                          
  19538313.39149 102674528.10249       979.44149        49.000  
  19425171.28149 102079962.45349    -10004.50049        49.000  
 16 04 02 13 01  9.9000000  0  2G05G02                                          
  19538294.81249 102674430.45749       972.99249        49.000  
  19425361.73449 102080963.13749    -10009.39549        49.000  
 16 04 02 13 01 10.0000000  0  2G05G02                                          
  19538276.36749 102674333.54349       965.69149        49.000  
  19425552.25849 102081964.34449    -10014.60549        49.000  
 16 04 02 13 01 10.1000000  0  2G05G02                                          
  19538258.04749 102674237.27749       959.18449        49.000  
  19425742.87549 102082966.05549    -10019.69149        49.000  
 16 04 02 13 01 10.2000000  0  2G05G02                                          
  19538239.85949 102674141.67249       952.74249        49.000  
  19425933.57849 102083968.21149    -10023.98449        49.000  
 16 04 02 13 01 10.3000000  0  2G05G02                                          
  19538221.78949 102674046.78949       945.41049        49.000  
  19426124.36749 102084970.90649    -10029.41049        49.000  
 16 04 02 13 01 10.4000000  0  2G05G02                                          
  19538203.85949 102673952.55549       938.84049        49.000  
  19426315.26649 102085974.08649    -10034.33249        49.000  
 16 04 02 13 01 10.5000000  0  2G05G02                                          
  19538186.04749 102673859.00449       932.01249        49.000  
  19426506.25849 102086977.76249    -10039.33649        49.000  
 16 04 02 13 01 10.6000000  0  2G05G02                                          
  19538168.37549 102673766.12549       925.22749        49.000  
  19426697.34449 102087981.91849    -10044.13349        49.000  
 16 04 02 13 01 10.7000000  0  2G05G02                                          
  19538150.83649 102673673.94149       918.31649        49.000  
  19426888.52349 102088986.59449    -10049.37149        49.000  
 16 04 02 13 01 10.8000000  0  2G05G02                                          
  19538133.43049 102673582.46149       911.13349        49.000  
  19427079.80549 102089991.78549    -10054.62549        49.000  
 16 04 02 13 01 10.9000000  0  2G05G02                                          
  19538116.14149 102673491.63349       904.80949        49.000  
  19427271.16449 102090997.45349    -10059.03149        49.000  
 16 04 02 13 01 11.0000000  0  2G05G02                                          
  19538098.98449 102673401.45749       898.19949        49.000  
  19427462.62549 102092003.59049    -10063.91849        49.000  
 16 04 02 13 01 11.1000000  0  2G05G02                                          
  19538081.96949 102673312.02049       891.00449        49.000  
  19427654.18849 102093010.28549    -10069.39149        49.000  
 16 04 02 13 01 11.2000000  0  2G05G02                                          
  19538065.07049 102673223.21949       884.54749        49.000  
  19427845.83649 102094017.41849    -10073.75849        49.000  
 16 04 02 13 01 11.3000000  0  2G05G02                                          
  19538048.29749 102673135.09449       877.72749        49.000  
  19428037.59449 102095025.06249    -10078.89849        49.000  
 16 04 02 13 01 11.4000000  0  2G05G02                                          
  19538031.65649 102673047.65249       870.91049        49.000  
  19428229.43849 102096033.20749    -10083.98049        49.000  
 16 04 02 13 01 11.5000000  0  2G05G02                                          
  19538015.15649 102672960.94949       863.55149        49.000  
  19428421.39149 102097041.88749    -10089.38349        49.000  
 16 04 02 13 01 11.6000000  0  2G05G02                                          
  19537998.78149 102672874.92249       856.81249        49.000  
  19428613.43849 102098051.07849    -10094.42249        49.000  
 16 04 02 13 01 11.7000000  0  2G05G02                                          
  19537982.53149 102672789.49649       850.78149        49.000  
  19428805.55549 102099060.68849    -10098.55549        49.000  
 16 04 02 13 01 11.8000000  0  2G05G02                                          
  19537966.40649 102672704.78549       843.68049        49.000  
  19428997.78149 102100070.82449    -10103.82849        49.000  
 16 04 02 13 01 11.9000000  0  2G05G02                                          
  19537950.41449 102672620.73849       837.03549        49.000  
  19429190.10249 102101081.45349    -10108.82849        49.000  
 16 04 02 13 01 12.0000000  0  2G05G02                                          
  19537934.56249 102672537.40649       829.96549        49.000  
  19429382.50849 102102092.59449    -10113.88749        49.000  
 16 04 02 13 01 12.1000000  0  2G05G02                                          
  19537918.82049 102672454.69149       823.73049        49.000  
  19429575.00849 102103104.18449    -10118.40649        49.000  
 16 04 02 13 01 12.2000000  0  2G05G02                                          
  19537903.21949 102672372.69149       816.55949        49.000  
  19429767.60249 102104116.29349    -10123.69549        49.000  
 16 04 02 13 01 12.3000000  0  2G05G02                                          
  19537887.74249 102672291.37149       809.69149        49.000  
  19429960.28949 102105128.90649    -10128.65649        49.000  
 16 04 02 13 01 12.4000000  0  2G05G02                                          
  19537872.39149 102672210.72349       803.03949        49.000  
  19430153.07049 102106141.99649    -10133.39549        49.000  
 16 04 02 13 01 12.5000000  0  2G05G02                                          
  19537857.17249 102672130.75049       796.21149        49.000  
  19430345.96949 102107155.59849    -10138.56649        49.000  
 16 04 02 13 01 12.6000000  0  2G05G02                                          
  19537842.08649 102672051.48049       789.18049        49.000  
  19430538.94549 102108169.71549    -10143.73849        49.000  
 16 04 02 13 01 12.7000000  0  2G05G02                                          
  19537827.14149 102671972.91449       782.27349        49.000  
  19430732.00049 102109184.34449    -10148.77749        49.000  
 16 04 02 13 01 12.8000000  0  2G05G02                                          
  19537812.32049 102671895.03549       775.38349        49.000  
  19430925.17249 102110199.47349    -10153.78149        49.000  
 16 04 02 13 01 12.9000000  0  2G05G02                                          
  19537797.62549 102671817.77349       769.11749        49.000  
  19431118.43049 102111215.04749    -10158.29749        49.000  
 16 04 02 13 01 13.0000000  0  2G05G02                                          
  19537783.04749 102671741.18449       762.33649        49.000  
  19431311.78149 102112231.11349    -10163.12949        49.000  
 16 04 02 13 01 13.1000000  0  2G05G02                                          
  19537768.62549 102671665.36349       754.70749        49.000  
  19431505.25049 102113247.76249    -10169.03949        49.000  
 16 04 02 13 01 13.2000000  0  2G05G02                                          
  19537754.31249 102671590.17649       748.49249        49.000  
  19431698.79749 102114264.85949    -10173.49649        49.000  
 16 04 02 13 01 13.3000000  0  2G05G02                                          
  19537740.13349 102671515.65249       741.58649        49.000  
  19431892.42249 102115282.43049    -10178.46949        49.000  
 16 04 02 13 01 13.4000000  0  2G05G02                                          
  19537726.08649 102671441.84049       734.68049        49.000  
  19432086.16449 102116300.52749    -10183.45749        49.000  
 16 04 02 13 01 13.5000000  0  2G05G02                                          
  19537712.17249 102671368.68049       728.15649        49.000  
  19432280.00849 102117319.10549    -10188.16849        49.000  
 16 04 02 13 01 13.6000000  0  2G05G02                                          
  19537698.37549 102671296.15249       721.83249        49.000  
  19432473.92249 102118338.12549    -10192.72349        49.000  
 16 04 02 13 01 13.7000000  0  2G05G02                                          
  19537684.71949 102671224.34049       714.63349        49.000  
  19432667.96149 102119357.68049    -10198.02749        49.000  
 16 04 02 13 01 13.8000000  0  2G05G02                                          
  19537671.18049 102671153.19549       707.83649        49.000  
  19432862.07049 102120377.71149    -10202.94549        49.000  
 16 04 02 13 01 13.9000000  0  2G05G02                                          
  19537657.77349 102671082.75849       700.95349        49.000  
  19433056.26649 102121398.28149    -10208.06649        49.000  
 16 04 02 13 01 14.0000000  0  2G05G02                                          
  19537644.49249 102671012.99249       694.19949        49.000  
  19433250.56249 102122419.32449    -10212.98849        49.000  
 16 04 02 13 01 14.1000000  0  2G05G02                                          
  19537631.35249 102670943.91449       687.20349        49.000  
  19433444.96949 102123440.87149    -10218.11749        49.000  
 16 04 02 13 01 14.2000000  0  2G05G02                                          
  19537618.33649 102670875.50449       680.65249        49.000  
  19433639.45349 102124462.91049    -10222.93049        49.000  
 16 04 02 13 01 14.3000000  0  2G05G02                                          
  19537605.45349 102670807.78949       673.60549        49.000  
  19433834.04749 102125485.46149    -10228.08249        49.000  
 16 04 02 13 01 14.4000000  0  2G05G02                                          
  19537592.70349 102670740.78949       666.39549        49.000  
  19434028.72749 102126508.53549    -10233.47349        49.000  
 16 04 02 13 01 14.5000000  0  2G05G02                                          
  19537580.07849 102670674.46149       659.71149        49.000  
  19434223.49249 102127532.10249    -10238.21549        49.000  
 16 04 02 13 01 14.6000000  0  2G05G02                                          
  19537567.57849 102670608.79349       653.19949        49.000  
  19434418.36749 102128556.14149    -10243.02749        49.000  
 16 04 02 13 01 14.7000000  0  2G05G02                                          
  19537555.21949 102670543.84449       645.81649        49.000  
  19434613.32849 102129580.72349    -10248.54349        49.000  
 16 04 02 13 01 14.8000000  0  2G05G02                                          
  19537542.99249 102670479.59049       639.03549        49.000  
  19434808.39849 102130605.80949    -10253.52349        49.000  
 16 04 02 13 01 14.9000000  0  2G05G02                                          
  19537530.89149 102670416.02049       632.34449        49.000  
  19435003.54749 102131631.39549    -10258.34049        49.000  
 16 04 02 13 01 15.0000000  0  2G05G02                                          
  19537518.91449 102670353.07449       626.04749        49.000  
  19435198.78949 102132657.42249    -10262.67249        49.000  
 16 04 02 13 01 15.1000000  0  2G05G02                                          
  19537507.06249 102670290.78949       619.49649        49.000  
  19435394.11749 102133683.93449    -10267.38749        49.000  
 16 04 02 13 01 15.2000000  0  2G05G02                                          
  19537495.34449 102670229.19949       612.46549        49.000  
  19435589.54749 102134710.94549    -10272.62149        49.000  
 16 04 02 13 01 15.3000000  0  2G05G02                                          
  19537483.74249 102670168.23849       606.22349        49.000  
  19435785.07849 102135738.40649    -10277.01649        49.000  
 16 04 02 13 01 15.4000000  0  2G05G02                                          
  19537472.28149 102670107.97349       599.16049        49.000  
  19435980.69549 102136766.37149    -10282.13749        49.000  
 16 04 02 13 01 15.5000000  0  2G05G02                                          
  19537460.93849 102670048.37549       592.59049        49.000  
  19436176.39849 102137794.83649    -10287.00849        49.000  
 16 04 02 13 01 15.6000000  0  2G05G02                                          
  19537449.72749 102669989.46549       585.44149        49.000  
  19436372.20349 102138823.78949    -10292.23449        49.000  
 16 04 02 13 01 15.7000000  0  2G05G02                                          
  19537438.65649 102669931.29749       578.19149        49.000  
  19436568.10949 102139853.30949    -10297.66449        49.000  
 16 04 02 13 01 15.8000000  0  2G05G02                                          
  19537427.71949 102669873.78549       571.47749        49.000  
  19436764.10949 102140883.30149    -10302.53949        49.000  
 16 04 02 13 01 15.9000000  0  2G05G02                                          
  19537416.90649 102669816.96549       564.69949        49.000  
  19436960.21149 102141913.78549    -10307.48449        49.000  
 16 04 02 13 01 16.0000000  0  2G05G02                                          
  19537406.22749 102669760.81649       558.06249        49.000  
  19437156.40649 102142944.77749    -10312.35949        49.000  
 16 04 02 13 01 16.1000000  0  2G05G02                                          
  19537395.65649 102669705.28949       551.73849        49.000  
  19437352.68849 102143976.19549    -10316.68849        49.000  
 16 04 02 13 01 16.2000000  0  2G05G02                                          
  19537385.21949 102669650.44949       545.06649        49.000  
  19437549.05549 102145008.11749    -10321.55549        49.000  
 16 04 02 13 01 16.3000000  0  2G05G02                                          
  19537374.91449 102669596.28549       538.07849        49.000  
  19437745.52349 102146040.53149    -10326.68049        49.000  
 16 04 02 13 01 16.4000000  0  2G05G02                                          
  19537364.74249 102669542.81249       531.14549        49.000  
  19437942.08649 102147073.45749    -10331.93049        49.000  
 16 04 02 13 01 16.5000000  0  2G05G02                                          
  19537354.68049 102669490.00449       524.60249        49.000  
  19438138.72749 102148106.84849    -10336.45349        49.000  
 16 04 02 13 01 16.6000000  0  2G05G02                                          
  19537344.75849 102669437.85249       517.97749        49.000  
  19438335.46949 102149140.72749    -10341.34049        49.000  
 16 04 02 13 01 16.7000000  0  2G05G02                                          
  19537334.96949 102669386.43849       510.68449        49.000  
  19438532.31249 102150175.14549    -10346.71549        49.000  
 16 04 02 13 01 16.8000000  0  2G05G02                                          
  19537325.31249 102669335.68849       503.98049        49.000  
  19438729.25849 102151210.06249    -10351.73049        49.000  
 16 04 02 13 01 16.9000000  0  2G05G02                                          
  19537315.78949 102669285.62949       497.07849        49.000  
  19438926.29749 102152245.46549    -10356.58249        49.000  
 16 04 02 13 01 17.0000000  0  2G05G02                                          
  19537306.39149 102669236.23049       490.59049        49.000  
  19439123.42249 102153281.35249    -10361.33249        49.000  
 16 04 02 13 01 17.1000000  0  2G05G02                                          
  19537297.12549 102669187.52049       483.58649        49.000  
  19439320.64149 102154317.74249    -10366.45749        49.000  
 16 04 02 13 01 17.2000000  0  2G05G02                                          
  19537287.98449 102669139.49249       476.80949        49.000  
  19439517.95349 102155354.62549    -10371.37949        49.000  
 16 04 02 13 01 17.3000000  0  2G05G02                                          
  19537278.96949 102669092.11349       470.51249        49.000  
  19439715.35949 102156391.98449    -10375.94949        49.000  
 16 04 02 13 01 17.4000000  0  2G05G02                                          
  19537270.07049 102669045.36749       464.02749        49.000  
  19439912.84449 102157429.78149    -10380.46949        49.000  
 16 04 02 13 01 17.5000000  0  2G05G02                                          
  19537261.31249 102668999.34849       456.76649        49.000  
  19440110.43049 102158468.12149    -10385.83249        49.000  
 16 04 02 13 01 17.6000000  0  2G05G02                                          
  19537252.68049 102668953.95349       450.64549        49.000  
  19440308.10249 102159506.90649    -10390.20349        49.000  
 16 04 02 13 01 17.7000000  0  2G05G02                                          
  19537244.15649 102668909.20749       444.02749        49.000  
  19440505.85949 102160546.14549    -10394.81249        49.000  
 16 04 02 13 01 17.8000000  0  2G05G02                                          
  19537235.77349 102668865.12949       437.48849        49.000  
  19440703.71149 102161585.87549    -10399.57849        49.000  
 16 04 02 13 01 17.9000000  0  2G05G02                                          
  19537227.51649 102668821.75849       430.47349        49.000  
  19440901.64849 102162626.12949    -10404.91449        49.000  
 16 04 02 13 01 18.0000000  0  2G05G02                                          
  19537219.39149 102668779.03949       423.67649        49.000  
  19441099.68849 102163666.83649    -10409.63349        49.000  
 16 04 02 13 01 18.1000000  0  2G05G02                                          
  19537211.39849 102668737.05949       416.30949        49.000  
  19441297.84449 102164708.10949    -10415.25849        49.000  
 16 04 02 13 01 18.2000000  0  2G05G02                                          
  19537203.52349 102668695.69549       410.22749        49.000  
  19441496.07849 102165749.81249    -10419.43049        49.000  
 16 04 02 13 01 18.3000000  0  2G05G02                                          
  19537195.78949 102668655.03549       403.21549        49.000  
  19441694.40649 102166792.03149    -10424.64549        49.000  
 16 04 02 13 01 18.4000000  0  2G05G02                                          
  19537188.18049 102668615.04749       396.43049        49.000  
  19441892.82849 102167834.73049    -10429.43849        49.000  
 16 04 02 13 01 18.5000000  0  2G05G02                                          
  19537180.69549 102668575.73449       389.64549        49.000  
  19442091.33649 102168877.93049    -10434.45749        49.000  
 16 04 02 13 01 18.6000000  0  2G05G02                                          
  19537173.34449 102668537.09449       382.98849        49.000  
  19442289.94549 102169921.60949    -10439.22349        49.000  
 16 04 02 13 01 18.7000000  0  2G05G02                                          
  19537166.10949 102668499.12949       376.30149        49.000  
  19442488.65649 102170965.78949    -10444.18849        49.000  
 16 04 02 13 01 18.8000000  0  2G05G02                                          
  19537159.02349 102668461.86749       369.09049        49.000  
  19442687.45349 102172010.47749    -10449.51649        49.000  
 16 04 02 13 01 18.9000000  0  2G05G02                                          
  19537152.07049 102668425.32049       361.96549        49.000  
  19442886.35249 102173055.70349    -10454.80149        49.000  
 16 04 02 13 01 19.0000000  0  2G05G02                                          
  19537145.23449 102668389.41849       355.59449        49.000  
  19443085.33649 102174101.38349    -10459.29749        49.000  
 16 04 02 13 01 19.1000000  0  2G05G02                                          
  19537138.52349 102668354.17249       349.00049        49.000  
  19443284.43049 102175147.52749    -10463.96149        49.000  
 16 04 02 13 01 19.2000000  0  2G05G02                                          
  19537131.95349 102668319.61749       342.02349        49.000  
  19443483.60249 102176194.18849    -10469.22749        49.000  
 16 04 02 13 01 19.3000000  0  2G05G02                                          
  19537125.52349 102668285.78549       334.93449        49.000  
  19443682.86749 102177241.37149    -10474.18849        49.000  
 16 04 02 13 01 19.4000000  0  2G05G02                                          
  19537119.19549 102668252.52049       329.05949        49.000  
  19443882.21949 102178288.94949    -10478.36749        49.000  
 16 04 02 13 01 19.5000000  0  2G05G02                                          
  19537113.00849 102668220.00049       321.76249        49.000  
  19444081.68049 102179337.08249    -10483.73449        49.000  
 16 04 02 13 01 19.6000000  0  2G05G02                                          
  19537106.94549 102668188.14149       315.04749        49.000  
  19444281.22749 102180385.69149    -10488.68049        49.000  
 16 04 02 13 01 19.7000000  0  2G05G02                                          
  19537101.02349 102668156.96949       308.35949        49.000  
  19444480.87549 102181434.80949    -10493.55549        49.000  
 16 04 02 13 01 19.8000000  0  2G05G02                                          
  19537095.21949 102668126.44549       301.82849        49.000  
  19444680.60249 102182484.37549    -10498.18049        49.000  
 16 04 02 13 01 19.9000000  0  2G05G02                                          
  19537089.53149 102668096.56649       295.44149        49.000  
  19444880.41449 102183534.40249    -10502.69949        49.000  
 16 04 02 13 01 20.0000000  0  2G05G02                                          
  19537083.98449 102668067.43049       287.94149        49.000  
  19445080.33649 102184585.00049    -10508.42649        49.000  
 16 04 02 13 01 20.1000000  0  2G05G02                                          
  19537078.55549 102668038.93449       281.32049        49.000  
  19445280.35249 102185636.04349    -10513.12149        49.000  
 16 04 02 13 01 20.2000000  0  2G05G02                                          
  19537073.28949 102668011.24249       273.50849        49.000  
  19445480.47749 102186687.70749    -10519.12549        49.000  
 16 04 02 13 01 20.3000000  0  2G05G02                                          
  19537068.11749 102667984.11749       267.85249        49.000  
  19445680.68049 102187739.75049    -10522.91049        49.000  
 16 04 02 13 01 20.4000000  0  2G05G02                                          
  19537063.08649 102667957.69549       260.73049        49.000  
  19445880.97749 102188792.30149    -10528.06249        49.000  
 16 04 02 13 01 20.5000000  0  2G05G02                                          
  19537058.20349 102667931.99249       253.48449        49.000  
  19446081.37549 102189845.39849    -10533.50849        49.000  
 16 04 02 13 01 20.6000000  0  2G05G02                                          
  19537053.43049 102667906.92649       247.11749        49.000  
  19446281.85249 102190898.94149    -10538.09449        49.000  
 16 04 02 13 01 20.7000000  0  2G05G02                                          
  19537048.78149 102667882.51249       240.65249        49.000  
  19446482.41449 102191952.94549    -10542.48049        49.000  
 16 04 02 13 01 20.8000000  0  2G05G02                                          
  19537044.27349 102667858.80549       233.54749        49.000  
  19446683.08649 102193007.47749    -10547.82449        49.000  
 16 04 02 13 01 20.9000000  0  2G05G02                                          
  19537039.88349 102667835.75449       227.15249        49.000  
  19446883.83649 102194062.48449    -10552.41449        49.000  
 16 04 02 13 01 21.0000000  0  2G05G02                                          
  19537035.62549 102667813.37549       220.39149        49.000  
  19447084.68849 102195117.96949    -10557.27049        49.000  
 16 04 02 13 01 21.1000000  0  2G05G02                                          
  19537031.47749 102667791.66449       213.76649        49.000  
  19447285.63349 102196173.93049    -10562.01249        49.000  
 16 04 02 13 01 21.2000000  0  2G05G02                                          
  19537027.46949 102667770.61349       207.06249        49.000  
  19447486.67249 102197230.37149    -10566.85949        49.000  
 16 04 02 13 01 21.3000000  0  2G05G02                                          
  19537023.58649 102667750.19949       200.66049        49.000  
  19447687.78149 102198287.27049    -10571.40649        49.000  
 16 04 02 13 01 21.4000000  0  2G05G02                                          
  19537019.83649 102667730.51249       193.46549        49.000  
  19447889.00049 102199344.70349    -10576.86749        49.000  
 16 04 02 13 01 21.5000000  0  2G05G02                                          
  19537016.21149 102667711.45349       187.16049        49.000  
  19448090.30549 102200402.58249    -10581.33649        49.000  
 16 04 02 13 01 21.6000000  0  2G05G02                                          
  19537012.71949 102667693.07849       180.51649        49.000  
  19448291.70349 102201460.94549    -10586.02349        49.000  
 16 04 02 13 01 21.7000000  0  2G05G02                                          
  19537009.35249 102667675.39849       173.21549        49.000  
  19448493.19549 102202519.82449    -10591.30149        49.000  
 16 04 02 13 01 21.8000000  0  2G05G02                                          
  19537006.12549 102667658.45349       165.81649        49.000  
  19448694.79749 102203579.26649    -10597.14149        49.000  
 16 04 02 13 01 21.9000000  0  2G05G02                                          
  19537003.03949 102667642.19949       158.95349        49.000  
  19448896.50049 102204639.19149    -10601.86749        49.000  
 16 04 02 13 01 22.0000000  0  2G05G02                                          
  19537000.07049 102667626.62949       151.98049        49.000  
  19449098.29749 102205699.62149    -10607.04349        49.000  
 16 04 02 13 01 22.1000000  0  2G05G02                                          
  19536997.23449 102667611.67649       146.22349        49.000  
  19449300.15649 102206760.48449    -10610.94949        49.000  
 16 04 02 13 01 22.2000000  0  2G05G02                                          
  19536994.50849 102667597.37149       139.74649        49.000  
  19449502.12549 102207821.81649    -10615.64549        49.000  
 16 04 02 13 01 22.3000000  0  2G05G02                                          
  19536991.92249 102667583.73049       133.07449        49.000  
  19449704.17249 102208883.59849    -10620.30149        49.000  
 16 04 02 13 01 22.4000000  0  2G05G02                                          
  19536989.46149 102667570.80949       125.76649        49.000  
  19449906.32849 102209945.94149    -10625.80549        49.000  
 16 04 02 13 01 22.5000000  0  2G05G02                                          
  19536987.12549 102667558.55549       118.91049        49.000  
  19450108.57049 102211008.75049    -10630.74649        49.000  
 16 04 02 13 01 22.6000000  0  2G05G02                                          
  19536984.91449 102667546.96549       112.08649        49.000  
  19450310.90649 102212072.04749    -10635.60949        49.000  
 16 04 02 13 01 22.7000000  0  2G05G02                                          
  19536982.85249 102667536.09049       105.28149        49.000  
  19450513.35249 102213135.86349    -10640.68849        49.000  
 16 04 02 13 01 22.8000000  0  2G05G02                                          
  19536980.90649 102667525.86749        98.73849        49.000  
  19450715.87549 102214200.15649    -10645.42249        49.000  
 16 04 02 13 01 22.9000000  0  2G05G02                                          
  19536979.09449 102667516.34049        91.84449        49.000  
  19450918.50049 102215264.94149    -10650.36749        49.000  
 16 04 02 13 01 23.0000000  0  2G05G02                                          
  19536977.40649 102667507.46949        85.29749        49.000  
  19451121.21949 102216330.21149    -10655.16449        49.000  
 16 04 02 13 01 23.1000000  0  2G05G02                                          
  19536975.85249 102667499.27749        78.37549        49.000  
  19451324.03149 102217395.96949    -10660.16849        49.000  
 16 04 02 13 01 23.2000000  0  2G05G02                                          
  19536974.43049 102667491.80149        71.24649        49.000  
  19451526.93849 102218462.25049    -10665.38749        49.000  
 16 04 02 13 01 23.3000000  0  2G05G02                                          
  19536973.13349 102667485.01249        64.28549        49.000  
  19451729.93049 102219529.03149    -10670.45749        49.000  
 16 04 02 13 01 23.4000000  0  2G05G02                                          
  19536971.96949 102667478.85549        58.25449        49.000  
  19451933.02349 102220596.27049    -10674.74649        49.000  
 16 04 02 13 01 23.5000000  0  2G05G02                                          
  19536970.93849 102667473.41449        51.03149        49.000  
  19452136.20349 102221664.02349    -10680.06249        49.000  
 16 04 02 13 01 23.6000000  0  2G05G02                                          
  19536970.03149 102667468.65249        44.16049        49.000  
  19452339.48449 102222732.27049    -10684.96549        49.000  
 16 04 02 13 01 23.7000000  0  2G05G02                                          
  19536969.25049 102667464.56249        37.21549        49.000  
  19452542.85949 102223801.01249    -10690.10249        49.000  
 16 04 02 13 01 23.8000000  0  2G05G02                                          
  19536968.60249 102667461.14549        30.71949        49.000  
  19452746.32049 102224870.21949    -10694.57449        49.000  
 16 04 02 13 01 23.9000000  0  2G05G02                                          
  19536968.07849 102667458.37149        24.25849        49.000  
  19452949.86749 102225939.90249    -10699.32849        49.000  
 16 04 02 13 01 24.0000000  0  2G05G02                                          
  19536967.68849 102667456.32449        16.87949        49.000  
  19453153.52349 102227010.11749    -10704.73849        49.000  
 16 04 02 13 01 24.1000000  0  2G05G02                                          
  19536967.43049 102667454.96149        10.19149        49.000  
  19453357.26649 102228080.83249    -10709.61749        49.000  
 16 04 02 13 01 24.2000000  0  2G05G02                                          
  19536967.28949 102667454.23049         3.85249        49.000  
  19453561.10249 102229151.99649    -10714.12549        49.000  
 16 04 02 13 01 24.3000000  0  2G05G02                                          
  19536967.28149 102667454.21549        -3.34449        49.000  
  19453765.03949 102230223.67649    -10719.26649        49.000  
 16 04 02 13 01 24.4000000  0  2G05G02                                          
  19536967.40649 102667454.89549       -10.33249        49.000  
  19453969.07049 102231295.87949    -10724.56649        49.000  
 16 04 02 13 01 24.5000000  0  2G05G02                                          
  19536967.67249 102667456.27349       -17.48849        49.000  
  19454173.18849 102232368.58249    -10729.95349        49.000  
 16 04 02 13 01 24.6000000  0  2G05G02                                          
  19536968.06249 102667458.30549       -23.79749        49.000  
  19454377.40649 102233441.74249    -10734.06649        49.000  
 16 04 02 13 01 24.7000000  0  2G05G02                                          
  19536968.57049 102667460.97349       -30.04349        49.000  
  19454581.72749 102234515.36749    -10738.51249        49.000  
 16 04 02 13 01 24.8000000  0  2G05G02                                          
  19536969.20349 102667464.28149       -36.41049        49.000  
  19454786.11749 102235589.44949    -10743.16849        49.000  
 16 04 02 13 01 24.9000000  0  2G05G02                                          
  19536969.97749 102667468.33249       -44.14549        49.000  
  19454990.61749 102236664.07049    -10748.90249        49.000  
 16 04 02 13 01 25.0000000  0  2G05G02                                          
  19536970.88349 102667473.06649       -50.68849        49.000  
  19455195.20349 102237739.20349    -10753.75449        49.000  
 16 04 02 13 01 25.1000000  0  2G05G02                                          
  19536971.90649 102667478.43049       -57.23849        49.000  
  19455399.87549 102238814.76249    -10758.25049        49.000  
 16 04 02 13 01 25.2000000  0  2G05G02                                          
  19536973.06249 102667484.51649       -64.20349        49.000  
  19455604.64849 102239890.86349    -10763.49249        49.000  
 16 04 02 13 01 25.3000000  0  2G05G02                                          
  19536974.34449 102667491.25449       -70.83649        49.000  
  19455809.51649 102240967.43049    -10768.17649        49.000  
 16 04 02 13 01 25.4000000  0  2G05G02                                          
  19536975.76649 102667498.72349       -78.09049        49.000  
  19456014.48449 102242044.53549    -10773.53549        49.000  
 16 04 02 13 01 25.5000000  0  2G05G02                                          
  19536977.29749 102667506.80149       -84.35949        49.000  
  19456219.54749 102243122.07049    -10777.95749        49.000  
 16 04 02 13 01 25.6000000  0  2G05G02                                          
  19536978.96949 102667515.61349       -91.53949        49.000  
  19456424.69549 102244200.14149    -10783.14149        49.000  
 16 04 02 13 01 25.7000000  0  2G05G02                                          
  19536980.75849 102667525.04749       -97.95349        49.000  
  19456629.92249 102245278.64549    -10787.64849        49.000  
 16 04 02 13 01 25.8000000  0  2G05G02                                          
  19536982.69549 102667535.22349      -105.21949        49.000  
  19456835.26649 102246357.71549    -10793.19949        49.000  
 16 04 02 13 01 25.9000000  0  2G05G02                                          
  19536984.75049 102667546.04349      -111.54749        49.000  
  19457040.68849 102247437.23849    -10797.66049        49.000  
 16 04 02 13 01 26.0000000  0  2G05G02                                          
  19536986.93049 102667557.48849      -117.88749        49.000  
  19457246.19549 102248517.19149    -10801.93049        49.000  
 16 04 02 13 01 26.1000000  0  2G05G02                                          
  19536989.24249 102667569.60949      -124.73049        49.000  
  19457451.79749 102249597.64149    -10806.92649        49.000  
 16 04 02 13 01 26.2000000  0  2G05G02                                          
  19536991.68049 102667582.44949      -131.74249        49.000  
  19457657.50049 102250678.61749    -10812.18049        49.000  
 16 04 02 13 01 26.3000000  0  2G05G02                                          
  19536994.24249 102667595.92249      -138.07049        49.000  
  19457863.28149 102251760.03549    -10816.53549        49.000  
 16 04 02 13 01 26.4000000  0  2G05G02                                          
  19536996.93049 102667610.03149      -144.49249        49.000  
  19458069.15649 102252841.90249    -10821.06649        49.000  
 16 04 02 13 01 26.5000000  0  2G05G02                                          
  19536999.74249 102667624.82849      -151.42249        49.000  
  19458275.12549 102253924.27749    -10826.16049        49.000  
 16 04 02 13 01 26.6000000  0  2G05G02                                          
  19537002.70349 102667640.37149      -158.91449        49.000  
  19458481.20349 102255007.20749    -10831.80549        49.000  
 16 04 02 13 01 26.7000000  0  2G05G02                                          
  19537005.78949 102667656.63749      -166.26249        49.000  
  19458687.37549 102256090.66449    -10837.20749        49.000  
 16 04 02 13 01 26.8000000  0  2G05G02                                          
  19537009.00849 102667673.55949      -172.89849        49.000  
  19458893.64149 102257174.60249    -10842.12149        49.000  
 16 04 02 13 01 26.9000000  0  2G05G02                                          
  19537012.35249 102667691.13749      -179.43849        49.000  
  19459099.99249 102258258.99249    -10846.60249        49.000  
 16 04 02 13 01 27.0000000  0  2G05G02                                          
  19537015.84449 102667709.47749      -186.92649        49.000  
  19459306.45349 102259343.98049    -10852.34449        49.000  
 16 04 02 13 01 27.1000000  0  2G05G02                                          
  19537019.43849 102667728.43449      -192.97749        49.000  
  19459513.00049 102260429.37949    -10856.50849        49.000  
 16 04 02 13 01 27.2000000  0  2G05G02                                          
  19537023.17249 102667748.05949      -199.52749        49.000  
  19459719.63349 102261515.24649    -10861.05949        49.000  
 16 04 02 13 01 27.3000000  0  2G05G02                                          
  19537027.02349 102667768.28149      -205.56249        49.000  
  19459926.33649 102262601.53949    -10865.25449        49.000  
 16 04 02 13 01 27.4000000  0  2G05G02                                          
  19537031.00049 102667789.20349      -212.59849        49.000  
  19460133.14849 102263688.34049    -10870.47749        49.000  
 16 04 02 13 01 27.5000000  0  2G05G02                                          
  19537035.11749 102667810.83649      -219.85949        49.000  
  19460340.04749 102264775.66849    -10875.91849        49.000  
 16 04 02 13 01 27.6000000  0  2G05G02                                          
  19537039.37549 102667833.17249      -226.97349        49.000  
  19460547.05549 102265863.50049    -10880.91849        49.000  
 16 04 02 13 01 27.7000000  0  2G05G02                                          
  19537043.75849 102667856.21549      -233.85549        49.000  
  19460754.15649 102266951.86349    -10886.14149        49.000  
 16 04 02 13 01 27.8000000  0  2G05G02                                          
  19537048.27349 102667879.93049      -240.83249        49.000  
  19460961.35249 102268040.69549    -10890.97349        49.000  
 16 04 02 13 01 27.9000000  0  2G05G02                                          
  19537052.91449 102667904.33249      -247.48849        49.000  
  19461168.64849 102269130.03949    -10895.91849        49.000  
 16 04 02 13 01 28.0000000  0  2G05G02                                          
  19537057.68849 102667929.41049      -254.11349        49.000  
  19461376.03149 102270219.85949    -10900.60549        49.000  
 16 04 02 13 01 28.1000000  0  2G05G02                                          
  19537062.57849 102667955.15649      -260.94149        49.000  
  19461583.51649 102271310.16849    -10905.48849        49.000  
 16 04 02 13 01 28.2000000  0  2G05G02                                          
  19537067.60249 102667981.53149      -267.26249        49.000  
  19461791.07849 102272400.90649    -10909.97349        49.000  
 16 04 02 13 01 28.3000000  0  2G05G02                                          
  19537072.74249 102668008.56649      -273.71549        49.000  
  19461998.73449 102273492.12949    -10914.60549        49.000  
 16 04 02 13 01 28.4000000  0  2G05G02                                          
  19537078.02349 102668036.30949      -280.78149        49.000  
  19462206.48449 102274583.86349    -10919.61749        49.000  
 16 04 02 13 01 28.5000000  0  2G05G02                                          
  19537083.41449 102668064.69549      -287.24649        49.000  
  19462414.32049 102275676.05949    -10924.30549        49.000  
 16 04 02 13 01 28.6000000  0  2G05G02                                          
  19537088.94549 102668093.75849      -294.41849        49.000  
  19462622.25049 102276768.73849    -10929.62949        49.000  
 16 04 02 13 01 28.7000000  0  2G05G02                                          
  19537094.60949 102668123.53149      -301.09849        49.000  
  19462830.27349 102277861.93049    -10934.37149        49.000  
 16 04 02 13 01 28.8000000  0  2G05G02                                          
  19537100.40649 102668153.98849      -308.16849        49.000  
  19463038.40649 102278955.63749    -10939.61349        49.000  
 16 04 02 13 01 28.9000000  0  2G05G02                                          
  19537106.30549 102668185.03149      -313.81249        49.000  
  19463246.60949 102280049.73449    -10943.41849        49.000  
 16 04 02 13 01 29.0000000  0  2G05G02                                          
  19537112.34449 102668216.73849      -320.29749        49.000  
  19463454.89849 102281144.29749    -10947.96149        49.000  
 16 04 02 13 01 29.1000000  0  2G05G02                                          
  19537118.50049 102668249.13749      -327.38349        49.000  
  19463663.27349 102282239.35949    -10952.89849        49.000  
 16 04 02 13 01 29.2000000  0  2G05G02                                          
  19537124.78949 102668282.16849      -333.91449        49.000  
  19463871.74249 102283334.87549    -10957.76249        49.000  
 16 04 02 13 01 29.3000000  0  2G05G02                                          
  19537131.21949 102668315.98049      -341.44549        49.000  
  19464080.32849 102284430.99649    -10963.53149        49.000  
 16 04 02 13 01 29.4000000  0  2G05G02                                          
  19537137.77349 102668350.41049      -347.85549        49.000  
  19464288.98449 102285527.51649    -10967.72749        49.000  
 16 04 02 13 01 29.5000000  0  2G05G02                                          
  19537144.43849 102668385.45749      -353.83249        49.000  
  19464497.72749 102286624.48449    -10972.12149        49.000  
 16 04 02 13 01 29.6000000  0  2G05G02                                          
  19537151.25049 102668421.24649      -361.34849        49.000  
  19464706.57849 102287722.00449    -10977.69149        49.000  
 16 04 02 13 01 29.7000000  0  2G05G02                                          
  19537158.19549 102668457.73049      -368.57449        49.000  
  19464915.52349 102288820.02349    -10982.95349        49.000  
 16 04 02 13 01 29.8000000  0  2G05G02                                          
  19537165.27349 102668494.91849      -375.69949        49.000  
  19465124.57049 102289918.55949    -10988.35949        49.000  
 16 04 02 13 01 29.9000000  0  2G05G02                                          
  19537172.48449 102668532.81249      -382.49649        49.000  
  19465333.71949 102291017.61349    -10993.14549        49.000  
 16 04 02 13 01 30.0000000  0  2G05G02                                          
  19537179.82049 102668571.37949      -389.13749        49.000  
  19465542.95349 102292117.15249    -10997.96949        49.000  
 16 04 02 13 01 30.1000000  0  2G05G02                                          
  19537187.30549 102668610.68449      -396.66449        49.000  
  19465752.29749 102293217.22749    -11003.40649        49.000  
 16 04 02 13 01 30.2000000  0  2G05G02                                          
  19537194.89849 102668650.59849      -402.51249        49.000  
  19465961.71149 102294317.73049    -11007.37549        49.000  
 16 04 02 13 01 30.3000000  0  2G05G02                                          
  19537202.60949 102668691.14549      -408.85949        49.000  
  19466171.21949 102295418.68449    -11011.82449        49.000  
 16 04 02 13 01 30.4000000  0  2G05G02                                          
  19537210.45349 102668732.37149      -415.52749        49.000  
  19466380.81249 102296520.12149    -11016.64149        49.000  
 16 04 02 13 01 30.5000000  0  2G05G02                                          
  19537218.43049 102668774.27049      -422.60249        49.000  
  19466590.50849 102297622.05949    -11021.93449        49.000  
 16 04 02 13 01 30.6000000  0  2G05G02                                          
  19537226.53949 102668816.87949      -429.45349        49.000  
  19466800.28949 102298724.48849    -11026.77749        49.000  
 16 04 02 13 01 30.7000000  0  2G05G02                                          
  19537234.76649 102668860.13749      -436.23049        49.000  
  19467010.16449 102299827.39149    -11031.65649        49.000  
 16 04 02 13 01 30.8000000  0  2G05G02                                          
  19537243.13349 102668904.12149      -443.41049        49.000  
  19467220.14149 102300930.82849    -11036.88749        49.000  
 16 04 02 13 01 30.9000000  0  2G05G02                                          
  19537251.63349 102668948.79349      -450.18849        49.000  
  19467430.21149 102302034.76649    -11041.82049        49.000  
 16 04 02 13 01 31.0000000  0  2G05G02                                          
  19537260.25049 102668994.07449      -456.38349        49.000  
  19467640.36749 102303139.12949    -11046.12949        49.000  
 16 04 02 13 01 31.1000000  0  2G05G02                                          
  19537269.00849 102669040.11349      -463.83649        49.000  
  19467850.61749 102304244.05949    -11051.76249        49.000  
 16 04 02 13 01 31.2000000  0  2G05G02                                          
  19537277.89149 102669086.82449      -470.62149        49.000  
  19468060.97749 102305349.47349    -11056.73049        49.000  
 16 04 02 13 01 31.3000000  0  2G05G02                                          
  19537286.90649 102669134.16049      -476.78949        49.000  
  19468271.39849 102306455.28949    -11060.78949        49.000  
 16 04 02 13 01 31.4000000  0  2G05G02                                          
  19537296.05549 102669182.23449      -484.35249        49.000  
  19468481.93849 102307561.69149    -11066.41449        49.000  
 16 04 02 13 01 31.5000000  0  2G05G02                                          
  19537305.32849 102669230.95749      -490.79349        49.000  
  19468692.57049 102308668.54749    -11071.13749        49.000  
 16 04 02 13 01 31.6000000  0  2G05G02                                          
  19537314.73449 102669280.38749      -497.87549        49.000  
  19468903.29749 102309775.91449    -11076.20749        49.000  
 16 04 02 13 01 31.7000000  0  2G05G02                                          
  19537324.26649 102669330.50449      -504.73049        49.000  
  19469114.11749 102310883.77349    -11081.20749        49.000  
 16 04 02 13 01 31.8000000  0  2G05G02                                          
  19537333.93849 102669381.32849      -511.88349        49.000  
  19469325.03149 102311992.15249    -11086.30149        49.000  
 16 04 02 13 01 31.9000000  0  2G05G02                                          
  19537343.73449 102669432.83249      -518.73849        49.000  
  19469536.05549 102313101.03149    -11091.41449        49.000  
 16 04 02 13 01 32.0000000  0  2G05G02                                          
  19537353.67249 102669485.02749      -525.55149        49.000  
  19469747.16449 102314210.41449    -11096.39549        49.000  
 16 04 02 13 01 32.1000000  0  2G05G02                                          
  19537363.71149 102669537.79749      -530.98049        49.000  
  19469958.33649 102315320.17249    -11099.90249        49.000  
 16 04 02 13 01 32.2000000  0  2G05G02                                          
  19537373.88349 102669591.26649      -537.91049        49.000  
  19470169.61749 102316430.43449    -11104.90649        49.000  
 16 04 02 13 01 32.3000000  0  2G05G02                                          
  19537384.18849 102669645.39149      -544.72749        49.000  
  19470380.97749 102317541.15649    -11109.78949        49.000  
 16 04 02 13 01 32.4000000  0  2G05G02                                          
  19537394.63349 102669700.27349      -552.32449        49.000  
  19470592.45349 102318652.48049    -11115.67249        49.000  
 16 04 02 13 01 32.5000000  0  2G05G02                                          
  19537405.19549 102669755.79349      -558.67249        49.000  
  19470804.00849 102319764.21949    -11119.96949        49.000  
 16 04 02 13 01 32.6000000  0  2G05G02                                          
  19537415.89149 102669811.99649      -565.59449        49.000  
  19471015.65649 102320876.45749    -11124.85549        49.000  
 16 04 02 13 01 32.7000000  0  2G05G02                                          
  19537426.71149 102669868.87949      -572.36349        49.000  
  19471227.40649 102321989.20349    -11129.95349        49.000  
 16 04 02 13 01 32.8000000  0  2G05G02                                          
  19537437.68049 102669926.50449      -579.74649        49.000  
  19471439.25049 102323102.47749    -11135.31649        49.000  
 16 04 02 13 01 32.9000000  0  2G05G02                                          
  19537448.75849 102669984.72349      -585.54349        49.000  
  19471651.17249 102324216.16849    -11139.29749        49.000  
 16 04 02 13 01 33.0000000  0  2G05G02                                          
  19537459.96149 102670043.57849      -591.90649        49.000  
  19471863.18849 102325330.30149    -11143.67249        49.000  
 16 04 02 13 01 33.1000000  0  2G05G02                                          
  19537471.29749 102670103.12149      -598.71949        49.000  
  19472075.28949 102326444.92649    -11148.61349        49.000  
 16 04 02 13 01 33.2000000  0  2G05G02                                          
  19537482.75849 102670163.33249      -605.39149        49.000  
  19472287.48449 102327560.02349    -11153.23849        49.000  
 16 04 02 13 01 33.3000000  0  2G05G02                                          
  19537494.32849 102670224.15249      -611.77049        49.000  
  19472499.76649 102328675.56649    -11157.91849        49.000  
 16 04 02 13 01 33.4000000  0  2G05G02                                          
  19537506.03949 102670285.68449      -618.52749        49.000  
  19472712.14149 102329791.60949    -11162.74649        49.000  
 16 04 02 13 01 33.5000000  0  2G05G02                                          
  19537517.87549 102670347.87949      -625.50849        49.000  
  19472924.60949 102330908.14549    -11167.97749        49.000  
 16 04 02 13 01 33.6000000  0  2G05G02                                          
  19537529.83649 102670410.76249      -632.37549        49.000  
  19473137.17249 102332025.15649    -11172.64149        49.000  
 16 04 02 13 01 33.7000000  0  2G05G02                                          
  19537541.93049 102670474.31649      -639.03149        49.000  
  19473349.82849 102333142.65249    -11177.40649        49.000  
 16 04 02 13 01 33.8000000  0  2G05G02                                          
  19537554.14849 102670538.52049      -645.45349        49.000  
  19473562.57049 102334260.62149    -11182.07849        49.000  
 16 04 02 13 01 33.9000000  0  2G05G02                                          
  19537566.50049 102670603.42249      -652.59849        49.000  
  19473775.40649 102335379.08249    -11187.22749        49.000  
 16 04 02 13 01 34.0000000  0  2G05G02                                          
  19537578.98449 102670669.03949      -659.59849        49.000  
  19473988.34449 102336498.07449    -11192.29349        49.000  
 16 04 02 13 01 34.1000000  0  2G05G02                                          
  19537591.58649 102670735.24249      -665.52349        49.000  
  19474201.34449 102337617.45749    -11196.36749        49.000  
 16 04 02 13 01 34.2000000  0  2G05G02                                          
  19537604.32849 102670802.18449      -672.90249        49.000  
  19474414.46149 102338737.38749    -11201.75049        49.000  
 16 04 02 13 01 34.3000000  0  2G05G02                                          
  19537617.19549 102670869.82049      -680.03149        49.000  
  19474627.68049 102339857.84049    -11207.20749        49.000  
 16 04 02 13 01 34.4000000  0  2G05G02                                          
  19537630.18849 102670938.12949      -686.74649        49.000  
  19474840.97749 102340978.74649    -11211.66449        49.000  
 16 04 02 13 01 34.5000000  0  2G05G02                                          
  19537643.32849 102671007.16849      -693.94549        49.000  
  19475054.39149 102342100.21949    -11217.33649        49.000  
 16 04 02 13 01 34.6000000  0  2G05G02                                          
  19537656.59449 102671076.87949      -700.60249        49.000  
  19475267.89149 102343222.16049    -11221.99649        49.000  
 16 04 02 13 01 34.7000000  0  2G05G02                                          
  19537669.99249 102671147.29349      -707.76649        49.000  
  19475481.49249 102344344.61349    -11227.32449        49.000  
 16 04 02 13 01 34.8000000  0  2G05G02                                          
  19537683.50849 102671218.34849      -714.03949        49.000  
  19475695.17249 102345467.51249    -11231.48849        49.000  
 16 04 02 13 01 34.9000000  0  2G05G02                                          
  19537697.17249 102671290.09849      -720.98449        49.000  
  19475908.94549 102346590.91449    -11236.52349        49.000  
 16 04 02 13 01 35.0000000  0  2G05G02                                          
  19537710.94549 102671362.48849      -727.40249        49.000  
  19476122.81249 102347714.78149    -11241.21149        49.000  
 16 04 02 13 01 35.1000000  0  2G05G02                                          
  19537724.84449 102671435.52049      -733.68449        49.000  
  19476336.75849 102348839.09049    -11245.43449        49.000  
 16 04 02 13 01 35.2000000  0  2G05G02                                          
  19537738.87549 102671509.25449      -740.64149        49.000  
  19476550.80549 102349963.90249    -11250.46949        49.000  
 16 04 02 13 01 35.3000000  0  2G05G02                                          
  19537753.03949 102671583.68449      -747.61349        49.000  
  19476764.95349 102351089.23449    -11255.60549        49.000  
 16 04 02 13 01 35.4000000  0  2G05G02                                          
  19537767.32049 102671658.76649      -754.37949        49.000  
  19476979.18049 102352215.01649    -11260.39149        49.000  
 16 04 02 13 01 35.5000000  0  2G05G02                                          
  19537781.76649 102671734.62549      -762.16849        49.000  
  19477193.51649 102353341.39149    -11266.38349        49.000  
 16 04 02 13 01 35.6000000  0  2G05G02                                          
  19537796.31249 102671811.06649      -767.93849        49.000  
  19477407.93049 102354468.14549    -11270.12149        49.000  
 16 04 02 13 01 35.7000000  0  2G05G02                                          
  19537810.98449 102671888.16849      -774.41049        49.000  
  19477622.43849 102355595.38349    -11274.71949        49.000  
 16 04 02 13 01 35.8000000  0  2G05G02                                          
  19537825.80549 102671966.03949      -782.17249        49.000  
  19477837.05549 102356723.18849    -11280.57049        49.000  
 16 04 02 13 01 35.9000000  0  2G05G02                                          
  19537840.74249 102672044.49649      -788.23849        49.000  
  19478051.73449 102357851.40249    -11284.79749        49.000  
 16 04 02 13 01 36.0000000  0  2G05G02                                          
  19537855.79749 102672123.63749      -794.75049        49.000  
  19478266.52349 102358980.10249    -11289.31649        49.000  
 16 04 02 13 01 36.1000000  0  2G05G02                                          
  19537870.98449 102672203.43049      -801.28549        49.000  
  19478481.39849 102360109.25849    -11293.98449        49.000  
 16 04 02 13 01 36.2000000  0  2G05G02                                          
  19537886.29749 102672283.89549      -807.99249        49.000  
  19478696.35949 102361238.88749    -11298.60949        49.000  
 16 04 02 13 01 36.3000000  0  2G05G02                                          
  19537901.73449 102672365.00449      -814.57849        49.000  
  19478911.40649 102362368.98449    -11303.47749        49.000  
 16 04 02 13 01 36.4000000  0  2G05G02                                          
  19537917.30549 102672446.84049      -821.78949        49.000  
  19479126.55549 102363499.61349    -11308.79749        49.000  
 16 04 02 13 01 36.5000000  0  2G05G02                                          
  19537933.01649 102672529.40249      -829.27349        49.000  
  19479341.82049 102364630.77749    -11314.28149        49.000  
 16 04 02 13 01 36.6000000  0  2G05G02                                          
  19537948.84449 102672612.57449      -835.26249        49.000  
  19479557.15649 102365762.35549    -11318.38749        49.000  
 16 04 02 13 01 36.7000000  0  2G05G02                                          
  19537964.79749 102672696.45749      -842.21549        49.000  
  19479772.58649 102366894.44949    -11323.30949        49.000  
 16 04 02 13 01 36.8000000  0  2G05G02                                          
  19537980.89149 102672781.00449      -848.88349        49.000  
  19479988.10949 102368027.02749    -11328.23849        49.000  
 16 04 02 13 01 36.9000000  0  2G05G02                                          
  19537997.10949 102672866.23449      -855.81249        49.000  
  19480203.71949 102369160.09049    -11333.07849        49.000  
 16 04 02 13 01 37.0000000  0  2G05G02                                          
  19538013.46149 102672952.14149      -862.65649        49.000  
  19480419.43049 102370293.64549    -11338.10249        49.000  
 16 04 02 13 01 37.1000000  0  2G05G02                                          
  19538029.93049 102673038.70349      -869.06249        49.000  
  19480635.21949 102371427.65649    -11342.58649        49.000  
 16 04 02 13 01 37.2000000  0  2G05G02                                          
  19538046.52349 102673125.94549      -875.75849        49.000  
  19480851.10949 102372562.15249    -11347.35249        49.000  
 16 04 02 13 01 37.3000000  0  2G05G02                                          
  19538063.25849 102673213.85549      -882.63749        49.000  
  19481067.07849 102373697.12949    -11352.21549        49.000  
 16 04 02 13 01 37.4000000  0  2G05G02                                          
  19538080.11749 102673302.46149      -889.60549        49.000  
  19481283.15649 102374832.62149    -11357.30949        49.000  
 16 04 02 13 01 37.5000000  0  2G05G02                                          
  19538097.11749 102673391.75049      -896.33649        49.000  
  19481499.32049 102375968.59449    -11362.25049        49.000  
 16 04 02 13 01 37.6000000  0  2G05G02                                          
  19538114.23449 102673481.70749      -903.08249        49.000  
  19481715.57849 102377105.03949    -11366.85249        49.000  
 16 04 02 13 01 37.7000000  0  2G05G02                                          
  19538131.46149 102673572.28149      -909.02749        49.000  
  19481931.93849 102378241.92649    -11371.12549        49.000  
 16 04 02 13 01 37.8000000  0  2G05G02                                          
  19538148.82849 102673663.52749      -915.91849        49.000  
  19482148.36749 102379379.27349    -11375.98049        49.000  
 16 04 02 13 01 37.9000000  0  2G05G02                                          
  19538166.32849 102673755.47749      -922.93049        49.000  
  19482364.89149 102380517.13349    -11381.07449        49.000  
 16 04 02 13 01 38.0000000  0  2G05G02                                          
  19538183.95349 102673848.10949      -929.92249        49.000  
  19482581.51649 102381655.49649    -11386.17649        49.000  
 16 04 02 13 01 38.1000000  0  2G05G02                                          
  19538201.71149 102673941.41849      -936.67249        49.000  
  19482798.22749 102382794.34449    -11391.04349        49.000  
 16 04 02 13 01 38.2000000  0  2G05G02                                          
  19538219.60249 102674035.43049      -943.52049        49.000  
  19483015.03949 102383933.69549    -11395.79749        49.000  
 16 04 02 13 01 38.3000000  0  2G05G02                                          
  19538237.60249 102674130.02749      -949.47749        49.000  
  19483231.93049 102385073.44149    -11399.91449        49.000  
 16 04 02 13 01 38.4000000  0  2G05G02                                          
  19538255.74249 102674225.37949      -956.83249        49.000  
  19483448.92249 102386213.75449    -11405.46949        49.000  
 16 04 02 13 01 38.5000000  0  2G05G02                                          
  19538274.00849 102674321.37549      -963.51249        49.000  
  19483666.00849 102387354.52749    -11410.27349        49.000  
 16 04 02 13 01 38.6000000  0  2G05G02                                          
  19538292.41449 102674418.09449      -970.65649        49.000  
  19483883.18849 102388495.80949    -11415.35949        49.000  
 16 04 02 13 01 38.7000000  0  2G05G02                                          
  19538310.93849 102674515.45349      -977.07849        49.000  
  19484100.44549 102389637.54749    -11419.86349        49.000  
 16 04 02 13 01 38.8000000  0  2G05G02                                          
  19538329.60949 102674613.54749      -984.41849        49.000  
  19484317.81249 102390779.83649    -11425.35249        49.000  
 16 04 02 13 01 38.9000000  0  2G05G02                                          
  19538348.39149 102674712.27049      -990.81649        49.000  
  19484535.27349 102391922.56249    -11429.79349        49.000  
 16 04 02 13 01 39.0000000  0  2G05G02                                          
  19538367.31249 102674811.71549      -997.98849        49.000  
  19484752.82849 102393065.81249    -11435.07849        49.000  
 16 04 02 13 01 39.1000000  0  2G05G02                                          
  19538386.35949 102674911.82449     -1004.66849        49.000  
  19484970.47749 102394209.53549    -11439.84049        49.000  
 16 04 02 13 01 39.2000000  0  2G05G02                                          
  19538405.53949 102675012.62949     -1011.46149        49.000  
  19485188.21149 102395353.75849    -11444.68049        49.000  
 16 04 02 13 01 39.3000000  0  2G05G02                                          
  19538424.85949 102675114.12549     -1018.50049        49.000  
  19485406.04749 102396498.48049    -11449.73449        49.000  
 16 04 02 13 01 39.4000000  0  2G05G02                                          
  19538444.28949 102675216.24249     -1024.52349        49.000  
  19485623.96149 102397643.64149    -11453.94149        49.000  
 16 04 02 13 01 39.5000000  0  2G05G02                                          
  19538463.84449 102675319.00049     -1030.95749        49.000  
  19485841.96149 102398789.23849    -11458.44949        49.000  
 16 04 02 13 01 39.6000000  0  2G05G02                                          
  19538483.53949 102675422.50049     -1038.45749        49.000  
  19486060.06249 102399935.39549    -11463.97749        49.000  
 16 04 02 13 01 39.7000000  0  2G05G02                                          
  19538503.36749 102675526.69149     -1045.48849        49.000  
  19486278.26649 102401082.04349    -11469.02049        49.000  
 16 04 02 13 01 39.8000000  0  2G05G02                                          
  19538523.32849 102675631.57849     -1052.25849        49.000  
  19486496.56249 102402229.19549    -11473.89149        49.000  
 16 04 02 13 01 39.9000000  0  2G05G02                                          
  19538543.39149 102675737.05149     -1058.18849        49.000  
  19486714.94549 102403376.75049    -11477.97349        49.000  
 16 04 02 13 01 40.0000000  0  2G05G02                                          
  19538563.60949 102675843.29349     -1065.61749        49.000  
  19486933.42249 102404524.86749    -11483.33249        49.000  
 16 04 02 13 01 40.1000000  0  2G05G02                                          
  19538583.95349 102675950.18849     -1072.53549        49.000  
  19487151.99249 102405673.45749    -11488.53149        49.000  
 16 04 02 13 01 40.2000000  0  2G05G02                                          
  19538604.42249 102676057.74649     -1078.90249        49.000  
  19487370.64849 102406822.50849    -11492.81649        49.000  
 16 04 02 13 01 40.3000000  0  2G05G02                                          
  19538625.00849 102676165.91049     -1085.02749        49.000  
  19487589.39849 102407971.98849    -11497.22749        49.000  
 16 04 02 13 01 40.4000000  0  2G05G02                                          
  19538645.73449 102676274.82049     -1092.42249        49.000  
  19487808.24249 102409121.99649    -11502.46549        49.000  
 16 04 02 13 01 40.5000000  0  2G05G02                                          
  19538666.58649 102676384.34849     -1098.68849        49.000  
  19488027.17249 102410272.44549    -11506.85949        49.000  
 16 04 02 13 01 40.6000000  0  2G05G02                                          
  19538687.55549 102676494.57449     -1105.75049        49.000  
  19488246.18849 102411423.40249    -11512.05549        49.000  
 16 04 02 13 01 40.7000000  0  2G05G02                                          
  19538708.67249 102676605.50849     -1112.78549        49.000  
  19488465.29749 102412574.86349    -11517.11749        49.000  
 16 04 02 13 01 40.8000000  0  2G05G02                                          
  19538729.91449 102676717.12549     -1119.68449        49.000  
  19488684.51649 102413726.83249    -11522.11749        49.000  
 16 04 02 13 01 40.9000000  0  2G05G02                                          
  19538751.28949 102676829.46149     -1126.89549        49.000  
  19488903.82049 102414879.31249    -11527.35249        49.000  
 16 04 02 13 01 41.0000000  0  2G05G02                                          
  19538772.78949 102676942.43849     -1133.23849        49.000  
  19489123.21149 102416032.24649    -11531.73849        49.000  
 16 04 02 13 01 41.1000000  0  2G05G02                                          
  19538794.41449 102677056.09049     -1139.82049        49.000  
  19489342.70349 102417185.66449    -11536.46549        49.000  
 16 04 02 13 01 41.2000000  0  2G05G02                                          
  19538816.17249 102677170.40649     -1146.82049        49.000  
  19489562.28149 102418339.55149    -11541.53149        49.000  
 16 04 02 13 01 41.3000000  0  2G05G02                                          
  19538838.05549 102677285.41849     -1153.47349        49.000  
  19489781.94549 102419493.93849    -11546.26249        49.000  
 16 04 02 13 01 41.4000000  0  2G05G02                                          
  19538860.06249 102677401.05949     -1159.81649        49.000  
  19490001.70349 102420648.76249    -11550.60249        49.000  
 16 04 02 13 01 41.5000000  0  2G05G02                                          
  19538882.19549 102677517.37549     -1166.57449        49.000  
  19490221.55549 102421804.06649    -11555.54749        49.000  
 16 04 02 13 01 41.6000000  0  2G05G02                                          
  19538904.46949 102677634.41449     -1173.84849        49.000  
  19490441.50049 102422959.90249    -11560.77749        49.000  
 16 04 02 13 01 41.7000000  0  2G05G02                                          
  19538926.87549 102677752.14149     -1181.01249        49.000  
  19490661.54749 102424116.23449    -11566.00449        49.000  
 16 04 02 13 01 41.8000000  0  2G05G02                                          
  19538949.41449 102677870.58249     -1188.03949        49.000  
  19490881.69549 102425273.09849    -11571.21549        49.000  
 16 04 02 13 01 41.9000000  0  2G05G02                                          
  19538972.07049 102677989.69549     -1194.55949        49.000  
  19491101.91449 102426430.42649    -11575.91049        49.000  
 16 04 02 13 01 42.0000000  0  2G05G02                                          
  19538994.86749 102678109.47349     -1201.19949        49.000  
  19491322.24249 102427588.23849    -11580.56249        49.000  
 16 04 02 13 01 42.1000000  0  2G05G02                                          
  19539017.78149 102678229.89849     -1207.67649        49.000  
  19491542.64849 102428746.49249    -11585.03149        49.000  
 16 04 02 13 01 42.2000000  0  2G05G02                                          
  19539040.84449 102678351.07849     -1215.41849        49.000  
  19491763.15649 102429905.30549    -11590.83249        49.000  
 16 04 02 13 01 42.3000000  0  2G05G02                                          
  19539064.02349 102678472.89849     -1221.58649        49.000  
  19491983.76649 102431064.58249    -11595.17649        49.000  
 16 04 02 13 01 42.4000000  0  2G05G02                                          
  19539087.32849 102678595.35249     -1227.98449        49.000  
  19492204.45349 102432224.27749    -11599.41049        49.000  
 16 04 02 13 01 42.5000000  0  2G05G02                                          
  19539110.76649 102678718.54349     -1235.40649        49.000  
  19492425.23449 102433384.52749    -11604.86349        49.000  
 16 04 02 13 01 42.6000000  0  2G05G02                                          
  19539134.33649 102678842.39149     -1241.95349        49.000  
  19492646.10949 102434545.24649    -11609.71149        49.000  
 16 04 02 13 01 42.7000000  0  2G05G02                                          
  19539158.03149 102678966.91849     -1248.69549        49.000  
  19492867.08649 102435706.44949    -11614.40249        49.000  
 16 04 02 13 01 42.8000000  0  2G05G02                                          
  19539181.85249 102679092.12149     -1255.30149        49.000  
  19493088.14849 102436868.14149    -11619.21949        49.000  
 16 04 02 13 01 42.9000000  0  2G05G02                                          
  19539205.78949 102679217.94549     -1261.53949        49.000  
  19493309.29749 102438030.23849    -11623.36749        49.000  
 16 04 02 13 01 43.0000000  0  2G05G02                                          
  19539229.85949 102679344.41449     -1268.04749        49.000  
  19493530.52349 102439192.80549    -11627.93049        49.000  
 16 04 02 13 01 43.1000000  0  2G05G02                                          
  19539254.04749 102679471.53549     -1274.46549        49.000  
  19493751.83649 102440355.82849    -11632.56649        49.000  
 16 04 02 13 01 43.2000000  0  2G05G02                                          
  19539278.37549 102679599.39549     -1281.87549        49.000  
  19493973.25849 102441519.39149    -11638.00849        49.000  
 16 04 02 13 01 43.3000000  0  2G05G02                                          
  19539302.83649 102679727.94549     -1289.30549        49.000  
  19494194.77349 102442683.45349    -11643.34449        49.000  
 16 04 02 13 01 43.4000000  0  2G05G02                                          
  19539327.43049 102679857.17649     -1295.66849        49.000  
  19494416.38349 102443848.00449    -11647.87949        49.000  
 16 04 02 13 01 43.5000000  0  2G05G02                                          
  19539352.15649 102679987.11349     -1302.85249        49.000  
  19494638.07849 102445013.06649    -11653.07449        49.000  
 16 04 02 13 01 43.6000000  0  2G05G02                                          
  19539376.99249 102680117.64849     -1308.87149        49.000  
  19494859.85949 102446178.52749    -11657.13749        49.000  
 16 04 02 13 01 43.7000000  0  2G05G02                                          
  19539401.97749 102680248.93449     -1316.29749        49.000  
  19495081.75049 102447344.55549    -11662.65249        49.000  
 16 04 02 13 01 43.8000000  0  2G05G02                                          
  19539427.08649 102680380.91449     -1323.27749        49.000  
  19495303.72749 102448511.07449    -11667.63349        49.000  
 16 04 02 13 01 43.9000000  0  2G05G02                                          
  19539452.32849 102680513.53149     -1329.66849        49.000  
  19495525.79749 102449678.04749    -11672.24649        49.000  
 16 04 02 13 01 44.0000000  0  2G05G02                                          
  19539477.69549 102680646.84449     -1336.59049        49.000  
  19495747.96149 102450845.52049    -11677.24249        49.000  
 16 04 02 13 01 44.1000000  0  2G05G02                                          
  19539503.18049 102680780.79349     -1342.82849        49.000  
  19495970.21149 102452013.42249    -11681.32849        49.000  
 16 04 02 13 01 44.2000000  0  2G05G02                                          
  19539528.80549 102680915.43449     -1349.77049        49.000  
  19496192.54749 102453181.83649    -11686.43449        49.000  
 16 04 02 13 01 44.3000000  0  2G05G02                                          
  19539554.54749 102681050.73449     -1356.59449        49.000  
  19496414.97749 102454350.71549    -11691.29749        49.000  
 16 04 02 13 01 44.4000000  0  2G05G02                                          
  19539580.42249 102681186.70349     -1363.03549        49.000  
  19496637.50049 102455520.06649    -11695.78949        49.000  
 16 04 02 13 01 44.5000000  0  2G05G02                                          
  19539606.44549 102681323.41449     -1370.75849        49.000  
  19496860.12549 102456689.96949    -11701.68049        49.000  
 16 04 02 13 01 44.6000000  0  2G05G02                                          
  19539632.58649 102681460.80149     -1377.33649        49.000  
  19497082.84449 102457860.34449    -11706.28149        49.000  
 16 04 02 13 01 44.7000000  0  2G05G02                                          
  19539658.85249 102681598.80549     -1383.46949        49.000  
  19497305.64149 102459031.14549    -11710.43449        49.000  
 16 04 02 13 01 44.8000000  0  2G05G02                                          
  19539685.23449 102681737.45749     -1389.88349        49.000  
  19497528.52349 102460202.40249    -11714.84049        49.000  
 16 04 02 13 01 44.9000000  0  2G05G02                                          
  19539711.74249 102681876.77349     -1396.54349        49.000  
  19497751.49249 102461374.13749    -11719.68049        49.000  
 16 04 02 13 01 45.0000000  0  2G05G02                                          
  19539738.38349 102682016.78149     -1403.43849        49.000  
  19497974.55549 102462546.35949    -11724.57849        49.000  
 16 04 02 13 01 45.1000000  0  2G05G02                                          
  19539765.14849 102682157.41049     -1409.75449        49.000  
  19498197.70349 102463719.01649    -11728.96549        49.000  
 16 04 02 13 01 45.2000000  0  2G05G02                                          
  19539792.03949 102682298.72349     -1416.68449        49.000  
  19498420.94549 102464892.16449    -11734.09449        49.000  
 16 04 02 13 01 45.3000000  0  2G05G02                                          
  19539819.07049 102682440.77049     -1423.86749        49.000  
  19498644.28949 102466065.82849    -11739.08249        49.000  
 16 04 02 13 01 45.4000000  0  2G05G02                                          
  19539846.21949 102682583.44549     -1430.27049        49.000  
  19498867.71949 102467239.95749    -11743.73849        49.000  
 16 04 02 13 01 45.5000000  0  2G05G02                                          
  19539873.51649 102682726.88349     -1437.79349        49.000  
  19499091.25049 102468414.62949    -11749.16049        49.000  
 16 04 02 13 01 45.6000000  0  2G05G02                                          
  19539900.93049 102682870.93049     -1443.94949        49.000  
  19499314.86749 102469589.74249    -11753.60549        49.000  
 16 04 02 13 01 45.7000000  0  2G05G02                                          
  19539928.48449 102683015.73849     -1451.72749        49.000  
  19499538.59449 102470765.40249    -11759.17249        49.000  
 16 04 02 13 01 45.8000000  0  2G05G02                                          
  19539956.16449 102683161.16849     -1457.93849        49.000  
  19499762.39849 102471941.50049    -11763.68049        49.000  
 16 04 02 13 01 45.9000000  0  2G05G02                                          
  19539983.96149 102683307.28949     -1464.52049        49.000  
  19499986.30549 102473118.09449    -11768.23049        49.000  
 16 04 02 13 01 46.0000000  0  2G05G02                                          
  19540011.89849 102683454.07449     -1471.42649        49.000  
  19500210.28949 102474295.15249    -11773.21549        49.000  
 16 04 02 13 01 46.1000000  0  2G05G02                                          
  19540039.96149 102683601.53149     -1477.85549        49.000  
  19500434.37549 102475472.68849    -11777.66049        49.000  
 16 04 02 13 01 46.2000000  0  2G05G02                                          
  19540068.14149 102683749.63749     -1484.48849        49.000  
  19500658.53149 102476650.67249    -11782.18849        49.000  
 16 04 02 13 01 46.3000000  0  2G05G02                                          
  19540096.46149 102683898.43049     -1491.38749        49.000  
  19500882.78949 102477829.15649    -11787.22749        49.000  
 16 04 02 13 01 46.4000000  0  2G05G02                                          
  19540124.90649 102684047.91049     -1498.37949        49.000  
  19501107.14149 102479008.14549    -11792.32449        49.000  
 16 04 02 13 01 46.5000000  0  2G05G02                                          
  19540153.48449 102684198.09049     -1505.34449        49.000  
  19501331.58649 102480187.62149    -11797.36349        49.000  
 16 04 02 13 01 46.6000000  0  2G05G02                                          
  19540182.19549 102684348.96549     -1512.17249        49.000  
  19501556.13349 102481367.60949    -11802.31649        49.000  
 16 04 02 13 01 46.7000000  0  2G05G02                                          
  19540211.02349 102684500.43049     -1518.09049        49.000  
  19501780.74249 102482547.98849    -11806.41849        49.000  
 16 04 02 13 01 46.8000000  0  2G05G02                                          
  19540239.98449 102684652.61349     -1525.24649        49.000  
  19502005.46149 102483728.87549    -11811.20349        49.000  
 16 04 02 13 01 46.9000000  0  2G05G02                                          
  19540269.07049 102684805.48849     -1532.21149        49.000  
  19502230.26649 102484910.28549    -11816.52349        49.000  
 16 04 02 13 01 47.0000000  0  2G05G02                                          
  19540298.29749 102684959.05949     -1539.30949        49.000  
  19502455.17249 102486092.18049    -11821.62149        49.000  
 16 04 02 13 01 47.1000000  0  2G05G02                                          
  19540327.63349 102685113.27049     -1545.64549        49.000  
  19502680.17249 102487274.53949    -11826.05149        49.000  
 16 04 02 13 01 47.2000000  0  2G05G02                                          
  19540357.10949 102685268.19149     -1552.56649        49.000  
  19502905.25849 102488457.38749    -11830.83649        49.000  
 16 04 02 13 01 47.3000000  0  2G05G02                                          
  19540386.70349 102685423.71149     -1558.58649        49.000  
  19503130.43049 102489640.66049    -11835.18449        49.000  
 16 04 02 13 01 47.4000000  0  2G05G02                                          
  19540416.43849 102685579.97749     -1566.10249        49.000  
  19503355.70349 102490824.47749    -11840.64849        49.000  
 16 04 02 13 01 47.5000000  0  2G05G02                                          
  19540446.30549 102685736.91049     -1572.89549        49.000  
  19503581.06249 102492008.75849    -11845.32449        49.000  
 16 04 02 13 01 47.6000000  0  2G05G02                                          
  19540476.28149 102685894.46549     -1579.23849        49.000  
  19503806.50849 102493193.46949    -11849.70749        49.000  
 16 04 02 13 01 47.7000000  0  2G05G02                                          
  19540506.40649 102686052.76649     -1586.60549        49.000  
  19504032.05549 102494378.75049    -11855.24649        49.000  
 16 04 02 13 01 47.8000000  0  2G05G02                                          
  19540536.64849 102686211.69549     -1592.62149        49.000  
  19504257.68849 102495564.45349    -11859.53149        49.000  
 16 04 02 13 01 47.9000000  0  2G05G02                                          
  19540567.03149 102686371.35249     -1600.02349        49.000  
  19504483.42249 102496750.67249    -11864.72349        49.000  
 16 04 02 13 01 48.0000000  0  2G05G02                                          
  19540597.52349 102686531.60549     -1605.90649        49.000  
  19504709.23449 102497937.30949    -11868.70349        49.000  
 16 04 02 13 01 48.1000000  0  2G05G02                                          
  19540628.14849 102686692.53549     -1612.83249        49.000  
  19504935.14149 102499124.43449    -11873.73449        49.000  
 16 04 02 13 01 48.2000000  0  2G05G02                                          
  19540658.91449 102686854.19549     -1619.84049        49.000  
  19505161.14149 102500312.08249    -11878.78949        49.000  
 16 04 02 13 01 48.3000000  0  2G05G02                                          
  19540689.78949 102687016.46549     -1626.18849        49.000  
  19505387.21949 102501500.14149    -11883.08649        49.000  
 16 04 02 13 01 48.4000000  0  2G05G02                                          
  19540720.80549 102687179.45349     -1633.38749        49.000  
  19505613.40649 102502688.73049    -11888.44549        49.000  
 16 04 02 13 01 48.5000000  0  2G05G02                                          
  19540751.95349 102687343.11749     -1640.32049        49.000  
  19505839.67249 102503877.80549    -11893.39849        49.000  
 16 04 02 13 01 48.6000000  0  2G05G02                                          
  19540783.22749 102687507.47349     -1646.89149        49.000  
  19506066.03949 102505067.36349    -11898.02049        49.000  
 16 04 02 13 01 48.7000000  0  2G05G02                                          
  19540814.62549 102687672.47349     -1653.67649        49.000  
  19506292.49249 102506257.37149    -11902.64849        49.000  
 16 04 02 13 01 48.8000000  0  2G05G02                                          
  19540846.14149 102687838.11349     -1659.75449        49.000  
  19506519.03149 102507447.85249    -11907.07049        49.000  
 16 04 02 13 01 48.9000000  0  2G05G02                                          
  19540877.80549 102688004.48849     -1667.26249        49.000  
  19506745.66449 102508638.84049    -11912.39549        49.000  
 16 04 02 13 01 49.0000000  0  2G05G02                                          
  19540909.59449 102688171.53149     -1673.86349        49.000  
  19506972.39149 102509830.30949    -11917.12949        49.000  
 16 04 02 13 01 49.1000000  0  2G05G02                                          
  19540941.50049 102688339.19549     -1680.12149        49.000  
  19507199.20349 102511022.20749    -11921.39149        49.000  
 16 04 02 13 01 49.2000000  0  2G05G02                                          
  19540973.53949 102688507.57449     -1687.26649        49.000  
  19507426.10949 102512214.62149    -11926.59049        49.000  
 16 04 02 13 01 49.3000000  0  2G05G02                                          
  19541005.70349 102688676.59449     -1693.61749        49.000  
  19507653.10949 102513407.48849    -11931.04749        49.000  
 16 04 02 13 01 49.4000000  0  2G05G02                                          
  19541038.00049 102688846.32849     -1700.68449        49.000  
  19507880.20349 102514600.87549    -11936.27049        49.000  
 16 04 02 13 01 49.5000000  0  2G05G02                                          
  19541070.43049 102689016.73849     -1707.63749        49.000  
  19508107.37549 102515794.72749    -11941.10949        49.000  
 16 04 02 13 01 49.6000000  0  2G05G02                                          
  19541102.98449 102689187.82449     -1714.33649        49.000  
  19508334.64849 102516989.07049    -11945.70349        49.000  
 16 04 02 13 01 49.7000000  0  2G05G02                                          
  19541135.66449 102689359.53949     -1720.67649        49.000  
  19508562.01649 102518183.85549    -11950.34049        49.000  
 16 04 02 13 01 49.8000000  0  2G05G02                                          
  19541168.47749 102689531.98049     -1727.73449        49.000  
  19508789.46949 102519379.14549    -11955.23449        49.000  
 16 04 02 13 01 49.9000000  0  2G05G02                                          
  19541201.41449 102689705.03149     -1733.92649        49.000  
  19509017.00849 102520574.88349    -11959.77049        49.000  
 16 04 02 13 01 50.0000000  0  2G05G02                                          
  19541234.47749 102689878.77049     -1740.70749        49.000  
  19509244.64149 102521771.08649    -11964.38349        49.000  
 16 04 02 13 01 50.1000000  0  2G05G02                                          
  19541267.67249 102690053.23849     -1748.39149        49.000  
  19509472.37549 102522967.83249    -11970.18449        49.000  
 16 04 02 13 01 50.2000000  0  2G05G02                                          
  19541301.00849 102690228.41849     -1755.25449        49.000  
  19509700.21149 102524165.09849    -11975.14149        49.000  
 16 04 02 13 01 50.3000000  0  2G05G02                                          
  19541334.46949 102690404.24649     -1761.78149        49.000  
  19509928.12549 102525362.80949    -11979.57849        49.000  
 16 04 02 13 01 50.4000000  0  2G05G02                                          
  19541368.03949 102690580.67249     -1767.66049        49.000  
  19510156.12549 102526560.92649    -11983.47349        49.000  
 16 04 02 13 01 50.5000000  0  2G05G02                                          
  19541401.75849 102690757.83249     -1775.01649        49.000  
  19510384.21949 102527759.58249    -11988.89149        49.000  
 16 04 02 13 01 50.6000000  0  2G05G02                                          
  19541435.60949 102690935.75449     -1782.79749        49.000  
  19510612.42249 102528958.79749    -11994.66849        49.000  
 16 04 02 13 01 50.7000000  0  2G05G02                                          
  19541469.58649 102691114.25849     -1788.75449        49.000  
  19510840.71149 102530158.41049    -11998.69149        49.000  
 16 04 02 13 01 50.8000000  0  2G05G02                                          
  19541503.68849 102691293.49249     -1795.62949        49.000  
  19511069.08649 102531358.55949    -12003.74649        49.000  
 16 04 02 13 01 50.9000000  0  2G05G02                                          
  19541537.93049 102691473.39549     -1802.68049        49.000  
  19511297.55549 102532559.16849    -12008.66449        49.000  
 16 04 02 13 01 51.0000000  0  2G05G02                                          
  19541572.29749 102691654.01249     -1809.58249        49.000  
  19511526.12549 102533760.29749    -12013.63749        49.000  
 16 04 02 13 01 51.1000000  0  2G05G02                                          
  19541606.77349 102691835.19549     -1815.18849        49.000  
  19511754.76649 102534961.80949    -12017.40649        49.000  
 16 04 02 13 01 51.2000000  0  2G05G02                                          
  19541641.39149 102692017.10249     -1822.42649        49.000  
  19511983.50049 102536163.83249    -12022.57049        49.000  
 16 04 02 13 01 51.3000000  0  2G05G02                                          
  19541676.13349 102692199.65249     -1829.02049        49.000  
  19512212.32849 102537366.31649    -12027.23049        49.000  
 16 04 02 13 01 51.4000000  0  2G05G02                                          
  19541710.99249 102692382.85949     -1835.37949        49.000  
  19512441.24249 102538569.25849    -12031.73049        49.000  
 16 04 02 13 01 51.5000000  0  2G05G02                                          
  19541745.98449 102692566.73849     -1842.27349        49.000  
  19512670.25049 102539772.66449    -12036.50449        49.000  
 16 04 02 13 01 51.6000000  0  2G05G02                                          
  19541781.10949 102692751.32049     -1849.31249        49.000  
  19512899.34449 102540976.58649    -12041.63749        49.000  
 16 04 02 13 01 51.7000000  0  2G05G02                                          
  19541816.35949 102692936.55549     -1855.89149        49.000  
  19513128.53149 102542180.96949    -12046.34049        49.000  
 16 04 02 13 01 51.8000000  0  2G05G02                                          
  19541851.74249 102693122.48849     -1862.92649        49.000  
  19513357.81249 102543385.84849    -12051.20749        49.000  
 16 04 02 13 01 51.9000000  0  2G05G02                                          
  19541887.25849 102693309.13749     -1870.14849        49.000  
  19513587.19549 102544591.25449    -12056.80549        49.000  
 16 04 02 13 01 52.0000000  0  2G05G02                                          
  19541922.92249 102693496.53149     -1877.46149        49.000  
  19513816.67249 102545797.19549    -12062.02049        49.000  
 16 04 02 13 01 52.1000000  0  2G05G02                                          
  19541958.69549 102693684.51249     -1883.41049        49.000  
  19514046.23449 102547003.54349    -12066.10949        49.000  
 16 04 02 13 01 52.2000000  0  2G05G02                                          
  19541994.59449 102693873.18849     -1890.05949        49.000  
  19514275.88349 102548210.36749    -12070.52349        49.000  
 16 04 02 13 01 52.3000000  0  2G05G02                                          
  19542030.62549 102694062.52749     -1896.81249        49.000  
  19514505.63349 102549417.67249    -12075.30549        49.000  
 16 04 02 13 01 52.4000000  0  2G05G02                                          
  19542066.77349 102694252.49649     -1903.08649        49.000  
  19514735.45349 102550625.41449    -12079.77349        49.000  
 16 04 02 13 01 52.5000000  0  2G05G02                                          
  19542103.06249 102694443.18449     -1910.05549        49.000  
  19514965.38349 102551833.68449    -12084.90249        49.000  
 16 04 02 13 01 52.6000000  0  2G05G02                                          
  19542139.46949 102694634.48049     -1916.47749        49.000  
  19515195.38349 102553042.35249    -12089.22349        49.000  
 16 04 02 13 01 52.7000000  0  2G05G02                                          
  19542176.02349 102694826.58649     -1924.58649        49.000  
  19515425.50049 102554251.63349    -12095.27049        49.000  
 16 04 02 13 01 52.8000000  0  2G05G02                                          
  19542212.70349 102695019.32849     -1931.08649        49.000  
  19515655.71149 102555461.36349    -12099.90649        49.000  
 16 04 02 13 01 52.9000000  0  2G05G02                                          
  19542249.50049 102695212.72349     -1937.39849        49.000  
  19515885.99249 102556671.54349    -12104.30149        49.000  
 16 04 02 13 01 53.0000000  0  2G05G02                                          
  19542286.42249 102695406.73449     -1943.33249        49.000  
  19516116.36749 102557882.14849    -12108.22749        49.000  
 16 04 02 13 01 53.1000000  0  2G05G02                                          
  19542323.46949 102695601.43849     -1950.31649        49.000  
  19516346.82849 102559093.23849    -12113.20749        49.000  
 16 04 02 13 01 53.2000000  0  2G05G02                                          
  19542360.65649 102695796.83649     -1957.29749        49.000  
  19516577.39149 102560304.83649    -12118.23849        49.000  
 16 04 02 13 01 53.3000000  0  2G05G02                                          
  19542397.95349 102695992.85549     -1963.66049        49.000  
  19516808.03149 102561516.85249    -12122.60549        49.000  
 16 04 02 13 01 53.4000000  0  2G05G02                                          
  19542435.38349 102696189.55949     -1970.66449        49.000  
  19517038.76649 102562729.36349    -12127.72349        49.000  
 16 04 02 13 01 53.5000000  0  2G05G02                                          
  19542472.95349 102696387.00449     -1977.87949        49.000  
  19517269.59449 102563942.41449    -12132.87549        49.000  
 16 04 02 13 01 53.6000000  0  2G05G02                                          
  19542510.64849 102696585.06249     -1984.19949        49.000  
  19517500.51649 102565155.89149    -12137.38349        49.000  
 16 04 02 13 01 53.7000000  0  2G05G02                                          
  19542548.47749 102696783.85949     -1991.34849        49.000  
  19517731.53149 102566369.89549    -12142.44549        49.000  
 16 04 02 13 01 53.8000000  0  2G05G02                                          
  19542586.42249 102696983.27749     -1997.69949        49.000  
  19517962.63349 102567584.33249    -12146.87149        49.000  
 16 04 02 13 01 53.9000000  0  2G05G02                                          
  19542624.50849 102697183.39149     -2004.50849        49.000  
  19518193.82849 102568799.26249    -12151.71549        49.000  
 16 04 02 13 01 54.0000000  0  2G05G02                                          
  19542662.70349 102697384.12149     -2010.98449        49.000  
  19518425.10249 102570014.62949    -12156.23849        49.000  
 16 04 02 13 01 54.1000000  0  2G05G02                                          
  19542701.03949 102697585.59449     -2017.95349        49.000  
  19518656.47749 102571230.51249    -12161.09849        49.000  
 16 04 02 13 01 54.2000000  0  2G05G02                                          
  19542739.50049 102697787.70749     -2024.70349        49.000  
  19518887.94549 102572446.87149    -12166.12949        49.000  
 16 04 02 13 01 54.3000000  0  2G05G02                                          
  19542778.10949 102697990.57849     -2032.22349        49.000  
  19519119.51649 102573663.76249    -12171.52349        49.000  
 16 04 02 13 01 54.4000000  0  2G05G02                                          
  19542816.82849 102698194.07049     -2038.39849        49.000  
  19519351.16449 102574881.09449    -12175.73449        49.000  
 16 04 02 13 01 54.5000000  0  2G05G02                                          
  19542855.68049 102698398.21949     -2044.97749        49.000  
  19519582.90649 102576098.88349    -12180.35249        49.000  
 16 04 02 13 01 54.6000000  0  2G05G02                                          
  19542894.66449 102698603.07049     -2052.00049        49.000  
  19519814.73449 102577317.16449    -12185.27749        49.000  
 16 04 02 13 01 54.7000000  0  2G05G02                                          
  19542933.76649 102698808.54349     -2058.07049        49.000  
  19520046.64849 102578535.89149    -12189.60549        49.000  
 16 04 02 13 01 54.8000000  0  2G05G02                                          
  19542973.00049 102699014.72349     -2065.21549        49.000  
  19520278.65649 102579755.11349    -12194.60249        49.000  
 16 04 02 13 01 54.9000000  0  2G05G02                                          
  19543012.35249 102699221.52749     -2071.54749        49.000  
  19520510.75049 102580974.77749    -12199.06649        49.000  
 16 04 02 13 01 55.0000000  0  2G05G02                                          
  19543051.84449 102699429.07049     -2078.75449        49.000  
  19520742.94549 102582194.96949    -12204.30149        49.000  
 16 04 02 13 01 55.1000000  0  2G05G02                                          
  19543091.46949 102699637.28949     -2085.82049        49.000  
  19520975.22749 102583415.63749    -12209.28149        49.000  
 16 04 02 13 01 55.2000000  0  2G05G02                                          
  19543131.21949 102699846.16449     -2092.16449        49.000  
  19521207.60249 102584636.77349    -12213.80549        49.000  
 16 04 02 13 01 55.3000000  0  2G05G02                                          
  19543171.09449 102700055.71149     -2098.80549        49.000  
  19521440.06249 102585858.37949    -12218.37149        49.000  
 16 04 02 13 01 55.4000000  0  2G05G02                                          
  19543211.10249 102700265.96949     -2106.02349        49.000  
  19521672.62549 102587080.50849    -12223.72749        49.000  
 16 04 02 13 01 55.5000000  0  2G05G02                                          
  19543251.25049 102700476.92649     -2113.06649        49.000  
  19521905.29749 102588303.12149    -12228.60949        49.000  
 16 04 02 13 01 55.6000000  0  2G05G02                                          
  19543291.50849 102700688.50049     -2119.14549        49.000  
  19522138.03149 102589526.17649    -12232.89549        49.000  
 16 04 02 13 01 55.7000000  0  2G05G02                                          
  19543331.89849 102700900.76649     -2125.94549        49.000  
  19522370.85949 102590749.69949    -12237.62549        49.000  
 16 04 02 13 01 55.8000000  0  2G05G02                                          
  19543372.42249 102701113.70349     -2132.91449        49.000  
  19522603.78149 102591973.71949    -12242.72349        49.000  
 16 04 02 13 01 55.9000000  0  2G05G02                                          
  19543413.07049 102701327.37549     -2140.18449        49.000  
  19522836.81249 102593198.27049    -12248.05149        49.000  
 16 04 02 13 01 56.0000000  0  2G05G02                                          
  19543453.86749 102701541.74649     -2147.32049        49.000  
  19523069.93049 102594423.32849    -12253.16049        49.000  
 16 04 02 13 01 56.1000000  0  2G05G02                                          
  19543494.78149 102701756.74649     -2153.57449        49.000  
  19523303.13349 102595648.80549    -12257.49249        49.000  
 16 04 02 13 01 56.2000000  0  2G05G02                                          
  19543535.83649 102701972.48849     -2160.54749        49.000  
  19523536.43849 102596874.82049    -12262.28549        49.000  
 16 04 02 13 01 56.3000000  0  2G05G02                                          
  19543577.00049 102702188.82449     -2166.96949        49.000  
  19523769.81249 102598101.25049    -12266.89149        49.000  
 16 04 02 13 01 56.4000000  0  2G05G02                                          
  19543618.30549 102702405.88349     -2173.88749        49.000  
  19524003.28949 102599328.19949    -12271.72349        49.000  
 16 04 02 13 01 56.5000000  0  2G05G02                                          
  19543659.73449 102702623.59849     -2180.72749        49.000  
  19524236.86749 102600555.61349    -12276.70749        49.000  
 16 04 02 13 01 56.6000000  0  2G05G02                                          
  19543701.28949 102702841.97349     -2187.19549        49.000  
  19524470.51649 102601783.47349    -12281.05949        49.000  
 16 04 02 13 01 56.7000000  0  2G05G02                                          
  19543742.97749 102703061.03549     -2194.09849        49.000  
  19524704.27349 102603011.83649    -12286.05949        49.000  
 16 04 02 13 01 56.8000000  0  2G05G02                                          
  19543784.78149 102703280.72349     -2200.28949        49.000  
  19524938.10249 102604240.62149    -12290.27749        49.000  
 16 04 02 13 01 56.9000000  0  2G05G02                                          
  19543826.71149 102703501.08649     -2207.08249        49.000  
  19525172.02349 102605469.88749    -12295.09049        49.000  
 16 04 02 13 01 57.0000000  0  2G05G02                                          
  19543868.76649 102703722.07449     -2213.08649        49.000  
  19525406.02349 102606699.57449    -12299.13349        49.000  
 16 04 02 13 01 57.1000000  0  2G05G02                                          
  19543910.93849 102703943.68449     -2219.43049        49.000  
  19525640.10949 102607929.69149    -12303.57049        49.000  
 16 04 02 13 01 57.2000000  0  2G05G02                                          
  19543953.25849 102704166.07449     -2227.35249        49.000  
  19525874.30549 102609160.39149    -12309.43849        49.000  
 16 04 02 13 01 57.3000000  0  2G05G02                                          
  19543995.69549 102704389.09449     -2233.82849        49.000  
  19526108.59449 102610391.51249    -12313.77349        49.000  
 16 04 02 13 01 57.4000000  0  2G05G02                                          
  19544038.27349 102704612.83649     -2240.84849        49.000  
  19526342.96949 102611623.17249    -12318.98049        49.000  
 16 04 02 13 01 57.5000000  0  2G05G02                                          
  19544080.96949 102704837.20349     -2247.18449        49.000  
  19526577.42249 102612855.25849    -12323.40249        49.000  
 16 04 02 13 01 57.6000000  0  2G05G02                                          
  19544123.79749 102705062.25849     -2253.95749        49.000  
  19526811.96949 102614087.82449    -12328.07849        49.000  
 16 04 02 13 01 57.7000000  0  2G05G02                                          
  19544166.75049 102705288.01249     -2260.94949        49.000  
  19527046.62549 102615320.89849    -12333.05949        49.000  
 16 04 02 13 01 57.8000000  0  2G05G02                                          
  19544209.84449 102705514.46549     -2267.92649        49.000  
  19527281.35949 102616554.46549    -12338.09049        49.000  
 16 04 02 13 01 57.9000000  0  2G05G02                                          
  19544253.06249 102705741.57449     -2274.72349        49.000  
  19527516.18849 102617788.50449    -12343.02049        49.000  
 16 04 02 13 01 58.0000000  0  2G05G02                                          
  19544296.42249 102705969.40249     -2281.53149        49.000  
  19527751.11749 102619023.05149    -12347.84449        49.000  
 16 04 02 13 01 58.1000000  0  2G05G02                                          
  19544339.88349 102706197.79349     -2287.33249        49.000  
  19527986.11749 102620257.96949    -12351.60549        49.000  
 16 04 02 13 01 58.2000000  0  2G05G02                                          
  19544383.47749 102706426.90249     -2294.32849        49.000  
  19528221.21149 102621493.41049    -12356.63749        49.000  
 16 04 02 13 01 58.3000000  0  2G05G02                                          
  19544427.19549 102706656.62549     -2300.56649        49.000  
  19528456.38349 102622729.25449    -12360.83249        49.000  
 16 04 02 13 01 58.4000000  0  2G05G02                                          
  19544471.03949 102706887.02049     -2307.16449        49.000  
  19528691.64849 102623965.57449    -12365.39849        49.000  
 16 04 02 13 01 58.5000000  0  2G05G02                                          
  19544515.00849 102707118.07449     -2314.23449        49.000  
  19528927.00049 102625202.36749    -12370.53949        49.000  
 16 04 02 13 01 58.6000000  0  2G05G02                                          
  19544559.10949 102707349.84049     -2321.04349        49.000  
  19529162.45349 102626439.66449    -12375.31249        49.000  
 16 04 02 13 01 58.7000000  0  2G05G02                                          
  19544603.33649 102707582.25049     -2327.47749        49.000  
  19529397.99249 102627677.41449    -12379.80149        49.000  
 16 04 02 13 01 58.8000000  0  2G05G02                                          
  19544647.69549 102707815.35549     -2334.75049        49.000  
  19529633.62549 102628915.66449    -12385.12949        49.000  
 16 04 02 13 01 58.9000000  0  2G05G02                                          
  19544692.19549 102708049.19149     -2341.95349        49.000  
  19529869.35249 102630154.43449    -12390.25449        49.000  
 16 04 02 13 01 59.0000000  0  2G05G02                                          
  19544736.82049 102708283.70349     -2348.53149        49.000  
  19530105.18049 102631393.68449    -12394.93049        49.000  
 16 04 02 13 01 59.1000000  0  2G05G02                                          
  19544781.56249 102708518.85549     -2355.00049        49.000  
  19530341.08649 102632633.39549    -12399.64849        49.000  
 16 04 02 13 01 59.2000000  0  2G05G02                                          
  19544826.44549 102708754.70349     -2361.77349        49.000  
  19530577.08649 102633873.57449    -12404.10249        49.000  
 16 04 02 13 01 59.3000000  0  2G05G02                                          
  19544871.45349 102708991.20749     -2368.44549        49.000  
  19530813.17249 102635114.22349    -12408.90249        49.000  
 16 04 02 13 01 59.4000000  0  2G05G02                                          
  19544916.59449 102709228.43049     -2375.54749        49.000  
  19531049.35949 102636355.39549    -12414.11349        49.000  
 16 04 02 13 01 59.5000000  0  2G05G02                                          
  19544961.85949 102709466.28149     -2381.95749        49.000  
  19531285.63349 102637597.00449    -12418.57449        49.000  
 16 04 02 13 01 59.6000000  0  2G05G02                                          
  19545007.25049 102709704.82049     -2388.70349        49.000  
  19531521.99249 102638839.08649    -12423.26249        49.000  
 16 04 02 13 01 59.7000000  0  2G05G02                                          
  19545052.77349 102709944.05949     -2395.77349        49.000  
  19531758.44549 102640081.68049    -12428.30149        49.000  
 16 04 02 13 01 59.8000000  0  2G05G02                                          
  19545098.43049 102710183.95749     -2402.52049        49.000  
  19531994.98449 102641324.72749    -12433.12549        49.000  
 16 04 02 13 01 59.9000000  0  2G05G02                                          
  19545144.20349 102710424.53549     -2409.16049        49.000  
  19532231.62549 102642568.25849    -12437.71149        49.000  
 16 04 02 13 02  0.0000000  0  2G05G02                                          
  19545190.10949 102710665.74649     -2415.49649        49.000  
  19532468.34449 102643812.22749    -12441.98049        49.000  
 16 04 02 13 02  0.1000000  0  2G05G02                                          
  19545236.14149 102710907.65249     -2422.64549        49.000  
  19532705.15649 102645056.68849    -12447.23449        49.000  
 16 04 02 13 02  0.2000000  0  2G05G02                                          
  19545282.30549 102711150.26649     -2429.60549        49.000  
  19532942.07049 102646301.66049    -12452.06649        49.000  
 16 04 02 13 02  0.3000000  0  2G05G02                                          
  19545328.60249 102711393.55549     -2436.49249        49.000  
  19533179.07049 102647547.10949    -12457.10549        49.000  
 16 04 02 13 02  0.4000000  0  2G05G02                                          
  19545375.03949 102711637.57049     -2443.64849        49.000  
  19533416.16449 102648793.07849    -12462.10249        49.000  
 16 04 02 13 02  0.5000000  0  2G05G02                                          
  19545421.58649 102711882.18849     -2449.64849        49.000  
  19533653.34449 102650039.46149    -12466.31249        49.000  
 16 04 02 13 02  0.6000000  0  2G05G02                                          
  19545468.27349 102712127.52749     -2456.76649        49.000  
  19533890.62549 102651286.35949    -12471.25849        49.000  
 16 04 02 13 02  0.7000000  0  2G05G02                                          
  19545515.07849 102712373.50049     -2463.25849        49.000  
  19534127.98449 102652533.70749    -12475.94949        49.000  
 16 04 02 13 02  0.8000000  0  2G05G02                                          
  19545562.01649 102712620.12549     -2469.64149        49.000  
  19534365.43049 102653781.49649    -12480.24649        49.000  
 16 04 02 13 02  0.9000000  0  2G05G02                                          
  19545609.07849 102712867.44549     -2476.74249        49.000  
  19534602.97749 102655029.78149    -12485.31249        49.000  
 16 04 02 13 02  1.0000000  0  2G05G02                                          
  19545656.26649 102713115.39549     -2482.68449        49.000  
  19534840.59449 102656278.49649    -12489.28549        49.000  
 16 04 02 13 02  1.1000000  0  2G05G02                                          
  19545703.57049 102713364.00049     -2489.53149        49.000  
  19535078.31249 102657527.68449    -12494.38349        49.000  
 16 04 02 13 02  1.2000000  0  2G05G02                                          
  19545751.03149 102713613.39149     -2497.31649        49.000  
  19535316.12549 102658777.43049    -12499.82049        49.000  
 16 04 02 13 02  1.3000000  0  2G05G02                                          
  19545798.60949 102713863.42249     -2503.97349        49.000  
  19535554.03149 102660027.62149    -12504.64549        49.000  
 16 04 02 13 02  1.4000000  0  2G05G02                                          
  19545846.32049 102714114.15649     -2510.75449        49.000  
  19535792.03949 102661278.33649    -12509.41449        49.000  
 16 04 02 13 02  1.5000000  0  2G05G02                                          
  19545894.15649 102714365.54749     -2517.39549        49.000  
  19536030.13349 102662529.49249    -12514.10949        49.000  
 16 04 02 13 02  1.6000000  0  2G05G02                                          
  19545942.12549 102714617.61349     -2524.10949        49.000  
  19536268.31249 102663781.16049    -12519.07049        49.000  
 16 04 02 13 02  1.7000000  0  2G05G02                                          
  19545990.22749 102714870.39849     -2531.45749        49.000  
  19536506.59449 102665033.29749    -12524.00049        49.000  
 16 04 02 13 02  1.8000000  0  2G05G02                                          
  19546038.44549 102715123.79349     -2537.27049        49.000  
  19536744.95349 102666285.88749    -12528.19949        49.000  
 16 04 02 13 02  1.9000000  0  2G05G02                                          
  19546086.79749 102715377.88749     -2544.19549        49.000  
  19536983.40649 102667538.94949    -12532.94949        49.000  
 16 04 02 13 02  2.0000000  0  2G05G02                                          
  19546135.26649 102715632.59849     -2550.39549        49.000  
  19537221.93049 102668792.43449    -12537.13749        49.000  
 16 04 02 13 02  2.1000000  0  2G05G02                                          
  19546183.87549 102715888.02349     -2557.78949        49.000  
  19537460.56249 102670046.43449    -12542.56249        49.000  
 16 04 02 13 02  2.2000000  0  2G05G02                                          
  19546232.60949 102716144.12949     -2564.63349        49.000  
  19537699.28149 102671300.92249    -12547.42649        49.000  
 16 04 02 13 02  2.3000000  0  2G05G02                                          
  19546281.48449 102716400.93049     -2571.47749        49.000  
  19537938.09449 102672555.89549    -12552.26249        49.000  
 16 04 02 13 02  2.4000000  0  2G05G02                                          
  19546330.47749 102716658.40249     -2578.16049        49.000  
  19538177.00049 102673811.34449    -12556.82049        49.000  
 16 04 02 13 02  2.5000000  0  2G05G02                                          
  19546379.59449 102716916.50449     -2584.49649        49.000  
  19538415.99249 102675067.23049    -12561.25849        49.000  
 16 04 02 13 02  2.6000000  0  2G05G02                                          
  19546428.84449 102717175.32849     -2591.66849        49.000  
  19538655.07849 102676323.62949    -12566.46549        49.000  
 16 04 02 13 02  2.7000000  0  2G05G02                                          
  19546478.22749 102717434.83649     -2598.63749        49.000  
  19538894.25849 102677580.52349    -12571.41849        49.000  
 16 04 02 13 02  2.8000000  0  2G05G02                                          
  19546527.74249 102717695.04749     -2605.72349        49.000  
  19539133.53149 102678837.90649    -12576.38349        49.000  
 16 04 02 13 02  2.9000000  0  2G05G02                                          
  19546577.38349 102717955.88349     -2611.89549        49.000  
  19539372.89149 102680095.72749    -12580.66049        49.000  
 16 04 02 13 02  3.0000000  0  2G05G02                                          
  19546627.14149 102718217.38749     -2618.30949        49.000  
  19539612.34449 102681354.02049    -12585.23049        49.000  
 16 04 02 13 02  3.1000000  0  2G05G02                                          
  19546677.03949 102718479.55149     -2624.95749        49.000  
  19539851.86749 102682612.76649    -12589.74249        49.000  
 16 04 02 13 02  3.2000000  0  2G05G02                                          
  19546727.04749 102718742.37949     -2631.81649        49.000  
  19540091.49249 102683871.97349    -12594.64549        49.000  
 16 04 02 13 02  3.3000000  0  2G05G02                                          
  19546777.21149 102719005.94949     -2639.16049        49.000  
  19540331.21149 102685131.72749    -12599.91049        49.000  
 16 04 02 13 02  3.4000000  0  2G05G02                                          
  19546827.49249 102719270.17649     -2645.83249        49.000  
  19540571.02349 102686391.94149    -12604.66049        49.000  
 16 04 02 13 02  3.5000000  0  2G05G02                                          
  19546877.89849 102719535.05949     -2652.43849        49.000  
  19540810.92249 102687652.60249    -12609.26649        49.000  
 16 04 02 13 02  3.6000000  0  2G05G02                                          
  19546928.43849 102719800.65649     -2659.35249        49.000  
  19541050.91449 102688913.78549    -12614.07049        49.000  
 16 04 02 13 02  3.7000000  0  2G05G02                                          
  19546979.09449 102720066.85949     -2665.43049        49.000  
  19541290.98449 102690175.37149    -12618.12549        49.000  
 16 04 02 13 02  3.8000000  0  2G05G02                                          
  19547029.88349 102720333.75049     -2672.29749        49.000  
  19541531.15649 102691437.44549    -12623.17249        49.000  
 16 04 02 13 02  3.9000000  0  2G05G02                                          
  19547080.79749 102720601.30549     -2678.96949        49.000  
  19541771.41449 102692699.99249    -12627.84049        49.000  
 16 04 02 13 02  4.0000000  0  2G05G02                                          
  19547131.83649 102720869.51249     -2685.27349        49.000  
  19542011.75049 102693962.98049    -12632.09449        49.000  
 16 04 02 13 02  4.1000000  0  2G05G02                                          
  19547182.99249 102721138.35949     -2692.01649        49.000  
  19542252.17249 102695226.41849    -12636.89849        49.000  
 16 04 02 13 02  4.2000000  0  2G05G02                                          
  19547234.30549 102721407.96949     -2699.50849        49.000  
  19542492.70349 102696490.40249    -12642.27049        49.000  
 16 04 02 13 02  4.3000000  0  2G05G02                                          
  19547285.72749 102721678.22349     -2706.00849        49.000  
  19542733.31249 102697754.84849    -12646.89549        49.000  
 16 04 02 13 02  4.4000000  0  2G05G02                                          
  19547337.28149 102721949.14549     -2712.48449        49.000  
  19542974.01649 102699019.75449    -12651.25849        49.000  
 16 04 02 13 02  4.5000000  0  2G05G02                                          
  19547388.96149 102722220.73049     -2719.31249        49.000  
  19543214.81249 102700285.12549    -12656.15249        49.000  
 16 04 02 13 02  4.6000000  0  2G05G02                                          
  19547440.76649 102722493.00049     -2726.19549        49.000  
  19543455.69549 102701550.98449    -12661.05949        49.000  
 16 04 02 13 02  4.7000000  0  2G05G02                                          
  19547492.70349 102722765.92249     -2732.62549        49.000  
  19543696.66449 102702817.28149    -12665.38749        49.000  
 16 04 02 13 02  4.8000000  0  2G05G02                                          
  19547544.78149 102723039.60549     -2740.41849        49.000  
  19543937.74249 102704084.15649    -12671.21149        49.000  
 16 04 02 13 02  4.9000000  0  2G05G02                                          
  19547596.98449 102723313.95349     -2747.00849        49.000  
  19544178.91449 102705351.49649    -12675.86749        49.000  
 16 04 02 13 02  5.0000000  0  2G05G02                                          
  19547649.31249 102723588.94549     -2753.32049        49.000  
  19544420.15649 102706619.26249    -12680.03949        49.000  
 16 04 02 13 02  5.1000000  0  2G05G02                                          
  19547701.75849 102723864.52349     -2758.96949        49.000  
  19544661.48449 102707887.42649    -12683.77349        49.000  
 16 04 02 13 02  5.2000000  0  2G05G02                                          
  19547754.32849 102724140.79349     -2766.03549        49.000  
  19544902.89849 102709156.07449    -12688.79749        49.000  
 16 04 02 13 02  5.3000000  0  2G05G02                                          
  19547807.03949 102724417.80949     -2773.60249        49.000  
  19545144.43049 102710425.27749    -12694.42649        49.000  
 16 04 02 13 02  5.4000000  0  2G05G02                                          
  19547859.86749 102724695.43449     -2779.87549        49.000  
  19545386.03149 102711694.89149    -12698.68049        50.000  
 16 04 02 13 02  5.5000000  0  2G05G02                                          
  19547912.83649 102724973.78149     -2787.02749        49.000  
  19545627.72749 102712965.01649    -12703.81649        49.000  
 16 04 02 13 02  5.6000000  0  2G05G02                                          
  19547965.94549 102725252.85949     -2794.17249        49.000  
  19545869.53149 102714235.68049    -12708.89149        49.000  
 16 04 02 13 02  5.7000000  0  2G05G02                                          
  19548019.16449 102725532.51249     -2799.95749        49.000  
  19546111.39849 102715506.72749    -12712.85249        49.000  
 16 04 02 13 02  5.8000000  0  2G05G02                                          
  19548072.51649 102725812.87149     -2807.03549        49.000  
  19546353.36749 102716778.25849    -12717.80949        49.000  
 16 04 02 13 02  5.9000000  0  2G05G02                                          
  19548125.99249 102726093.92249     -2813.92249        49.000  
  19546595.43049 102718050.28949    -12722.78949        50.000  
 16 04 02 13 02  6.0000000  0  2G05G02                                          
  19548179.60949 102726375.66049     -2820.96549        49.000  
  19546837.58649 102719322.81249    -12727.80549        49.000  
 16 04 02 13 02  6.1000000  0  2G05G02                                          
  19548233.35249 102726658.07049     -2827.55549        49.000  
  19547079.82049 102720595.80549    -12732.34449        49.000  
 16 04 02 13 02  6.2000000  0  2G05G02                                          
  19548287.21149 102726941.11349     -2833.85549        49.000  
  19547322.14849 102721869.22749    -12736.68049        49.000  
 16 04 02 13 02  6.3000000  0  2G05G02                                          
  19548341.19549 102727224.80149     -2840.09049        49.000  
  19547564.55549 102723143.09449    -12740.91049        49.000  
 16 04 02 13 02  6.4000000  0  2G05G02                                          
  19548395.30549 102727509.16449     -2847.00049        49.000  
  19547807.05549 102724417.43849    -12745.71149        49.000  
 16 04 02 13 02  6.5000000  0  2G05G02                                          
  19548449.54749 102727794.17249     -2853.59449        49.000  
  19548049.64149 102725692.22749    -12750.38749        49.000  
 16 04 02 13 02  6.6000000  0  2G05G02                                          
  19548503.92249 102728079.91049     -2860.82449        49.000  
  19548292.32849 102726967.54349    -12755.62149        49.000  
 16 04 02 13 02  6.7000000  0  2G05G02                                          
  19548558.41449 102728366.31249     -2867.63749        49.000  
  19548535.09449 102728243.32449    -12760.39149        49.000  
 16 04 02 13 02  6.8000000  0  2G05G02                                          
  19548613.03949 102728653.37149     -2874.02049        49.000  
  19548777.96149 102729519.57049    -12764.82849        49.000  
 16 04 02 13 02  6.9000000  0  2G05G02                                          
  19548667.79749 102728941.09849     -2880.63349        49.000  
  19549020.90649 102730796.26249    -12769.40249        49.000  
 16 04 02 13 02  7.0000000  0  2G05G02                                          
  19548722.68049 102729229.48849     -2887.34849        49.000  
  19549263.94549 102732073.43049    -12774.13349        49.000  
 16 04 02 13 02  7.1000000  0  2G05G02                                          
  19548777.68049 102729518.50849     -2893.53149        49.000  
  19549507.06249 102733351.02049    -12778.19949        49.000  
 16 04 02 13 02  7.2000000  0  2G05G02                                          
  19548832.79749 102729808.17649     -2900.04349        49.000  
  19549750.26649 102734629.06249    -12782.62949        49.000  
 16 04 02 13 02  7.3000000  0  2G05G02                                          
  19548888.05549 102730098.54749     -2907.03149        49.000  
  19549993.57049 102735907.61349    -12787.87949        49.000  
 16 04 02 13 02  7.4000000  0  2G05G02                                          
  19548943.43849 102730389.59849     -2913.87149        49.000  
  19550236.96149 102737186.63349    -12792.64149        49.000  
 16 04 02 13 02  7.5000000  0  2G05G02                                          
  19548998.94549 102730681.30149     -2920.44149        49.000  
  19550480.43049 102738466.10249    -12796.93049        49.000  
 16 04 02 13 02  7.6000000  0  2G05G02                                          
  19549054.57849 102730973.65249     -2926.97749        49.000  
  19550723.99249 102739746.03149    -12801.72749        49.000  
 16 04 02 13 02  7.7000000  0  2G05G02                                          
  19549110.35249 102731266.73849     -2934.31649        49.000  
  19550967.64849 102741026.48449    -12807.08649        49.000  
 16 04 02 13 02  7.8000000  0  2G05G02                                          
  19549166.24249 102731560.44549     -2940.53949        49.000  
  19551211.39149 102742307.35949    -12811.17649        49.000  
 16 04 02 13 02  7.9000000  0  2G05G02                                          
  19549222.25849 102731854.82849     -2947.46949        49.000  
  19551455.22749 102743588.72349    -12816.12949        49.000  
 16 04 02 13 02  8.0000000  0  2G05G02                                          
  19549278.42249 102732149.95749     -2954.69949        49.000  
  19551699.16449 102744870.60249    -12821.27749        49.000  
 16 04 02 13 02  8.1000000  0  2G05G02                                          
  19549334.70349 102732445.72749     -2961.32049        49.000  
  19551943.18049 102746152.94549    -12826.01249        49.000  
 16 04 02 13 02  8.2000000  0  2G05G02                                          
  19549391.10949 102732742.14849     -2967.56249        49.000  
  19552187.28949 102747435.73449    -12830.16449        49.000  
 16 04 02 13 02  8.3000000  0  2G05G02                                          
  19549447.64149 102733039.23049     -2974.31649        49.000  
  19552431.48449 102748718.96949    -12834.85249        49.000  
 16 04 02 13 02  8.4000000  0  2G05G02                                          
  19549504.30549 102733337.00449     -2980.92649        49.000  
  19552675.77349 102750002.71549    -12839.51249        49.000  
 16 04 02 13 02  8.5000000  0  2G05G02                                          
  19549561.09449 102733635.39549     -2987.26249        49.000  
  19552920.14149 102751286.87149    -12843.78549        49.000  
 16 04 02 13 02  8.6000000  0  2G05G02                                          
  19549618.00849 102733934.48849     -2994.37949        49.000  
  19553164.60249 102752571.51649    -12848.97349        49.000  
 16 04 02 13 02  8.7000000  0  2G05G02                                          
  19549675.04749 102734234.24249     -3000.80549        49.000  
  19553409.14849 102753856.63749    -12853.43849        49.000  
 16 04 02 13 02  8.8000000  0  2G05G02                                          
  19549732.22749 102734534.71149     -3008.07449        49.000  
  19553653.78949 102755142.25849    -12858.66449        49.000  
 16 04 02 13 02  8.9000000  0  2G05G02                                          
  19549789.51649 102734835.78949     -3014.36349        49.000  
  19553898.51649 102756428.29349    -12862.69149        49.000  
 16 04 02 13 02  9.0000000  0  2G05G02                                          
  19549846.94549 102735137.56249     -3021.00049        49.000  
  19554143.32849 102757714.82049    -12867.52749        49.000  
 16 04 02 13 02  9.1000000  0  2G05G02                                          
  19549904.49249 102735439.98049     -3027.49649        49.000  
  19554388.23449 102759001.78949    -12871.84849        49.000  
 16 04 02 13 02  9.2000000  0  2G05G02                                          
  19549962.17249 102735743.09849     -3034.73449        49.000  
  19554633.23449 102760289.26649    -12877.23049        49.000  
 16 04 02 13 02  9.3000000  0  2G05G02                                          
  19550019.98449 102736046.89149     -3041.49649        49.000  
  19554878.31249 102761577.19549    -12881.77349        49.000  
 16 04 02 13 02  9.4000000  0  2G05G02                                          
  19550077.91449 102736351.31649     -3047.81649        49.000  
  19555123.49249 102762865.59449    -12886.43449        49.000  
 16 04 02 13 02  9.5000000  0  2G05G02                                          
  19550135.97749 102736656.45749     -3054.72749        49.000  
  19555368.75049 102764154.47749    -12891.28149        49.000  
 16 04 02 13 02  9.6000000  0  2G05G02                                          
  19550194.16449 102736962.25449     -3061.41849        49.000  
  19555614.10949 102765443.81249    -12895.80949        49.000  
 16 04 02 13 02  9.7000000  0  2G05G02                                          
  19550252.49249 102737268.75049     -3068.37549        49.000  
  19555859.55549 102766733.65649    -12900.76249        49.000  
 16 04 02 13 02  9.8000000  0  2G05G02                                          
  19550310.94549 102737575.90649     -3075.01649        49.000  
  19556105.09449 102768023.95749    -12905.32049        49.000  
 16 04 02 13 02  9.9000000  0  2G05G02                                          
  19550369.51649 102737883.71949     -3081.64849        49.000  
  19556350.71949 102769314.70349    -12910.00849        49.000  
 16 04 02 13 02 10.0000000  0  2G05G02                                          
  19550428.21949 102738192.20349     -3088.28149        49.000  
  19556596.43049 102770605.93849    -12914.72349        49.000  
 16 04 02 13 02 10.1000000  0  2G05G02                                          
  19550487.05549 102738501.39149     -3095.19549        49.000  
  19556842.23449 102771897.65649    -12919.47749        49.000  
 16 04 02 13 02 10.2000000  0  2G05G02                                          
  19550546.00849 102738811.18449     -3101.58649        49.000  
  19557088.12549 102773189.80149    -12923.94949        49.000  
 16 04 02 13 02 10.3000000  0  2G05G02                                          
  19550605.09449 102739121.68449     -3108.33649        49.000  
  19557334.10949 102774482.43449    -12928.69549        49.000  
 16 04 02 13 02 10.4000000  0  2G05G02                                          
  19550664.30549 102739432.85549     -3115.05949        49.000  
  19557580.17249 102775775.53549    -12933.33649        49.000  
 16 04 02 13 02 10.5000000  0  2G05G02                                          
  19550723.64849 102739744.69549     -3122.03149        49.000  
  19557826.33649 102777069.12149    -12938.44949        49.000  
 16 04 02 13 02 10.6000000  0  2G05G02                                          
  19550783.12549 102740057.25049     -3128.91849        49.000  
  19558072.59449 102778363.19149    -12943.13349        49.000  
 16 04 02 13 02 10.7000000  0  2G05G02                                          
  19550842.71149 102740370.42649     -3135.12149        49.000  
  19558318.92249 102779657.69949    -12947.37949        49.000  
 16 04 02 13 02 10.8000000  0  2G05G02                                          
  19550902.43049 102740684.21949     -3141.14149        49.000  
  19558565.33649 102780952.61749    -12951.48049        49.000  
 16 04 02 13 02 10.9000000  0  2G05G02                                          
  19550962.27349 102740998.68849     -3147.94549        49.000  
  19558811.84449 102782248.01649    -12956.15249        49.000  
 16 04 02 13 02 11.0000000  0  2G05G02                                          
  19551022.24249 102741313.86349     -3155.18449        49.000  
  19559058.44549 102783543.91449    -12961.43049        49.000  
 16 04 02 13 02 11.1000000  0  2G05G02                                          
  19551082.35249 102741629.71149     -3161.83249        49.000  
  19559305.14149 102784840.27749    -12965.95349        49.000  
 16 04 02 13 02 11.2000000  0  2G05G02                                          
  19551142.57049 102741946.17249     -3168.09849        49.000  
  19559551.90649 102786137.05949    -12970.22349        49.000  
 16 04 02 13 02 11.3000000  0  2G05G02                                          
  19551202.92249 102742263.32449     -3174.94549        49.000  
  19559798.77349 102787434.33649    -12975.14549        49.000  
 16 04 02 13 02 11.4000000  0  2G05G02                                          
  19551263.41449 102742581.19949     -3182.11349        49.000  
  19560045.73449 102788732.11349    -12980.21549        49.000  
 16 04 02 13 02 11.5000000  0  2G05G02                                          
  19551324.02349 102742899.70349     -3188.66849        49.000  
  19560292.77349 102790030.34449    -12984.80549        49.000  
 16 04 02 13 02 11.6000000  0  2G05G02                                          
  19551384.76649 102743218.90649     -3195.63749        49.000  
  19560539.91449 102791329.04749    -12989.58649        49.000  
 16 04 02 13 02 11.7000000  0  2G05G02                                          
  19551445.63349 102743538.72749     -3201.60949        49.000  
  19560787.13349 102792628.18449    -12993.76649        49.000  
 16 04 02 13 02 11.8000000  0  2G05G02                                          
  19551506.62549 102743859.25449     -3208.87149        49.000  
  19561034.44549 102793927.81249    -12998.87949        49.000  
 16 04 02 13 02 11.9000000  0  2G05G02                                          
  19551567.75849 102744180.51649     -3215.98849        49.000  
  19561281.85949 102795227.98449    -13004.10949        49.000  
 16 04 02 13 02 12.0000000  0  2G05G02                                          
  19551629.00049 102744502.32449     -3221.51249        49.000  
  19561529.34449 102796528.50449    -13007.62149        49.000  
 16 04 02 13 02 12.1000000  0  2G05G02                                          
  19551690.37549 102744824.87149     -3228.93449        49.000  
  19561776.92249 102797829.54749    -13012.84849        49.000  
 16 04 02 13 02 12.2000000  0  2G05G02                                          
  19551751.87549 102745148.05549     -3235.20349        49.000  
  19562024.58649 102799131.01649    -13017.02049        49.000  
 16 04 02 13 02 12.3000000  0  2G05G02                                          
  19551813.49249 102745471.85549     -3241.59449        49.000  
  19562272.33649 102800432.92649    -13021.57849        49.000  
 16 04 02 13 02 12.4000000  0  2G05G02                                          
  19551875.25849 102745796.42249     -3249.19949        49.000  
  19562520.18849 102801735.38349    -13027.02349        49.000  
 16 04 02 13 02 12.5000000  0  2G05G02                                          
  19551937.13349 102746121.60549     -3255.34449        49.000  
  19562768.11749 102803038.26249    -13031.27349        49.000  
 16 04 02 13 02 12.6000000  0  2G05G02                                          
  19551999.14149 102746447.44949     -3261.81249        49.000  
  19563016.13349 102804341.59449    -13035.67649        49.000  
 16 04 02 13 02 12.7000000  0  2G05G02                                          
  19552061.28949 102746774.01649     -3268.85549        49.000  
  19563264.25049 102805645.43849    -13040.60949        49.000  
 16 04 02 13 02 12.8000000  0  2G05G02                                          
  19552123.53949 102747101.16849     -3274.92249        49.000  
  19563512.43849 102806949.68849    -13044.76249        49.000  
 16 04 02 13 02 12.9000000  0  2G05G02                                          
  19552185.92249 102747429.00049     -3281.68049        49.000  
  19563760.71949 102808254.40249    -13049.48849        49.000  
 16 04 02 13 02 13.0000000  0  2G05G02                                          
  19552248.43849 102747757.49649     -3288.51649        49.000  
  19564009.08649 102809559.57849    -13054.31649        49.000  
 16 04 02 13 02 13.1000000  0  2G05G02                                          
  19552311.07849 102748086.70349     -3295.54349        49.000  
  19564257.53949 102810865.25449    -13059.25049        49.000  
 16 04 02 13 02 13.2000000  0  2G05G02                                          
  19552373.86749 102748416.62149     -3302.83249        49.000  
  19564506.10249 102812171.45749    -13064.52049        49.000  
 16 04 02 13 02 13.3000000  0  2G05G02                                          
  19552436.76649 102748747.16449     -3308.84449        49.000  
  19564754.74249 102813478.07449    -13068.54749        49.000  
 16 04 02 13 02 13.4000000  0  2G05G02                                          
  19552499.78949 102749078.35549     -3315.21949        49.000  
  19565003.46949 102814785.12549    -13072.83249        49.000  
 16 04 02 13 02 13.5000000  0  2G05G02                                          
  19552562.95349 102749410.26649     -3322.59049        49.000  
  19565252.29749 102816092.71149    -13078.24249        49.000  
 16 04 02 13 02 13.6000000  0  2G05G02                                          
  19552626.25049 102749742.86749     -3329.49649        49.000  
  19565501.21149 102817400.77349    -13083.07049        49.000  
 16 04 02 13 02 13.7000000  0  2G05G02                                          
  19552689.66449 102750076.12549     -3336.18049        49.000  
  19565750.21949 102818709.28549    -13087.63749        49.000  
 16 04 02 13 02 13.8000000  0  2G05G02                                          
  19552753.21149 102750410.09449     -3343.20349        49.000  
  19565999.32049 102820018.32449    -13092.77749        49.000  
 16 04 02 13 02 13.9000000  0  2G05G02                                          
  19552816.89149 102750744.68849     -3349.21949        49.000  
  19566248.50049 102821327.77749    -13096.82049        49.000  
 16 04 02 13 02 14.0000000  0  2G05G02                                          
  19552880.68849 102751079.94149     -3356.02749        49.000  
  19566497.76649 102822637.68449    -13101.40649        49.000  
 16 04 02 13 02 14.1000000  0  2G05G02                                          
  19552944.60949 102751415.88349     -3362.66049        49.000  
  19566747.12549 102823948.07849    -13106.14149        49.000  
 16 04 02 13 02 14.2000000  0  2G05G02                                          
  19553008.64849 102751752.39149     -3368.43849        49.000  
  19566996.55549 102825258.83649    -13109.84849        49.000  
 16 04 02 13 02 14.3000000  0  2G05G02                                          
  19553072.82049 102752089.59449     -3375.27049        49.000  
  19567246.07849 102826570.07849    -13114.62549        49.000  
 16 04 02 13 02 14.4000000  0  2G05G02                                          
  19553137.11749 102752427.47349     -3382.25049        49.000  
  19567495.68849 102827881.80149    -13119.67249        49.000  
 16 04 02 13 02 14.5000000  0  2G05G02                                          
  19553201.53149 102752766.02349     -3388.93049        49.000  
  19567745.39149 102829193.98849    -13124.26249        49.000  
 16 04 02 13 02 14.6000000  0  2G05G02                                          
  19553266.08649 102753105.24649     -3395.56649        49.000  
  19567995.18049 102830506.66049    -13129.01649        49.000  
 16 04 02 13 02 14.7000000  0  2G05G02                                          
  19553330.77349 102753445.18049     -3402.85949        49.000  
  19568245.07049 102831819.81249    -13134.05149        49.000  
 16 04 02 13 02 14.8000000  0  2G05G02                                          
  19553395.58649 102753785.79349     -3409.60549        49.000  
  19568495.04749 102833133.46149    -13138.84449        49.000  
 16 04 02 13 02 14.9000000  0  2G05G02                                          
  19553460.53149 102754127.06249     -3416.28549        49.000  
  19568745.11749 102834447.56649    -13143.53149        49.000  
 16 04 02 13 02 15.0000000  0  2G05G02                                          
  19553525.58649 102754468.94949     -3422.18049        49.000  
  19568995.25849 102835762.07049    -13147.27749        49.000  
 16 04 02 13 02 15.1000000  0  2G05G02                                          
  19553590.77349 102754811.50049     -3428.89149        49.000  
  19569245.49249 102837077.04749    -13152.12549        49.000  
 16 04 02 13 02 15.2000000  0  2G05G02                                          
  19553656.07849 102755154.67649     -3435.13349        49.000  
  19569495.80549 102838392.43849    -13156.15649        49.000  
 16 04 02 13 02 15.3000000  0  2G05G02                                          
  19553721.51649 102755498.58249     -3442.48049        49.000  
  19569746.22749 102839708.37549    -13161.74649        49.000  
 16 04 02 13 02 15.4000000  0  2G05G02                                          
  19553787.09449 102755843.19949     -3449.60249        49.000  
  19569996.73449 102841024.80149    -13166.78949        49.000  
 16 04 02 13 02 15.5000000  0  2G05G02                                          
  19553852.79749 102756188.44549     -3456.10249        49.000  
  19570247.31249 102842341.64149    -13171.04749        49.000  
 16 04 02 13 02 15.6000000  0  2G05G02                                          
  19553918.63349 102756534.39849     -3462.88749        49.000  
  19570498.00049 102843659.01249    -13175.98049        49.000  
 16 04 02 13 02 15.7000000  0  2G05G02                                          
  19553984.58649 102756880.98849     -3469.26649        49.000  
  19570748.77349 102844976.80949    -13180.25849        49.000  
 16 04 02 13 02 15.8000000  0  2G05G02                                          
  19554050.66449 102757228.25849     -3476.10249        49.000  
  19570999.62549 102846295.07849    -13185.06249        49.000  
 16 04 02 13 02 15.9000000  0  2G05G02                                          
  19554116.87549 102757576.18849     -3482.56249        49.000  
  19571250.57849 102847613.80149    -13189.52749        49.000  
 16 04 02 13 02 16.0000000  0  2G05G02                                          
  19554183.21149 102757924.79349     -3489.43849        49.000  
  19571501.60949 102848933.00449    -13194.39549        49.000  
 16 04 02 13 02 16.1000000  0  2G05G02                                          
  19554249.68049 102758274.04749     -3495.98849        49.000  
  19571752.72749 102850252.64149    -13198.83649        49.000  
 16 04 02 13 02 16.2000000  0  2G05G02                                          
  19554316.26649 102758623.98049     -3502.83249        49.000  
  19572003.93849 102851572.76649    -13203.72749        49.000  
 16 04 02 13 02 16.3000000  0  2G05G02                                          
  19554382.98449 102758974.56649     -3509.26649        49.000  
  19572255.23449 102852893.33249    -13207.99649        49.000  
 16 04 02 13 02 16.4000000  0  2G05G02                                          
  19554449.82049 102759325.81249     -3515.66449        49.000  
  19572506.61749 102854214.36749    -13212.48849        49.000  
 16 04 02 13 02 16.5000000  0  2G05G02                                          
  19554516.78149 102759677.69549     -3522.19549        49.000  
  19572758.08649 102855535.82449    -13217.02049        49.000  
 16 04 02 13 02 16.6000000  0  2G05G02                                          
  19554583.87549 102760030.28149     -3529.19549        49.000  
  19573009.64849 102856857.78949    -13222.02349        49.000  
 16 04 02 13 02 16.7000000  0  2G05G02                                          
  19554651.10949 102760383.56249     -3536.21949        49.000  
  19573261.29749 102858180.23849    -13226.84849        49.000  
 16 04 02 13 02 16.8000000  0  2G05G02                                          
  19554718.45349 102760737.46949     -3542.39149        49.000  
  19573513.03149 102859503.10249    -13231.01249        49.000  
 16 04 02 13 02 16.9000000  0  2G05G02                                          
  19554785.91449 102761091.95349     -3548.28149        49.000  
  19573764.83649 102860826.35949    -13234.87149        49.000  
 16 04 02 13 02 17.0000000  0  2G05G02                                          
  19554853.50849 102761447.17249     -3555.38349        49.000  
  19574016.74249 102862150.13349    -13239.94549        49.000  
 16 04 02 13 02 17.1000000  0  2G05G02                                          
  19554921.22749 102761803.04349     -3562.16049        49.000  
  19574268.74249 102863474.36749    -13244.77749        49.000  
 16 04 02 13 02 17.2000000  0  2G05G02                                          
  19554989.07849 102762159.60549     -3569.18049        49.000  
  19574520.82049 102864799.07449    -13249.62949        49.000  
 16 04 02 13 02 17.3000000  0  2G05G02                                          
  19555057.05549 102762516.83649     -3575.77349        49.000  
  19574772.99249 102866124.25049    -13254.11349        49.000  
 16 04 02 13 02 17.4000000  0  2G05G02                                          
  19555125.14849 102762874.67249     -3581.73449        49.000  
  19575025.24249 102867449.84049    -13258.17249        49.000  
 16 04 02 13 02 17.5000000  0  2G05G02                                          
  19555193.36749 102763233.18049     -3588.37149        49.000  
  19575277.57849 102868775.87949    -13262.66449        49.000  
 16 04 02 13 02 17.6000000  0  2G05G02                                          
  19555261.71949 102763592.35549     -3595.21149        49.000  
  19575530.00849 102870102.40249    -13267.56249        49.000  
 16 04 02 13 02 17.7000000  0  2G05G02                                          
  19555330.21149 102763952.26649     -3602.59849        49.000  
  19575782.53949 102871429.44549    -13272.91449        49.000  
 16 04 02 13 02 17.8000000  0  2G05G02                                          
  19555398.82049 102764312.83649     -3609.18449        49.000  
  19576035.15649 102872756.94549    -13277.50049        49.000  
 16 04 02 13 02 17.9000000  0  2G05G02                                          
  19555467.55549 102764674.01649     -3615.23049        49.000  
  19576287.84449 102874084.85249    -13281.44149        49.000  
 16 04 02 13 02 18.0000000  0  2G05G02                                          
  19555536.41449 102765035.86749     -3621.92249        49.000  
  19576540.63349 102875413.22749    -13286.08249        49.000  
 16 04 02 13 02 18.1000000  0  2G05G02                                          
  19555605.40649 102765398.43049     -3628.89549        49.000  
  19576793.50049 102876742.09849    -13290.94949        49.000  
 16 04 02 13 02 18.2000000  0  2G05G02                                          
  19555674.50849 102765761.55149     -3634.51249        49.000  
  19577046.45349 102878071.34449    -13294.71949        49.000  
 16 04 02 13 02 18.3000000  0  2G05G02                                          
  19555743.74249 102766125.39149     -3641.69149        49.000  
  19577299.49249 102879401.09049    -13299.75849        49.000  
 16 04 02 13 02 18.4000000  0  2G05G02                                          
  19555813.10249 102766489.88749     -3648.51249        49.000  
  19577552.62549 102880731.29749    -13304.52049        49.000  
 16 04 02 13 02 18.5000000  0  2G05G02                                          
  19555882.59449 102766855.08649     -3655.34449        49.000  
  19577805.85249 102882061.99649    -13309.36749        49.000  
 16 04 02 13 02 18.6000000  0  2G05G02                                          
  19555952.21149 102767220.93849     -3661.95749        49.000  
  19578059.15649 102883393.14149    -13313.85249        49.000  
 16 04 02 13 02 18.7000000  0  2G05G02                                          
  19556021.96149 102767587.44149     -3668.42249        49.000  
  19578312.56249 102884724.74649    -13318.41849        49.000  
 16 04 02 13 02 18.8000000  0  2G05G02                                          
  19556091.82849 102767954.60949     -3675.16049        49.000  
  19578566.03949 102886056.80549    -13322.94549        49.000  
 16 04 02 13 02 18.9000000  0  2G05G02                                          
  19556161.82849 102768322.46149     -3681.81649        49.000  
  19578819.61749 102887389.34849    -13327.67649        49.000  
 16 04 02 13 02 19.0000000  0  2G05G02                                          
  19556231.96149 102768690.99249     -3688.75849        49.000  
  19579073.28149 102888722.35949    -13332.60949        49.000  
 16 04 02 13 02 19.1000000  0  2G05G02                                          
  19556302.21149 102769060.16849     -3695.14149        49.000  
  19579327.03149 102890055.80949    -13336.82849        49.000  
 16 04 02 13 02 19.2000000  0  2G05G02                                          
  19556372.60249 102769430.04349     -3702.03149        49.000  
  19579580.87549 102891389.75849    -13341.67249        49.000  
 16 04 02 13 02 19.3000000  0  2G05G02                                          
  19556443.10249 102769800.52349     -3708.39549        49.000  
  19579834.78949 102892724.11349    -13346.10249        49.000  
 16 04 02 13 02 19.4000000  0  2G05G02                                          
  19556513.74249 102770171.73449     -3715.38349        49.000  
  19580088.80549 102894058.99249    -13351.05549        49.000  
 16 04 02 13 02 19.5000000  0  2G05G02                                          
  19556584.50849 102770543.60249     -3722.14549        49.000  
  19580342.91449 102895394.32049    -13355.61349        49.000  
 16 04 02 13 02 19.6000000  0  2G05G02                                          
  19556655.38349 102770916.06249     -3727.96149        49.000  
  19580597.09449 102896730.03549    -13359.45349        49.000  
 16 04 02 13 02 19.7000000  0  2G05G02                                          
  19556726.39149 102771289.24249     -3735.07849        49.000  
  19580851.37549 102898066.28149    -13364.67649        49.000  
 16 04 02 13 02 19.8000000  0  2G05G02                                          
  19556797.53949 102771663.10949     -3742.10249        49.000  
  19581105.74249 102899402.98849    -13369.41449        49.000  
 16 04 02 13 02 19.9000000  0  2G05G02                                          
  19556868.79749 102772037.56249     -3748.07849        49.000  
  19581360.18049 102900740.09449    -13373.44949        49.000  
 16 04 02 13 02 20.0000000  0  2G05G02                                          
  19556940.18849 102772412.71949     -3754.99249        49.000  
  19581614.71949 102902077.69549    -13378.38749        49.000  
 16 04 02 13 02 20.1000000  0  2G05G02                                          
  19557011.71149 102772788.59049     -3762.35249        49.000  
  19581869.35249 102903415.78949    -13383.64549        49.000  
 16 04 02 13 02 20.2000000  0  2G05G02                                          
  19557083.36749 102773165.17649     -3769.16449        49.000  
  19582124.07849 102904754.40249    -13388.36349        49.000  
 16 04 02 13 02 20.3000000  0  2G05G02                                          
  19557155.14149 102773542.31649     -3775.13349        49.000  
  19582378.88349 102906093.37549    -13392.25849        49.000  
 16 04 02 13 02 20.4000000  0  2G05G02                                          
  19557227.03949 102773920.15249     -3781.57049        49.000  
  19582633.77349 102907432.84049    -13396.84849        49.000  
 16 04 02 13 02 20.5000000  0  2G05G02                                          
  19557299.06249 102774298.65649     -3788.41049        49.000  
  19582888.75049 102908772.76249    -13401.64149        49.000  
 16 04 02 13 02 20.6000000  0  2G05G02                                          
  19557371.21149 102774677.79749     -3794.75449        49.000  
  19583143.81249 102910113.11349    -13405.83649        49.000  
 16 04 02 13 02 20.7000000  0  2G05G02                                          
  19557443.48449 102775057.57049     -3801.11749        49.000  
  19583398.95349 102911453.89549    -13410.17649        49.000  
 16 04 02 13 02 20.8000000  0  2G05G02                                          
  19557515.88349 102775438.05949     -3808.15649        49.000  
  19583654.18849 102912795.18449    -13415.13349        49.000  
 16 04 02 13 02 20.9000000  0  2G05G02                                          
  19557588.39849 102775819.13749     -3814.27049        49.000  
  19583909.50049 102914136.86749    -13419.26649        49.000  
 16 04 02 13 02 21.0000000  0  2G05G02                                          
  19557661.04749 102776200.91049     -3821.04349        49.000  
  19584164.90649 102915479.03549    -13423.90249        49.000  
 16 04 02 13 02 21.1000000  0  2G05G02                                          
  19557733.82849 102776583.35249     -3827.83649        49.000  
  19584420.39849 102916821.66849    -13428.63749        49.000  
 16 04 02 13 02 21.2000000  0  2G05G02                                          
  19557806.72749 102776966.44549     -3834.35949        49.000  
  19584675.98449 102918164.74649    -13433.28549        49.000  
 16 04 02 13 02 21.3000000  0  2G05G02                                          
  19557879.75049 102777350.18849     -3840.85549        49.000  
  19584931.64849 102919508.27049    -13437.71949        49.000  
 16 04 02 13 02 21.4000000  0  2G05G02                                          
  19557952.91449 102777734.67649     -3848.27349        49.000  
  19585187.41449 102920852.33249    -13442.99649        49.000  
 16 04 02 13 02 21.5000000  0  2G05G02                                          
  19558026.19549 102778119.77749     -3854.65249        49.000  
  19585443.25849 102922196.80149    -13447.18849        49.000  
 16 04 02 13 02 21.6000000  0  2G05G02                                          
  19558099.60949 102778505.56249     -3861.28549        49.000  
  19585699.18849 102923541.75849    -13451.96149        49.000  
 16 04 02 13 02 21.7000000  0  2G05G02                                          
  19558173.16449 102778892.07849     -3868.43449        49.000  
  19585955.23449 102924887.23449    -13456.99649        49.000  
 16 04 02 13 02 21.8000000  0  2G05G02                                          
  19558246.82049 102779279.16049     -3874.34849        49.000  
  19586211.33649 102926233.07449    -13460.86749        49.000  
 16 04 02 13 02 21.9000000  0  2G05G02                                          
  19558320.61749 102779666.96949     -3881.31249        49.000  
  19586467.53949 102927579.43049    -13465.72749        49.000  
 16 04 02 13 02 22.0000000  0  2G05G02                                          
  19558394.53149 102780055.39549     -3887.69149        49.000  
  19586723.82849 102928926.20749    -13470.02749        49.000  
 16 04 02 13 02 22.1000000  0  2G05G02                                          
  19558468.56249 102780444.45349     -3893.80949        49.000  
  19586980.18849 102930273.40249    -13474.12549        49.000  
 16 04 02 13 02 22.2000000  0  2G05G02                                          
  19558542.72749 102780834.17649     -3900.62149        49.000  
  19587236.63349 102931621.05549    -13478.81649        49.000  
 16 04 02 13 02 22.3000000  0  2G05G02                                          
  19558617.02349 102781224.59049     -3907.73049        49.000  
  19587493.17249 102932969.21549    -13484.07449        49.000  
 16 04 02 13 02 22.4000000  0  2G05G02                                          
  19558691.45349 102781615.74649     -3915.12149        49.000  
  19587749.82049 102934317.89549    -13489.39849        49.000  
 16 04 02 13 02 22.5000000  0  2G05G02                                          
  19558766.00049 102782007.50449     -3921.12149        49.000  
  19588006.54749 102935666.97749    -13493.28149        49.000  
 16 04 02 13 02 22.6000000  0  2G05G02                                          
  19558840.68049 102782399.92249     -3927.40249        49.000  
  19588263.35249 102937016.50849    -13497.57449        49.000  
 16 04 02 13 02 22.7000000  0  2G05G02                                          
  19558915.46949 102782792.93849     -3933.61749        49.000  
  19588520.23449 102938366.44149    -13501.66849        49.000  
 16 04 02 13 02 22.8000000  0  2G05G02                                          
  19558990.39149 102783186.68449     -3941.02349        49.000  
  19588777.21949 102939716.88749    -13506.95349        49.000  
 16 04 02 13 02 22.9000000  0  2G05G02                                          
  19559065.45349 102783581.12149     -3947.82049        49.000  
  19589034.29749 102941067.83249    -13511.76649        49.000  
 16 04 02 13 02 23.0000000  0  2G05G02                                          
  19559140.64149 102783976.23449     -3954.90249        49.000  
  19589291.46149 102942419.23849    -13516.77749        49.000  
 16 04 02 13 02 23.1000000  0  2G05G02                                          
  19559215.96949 102784372.04749     -3961.41849        49.000  
  19589548.71949 102943771.15249    -13521.39849        49.000  
 16 04 02 13 02 23.2000000  0  2G05G02                                          
  19559291.40649 102784768.50049     -3967.94549        49.000  
  19589806.06249 102945123.48449    -13525.75449        49.000  
 16 04 02 13 02 23.3000000  0  2G05G02                                          
  19559366.96949 102785165.59449     -3974.60249        49.000  
  19590063.48449 102946476.25849    -13530.32049        49.000  
 16 04 02 13 02 23.4000000  0  2G05G02                                          
  19559442.67249 102785563.40649     -3981.36349        49.000  
  19590321.00849 102947829.54349    -13535.08249        49.000  
 16 04 02 13 02 23.5000000  0  2G05G02                                          
  19559518.48449 102785961.80949     -3987.36749        49.000  
  19590578.60949 102949183.21949    -13538.93449        49.000  
 16 04 02 13 02 23.6000000  0  2G05G02                                          
  19559594.42249 102786360.87549     -3994.07849        49.000  
  19590836.28949 102950537.34849    -13543.61749        49.000  
 16 04 02 13 02 23.7000000  0  2G05G02                                          
  19559670.48449 102786760.62549     -4000.81249        49.000  
  19591094.05549 102951891.95349    -13548.36749        49.000  
 16 04 02 13 02 23.8000000  0  2G05G02                                          
  19559746.68049 102787161.03549     -4007.73849        49.000  
  19591351.92249 102953247.03149    -13553.33649        49.000  
 16 04 02 13 02 23.9000000  0  2G05G02                                          
  19559823.00849 102787562.12549     -4014.23049        49.000  
  19591609.86749 102954602.55949    -13557.63349        49.000  
 16 04 02 13 02 24.0000000  0  2G05G02                                          
  19559899.46149 102787963.88749     -4021.16849        49.000  
  19591867.90649 102955958.56249    -13562.59449        49.000  
 16 04 02 13 02 24.1000000  0  2G05G02                                          
  19559976.03949 102788366.30149     -4027.46949        49.000  
  19592126.03149 102957315.02049    -13566.73849        49.000  
 16 04 02 13 02 24.2000000  0  2G05G02                                          
  19560052.74249 102788769.39849     -4034.22749        49.000  
  19592384.25049 102958671.94949    -13571.47749        49.000  
 16 04 02 13 02 24.3000000  0  2G05G02                                          
  19560129.57049 102789173.13749     -4040.80949        49.000  
  19592642.54749 102960029.32049    -13576.13749        49.000  
 16 04 02 13 02 24.4000000  0  2G05G02                                          
  19560206.53949 102789577.59849     -4047.96949        49.000  
  19592900.93849 102961387.18449    -13580.97749        49.000  
 16 04 02 13 02 24.5000000  0  2G05G02                                          
  19560283.61749 102789982.66849     -4054.25449        49.000  
  19593159.41449 102962745.48449    -13585.37549        49.000  
 16 04 02 13 02 24.6000000  0  2G05G02                                          
  19560360.82849 102790388.41849     -4060.79349        49.000  
  19593417.97749 102964104.25049    -13589.90649        49.000  
 16 04 02 13 02 24.7000000  0  2G05G02                                          
  19560438.16449 102790794.81649     -4067.16049        49.000  
  19593676.62549 102965463.44949    -13594.25449        49.000  
 16 04 02 13 02 24.8000000  0  2G05G02                                          
  19560515.62549 102791201.87949     -4073.92249        49.000  
  19593935.35249 102966823.09849    -13598.77749        49.000  
 16 04 02 13 02 24.9000000  0  2G05G02                                          
  19560593.21149 102791609.59049     -4080.68049        49.000  
  19594194.17249 102968183.20749    -13603.59849        49.000  
 16 04 02 13 02 25.0000000  0  2G05G02                                          
  19560670.93049 102792017.99649     -4087.44149        49.000  
  19594453.08649 102969543.81249    -13608.32049        49.000  
 16 04 02 13 02 25.1000000  0  2G05G02                                          
  19560748.77349 102792427.07849     -4094.16449        49.000  
  19594712.09449 102970904.86749    -13612.90649        49.000  
 16 04 02 13 02 25.2000000  0  2G05G02                                          
  19560826.74249 102792836.79349     -4100.50849        49.000  
  19594971.17249 102972266.35249    -13617.11749        49.000  
 16 04 02 13 02 25.3000000  0  2G05G02                                          
  19560904.82849 102793247.14549     -4106.84449        49.000  
  19595230.33649 102973628.28149    -13621.54749        49.000  
 16 04 02 13 02 25.4000000  0  2G05G02                                          
  19560983.05549 102793658.21149     -4113.95749        49.000  
  19595489.60249 102974990.70749    -13626.54749        49.000  
 16 04 02 13 02 25.5000000  0  2G05G02                                          
  19561061.39849 102794069.92649     -4120.54749        49.000  
  19595748.94549 102976353.57849    -13631.09049        49.000  
 16 04 02 13 02 25.6000000  0  2G05G02                                          
  19561139.87549 102794482.33249     -4127.74249        49.000  
  19596008.38349 102977716.93849    -13636.16849        49.000  
 16 04 02 13 02 25.7000000  0  2G05G02                                          
  19561218.47749 102794895.39149     -4133.89849        49.000  
  19596267.90649 102979080.74249    -13640.18049        49.000  
 16 04 02 13 02 25.8000000  0  2G05G02                                          
  19561297.20349 102795309.10549     -4140.71949        49.000  
  19596527.51649 102980444.99649    -13645.03149        49.000  
 16 04 02 13 02 25.9000000  0  2G05G02                                          
  19561376.05549 102795723.45349     -4147.02749        49.000  
  19596787.20349 102981809.68049    -13649.31249        49.000  
 16 04 02 13 02 26.0000000  0  2G05G02                                          
  19561455.03949 102796138.51649     -4153.93849        49.000  
  19597046.99249 102983174.87149    -13654.23449        49.000  
 16 04 02 13 02 26.1000000  0  2G05G02                                          
  19561534.14149 102796554.17249     -4160.03149        49.000  
  19597306.85249 102984540.45349    -13658.17249        49.000  
 16 04 02 13 02 26.2000000  0  2G05G02                                          
  19561613.36749 102796970.51249     -4166.48849        49.000  
  19597566.80549 102985906.50449    -13662.60549        49.000  
 16 04 02 13 02 26.3000000  0  2G05G02                                          
  19561692.71149 102797387.46949     -4173.06249        49.000  
  19597826.82849 102987272.97349    -13667.10249        49.000  
 16 04 02 13 02 26.4000000  0  2G05G02                                          
  19561772.18849 102797805.14149     -4179.98449        49.000  
  19598086.96149 102988639.95749    -13672.03149        49.000  
 16 04 02 13 02 26.5000000  0  2G05G02                                          
  19561851.79749 102798223.46949     -4186.79349        49.000  
  19598347.17249 102990007.37549    -13676.60549        49.000  
 16 04 02 13 02 26.6000000  0  2G05G02                                          
  19561931.52349 102798642.45349     -4193.40249        49.000  
  19598607.46949 102991375.26249    -13681.38349        49.000  
 16 04 02 13 02 26.7000000  0  2G05G02                                          
  19562011.38349 102799062.10249     -4199.77349        49.000  
  19598867.85949 102992743.60249    -13685.74249        49.000  
 16 04 02 13 02 26.8000000  0  2G05G02                                          
  19562091.36749 102799482.42249     -4206.57449        49.000  
  19599128.32849 102994112.38749    -13690.30549        49.000  
 16 04 02 13 02 26.9000000  0  2G05G02                                          
  19562171.46949 102799903.39149     -4213.14549        49.000  
  19599388.89149 102995481.63349    -13694.88749        49.000  
 16 04 02 13 02 27.0000000  0  2G05G02                                          
  19562251.70349 102800325.00049     -4219.42249        49.000  
  19599649.53149 102996851.30149    -13699.02349        49.000  
 16 04 02 13 02 27.1000000  0  2G05G02                                          
  19562332.07049 102800747.35249     -4226.95349        49.000  
  19599910.27349 102998221.52049    -13704.55549        49.000  
 16 04 02 13 02 27.2000000  0  2G05G02                                          
  19562412.57049 102801170.36749     -4233.59449        49.000  
  19600171.10249 102999592.18449    -13709.02349        49.000  
 16 04 02 13 02 27.3000000  0  2G05G02                                          
  19562493.18849 102801593.99249     -4239.80549        49.000  
  19600432.00849 103000963.26649    -13713.24649        49.000  
 16 04 02 13 02 27.4000000  0  2G05G02                                          
  19562573.93049 102802018.33249     -4246.80549        49.000  
  19600693.01649 103002334.84849    -13718.19949        49.000  
 16 04 02 13 02 27.5000000  0  2G05G02                                          
  19562654.80549 102802443.34049     -4253.43849        49.000  
  19600954.10949 103003706.88749    -13722.80949        49.000  
 16 04 02 13 02 27.6000000  0  2G05G02                                          
  19562735.80549 102802868.97349     -4259.63349        49.000  
  19601215.28149 103005079.35249    -13726.96149        49.000  
 16 04 02 13 02 27.7000000  0  2G05G02                                          
  19562816.92249 102803295.23049     -4265.91849        49.000  
  19601476.53149 103006452.23049    -13731.10249        49.000  
 16 04 02 13 02 27.8000000  0  2G05G02                                          
  19562898.16449 102803722.17249     -4272.82449        49.000  
  19601737.87549 103007825.59049    -13735.86749        49.000  
 16 04 02 13 02 27.9000000  0  2G05G02                                          
  19562979.53949 102804149.80949     -4279.83249        49.000  
  19601999.31249 103009199.43849    -13740.93049        49.000  
 16 04 02 13 02 28.0000000  0  2G05G02                                          
  19563061.04749 102804578.13349     -4286.76649        49.000  
  19602260.83649 103010573.75849    -13745.69149        49.000  
 16 04 02 13 02 28.1000000  0  2G05G02                                          
  19563142.67249 102805007.05949     -4292.66049        49.000  
  19602522.43849 103011948.48449    -13749.57049        49.000  
 16 04 02 13 02 28.2000000  0  2G05G02                                          
  19563224.42249 102805436.68449     -4299.67249        49.000  
  19602784.12549 103013323.69549    -13754.52749        49.000  
 16 04 02 13 02 28.3000000  0  2G05G02                                          
  19563306.28949 102805866.91449     -4305.81249        49.000  
  19603045.90649 103014699.30949    -13758.55949        49.000  
 16 04 02 13 02 28.4000000  0  2G05G02                                          
  19563388.31249 102806297.93449     -4313.63749        49.000  
  19603307.78149 103016075.51249    -13764.46149        49.000  
 16 04 02 13 02 28.5000000  0  2G05G02                                          
  19563470.44549 102806729.53149     -4319.43049        49.000  
  19603569.73449 103017452.07849    -13768.07849        49.000  
 16 04 02 13 02 28.6000000  0  2G05G02                                          
  19563552.70349 102807161.78949     -4325.97749        49.000  
  19603831.77349 103018829.09849    -13772.53549        49.000  
 16 04 02 13 02 28.7000000  0  2G05G02                                          
  19563635.08649 102807594.71549     -4332.47349        49.000  
  19604093.90649 103020206.58649    -13777.05149        49.000  
 16 04 02 13 02 28.8000000  0  2G05G02                                          
  19563717.58649 102808028.28149     -4339.09049        49.000  
  19604356.10949 103021584.49649    -13781.49649        49.000  
 16 04 02 13 02 28.9000000  0  2G05G02                                          
  19563800.22749 102808462.53949     -4345.92249        49.000  
  19604618.41449 103022962.89849    -13786.28949        49.000  
 16 04 02 13 02 29.0000000  0  2G05G02                                          
  19563882.97749 102808897.37149     -4351.73049        49.000  
  19604880.78949 103024341.66849    -13790.08649        49.000  
 16 04 02 13 02 29.1000000  0  2G05G02                                          
  19563965.85949 102809332.94949     -4359.09849        49.000  
  19605143.25849 103025720.97349    -13795.26649        49.000  
 16 04 02 13 02 29.2000000  0  2G05G02                                          
  19564048.88349 102809769.22349     -4366.19149        49.000  
  19605405.82849 103027100.77049    -13800.31649        49.000  
 16 04 02 13 02 29.3000000  0  2G05G02                                          
  19564132.00049 102810206.03149     -4371.65249        49.000  
  19605668.45349 103028480.90249    -13803.78549        49.000  
 16 04 02 13 02 29.4000000  0  2G05G02                                          
  19564215.26649 102810643.57849     -4378.79749        49.000  
  19605931.18049 103029861.55149    -13808.83649        49.000  
 16 04 02 13 02 29.5000000  0  2G05G02                                          
  19564298.66449 102811081.85549     -4386.21549        49.000  
  19606194.00849 103031242.73449    -13814.19949        49.000  
 16 04 02 13 02 29.6000000  0  2G05G02                                          
  19564382.18049 102811520.73049     -4392.25049        49.000  
  19606456.91449 103032624.31249    -13818.35249        49.000  
 16 04 02 13 02 29.7000000  0  2G05G02                                          
  19564465.82849 102811960.26249     -4398.49649        49.000  
  19606719.90649 103034006.32049    -13822.28149        49.000  
 16 04 02 13 02 29.8000000  0  2G05G02                                          
  19564549.59449 102812400.44949     -4405.48049        49.000  
  19606982.98449 103035388.78549    -13827.19549        49.000  
 16 04 02 13 02 29.9000000  0  2G05G02                                          
  19564633.48449 102812841.32849     -4412.02349        49.000  
  19607246.14849 103036771.74649    -13831.87949        49.000  
 16 04 02 13 02 30.0000000  0  2G05G02                                          
  19564717.50049 102813282.85249     -4418.66049        49.000  
  19607509.39849 103038155.12949    -13836.31649        49.000  
 16 04 02 13 02 30.1000000  0  2G05G02                                          
  19564801.64849 102813725.02749     -4425.17649        49.000  
  19607772.73449 103039538.96949    -13840.76249        49.000  
 16 04 02 13 02 30.2000000  0  2G05G02                                          
  19564885.90649 102814167.84049     -4431.62949        49.000  
  19608036.14849 103040923.23049    -13845.04349        49.000  
 16 04 02 13 02 30.3000000  0  2G05G02                                          
  19564970.32049 102814611.40649     -4439.19549        49.000  
  19608299.67249 103042308.04749    -13850.60249        49.000  
 16 04 02 13 02 30.4000000  0  2G05G02                                          
  19565054.83649 102815055.55949     -4444.76649        49.000  
  19608563.26649 103043693.24249    -13854.11349        49.000  
 16 04 02 13 02 30.5000000  0  2G05G02                                          
  19565139.47749 102815500.33649     -4451.29749        49.000  
  19608826.93849 103045078.84849    -13858.62949        49.000  
 16 04 02 13 02 30.6000000  0  2G05G02                                          
  19565224.26649 102815945.89149     -4458.75049        49.000  
  19609090.71949 103046465.02049    -13863.79749        49.000  
 16 04 02 13 02 30.7000000  0  2G05G02                                          
  19565309.16449 102816392.04749     -4465.18049        49.000  
  19609354.57849 103047851.59849    -13868.23849        49.000  
 16 04 02 13 02 30.8000000  0  2G05G02                                          
  19565394.18049 102816838.82449     -4471.11749        49.000  
  19609618.50849 103049238.58649    -13872.09449        49.000  
 16 04 02 13 02 30.9000000  0  2G05G02                                          
  19565479.32049 102817286.24249     -4477.57849        49.000  
  19609882.53149 103050626.00849    -13876.53149        49.000  
 16 04 02 13 02 31.0000000  0  2G05G02                                          
  19565564.60249 102817734.39149     -4484.84849        49.000  
  19610146.64849 103052013.95749    -13881.83249        49.000  
 16 04 02 13 02 31.1000000  0  2G05G02                                          
  19565650.00049 102818183.18049     -4491.36749        49.000  
  19610410.85249 103053402.33649    -13886.25049        49.000  
 16 04 02 13 02 31.2000000  0  2G05G02                                          
  19565735.52349 102818632.59049     -4497.36749        49.000  
  19610675.13349 103054791.12149    -13890.02049        49.000  
 16 04 02 13 02 31.3000000  0  2G05G02                                          
  19565821.16449 102819082.63349     -4503.73049        49.000  
  19610939.49249 103056180.34449    -13894.51249        49.000  
 16 04 02 13 02 31.4000000  0  2G05G02                                          
  19565906.93049 102819533.32449     -4509.95749        49.000  
  19611203.93849 103057569.99249    -13898.60249        49.000  
 16 04 02 13 02 31.5000000  0  2G05G02                                          
  19565992.81249 102819984.64549     -4516.65249        49.000  
  19611468.46149 103058960.06649    -13903.00849        49.000  
 16 04 02 13 02 31.6000000  0  2G05G02                                          
  19566078.82849 102820436.68449     -4523.91049        49.000  
  19611733.07849 103060350.66049    -13908.29749        49.000  
 16 04 02 13 02 31.7000000  0  2G05G02                                          
  19566164.98449 102820889.42649     -4530.83249        49.000  
  19611997.79749 103061741.75449    -13913.31249        49.000  
 16 04 02 13 02 31.8000000  0  2G05G02                                          
  19566251.24249 102821342.73449     -4536.53549        49.000  
  19612262.57849 103063133.19149    -13916.76649        49.000  
 16 04 02 13 02 31.9000000  0  2G05G02                                          
  19566337.64149 102821796.73449     -4543.21549        49.000  
  19612527.45349 103064525.12949    -13921.65249        49.000  
 16 04 02 13 02 32.0000000  0  2G05G02                                          
  19566424.16449 102822251.41849     -4550.07849        49.000  
  19612792.41449 103065917.52749    -13926.18049        49.000  
 16 04 02 13 02 32.1000000  0  2G05G02                                          
  19566510.80549 102822706.70749     -4556.25049        49.000  
  19613057.46149 103067310.32849    -13930.35549        49.000  
 16 04 02 13 02 32.2000000  0  2G05G02                                          
  19566597.57849 102823162.70749     -4563.30949        49.000  
  19613322.59449 103068703.63749    -13935.33249        49.000  
 16 04 02 13 02 32.3000000  0  2G05G02                                          
  19566684.46949 102823619.33649     -4569.51649        49.000  
  19613587.82049 103070097.36749    -13939.43049        49.000  
 16 04 02 13 02 32.4000000  0  2G05G02                                          
  19566771.49249 102824076.64149     -4576.51249        49.000  
  19613853.12549 103071491.56249    -13944.35549        49.000  
 16 04 02 13 02 32.5000000  0  2G05G02                                          
  19566858.64149 102824534.61349     -4583.09449        49.000  
  19614118.51649 103072886.20349    -13948.67249        49.000  
 16 04 02 13 02 32.6000000  0  2G05G02                                          
  19566945.92249 102824993.25449     -4589.95349        49.000  
  19614384.00049 103074281.32049    -13953.52749        49.000  
 16 04 02 13 02 32.7000000  0  2G05G02                                          
  19567033.32849 102825452.59049     -4596.83249        49.000  
  19614649.57049 103075676.92649    -13958.38749        49.000  
 16 04 02 13 02 32.8000000  0  2G05G02                                          
  19567120.85949 102825912.55149     -4603.03549        49.000  
  19614915.22749 103077072.94949    -13962.62949        49.000  
 16 04 02 13 02 32.9000000  0  2G05G02                                          
  19567208.50049 102826373.14149     -4609.19149        49.000  
  19615180.95349 103078469.39149    -13966.57449        49.000  
 16 04 02 13 02 33.0000000  0  2G05G02                                          
  19567296.27349 102826834.36349     -4615.55549        49.000  
  19615446.77349 103079866.26649    -13970.98049        49.000  
 16 04 02 13 02 33.1000000  0  2G05G02                                          
  19567384.18049 102827296.32849     -4623.02049        49.000  
  19615712.68849 103081263.65249    -13976.29349        49.000  
 16 04 02 13 02 33.2000000  0  2G05G02                                          
  19567472.19549 102827758.84449     -4628.43849        49.000  
  19615978.67249 103082661.41049    -13979.74249        49.000  
 16 04 02 13 02 33.3000000  0  2G05G02                                          
  19567560.33649 102828222.04349     -4635.34049        49.000  
  19616244.74249 103084059.61749    -13984.47349        49.000  
 16 04 02 13 02 33.4000000  0  2G05G02                                          
  19567648.61749 102828685.95349     -4642.50849        49.000  
  19616510.91449 103085458.35249    -13989.55949        49.000  
 16 04 02 13 02 33.5000000  0  2G05G02                                          
  19567737.02349 102829150.54349     -4649.44949        49.000  
  19616777.17249 103086857.53549    -13994.41849        49.000  
 16 04 02 13 02 33.6000000  0  2G05G02                                          
  19567825.56249 102829615.80549     -4656.16849        49.000  
  19617043.52349 103088257.20749    -13999.21149        49.000  
 16 04 02 13 02 33.7000000  0  2G05G02                                          
  19567914.21949 102830081.71149     -4662.57849        49.000  
  19617309.95349 103089657.30149    -14003.41849        49.000  
 16 04 02 13 02 33.8000000  0  2G05G02                                          
  19568003.00849 102830548.30549     -4669.08649        49.000  
  19617576.46949 103091057.87149    -14007.89849        49.000  
 16 04 02 13 02 33.9000000  0  2G05G02                                          
  19568091.91449 102831015.52349     -4675.74649        49.000  
  19617843.07049 103092458.86349    -14012.32849        49.000  
 16 04 02 13 02 34.0000000  0  2G05G02                                          
  19568180.95349 102831483.41849     -4682.30149        49.000  
  19618109.75849 103093860.31649    -14016.80549        49.000  
 16 04 02 13 02 34.1000000  0  2G05G02                                          
  19568270.10949 102831951.94149     -4688.55149        49.000  
  19618376.52349 103095262.19549    -14021.05949        49.000  
 16 04 02 13 02 34.2000000  0  2G05G02                                          
  19568359.39149 102832421.13349     -4695.39549        49.000  
  19618643.38349 103096664.53149    -14025.69549        49.000  
 16 04 02 13 02 34.3000000  0  2G05G02                                          
  19568448.80549 102832891.00449     -4702.21549        49.000  
  19618910.32849 103098067.35249    -14030.61349        49.000  
 16 04 02 13 02 34.4000000  0  2G05G02                                          
  19568538.34449 102833361.53949     -4708.79749        49.000  
  19619177.35949 103099470.60949    -14034.97349        49.000  
 16 04 02 13 02 34.5000000  0  2G05G02                                          
  19568628.00849 102833832.73049     -4715.26649        49.000  
  19619444.47749 103100874.32449    -14039.40649        49.000  
 16 04 02 13 02 34.6000000  0  2G05G02                                          
  19568717.80549 102834304.60549     -4722.26249        49.000  
  19619711.68849 103102278.52349    -14044.47349        49.000  
 16 04 02 13 02 34.7000000  0  2G05G02                                          
  19568807.72749 102834777.18449     -4729.24649        49.000  
  19619978.99249 103103683.20749    -14049.21149        49.000  
 16 04 02 13 02 34.8000000  0  2G05G02                                          
  19568897.78149 102835250.40249     -4735.46149        49.000  
  19620246.37549 103105088.32449    -14053.41849        49.000  
 16 04 02 13 02 34.9000000  0  2G05G02                                          
  19568987.93849 102835724.18449     -4741.13349        49.000  
  19620513.82849 103106493.79749    -14056.94149        49.000  
 16 04 02 13 02 35.0000000  0  2G05G02                                          
  19569078.23449 102836198.68849     -4748.32049        49.000  
  19620781.38349 103107899.78149    -14062.05549        49.000  
 16 04 02 13 02 35.1000000  0  2G05G02                                          
  19569168.63349 102836673.75849     -4753.96949        49.000  
  19621049.00049 103109306.13349    -14065.68449        49.000  
 16 04 02 13 02 35.2000000  0  2G05G02                                          
  19569259.17249 102837149.54749     -4761.19549        49.000  
  19621316.71149 103110712.98049    -14070.78549        49.000  
 16 04 02 13 02 35.3000000  0  2G05G02                                          
  19569349.84449 102837626.01649     -4768.00849        49.000  
  19621584.51649 103112120.31249    -14075.62949        50.000  
 16 04 02 13 02 35.4000000  0  2G05G02                                          
  19569440.62549 102838103.07449     -4773.99249        49.000  
  19621852.39849 103113528.01249    -14079.30549        50.000  
 16 04 02 13 02 35.5000000  0  2G05G02                                          
  19569531.54749 102838580.89549     -4781.39549        49.000  
  19622120.38349 103114936.27049    -14084.76249        49.000  
 16 04 02 13 02 35.6000000  0  2G05G02                                          
  19569622.58649 102839059.31649     -4787.62149        49.000  
  19622388.43849 103116344.92249    -14088.82049        49.000  
 16 04 02 13 02 35.7000000  0  2G05G02                                          
  19569713.75849 102839538.41049     -4794.44949        49.000  
  19622656.58649 103117754.04749    -14093.58649        49.000  
 16 04 02 13 02 35.8000000  0  2G05G02                                          
  19569805.04749 102840018.13749     -4800.42249        49.000  
  19622924.81249 103119163.59049    -14097.59449        49.000  
 16 04 02 13 02 35.9000000  0  2G05G02                                          
  19569896.45349 102840498.50049     -4807.12149        49.000  
  19623193.11749 103120573.54349    -14101.91049        49.000  
 16 04 02 13 02 36.0000000  0  2G05G02                                          
  19569988.00049 102840979.55949     -4814.06649        49.000  
  19623461.52349 103121984.01249    -14106.96949        49.000  
 16 04 02 13 02 36.1000000  0  2G05G02                                          
  19570079.67249 102841461.30949     -4820.91449        49.000  
  19623730.01649 103123394.94549    -14111.60949        49.000  
 16 04 02 13 02 36.2000000  0  2G05G02                                          
  19570171.47749 102841943.74649     -4828.02349        49.000  
  19623998.60949 103124806.37949    -14116.84849        49.000  
 16 04 02 13 02 36.3000000  0  2G05G02                                          
  19570263.39849 102842426.81649     -4834.16449        49.000  
  19624267.26649 103126218.20349    -14120.68449        49.000  
 16 04 02 13 02 36.4000000  0  2G05G02                                          
  19570355.45349 102842910.54349     -4840.87949        49.000  
  19624536.01649 103127630.50449    -14125.38349        49.000  
 16 04 02 13 02 36.5000000  0  2G05G02                                          
  19570447.62549 102843394.91849     -4846.82449        49.000  
  19624804.85249 103129043.23849    -14129.40649        50.000  
 16 04 02 13 02 36.6000000  0  2G05G02                                          
  19570539.92249 102843879.94149     -4853.82049        49.000  
  19625073.76649 103130456.40249    -14134.27749        50.000  
 16 04 02 13 02 36.7000000  0  2G05G02                                          
  19570632.35249 102844365.69149     -4860.81649        49.000  
  19625342.78149 103131870.09449    -14139.25849        50.000  
 16 04 02 13 02 36.8000000  0  2G05G02                                          
  19570724.90649 102844852.05949     -4867.06649        49.000  
  19625611.87549 103133284.17649    -14143.25449        50.000  
 16 04 02 13 02 36.9000000  0  2G05G02                                          
  19570817.57849 102845339.07049     -4873.48849        49.000  
  19625881.04749 103134698.71149    -14147.68849        50.000  
 16 04 02 13 02 37.0000000  0  2G05G02                                          
  19570910.39149 102845826.79349     -4880.65249        49.000  
  19626150.32049 103136113.75049    -14152.81249        50.000  
 16 04 02 13 02 37.1000000  0  2G05G02                                          
  19571003.31249 102846315.09849     -4886.41849        49.000  
  19626419.66449 103137529.16849    -14156.42649        50.000  
 16 04 02 13 02 37.2000000  0  2G05G02                                          
  19571096.36749 102846804.09449     -4893.13749        49.000  
  19626689.09449 103138945.02749    -14160.70749        50.000  
 16 04 02 13 02 37.3000000  0  2G05G02                                          
  19571189.53149 102847293.69949     -4899.57849        49.000  
  19626958.60949 103140361.33649    -14165.44549        50.000  
 16 04 02 13 02 37.4000000  0  2G05G02                                          
  19571282.84449 102847784.03949     -4906.87949        49.000  
  19627228.21949 103141778.14149    -14170.48049        50.000  
 16 04 02 13 02 37.5000000  0  2G05G02                                          
  19571376.28149 102848275.06249     -4913.70749        49.000  
  19627497.92249 103143195.43449    -14175.29749        49.000  
 16 04 02 13 02 37.6000000  0  2G05G02                                          
  19571469.83649 102848766.69149     -4919.60549        49.000  
  19627767.69549 103144613.12149    -14179.06649        50.000  
 16 04 02 13 02 37.7000000  0  2G05G02                                          
  19571563.50849 102849258.91849     -4925.52349        49.000  
  19628037.54749 103146031.19949    -14182.98849        50.000  
 16 04 02 13 02 37.8000000  0  2G05G02                                          
  19571657.30549 102849751.85549     -4932.66449        49.000  
  19628307.49249 103147449.76649    -14187.91049        49.000  
 16 04 02 13 02 37.9000000  0  2G05G02                                          
  19571751.24249 102850245.48849     -4939.79349        49.000  
  19628577.53149 103148868.83649    -14193.09049        50.000  
 16 04 02 13 02 38.0000000  0  2G05G02                                          
  19571845.29749 102850739.72349     -4945.78149        49.000  
  19628847.64849 103150288.28949    -14196.98449        49.000  
 16 04 02 13 02 38.1000000  0  2G05G02                                          
  19571939.47749 102851234.65649     -4952.78549        49.000  
  19629117.85249 103151708.23049    -14201.80949        49.000  
 16 04 02 13 02 38.2000000  0  2G05G02                                          
  19572033.78949 102851730.27049     -4959.76649        49.000  
  19629388.14849 103153128.64849    -14206.64149        50.000  
 16 04 02 13 02 38.3000000  0  2G05G02                                          
  19572128.22749 102852226.52749     -4966.08249        49.000  
  19629658.53149 103154549.50049    -14210.96549        49.000  
 16 04 02 13 02 38.4000000  0  2G05G02                                          
  19572222.78149 102852723.44149     -4972.43849        49.000  
  19629928.99249 103155970.79349    -14215.16849        50.000  
 16 04 02 13 02 38.5000000  0  2G05G02                                          
  19572317.46149 102853220.96949     -4978.65649        49.000  
  19630199.53149 103157392.50849    -14219.38749        49.000  
 16 04 02 13 02 38.6000000  0  2G05G02                                          
  19572412.25849 102853719.12549     -4984.71949        49.000  
  19630470.15649 103158814.62949    -14223.28949        49.000  
 16 04 02 13 02 38.7000000  0  2G05G02                                          
  19572507.17249 102854217.92649     -4991.44149        49.000  
  19630740.85949 103160237.18049    -14227.95349        49.000  
 16 04 02 13 02 38.8000000  0  2G05G02                                          
  19572602.23449 102854717.44949     -4998.55949        49.000  
  19631011.66449 103161660.25449    -14232.95349        49.000  
 16 04 02 13 02 38.9000000  0  2G05G02                                          
  19572697.40649 102855217.60249     -5004.91849        49.000  
  19631282.54749 103163083.74249    -14237.25449        49.000  
 16 04 02 13 02 39.0000000  0  2G05G02                                          
  19572792.70349 102855718.40649     -5011.35249        49.000  
  19631553.50849 103164507.67249    -14241.49249        49.000  
 16 04 02 13 02 39.1000000  0  2G05G02                                          
  19572888.12549 102856219.82449     -5017.66449        49.000  
  19631824.55549 103165932.00849    -14245.71549        49.000  
 16 04 02 13 02 39.2000000  0  2G05G02                                          
  19572983.68049 102856721.95349     -5024.68849        49.000  
  19632095.68849 103167356.85249    -14250.80949        49.000  
 16 04 02 13 02 39.3000000  0  2G05G02                                          
  19573079.35949 102857224.77049     -5031.62149        49.000  
  19632366.92249 103168782.17249    -14255.64549        49.000  
 16 04 02 13 02 39.4000000  0  2G05G02                                          
  19573175.16449 102857728.23849     -5038.14549        49.000  
  19632638.23449 103170207.93049    -14260.01649        49.000  
 16 04 02 13 02 39.5000000  0  2G05G02                                          
  19573271.09449 102858232.32049     -5044.03549        49.000  
  19632909.62549 103171634.09849    -14263.86749        49.000  
 16 04 02 13 02 39.6000000  0  2G05G02                                          
  19573367.13349 102858737.04749     -5050.55149        49.000  
  19633181.09449 103173060.68449    -14268.10549        49.000  
 16 04 02 13 02 39.7000000  0  2G05G02                                          
  19573463.32049 102859242.48449     -5057.86349        49.000  
  19633452.66449 103174487.78949    -14273.34849        49.000  
 16 04 02 13 02 39.8000000  0  2G05G02                                          
  19573559.63349 102859748.60549     -5064.74249        49.000  
  19633724.32049 103175915.36349    -14278.30149        49.000  
 16 04 02 13 02 39.9000000  0  2G05G02                                          
  19573656.07049 102860255.39849     -5071.26649        49.000  
  19633996.07049 103177343.39549    -14282.55549        49.000  
 16 04 02 13 02 40.0000000  0  2G05G02                                          
  19573752.63349 102860762.83649     -5077.73049        49.000  
  19634267.89849 103178771.87149    -14287.08249        49.000  
 16 04 02 13 02 40.1000000  0  2G05G02                                          
  19573849.31249 102861270.88749     -5083.75449        49.000  
  19634539.80549 103180200.75049    -14291.03149        49.000  
 16 04 02 13 02 40.2000000  0  2G05G02                                          
  19573946.12549 102861779.62549     -5090.67649        49.000  
  19634811.80549 103181630.10249    -14295.76249        49.000  
 16 04 02 13 02 40.3000000  0  2G05G02                                          
  19574043.05549 102862289.00049     -5096.88349        49.000  
  19635083.88349 103183059.87949    -14299.89849        49.000  
 16 04 02 13 02 40.4000000  0  2G05G02                                          
  19574140.11749 102862799.04749     -5103.81649        49.000  
  19635356.04749 103184490.12149    -14304.61749        49.000  
 16 04 02 13 02 40.5000000  0  2G05G02                                          
  19574237.30549 102863309.76649     -5110.74249        49.000  
  19635628.29749 103185920.82449    -14309.59049        50.000  
 16 04 02 13 02 40.6000000  0  2G05G02                                          
  19574334.61749 102863821.15649     -5117.33249        49.000  
  19635900.64149 103187351.99249    -14314.01249        50.000  
 16 04 02 13 02 40.7000000  0  2G05G02                                          
  19574432.06249 102864333.24649     -5124.30549        49.000  
  19636173.07849 103188783.64849    -14318.97749        49.000  
 16 04 02 13 02 40.8000000  0  2G05G02                                          
  19574529.62549 102864845.94549     -5130.19549        49.000  
  19636445.58649 103190215.70349    -14322.66849        49.000  
 16 04 02 13 02 40.9000000  0  2G05G02                                          
  19574627.30549 102865359.27049     -5136.60249        49.000  
  19636718.18849 103191648.17649    -14326.96549        49.000  
 16 04 02 13 02 41.0000000  0  2G05G02                                          
  19574725.12549 102865873.29349     -5143.43849        49.000  
  19636990.86749 103193081.13349    -14331.72749        49.000  
 16 04 02 13 02 41.1000000  0  2G05G02                                          
  19574823.05549 102866387.93049     -5149.68049        49.000  
  19637263.62549 103194514.49249    -14335.75849        49.000  
 16 04 02 13 02 41.2000000  0  2G05G02                                          
  19574921.09449 102866903.14549     -5155.44549        49.000  
  19637536.46149 103195948.23049    -14339.64849        49.000  
 16 04 02 13 02 41.3000000  0  2G05G02                                          
  19575019.27349 102867419.09449     -5162.78149        49.000  
  19637809.39149 103197382.48849    -14344.80149        49.000  
 16 04 02 13 02 41.4000000  0  2G05G02                                          
  19575117.59449 102867935.73849     -5169.89549        49.000  
  19638082.41449 103198817.21949    -14349.69549        49.000  
 16 04 02 13 02 41.5000000  0  2G05G02                                          
  19575216.01649 102868452.96149     -5175.65649        49.000  
  19638355.50849 103200252.34049    -14353.57049        49.000  
 16 04 02 13 02 41.6000000  0  2G05G02                                          
  19575314.55549 102868970.79749     -5181.75449        49.000  
  19638628.67249 103201687.85249    -14357.41449        49.000  
 16 04 02 13 02 41.7000000  0  2G05G02                                          
  19575413.22749 102869489.32449     -5188.41449        49.000  
  19638901.93849 103203123.84049    -14361.94149        49.000  
 16 04 02 13 02 41.8000000  0  2G05G02                                          
  19575512.02349 102870008.50049     -5195.17249        49.000  
  19639175.28149 103204560.27749    -14366.68049        49.000  
 16 04 02 13 02 41.9000000  0  2G05G02                                          
  19575610.93849 102870528.31249     -5201.59449        49.000  
  19639448.71149 103205997.13749    -14370.95349        49.000  
 16 04 02 13 02 42.0000000  0  2G05G02                                          
  19575710.00049 102871048.87949     -5209.11749        49.000  
  19639722.24249 103207434.53149    -14376.19149        49.000  
 16 04 02 13 02 42.1000000  0  2G05G02                                          
  19575809.18049 102871570.06649     -5215.48049        49.000  
  19639995.85249 103208872.35949    -14380.74249        49.000  
 16 04 02 13 02 42.2000000  0  2G05G02                                          
  19575908.48449 102872091.92649     -5221.95349        49.000  
  19640269.53949 103210310.63349    -14385.04349        49.000  
 16 04 02 13 02 42.3000000  0  2G05G02                                          
  19576007.91449 102872614.40249     -5228.16449        49.000  
  19640543.31249 103211749.31649    -14389.13749        49.000  
 16 04 02 13 02 42.4000000  0  2G05G02                                          
  19576107.46949 102873137.57049     -5234.96549        49.000  
  19640817.18049 103213188.48049    -14393.90249        49.000  
 16 04 02 13 02 42.5000000  0  2G05G02                                          
  19576207.15649 102873661.42649     -5242.13349        49.000  
  19641091.13349 103214628.11749    -14398.90249        49.000  
 16 04 02 13 02 42.6000000  0  2G05G02                                          
  19576306.96949 102874185.94549     -5248.55549        49.000  
  19641365.17249 103216068.22749    -14403.44549        49.000  
 16 04 02 13 02 42.7000000  0  2G05G02                                          
  19576406.89849 102874711.10949     -5255.24249        49.000  
  19641639.28949 103217508.73849    -14407.61749        49.000  
 16 04 02 13 02 42.8000000  0  2G05G02                                          
  19576506.96949 102875236.95749     -5261.84849        49.000  
  19641913.50849 103218949.75049    -14412.38749        49.000  
 16 04 02 13 02 42.9000000  0  2G05G02                                          
  19576607.14849 102875763.42649     -5268.01249        49.000  
  19642187.79749 103220391.16049    -14416.39849        49.000  
 16 04 02 13 02 43.0000000  0  2G05G02                                          
  19576707.46149 102876290.56249     -5274.62549        49.000  
  19642462.18049 103221833.03549    -14420.99249        49.000  
 16 04 02 13 02 43.1000000  0  2G05G02                                          
  19576807.89849 102876818.35549     -5281.47749        49.000  
  19642736.64149 103223275.35249    -14425.64149        49.000  
 16 04 02 13 02 43.2000000  0  2G05G02                                          
  19576908.46149 102877346.80549     -5287.82449        49.000  
  19643011.19549 103224718.12149    -14429.89849        49.000  
 16 04 02 13 02 43.3000000  0  2G05G02                                          
  19577009.14149 102877875.88349     -5294.04749        49.000  
  19643285.82049 103226161.30149    -14433.94949        49.000  
 16 04 02 13 02 43.4000000  0  2G05G02                                          
  19577109.95349 102878405.67249     -5301.35549        49.000  
  19643560.54749 103227604.98049    -14439.25449        49.000  
 16 04 02 13 02 43.5000000  0  2G05G02                                          
  19577210.89849 102878936.14849     -5308.14149        49.000  
  19643835.35949 103229049.14549    -14444.00849        49.000  
 16 04 02 13 02 43.6000000  0  2G05G02                                          
  19577311.96949 102879467.27049     -5314.78549        49.000  
  19644110.25849 103230493.73049    -14448.31649        49.000  
 16 04 02 13 02 43.7000000  0  2G05G02                                          
  19577413.15649 102879998.98849     -5320.44549        49.000  
  19644385.22749 103231938.71149    -14452.05149        49.000  
 16 04 02 13 02 43.8000000  0  2G05G02                                          
  19577514.46949 102880531.39549     -5327.39549        49.000  
  19644660.28949 103233384.16449    -14456.75449        49.000  
 16 04 02 13 02 43.9000000  0  2G05G02                                          
  19577615.91449 102881064.48049     -5334.22349        49.000  
  19644935.43849 103234830.09849    -14461.58649        49.000  
 16 04 02 13 02 44.0000000  0  2G05G02                                          
  19577717.48449 102881598.24649     -5340.87549        49.000  
  19645210.68049 103236276.49649    -14466.20349        49.000  
 16 04 02 13 02 44.1000000  0  2G05G02                                          
  19577819.18049 102882132.63749     -5347.39549        49.000  
  19645486.00049 103237723.30949    -14470.44549        49.000  
 16 04 02 13 02 44.2000000  0  2G05G02                                          
  19577920.98449 102882667.66049     -5353.55949        49.000  
  19645761.39849 103239170.53149    -14474.50849        50.000  
 16 04 02 13 02 44.3000000  0  2G05G02                                          
  19578022.93049 102883203.37149     -5360.39549        49.000  
  19646036.89149 103240618.25049    -14479.32049        50.000  
 16 04 02 13 02 44.4000000  0  2G05G02                                          
  19578125.00049 102883739.75449     -5367.23049        49.000  
  19646312.46949 103242066.42649    -14484.14149        49.000  
 16 04 02 13 02 44.5000000  0  2G05G02                                          
  19578227.20349 102884276.82049     -5373.94549        49.000  
  19646588.14149 103243515.05949    -14488.52749        49.000  
 16 04 02 13 02 44.6000000  0  2G05G02                                          
  19578329.50049 102884814.41449     -5379.26649        49.000  
  19646863.86749 103244964.02049    -14491.84849        49.000  
 16 04 02 13 02 44.7000000  0  2G05G02                                          
  19578431.93849 102885352.71149     -5386.31649        49.000  
  19647139.68849 103246413.46949    -14496.79349        49.000  
 16 04 02 13 02 44.8000000  0  2G05G02                                          
  19578534.49249 102885891.66449     -5393.10249        49.000  
  19647415.59449 103247863.37149    -14501.42249        49.000  
 16 04 02 13 02 44.9000000  0  2G05G02                                          
  19578637.18049 102886431.28549     -5399.58249        49.000  
  19647691.58649 103249313.73449    -14505.91849        49.000  
 16 04 02 13 02 45.0000000  0  2G05G02                                          
  19578740.00849 102886971.62949     -5406.84849        49.000  
  19647967.68049 103250764.59049    -14510.92249        49.000  
 16 04 02 13 02 45.1000000  0  2G05G02                                          
  19578842.94549 102887512.58249     -5412.94149        49.000  
  19648243.84449 103252215.86749    -14515.06249        49.000  
 16 04 02 13 02 45.2000000  0  2G05G02                                          
  19578946.00049 102888054.14149     -5418.93849        49.000  
  19648520.08649 103253667.52049    -14518.78949        49.000  
 16 04 02 13 02 45.3000000  0  2G05G02                                          
  19579049.18049 102888596.37149     -5425.61349        49.000  
  19648796.42249 103255119.65249    -14523.56249        50.000  
 16 04 02 13 02 45.4000000  0  2G05G02                                          
  19579152.49249 102889139.26249     -5432.32449        49.000  
  19649072.83649 103256572.21149    -14528.05949        50.000  
 16 04 02 13 02 45.5000000  0  2G05G02                                          
  19579255.93049 102889682.84849     -5439.39549        49.000  
  19649349.33649 103258025.26249    -14532.84049        50.000  
 16 04 02 13 02 45.6000000  0  2G05G02                                          
  19579359.49249 102890227.07449     -5445.79749        49.000  
  19649625.93049 103259478.74249    -14537.07049        50.000  
 16 04 02 13 02 45.7000000  0  2G05G02                                          
  19579463.18849 102890771.96549     -5452.19949        49.000  
  19649902.60949 103260932.69949    -14541.73849        50.000  
 16 04 02 13 02 45.8000000  0  2G05G02                                          
  19579566.99249 102891317.45349     -5458.39149        49.000  
  19650179.35949 103262387.02049    -14545.60949        50.000  
 16 04 02 13 02 45.9000000  0  2G05G02                                          
  19579670.91449 102891863.59449     -5464.66849        49.000  
  19650456.19549 103263841.79749    -14549.96149        49.000  
 16 04 02 13 02 46.0000000  0  2G05G02                                          
  19579774.98449 102892410.47749     -5472.00049        49.000  
  19650733.12549 103265297.07449    -14554.98049        49.000  
 16 04 02 13 02 46.1000000  0  2G05G02                                          
  19579879.16449 102892957.95749     -5478.23849        49.000  
  19651010.13349 103266752.77049    -14559.34049        50.000  
 16 04 02 13 02 46.2000000  0  2G05G02                                          
  19579983.47749 102893506.12149     -5484.98049        49.000  
  19651287.22749 103268208.91449    -14563.78149        50.000  
 16 04 02 13 02 46.3000000  0  2G05G02                                          
  19580087.92249 102894054.95349     -5491.55149        49.000  
  19651564.41449 103269665.53549    -14568.34449        50.000  
 16 04 02 13 02 46.4000000  0  2G05G02                                          
  19580192.46949 102894604.36749     -5497.58649        49.000  
  19651841.67249 103271122.51649    -14572.14549        50.000  
 16 04 02 13 02 46.5000000  0  2G05G02                                          
  19580297.16449 102895154.51649     -5504.73049        49.000  
  19652119.02349 103272580.02049    -14577.21549        50.000  
 16 04 02 13 02 46.6000000  0  2G05G02                                          
  19580401.97749 102895705.31249     -5511.36349        49.000  
  19652396.46149 103274037.96549    -14581.87549        49.000  
 16 04 02 13 02 46.7000000  0  2G05G02                                          
  19580506.89849 102896256.69549     -5517.18049        49.000  
  19652673.97749 103275496.29749    -14585.63349        50.000  
 16 04 02 13 02 46.8000000  0  2G05G02                                          
  19580611.95349 102896808.77749     -5524.19949        49.000  
  19652951.57049 103276955.08649    -14590.16449        49.000  
 16 04 02 13 02 46.9000000  0  2G05G02                                          
  19580717.15649 102897361.57449     -5531.25049        49.000  
  19653229.27349 103278414.39849    -14595.28949        50.000  
 16 04 02 13 02 47.0000000  0  2G05G02                                          
  19580822.46949 102897915.00049     -5537.96949        49.000  
  19653507.04749 103279874.12949    -14599.82849        49.000  
 16 04 02 13 02 47.1000000  0  2G05G02                                          
  19580927.91449 102898469.12149     -5544.62149        49.000  
  19653784.92249 103281334.34849    -14604.60949        50.000  
 16 04 02 13 02 47.2000000  0  2G05G02                                          
  19581033.46949 102899023.82849     -5550.30149        49.000  
  19654062.85949 103282794.92249    -14607.93849        49.000  
 16 04 02 13 02 47.3000000  0  2G05G02                                          
  19581139.14849 102899579.17249     -5556.85549        49.000  
  19654340.88349 103284255.93849    -14612.43449        49.000  
 16 04 02 13 02 47.4000000  0  2G05G02                                          
  19581244.96949 102900135.24649     -5563.98849        49.000  
  19654619.00049 103285717.48049    -14617.57849        49.000  
 16 04 02 13 02 47.5000000  0  2G05G02                                          
  19581350.90649 102900691.94549     -5570.37149        49.000  
  19654897.19549 103287179.42249    -14621.83649        49.000  
 16 04 02 13 02 47.6000000  0  2G05G02                                          
  19581456.96149 102901249.30149     -5577.01249        49.000  
  19655175.47749 103288641.80149    -14626.10949        49.000  
 16 04 02 13 02 47.7000000  0  2G05G02                                          
  19581563.16449 102901807.41049     -5584.55549        49.000  
  19655453.86749 103290104.74649    -14631.88749        49.000  
 16 04 02 13 02 47.8000000  0  2G05G02                                          
  19581669.48449 102902366.11749     -5590.51249        49.000  
  19655732.32849 103291568.05949    -14635.53149        49.000  
 16 04 02 13 02 47.9000000  0  2G05G02                                          
  19581775.93049 102902925.48049     -5596.91449        49.000  
  19656010.87549 103293031.82849    -14639.88749        49.000  
 16 04 02 13 02 48.0000000  0  2G05G02                                          
  19581882.49249 102903485.46549     -5603.07849        49.000  
  19656289.50049 103294495.99649    -14643.96149        49.000  
 16 04 02 13 02 48.1000000  0  2G05G02                                          
  19581989.18049 102904046.14549     -5610.10249        49.000  
  19656568.21149 103295960.64849    -14648.77349        49.000  
 16 04 02 13 02 48.2000000  0  2G05G02                                          
  19582096.00049 102904607.48449     -5616.76249        49.000  
  19656847.00849 103297425.75449    -14653.35949        49.000  
 16 04 02 13 02 48.3000000  0  2G05G02                                          
  19582202.94549 102905169.48049     -5623.52349        49.000  
  19657125.89149 103298891.30549    -14657.87949        49.000  
 16 04 02 13 02 48.4000000  0  2G05G02                                          
  19582310.01649 102905732.14549     -5629.96149        49.000  
  19657404.86749 103300357.31249    -14662.24649        49.000  
 16 04 02 13 02 48.5000000  0  2G05G02                                          
  19582417.20349 102906295.43049     -5636.09049        49.000  
  19657683.91449 103301823.72749    -14666.40649        49.000  
 16 04 02 13 02 48.6000000  0  2G05G02                                          
  19582524.51649 102906859.37549     -5642.65649        49.000  
  19657963.04749 103303290.58249    -14670.72749        50.000  
 16 04 02 13 02 48.7000000  0  2G05G02                                          
  19582631.95349 102907423.97349     -5649.31249        49.000  
  19658242.27349 103304757.89849    -14675.43449        49.000  
 16 04 02 13 02 48.8000000  0  2G05G02                                          
  19582739.51649 102907989.23049     -5655.82049        49.000  
  19658521.57849 103306225.64549    -14679.68449        49.000  
 16 04 02 13 02 48.9000000  0  2G05G02                                          
  19582847.20349 102908555.13349     -5662.47349        49.000  
  19658800.96149 103307693.83649    -14684.33649        49.000  
 16 04 02 13 02 49.0000000  0  2G05G02                                          
  19582955.01649 102909121.69149     -5668.85949        49.000  
  19659080.43049 103309162.46549    -14688.57849        49.000  
 16 04 02 13 02 49.1000000  0  2G05G02                                          
  19583062.95349 102909688.87149     -5675.00849        49.000  
  19659359.97749 103310631.50449    -14692.61349        49.000  
 16 04 02 13 02 49.2000000  0  2G05G02                                          
  19583171.00849 102910256.71949     -5681.64849        49.000  
  19659639.61749 103312100.99249    -14697.05949        49.000  
 16 04 02 13 02 49.3000000  0  2G05G02                                          
  19583279.18849 102910825.21949     -5688.33249        49.000  
  19659919.33649 103313570.93849    -14701.60949        50.000  
 16 04 02 13 02 49.4000000  0  2G05G02                                          
  19583387.50849 102911394.41449     -5695.51249        49.000  
  19660199.14849 103315041.35949    -14706.66049        50.000  
 16 04 02 13 02 49.5000000  0  2G05G02                                          
  19583495.94549 102911964.27349     -5701.79749        49.000  
  19660479.04749 103316512.22749    -14710.83649        50.000  
 16 04 02 13 02 49.6000000  0  2G05G02                                          
  19583604.49249 102912534.68849     -5707.61349        49.000  
  19660759.00849 103317983.43849    -14714.52049        50.000  
 16 04 02 13 02 49.7000000  0  2G05G02                                          
  19583713.18049 102913105.85549     -5714.94949        49.000  
  19661039.07849 103319455.20749    -14719.91849        50.000  
 16 04 02 13 02 49.8000000  0  2G05G02                                          
  19583822.00049 102913677.69149     -5721.70749        50.000  
  19661319.22749 103320927.39549    -14724.35549        50.000  
 16 04 02 13 02 49.9000000  0  2G05G02                                          
  19583930.93049 102914250.13749     -5727.99249        50.000  
  19661599.45349 103322400.03149    -14728.55949        50.000  
 16 04 02 13 02 50.0000000  0  2G05G02                                          
  19584039.98449 102914823.23849     -5734.51649        50.000  
  19661879.76649 103323873.07049    -14732.76249        50.000  
 16 04 02 13 02 50.1000000  0  2G05G02                                          
  19584149.17249 102915396.96949     -5740.61349        50.000  
  19662160.16449 103325346.56249    -14737.16049        50.000  
 16 04 02 13 02 50.2000000  0  2G05G02                                          
  19584258.47749 102915971.39149     -5747.66449        49.000  
  19662440.64149 103326820.49249    -14741.61349        50.000  
 16 04 02 13 02 50.3000000  0  2G05G02                                          
  19584367.92249 102916546.51249     -5754.71149        49.000  
  19662721.21949 103328294.94149    -14746.83249        50.000  
 16 04 02 13 02 50.4000000  0  2G05G02                                          
  19584477.48449 102917122.27049     -5760.93449        50.000  
  19663001.87549 103329769.80149    -14750.94549        50.000  
 16 04 02 13 02 50.5000000  0  2G05G02                                          
  19584587.16449 102917698.64549     -5767.10249        49.000  
  19663282.60949 103331245.07449    -14755.04749        50.000  
 16 04 02 13 02 50.6000000  0  2G05G02                                          
  19584696.97749 102918275.70749     -5774.16049        49.000  
  19663563.43849 103332720.81249    -14759.87949        50.000  
 16 04 02 13 02 50.7000000  0  2G05G02                                          
  19584806.91449 102918853.44549     -5780.48449        49.000  
  19663844.34449 103334197.00449    -14764.10949        50.000  
 16 04 02 13 02 50.8000000  0  2G05G02                                          
  19584916.96949 102919431.75049     -5786.43449        49.000  
  19664125.32849 103335673.58249    -14767.91849        50.000  
 16 04 02 13 02 50.9000000  0  2G05G02                                          
  19585027.14849 102920010.75049     -5793.25049        50.000  
  19664406.39849 103337150.62149    -14772.72349        50.000  
 16 04 02 13 02 51.0000000  0  2G05G02                                          
  19585137.44549 102920590.36349     -5799.41449        50.000  
  19664687.54749 103338628.07449    -14776.80949        50.000  
 16 04 02 13 02 51.1000000  0  2G05G02                                          
  19585247.86749 102921170.66449     -5806.27049        50.000  
  19664968.78949 103340105.98449    -14781.52049        50.000  
 16 04 02 13 02 51.2000000  0  2G05G02                                          
  19585358.42249 102921751.60249     -5812.52749        50.000  
  19665250.10949 103341584.33649    -14785.58649        50.000  
 16 04 02 13 02 51.3000000  0  2G05G02                                          
  19585469.08649 102922333.16449     -5819.06649        50.000  
  19665531.50849 103343063.08249    -14789.90249        50.000  
 16 04 02 13 02 51.4000000  0  2G05G02                                          
  19585579.89149 102922915.43449     -5826.12149        49.000  
  19665813.00049 103344542.33649    -14794.86349        50.000  
 16 04 02 13 02 51.5000000  0  2G05G02                                          
  19585690.81249 102923498.33249     -5832.29349        49.000  
  19666094.57049 103346022.00449    -14799.05549        50.000  
 16 04 02 13 02 51.6000000  0  2G05G02                                          
  19585801.85249 102924081.85549     -5838.73849        50.000  
  19666376.21949 103347502.09049    -14803.27749        50.000  
 16 04 02 13 02 51.7000000  0  2G05G02                                          
  19585913.03949 102924666.14549     -5846.13349        49.000  
  19666657.97749 103348982.73049    -14808.57849        50.000  
 16 04 02 13 02 51.8000000  0  2G05G02                                          
  19586024.33649 102925250.99649     -5851.97349        50.000  
  19666939.79749 103350463.71149    -14812.32849        50.000  
 16 04 02 13 02 51.9000000  0  2G05G02                                          
  19586135.76649 102925836.56649     -5858.90649        49.000  
  19667221.71149 103351945.19549    -14817.07849        50.000  
 16 04 02 13 02 52.0000000  0  2G05G02                                          
  19586247.30549 102926422.71149     -5864.78549        49.000  
  19667503.70349 103353427.04749    -14820.71149        50.000  
 16 04 02 13 02 52.1000000  0  2G05G02                                          
  19586358.97749 102927009.52349     -5871.49649        49.000  
  19667785.78149 103354909.36349    -14825.39149        50.000  
 16 04 02 13 02 52.2000000  0  2G05G02                                          
  19586470.77349 102927597.03149     -5878.37149        49.000  
  19668067.94549 103356392.13749    -14829.93049        50.000  
 16 04 02 13 02 52.3000000  0  2G05G02                                          
  19586582.68849 102928185.14149     -5884.46549        49.000  
  19668350.18849 103357875.32849    -14834.18049        50.000  
 16 04 02 13 02 52.4000000  0  2G05G02                                          
  19586694.73449 102928773.93049     -5891.27349        50.000  
  19668632.51649 103359358.97749    -14838.67249        50.000  
 16 04 02 13 02 52.5000000  0  2G05G02                                          
  19586806.89849 102929363.36349     -5897.70749        49.000  
  19668914.93049 103360843.05549    -14843.06249        50.000  
 16 04 02 13 02 52.6000000  0  2G05G02                                          
  19586919.18849 102929953.44549     -5904.22749        49.000  
  19669197.42249 103362327.57049    -14847.48049        50.000  
 16 04 02 13 02 52.7000000  0  2G05G02                                          
  19587031.60249 102930544.21149     -5911.12949        50.000  
  19669480.00049 103363812.55549    -14852.24249        50.000  
 16 04 02 13 02 52.8000000  0  2G05G02                                          
  19587144.15649 102931135.67649     -5918.13749        49.000  
  19669762.68049 103365298.02349    -14857.11349        50.000  
 16 04 02 13 02 52.9000000  0  2G05G02                                          
  19587256.82849 102931727.77749     -5924.32449        49.000  
  19670045.43849 103366783.91849    -14861.14849        50.000  
 16 04 02 13 02 53.0000000  0  2G05G02                                          
  19587369.61749 102932320.50849     -5930.57049        50.000  
  19670328.27349 103368270.23849    -14865.35949        50.000  
 16 04 02 13 02 53.1000000  0  2G05G02                                          
  19587482.52349 102932913.82449     -5936.42249        50.000  
  19670611.18849 103369756.93049    -14869.13349        50.000  
 16 04 02 13 02 53.2000000  0  2G05G02                                          
  19587595.56249 102933507.84449     -5943.28549        49.000  
  19670894.18049 103371244.08649    -14873.59849        50.000  
 16 04 02 13 02 53.3000000  0  2G05G02                                          
  19587708.71949 102934102.49249     -5950.00049        49.000  
  19671177.26649 103372731.68849    -14878.36349        50.000  
 16 04 02 13 02 53.4000000  0  2G05G02                                          
  19587822.00849 102934697.83249     -5956.77749        49.000  
  19671460.43049 103374219.76649    -14883.04749        50.000  
 16 04 02 13 02 53.5000000  0  2G05G02                                          
  19587935.39849 102935293.73449     -5962.11749        49.000  
  19671743.67249 103375708.17649    -14886.23449        50.000  
 16 04 02 13 02 53.6000000  0  2G05G02                                          
  19588048.93049 102935890.32049     -5969.00449        49.000  
  19672027.00049 103377197.07049    -14890.95349        50.000  
 16 04 02 13 02 53.7000000  0  2G05G02                                          
  19588162.58649 102936487.59049     -5976.14549        49.000  
  19672310.41449 103378686.43449    -14896.00049        50.000  
 16 04 02 13 02 53.8000000  0  2G05G02                                          
  19588276.36749 102937085.53949     -5982.93049        49.000  
  19672593.92249 103380176.26249    -14900.65249        50.000  
 16 04 02 13 02 53.9000000  0  2G05G02                                          
  19588390.27349 102937684.09849     -5988.90649        50.000  
  19672877.50849 103381666.48849    -14904.56649        50.000  
 16 04 02 13 02 54.0000000  0  2G05G02                                          
  19588504.28949 102938283.27349     -5995.03149        49.000  
  19673161.16449 103383157.12549    -14908.42649        50.000  
 16 04 02 13 02 54.1000000  0  2G05G02                                          
  19588618.43849 102938883.12149     -6001.72349        49.000  
  19673444.90649 103384648.20749    -14913.12149        50.000  
 16 04 02 13 02 54.2000000  0  2G05G02                                          
  19588732.71149 102939483.60549     -6008.16849        50.000  
  19673728.73449 103386139.73049    -14917.46149        50.000  
 16 04 02 13 02 54.3000000  0  2G05G02                                          
  19588847.10949 102940084.77349     -6015.10949        50.000  
  19674012.64849 103387631.69949    -14922.08649        50.000  
 16 04 02 13 02 54.4000000  0  2G05G02                                          
  19588961.62549 102940686.56249     -6021.17649        49.000  
  19674296.64849 103389124.10249    -14926.24249        50.000  
 16 04 02 13 02 54.5000000  0  2G05G02                                          
  19589076.26649 102941289.02349     -6028.22349        49.000  
  19674580.72749 103390616.94549    -14931.02049        50.000  
 16 04 02 13 02 54.6000000  0  2G05G02                                          
  19589191.06249 102941892.26249     -6035.87149        50.000  
  19674864.90649 103392110.35549    -14936.63349        50.000  
 16 04 02 13 02 54.7000000  0  2G05G02                                          
  19589305.96149 102942496.07849     -6041.73449        50.000  
  19675149.16449 103393604.13349    -14940.12549        50.000  
 16 04 02 13 02 54.8000000  0  2G05G02                                          
  19589420.97749 102943100.48849     -6047.14149        50.000  
  19675433.49249 103395098.28949    -14943.40249        50.000  
 16 04 02 13 02 54.9000000  0  2G05G02                                          
  19589536.10949 102943705.53949     -6053.83249        49.000  
  19675717.90649 103396592.87949    -14948.12549        50.000  
 16 04 02 13 02 55.0000000  0  2G05G02                                          
  19589651.39149 102944311.33649     -6061.21549        49.000  
  19676002.42249 103398088.00449    -14953.43449        50.000  
 16 04 02 13 02 55.1000000  0  2G05G02                                          
  19589766.79749 102944917.78149     -6067.96949        49.000  
  19676287.01649 103399583.55949    -14957.95349        50.000  
 16 04 02 13 02 55.2000000  0  2G05G02                                          
  19589882.31249 102945524.82049     -6073.79349        50.000  
  19676571.68049 103401079.49649    -14961.58249        50.000  
 16 04 02 13 02 55.3000000  0  2G05G02                                          
  19589997.95349 102946132.54349     -6080.41849        49.000  
  19676856.43849 103402575.90249    -14966.17249        50.000  
 16 04 02 13 02 55.4000000  0  2G05G02                                          
  19590113.71949 102946740.88349     -6086.68449        49.000  
  19677141.27349 103404072.71149    -14970.33649        50.000  
 16 04 02 13 02 55.5000000  0  2G05G02                                          
  19590229.60249 102947349.84849     -6092.85249        50.000  
  19677426.18849 103405569.93049    -14974.25849        50.000  
 16 04 02 13 02 55.6000000  0  2G05G02                                          
  19590345.61749 102947959.50049     -6099.84849        49.000  
  19677711.18849 103407067.64149    -14979.35949        50.000  
 16 04 02 13 02 55.7000000  0  2G05G02                                          
  19590461.75849 102948569.82849     -6106.62149        50.000  
  19677996.27349 103408565.79349    -14983.85549        50.000  
 16 04 02 13 02 55.8000000  0  2G05G02                                          
  19590578.01649 102949180.78949     -6112.88749        49.000  
  19678281.44549 103410064.37149    -14987.96949        50.000  
 16 04 02 13 02 55.9000000  0  2G05G02                                          
  19590694.40649 102949792.40649     -6119.73449        49.000  
  19678566.70349 103411563.39549    -14992.60549        50.000  
 16 04 02 13 02 56.0000000  0  2G05G02                                          
  19590810.93849 102950404.77749     -6126.89849        49.000  
  19678852.05549 103413062.94949    -14997.68049        50.000  
 16 04 02 13 02 56.1000000  0  2G05G02                                          
  19590927.57849 102951017.73849     -6133.23449        49.000  
  19679137.48449 103414562.88349    -15001.75049        50.000  
 16 04 02 13 02 56.2000000  0  2G05G02                                          
  19591044.34449 102951631.33249     -6139.29749        49.000  
  19679422.99249 103416063.25449    -15006.08249        50.000  
 16 04 02 13 02 56.3000000  0  2G05G02                                          
  19591161.22749 102952245.54749     -6145.50849        49.000  
  19679708.57849 103417564.00849    -15009.78149        50.000  
 16 04 02 13 02 56.4000000  0  2G05G02                                          
  19591278.24249 102952860.45749     -6152.30949        49.000  
  19679994.25849 103419065.25849    -15014.67249        50.000  
 16 04 02 13 02 56.5000000  0  2G05G02                                          
  19591395.37549 102953475.99649     -6158.74249        49.000  
  19680280.01649 103420566.91449    -15018.81249        50.000  
 16 04 02 13 02 56.6000000  0  2G05G02                                          
  19591512.63349 102954092.19549     -6165.45749        49.000  
  19680565.85949 103422069.02749    -15023.50849        50.000  
 16 04 02 13 02 56.7000000  0  2G05G02                                          
  19591630.02349 102954709.10549     -6172.48849        49.000  
  19680851.79749 103423571.64549    -15028.51249        50.000  
 16 04 02 13 02 56.8000000  0  2G05G02                                          
  19591747.54749 102955326.67649     -6179.25849        49.000  
  19681137.81249 103425074.68849    -15032.98449        50.000  
 16 04 02 13 02 56.9000000  0  2G05G02                                          
  19591865.19549 102955944.93449     -6185.95349        49.000  
  19681423.93049 103426578.21949    -15037.60549        50.000  
 16 04 02 13 02 57.0000000  0  2G05G02                                          
  19591982.96149 102956563.77749     -6192.07449        49.000  
  19681710.10949 103428082.12149    -15041.54749        50.000  
 16 04 02 13 02 57.1000000  0  2G05G02                                          
  19592100.85949 102957183.33649     -6198.66449        49.000  
  19681996.39149 103429586.50449    -15045.98049        50.000  
 16 04 02 13 02 57.2000000  0  2G05G02                                          
  19592218.87549 102957803.51249     -6205.26249        49.000  
  19682282.75049 103431091.32449    -15050.50449        50.000  
 16 04 02 13 02 57.3000000  0  2G05G02                                          
  19592337.01649 102958424.35549     -6211.81249        49.000  
  19682569.19549 103432596.58249    -15054.93849        50.000  
 16 04 02 13 02 57.4000000  0  2G05G02                                          
  19592455.28949 102959045.87949     -6218.68049        49.000  
  19682855.71949 103434102.30949    -15059.71949        50.000  
 16 04 02 13 02 57.5000000  0  2G05G02                                          
  19592573.68049 102959668.02749     -6224.65249        49.000  
  19683142.32849 103435608.44149    -15063.44549        50.000  
 16 04 02 13 02 57.6000000  0  2G05G02                                          
  19592692.20349 102960290.87149     -6231.84049        49.000  
  19683429.03149 103437115.05949    -15068.50449        50.000  
 16 04 02 13 02 57.7000000  0  2G05G02                                          
  19592810.84449 102960914.34049     -6238.02749        49.000  
  19683715.81249 103438622.08249    -15072.51249        50.000  
 16 04 02 13 02 57.8000000  0  2G05G02                                          
  19592929.60949 102961538.46149     -6244.39149        49.000  
  19684002.67249 103440129.55549    -15076.82849        50.000  
 16 04 02 13 02 57.9000000  0  2G05G02                                          
  19593048.49249 102962163.18849     -6250.52049        49.000  
  19684289.60949 103441637.41049    -15080.75849        50.000  
 16 04 02 13 02 58.0000000  0  2G05G02                                          
  19593167.50049 102962788.60549     -6257.53149        49.000  
  19684576.63349 103443145.75049    -15085.73849        50.000  
 16 04 02 13 02 58.1000000  0  2G05G02                                          
  19593286.63349 102963414.61749     -6263.37549        49.000  
  19684863.73449 103444654.45349    -15089.15649        50.000  
 16 04 02 13 02 58.2000000  0  2G05G02                                          
  19593405.87549 102964041.24649     -6269.54349        49.000  
  19685150.91449 103446163.58249    -15093.40249        50.000  
 16 04 02 13 02 58.3000000  0  2G05G02                                          
  19593525.25049 102964668.60949     -6277.08249        49.000  
  19685438.18849 103447673.22349    -15098.78949        50.000  
 16 04 02 13 02 58.4000000  0  2G05G02                                          
  19593644.75849 102965296.61749     -6283.40649        49.000  
  19685725.54749 103449183.29749    -15102.99649        50.000  
 16 04 02 13 02 58.5000000  0  2G05G02                                          
  19593764.37549 102965925.19949     -6289.11749        49.000  
  19686012.96949 103450693.72349    -15106.54349        50.000  
 16 04 02 13 02 58.6000000  0  2G05G02                                          
  19593884.12549 102966554.49649     -6296.32449        49.000  
  19686300.48449 103452204.64849    -15111.46949        50.000  
 16 04 02 13 02 58.7000000  0  2G05G02                                          
  19594004.00049 102967184.44149     -6302.85249        49.000  
  19686588.09449 103453716.02049    -15115.93849        50.000  
 16 04 02 13 02 58.8000000  0  2G05G02                                          
  19594124.00849 102967815.10549     -6310.02349        49.000  
  19686875.78949 103455227.89149    -15121.04749        50.000  
 16 04 02 13 02 58.9000000  0  2G05G02                                          
  19594244.13349 102968446.36749     -6315.98449        49.000  
  19687163.57049 103456740.15249    -15125.00049        50.000  
 16 04 02 13 02 59.0000000  0  2G05G02                                          
  19594364.39149 102969078.30549     -6322.74249        49.000  
  19687451.43049 103458252.85949    -15129.40649        50.000  
 16 04 02 13 02 59.1000000  0  2G05G02                                          
  19594484.76649 102969710.88349     -6329.14549        49.000  
  19687739.36749 103459766.01249    -15133.78549        49.000  
 16 04 02 13 02 59.2000000  0  2G05G02                                          
  19594605.26649 102970344.09449     -6335.64849        49.000  
  19688027.39149 103461279.56649    -15138.06249        50.000  
 16 04 02 13 02 59.3000000  0  2G05G02                                          
  19594725.87549 102970977.90649     -6341.26249        49.000  
  19688315.48449 103462793.51249    -15141.55149        50.000  
 16 04 02 13 02 59.4000000  0  2G05G02                                          
  19594846.60949 102971612.39149     -6348.30149        49.000  
  19688603.67249 103464307.92249    -15146.41449        50.000  
 16 04 02 13 02 59.5000000  0  2G05G02                                          
  19594967.47749 102972247.53149     -6354.96149        49.000  
  19688891.93849 103465822.77049    -15150.83249        50.000  
 16 04 02 13 02 59.6000000  0  2G05G02                                          
  19595088.46949 102972883.33249     -6361.43049        49.000  
  19689180.28949 103467338.06649    -15155.33649        50.000  
 16 04 02 13 02 59.7000000  0  2G05G02                                          
  19595209.57849 102973519.77349     -6367.70749        49.000  
  19689468.71949 103468853.78949    -15159.49249        50.000  
 16 04 02 13 02 59.8000000  0  2G05G02                                          
  19595330.82849 102974156.94149     -6375.08649        49.000  
  19689757.25049 103470370.02049    -15164.69149        50.000  
 16 04 02 13 02 59.9000000  0  2G05G02                                          
  19595452.19549 102974794.74249     -6381.60249        49.000  
  19690045.85949 103471886.66849    -15168.92649        50.000  
 16 04 02 13 03  0.0000000  0  2G05G02                                          
  19595573.69549 102975433.20349     -6387.93449        49.000  
  19690334.55549 103473403.77049    -15173.21149        50.000  
 16 04 02 13 03  0.1000000  0  2G05G02                                          
  19595695.29749 102976072.23849     -6393.73849        49.000  
  19690623.32049 103474921.22749    -15176.84049        50.000  
 16 04 02 13 03  0.2000000  0  2G05G02                                          
  19595817.03949 102976712.00849     -6400.84049        49.000  
  19690912.18049 103476439.19949    -15181.79349        50.000  
 16 04 02 13 03  0.3000000  0  2G05G02                                          
  19595938.89149 102977352.34449     -6406.69949        49.000  
  19691201.10249 103477957.53149    -15185.50449        50.000  
 16 04 02 13 03  0.4000000  0  2G05G02                                          
  19596060.87549 102977993.37549     -6413.69149        49.000  
  19691490.12549 103479476.33649    -15190.25449        50.000  
 16 04 02 13 03  0.5000000  0  2G05G02                                          
  19596182.97749 102978635.01649     -6419.98049        49.000  
  19691779.22749 103480995.55549    -15194.57449        50.000  
 16 04 02 13 03  0.6000000  0  2G05G02                                          
  19596305.23449 102979277.45349     -6427.83649        49.000  
  19692068.43049 103482515.34049    -15200.34049        50.000  
 16 04 02 13 03  0.7000000  0  2G05G02                                          
  19596427.60249 102979920.52049     -6434.26649        49.000  
  19692357.71949 103484035.54349    -15204.54749        50.000  
 16 04 02 13 03  0.8000000  0  2G05G02                                          
  19596550.10249 102980564.22749     -6440.52349        49.000  
  19692647.07849 103485556.16849    -15208.64849        50.000  
 16 04 02 13 03  0.9000000  0  2G05G02                                          
  19596672.71149 102981208.58249     -6446.73049        49.000  
  19692936.53149 103487077.23049    -15212.70349        50.000  
 16 04 02 13 03  1.0000000  0  2G05G02                                          
  19596795.45349 102981853.59049     -6453.56249        49.000  
  19693226.06249 103488598.73849    -15217.46549        50.000  
 16 04 02 13 03  1.1000000  0  2G05G02                                          
  19596918.32049 102982499.23849     -6459.65649        49.000  
  19693515.68049 103490120.66849    -15221.41849        50.000  
 16 04 02 13 03  1.2000000  0  2G05G02                                          
  19597041.29749 102983145.51249     -6466.16049        49.000  
  19693805.36749 103491642.99249    -15225.55949        50.000  
 16 04 02 13 03  1.3000000  0  2G05G02                                          
  19597164.41449 102983792.49249     -6473.41849        49.000  
  19694095.15649 103493165.83249    -15230.90649        50.000  
 16 04 02 13 03  1.4000000  0  2G05G02                                          
  19597287.66449 102984440.15649     -6480.04749        49.000  
  19694385.02349 103494689.12949    -15235.25449        50.000  
 16 04 02 13 03  1.5000000  0  2G05G02                                          
  19597411.01649 102985088.41049     -6485.91049        49.000  
  19694674.97749 103496212.79749    -15238.93449        50.000  
 16 04 02 13 03  1.6000000  0  2G05G02                                          
  19597534.50849 102985737.36349     -6492.98049        49.000  
  19694965.00849 103497736.95349    -15243.82849        50.000  
 16 04 02 13 03  1.7000000  0  2G05G02                                          
  19597658.13349 102986386.97349     -6499.50849        49.000  
  19695255.13349 103499261.56649    -15248.37149        50.000  
 16 04 02 13 03  1.8000000  0  2G05G02                                          
  19597781.86749 102987037.21149     -6505.68849        49.000  
  19695545.33649 103500786.57049    -15252.27349        50.000  
 16 04 02 13 03  1.9000000  0  2G05G02                                          
  19597905.71149 102987688.03549     -6511.65249        49.000  
  19695835.60949 103502311.96549    -15256.24249        50.000  
 16 04 02 13 03  2.0000000  0  2G05G02                                          
  19598029.70349 102988339.60249     -6519.08249        49.000  
  19696125.97749 103503837.86749    -15261.36349        50.000  
 16 04 02 13 03  2.1000000  0  2G05G02                                          
  19598153.82049 102988991.84049     -6525.71149        49.000  
  19696416.43849 103505364.24249    -15265.93049        50.000  
 16 04 02 13 03  2.2000000  0  2G05G02                                          
  19598278.06249 102989644.75049     -6532.71949        49.000  
  19696706.97749 103506891.06649    -15270.78549        50.000  
 16 04 02 13 03  2.3000000  0  2G05G02                                          
  19598402.43049 102990298.31649     -6538.93449        49.000  
  19696997.60949 103508418.32849    -15274.85249        49.000  
 16 04 02 13 03  2.4000000  0  2G05G02                                          
  19598526.91449 102990952.48449     -6544.87149        49.000  
  19697288.31249 103509945.99249    -15278.72749        49.000  
 16 04 02 13 03  2.5000000  0  2G05G02                                          
  19598651.51649 102991607.26649     -6551.05149        49.000  
  19697579.09449 103511474.05149    -15282.76249        50.000  
 16 04 02 13 03  2.6000000  0  2G05G02                                          
  19598776.24249 102992262.69949     -6557.58249        49.000  
  19697869.95349 103513002.53949    -15287.11749        50.000  
 16 04 02 13 03  2.7000000  0  2G05G02                                          
  19598901.09449 102992918.82449     -6564.49649        49.000  
  19698160.89849 103514531.50849    -15291.80549        50.000  
 16 04 02 13 03  2.8000000  0  2G05G02                                          
  19599026.07849 102993575.60549     -6571.19949        49.000  
  19698451.93849 103516060.91449    -15296.30149        50.000  
 16 04 02 13 03  2.9000000  0  2G05G02                                          
  19599151.17249 102994233.00049     -6577.31649        49.000  
  19698743.05549 103517590.73049    -15300.39149        50.000  
 16 04 02 13 03  3.0000000  0  2G05G02                                          
  19599276.40649 102994891.07049     -6584.08249        49.000  
  19699034.25849 103519121.00449    -15305.03149        50.000  
 16 04 02 13 03  3.1000000  0  2G05G02                                          
  19599401.76649 102995549.85549     -6591.21949        49.000  
  19699325.55549 103520651.75849    -15309.91449        49.000  
 16 04 02 13 03  3.2000000  0  2G05G02                                          
  19599527.24249 102996209.24649     -6597.41049        49.000  
  19699616.92249 103522182.92249    -15314.03549        49.000  
 16 04 02 13 03  3.3000000  0  2G05G02                                          
  19599652.85249 102996869.28549     -6603.74649        49.000  
  19699908.37549 103523714.51649    -15318.16449        49.000  
 16 04 02 13 03  3.4000000  0  2G05G02                                          
  19599778.57049 102997529.95749     -6610.00049        49.000  
  19700199.90649 103525246.52349    -15322.27349        49.000  
 16 04 02 13 03  3.5000000  0  2G05G02                                          
  19599904.41449 102998191.26649     -6616.09449        49.000  
  19700491.51649 103526778.94949    -15326.18449        49.000  
 16 04 02 13 03  3.6000000  0  2G05G02                                          
  19600030.36749 102998853.15649     -6622.22749        49.000  
  19700783.20349 103528311.74649    -15330.23049        49.000  
 16 04 02 13 03  3.7000000  0  2G05G02                                          
  19600156.46149 102999515.79349     -6629.63349        49.000  
  19701074.98449 103529845.08249    -15335.55549        49.000  
 16 04 02 13 03  3.8000000  0  2G05G02                                          
  19600282.67249 103000179.03949     -6635.87949        49.000  
  19701366.84449 103531378.80149    -15339.53549        49.000  
 16 04 02 13 03  3.9000000  0  2G05G02                                          
  19600409.00849 103000842.95749     -6642.59449        49.000  
  19701658.78949 103532912.99249    -15344.17649        49.000  
 16 04 02 13 03  4.0000000  0  2G05G02                                          
  19600535.46949 103001507.49649     -6648.86349        49.000  
  19701950.80549 103534447.57049    -15348.19149        49.000  
 16 04 02 13 03  4.1000000  0  2G05G02                                          
  19600662.05549 103002172.72349     -6655.48449        49.000  
  19702242.92249 103535982.63749    -15352.71549        49.000  
 16 04 02 13 03  4.2000000  0  2G05G02                                          
  19600788.75849 103002838.55549     -6661.52349        49.000  
  19702535.10949 103537518.07449    -15356.57049        49.000  
 16 04 02 13 03  4.3000000  0  2G05G02                                          
  19600915.58649 103003505.03549     -6668.12949        49.000  
  19702827.37549 103539053.96149    -15361.10949        49.000  
 16 04 02 13 03  4.4000000  0  2G05G02                                          
  19601042.54749 103004172.20749     -6675.02049        49.000  
  19703119.73449 103540590.32449    -15365.93849        49.000  
 16 04 02 13 03  4.5000000  0  2G05G02                                          
  19601169.61749 103004839.98449     -6681.17649        49.000  
  19703412.17249 103542127.07449    -15369.80149        49.000  
 16 04 02 13 03  4.6000000  0  2G05G02                                          
  19601296.82849 103005508.44949     -6688.06249        49.000  
  19703704.69549 103543664.28949    -15374.45749        49.000  
 16 04 02 13 03  4.7000000  0  2G05G02                                          
  19601424.15649 103006177.56649     -6694.66049        49.000  
  19703997.29749 103545201.94549    -15378.93449        49.000  
 16 04 02 13 03  4.8000000  0  2G05G02                                          
  19601551.59449 103006847.28549     -6700.62549        49.000  
  19704289.98449 103546740.00049    -15382.89549        49.000  
 16 04 02 13 03  4.9000000  0  2G05G02                                          
  19601679.16449 103007517.68449     -6707.22349        49.000  
  19704582.75049 103548278.50449    -15387.21149        49.000  
 16 04 02 13 03  5.0000000  0  2G05G02                                          
  19601806.85949 103008188.71949     -6713.64849        49.000  
  19704875.60249 103549817.43049    -15391.47749        49.000  
 16 04 02 13 03  5.1000000  0  2G05G02                                          
  19601934.68049 103008860.43449     -6720.66049        49.000  
  19705168.53149 103551356.82049    -15396.27349        49.000  
 16 04 02 13 03  5.2000000  0  2G05G02                                          
  19602062.64149 103009532.84449     -6727.61349        49.000  
  19705461.56249 103552896.69949    -15401.15249        49.000  
 16 04 02 13 03  5.3000000  0  2G05G02                                          
  19602190.71149 103010205.88749     -6733.76249        49.000  
  19705754.67249 103554436.99249    -15405.23449        49.000  
 16 04 02 13 03  5.4000000  0  2G05G02                                          
  19602318.90649 103010879.55149     -6740.07849        49.000  
  19706047.85249 103555977.68849    -15409.28949        49.000  
 16 04 02 13 03  5.5000000  0  2G05G02                                          
  19602447.22749 103011553.86749     -6746.38749        49.000  
  19706341.12549 103557518.82449    -15413.41849        49.000  
 16 04 02 13 03  5.6000000  0  2G05G02                                          
  19602575.67249 103012228.83649     -6753.00849        49.000  
  19706634.46949 103559060.38749    -15417.82049        49.000  
 16 04 02 13 03  5.7000000  0  2G05G02                                          
  19602704.24249 103012904.50049     -6760.10249        49.000  
  19706927.91449 103560602.44549    -15422.87949        49.000  
 16 04 02 13 03  5.8000000  0  2G05G02                                          
  19602832.93849 103013580.79349     -6766.28949        49.000  
  19707221.43849 103562144.90649    -15426.87149        49.000  
 16 04 02 13 03  5.9000000  0  2G05G02                                          
  19602961.75049 103014257.70349     -6772.49649        49.000  
  19707515.03149 103563687.78149    -15431.04349        49.000  
 16 04 02 13 03  6.0000000  0  2G05G02                                          
  19603090.69549 103014935.34449     -6779.58649        49.000  
  19707808.72749 103565231.15249    -15435.89549        49.000  
 16 04 02 13 03  6.1000000  0  2G05G02                                          
  19603219.75849 103015613.55949     -6785.53149        49.000  
  19708102.49249 103566774.89549    -15439.66849        49.000  
 16 04 02 13 03  6.2000000  0  2G05G02                                          
  19603348.94549 103016292.44149     -6791.94549        49.000  
  19708396.33649 103568319.09049    -15444.00049        49.000  
 16 04 02 13 03  6.3000000  0  2G05G02                                          
  19603478.25049 103016971.95749     -6798.59449        49.000  
  19708690.26649 103569863.69149    -15448.36349        49.000  
 16 04 02 13 03  6.4000000  0  2G05G02                                          
  19603607.68049 103017652.12949     -6805.19149        49.000  
  19708984.28149 103571408.74249    -15452.89849        50.000  
 16 04 02 13 03  6.5000000  0  2G05G02                                          
  19603737.24249 103018332.99249     -6812.07049        49.000  
  19709278.38349 103572954.25849    -15457.42649        50.000  
 16 04 02 13 03  6.6000000  0  2G05G02                                          
  19603866.93049 103019014.49249     -6818.46949        49.000  
  19709572.57049 103574500.22749    -15462.01649        49.000  
 16 04 02 13 03  6.7000000  0  2G05G02                                          
  19603996.74249 103019696.65249     -6824.91849        49.000  
  19709866.83649 103576046.60249    -15465.99649        50.000  
 16 04 02 13 03  6.8000000  0  2G05G02                                          
  19604126.67249 103020379.44149     -6831.09449        49.000  
  19710161.18849 103577593.40249    -15470.12949        50.000  
 16 04 02 13 03  6.9000000  0  2G05G02                                          
  19604256.73449 103021062.92249     -6838.44149        49.000  
  19710455.62549 103579140.68849    -15475.21949        50.000  
 16 04 02 13 03  7.0000000  0  2G05G02                                          
  19604386.91449 103021747.05149     -6844.58249        49.000  
  19710750.14149 103580688.40249    -15479.45349        49.000  
 16 04 02 13 03  7.1000000  0  2G05G02                                          
  19604517.21949 103022431.77349     -6850.58649        49.000  
  19711044.73449 103582236.48849    -15483.19949        49.000  
 16 04 02 13 03  7.2000000  0  2G05G02                                          
  19604647.63349 103023117.10949     -6856.69149        49.000  
  19711339.40649 103583784.97349    -15487.09049        49.000  
 16 04 02 13 03  7.3000000  0  2G05G02                                          
  19604778.18049 103023803.16049     -6863.62549        49.000  
  19711634.16449 103585333.96549    -15491.87949        49.000  
 16 04 02 13 03  7.4000000  0  2G05G02                                          
  19604908.85249 103024489.83249     -6870.21149        49.000  
  19711929.00849 103586883.35249    -15496.26249        49.000  
 16 04 02 13 03  7.5000000  0  2G05G02                                          
  19605039.64149 103025177.14849     -6876.46549        49.000  
  19712223.92249 103588433.17649    -15500.40249        50.000  
 16 04 02 13 03  7.6000000  0  2G05G02                                          
  19605170.56249 103025865.12549     -6882.97349        49.000  
  19712518.93049 103589983.43849    -15504.87549        50.000  
 16 04 02 13 03  7.7000000  0  2G05G02                                          
  19605301.60249 103026553.75849     -6889.71549        49.000  
  19712814.02349 103591534.13749    -15509.27349        50.000  
 16 04 02 13 03  7.8000000  0  2G05G02                                          
  19605432.77349 103027243.07849     -6896.63749        49.000  
  19713109.20349 103593085.31249    -15514.09849        49.000  
 16 04 02 13 03  7.9000000  0  2G05G02                                          
  19605564.07849 103027933.07049     -6903.34449        49.000  
  19713404.46949 103594636.94549    -15518.54749        50.000  
 16 04 02 13 03  8.0000000  0  2G05G02                                          
  19605695.49249 103028623.65649     -6909.25449        49.000  
  19713699.80549 103596188.96549    -15522.44949        50.000  
 16 04 02 13 03  8.1000000  0  2G05G02                                          
  19605827.03149 103029314.90249     -6915.65649        49.000  
  19713995.22749 103597741.40649    -15526.59449        50.000  
 16 04 02 13 03  8.2000000  0  2G05G02                                          
  19605958.68849 103030006.78949     -6921.97349        49.000  
  19714290.72749 103599294.28149    -15530.81249        50.000  
 16 04 02 13 03  8.3000000  0  2G05G02                                          
  19606090.47749 103030699.32049     -6928.72749        49.000  
  19714586.31249 103600847.59449    -15535.34849        49.000  
 16 04 02 13 03  8.4000000  0  2G05G02                                          
  19606222.39149 103031392.54749     -6935.76249        49.000  
  19714881.99249 103602401.39549    -15540.29349        49.000  
 16 04 02 13 03  8.5000000  0  2G05G02                                          
  19606354.43849 103032086.43449     -6942.01649        49.000  
  19715177.75049 103603955.62149    -15544.43849        50.000  
 16 04 02 13 03  8.6000000  0  2G05G02                                          
  19606486.60249 103032780.96549     -6948.78949        49.000  
  19715473.59449 103605510.27049    -15548.89149        50.000  
 16 04 02 13 03  8.7000000  0  2G05G02                                          
  19606618.89149 103033476.14849     -6955.24249        49.000  
  19715769.51649 103607065.36749    -15553.10549        50.000  
 16 04 02 13 03  8.8000000  0  2G05G02                                          
  19606751.30549 103034171.98049     -6961.62949        49.000  
  19716065.52349 103608620.89149    -15557.48849        50.000  
 16 04 02 13 03  8.9000000  0  2G05G02                                          
  19606883.83649 103034868.43849     -6967.83649        49.000  
  19716361.60949 103610176.83249    -15561.49649        50.000  
 16 04 02 13 03  9.0000000  0  2G05G02                                          
  19607016.48449 103035565.52749     -6974.36349        49.000  
  19716657.76649 103611733.16849    -15565.66849        50.000  
 16 04 02 13 03  9.1000000  0  2G05G02                                          
  19607149.26649 103036263.30549     -6981.13349        49.000  
  19716954.02349 103613290.00049    -15570.44949        50.000  
 16 04 02 13 03  9.2000000  0  2G05G02                                          
  19607282.18049 103036961.75449     -6987.92249        49.000  
  19717250.35949 103614847.27749    -15574.96149        50.000  
 16 04 02 13 03  9.3000000  0  2G05G02                                          
  19607415.20349 103037660.79349     -6993.71949        49.000  
  19717546.77349 103616404.94149    -15578.81649        50.000  
 16 04 02 13 03  9.4000000  0  2G05G02                                          
  19607548.35949 103038360.55149     -7001.03149        49.000  
  19717843.28149 103617963.09049    -15583.94149        50.000  
 16 04 02 13 03  9.5000000  0  2G05G02                                          
  19607681.65649 103039060.99249     -7007.93849        49.000  
  19718139.87549 103619521.71549    -15588.62949        50.000  
 16 04 02 13 03  9.6000000  0  2G05G02                                          
  19607815.06249 103039762.06249     -7013.89549        49.000  
  19718436.55549 103621080.75449    -15592.54349        49.000  
 16 04 02 13 03  9.7000000  0  2G05G02                                          
  19607948.58649 103040463.73049     -7019.84449        49.000  
  19718733.29749 103622640.15649    -15596.20749        49.000  
 16 04 02 13 03  9.8000000  0  2G05G02                                          
  19608082.22749 103041166.01649     -7026.09449        49.000  
  19719030.12549 103624199.98449    -15600.44549        49.000  
 16 04 02 13 03  9.9000000  0  2G05G02                                          
  19608216.00049 103041869.00449     -7033.27349        49.000  
  19719327.03949 103625760.28949    -15605.39149        49.000  
 16 04 02 13 03 10.0000000  0  2G05G02                                          
  19608349.89849 103042572.66049     -7039.95349        49.000  
  19719624.03949 103627321.03549    -15609.77749        49.000  
 16 04 02 13 03 10.1000000  0  2G05G02                                          
  19608483.90649 103043276.87549     -7045.53149        49.000  
  19719921.10949 103628882.13749    -15613.20749        49.000  
 16 04 02 13 03 10.2000000  0  2G05G02                                          
  19608618.04749 103043981.77349     -7052.47349        49.000  
  19720218.26649 103630443.70749    -15618.08249        49.000  
 16 04 02 13 03 10.3000000  0  2G05G02                                          
  19608752.32049 103044687.38349     -7059.35549        49.000  
  19720515.51649 103632005.75849    -15622.72749        50.000  
 16 04 02 13 03 10.4000000  0  2G05G02                                          
  19608886.70349 103045393.57049     -7065.16449        49.000  
  19720812.83649 103633568.18449    -15626.41049        49.000  
 16 04 02 13 03 10.5000000  0  2G05G02                                          
  19609021.21149 103046100.42249     -7071.71949        49.000  
  19721110.23449 103635131.05149    -15630.88349        49.000  
 16 04 02 13 03 10.6000000  0  2G05G02                                          
  19609155.85949 103046807.98049     -7078.88349        49.000  
  19721407.73449 103636694.40649    -15635.84049        49.000  
 16 04 02 13 03 10.7000000  0  2G05G02                                          
  19609290.60949 103047516.10949     -7084.65249        49.000  
  19721705.29749 103638258.11749    -15639.41449        49.000  
 16 04 02 13 03 10.8000000  0  2G05G02                                          
  19609425.50049 103048224.96149     -7091.82449        49.000  
  19722002.96149 103639822.33649    -15644.41449        49.000  
 16 04 02 13 03 10.9000000  0  2G05G02                                          
  19609560.50849 103048934.42249     -7098.10549        49.000  
  19722300.69549 103641386.94949    -15648.48849        50.000  
 16 04 02 13 03 11.0000000  0  2G05G02                                          
  19609695.64849 103049644.57849     -7104.89149        49.000  
  19722598.52349 103642952.03549    -15653.07849        50.000  
 16 04 02 13 03 11.1000000  0  2G05G02                                          
  19609830.89849 103050355.32849     -7110.80549        49.000  
  19722896.42249 103644517.51249    -15657.02049        50.000  
 16 04 02 13 03 11.2000000  0  2G05G02                                          
  19609966.28149 103051066.77749     -7117.78149        49.000  
  19723194.40649 103646083.44949    -15661.55949        49.000  
 16 04 02 13 03 11.3000000  0  2G05G02                                          
  19610101.78149 103051778.82849     -7123.81249        49.000  
  19723492.47749 103647649.78949    -15665.47749        49.000  
 16 04 02 13 03 11.4000000  0  2G05G02                                          
  19610237.41449 103052491.58649     -7130.98849        49.000  
  19723790.63349 103649216.62149    -15670.65649        49.000  
 16 04 02 13 03 11.5000000  0  2G05G02                                          
  19610373.18049 103053205.03549     -7137.89849        49.000  
  19724088.88349 103650783.90249    -15675.12549        49.000  
 16 04 02 13 03 11.6000000  0  2G05G02                                          
  19610509.04749 103053919.03149     -7143.46549        49.000  
  19724387.18849 103652351.53549    -15678.60249        49.000  
 16 04 02 13 03 11.7000000  0  2G05G02                                          
  19610645.06249 103054633.77349     -7150.70349        49.000  
  19724685.60249 103653919.70749    -15683.93449        49.000  
 16 04 02 13 03 11.8000000  0  2G05G02                                          
  19610781.18849 103055349.12549     -7156.73049        49.000  
  19724984.08649 103655488.24649    -15687.58649        49.000  
 16 04 02 13 03 11.9000000  0  2G05G02                                          
  19610917.43049 103056065.10949     -7163.14149        49.000  
  19725282.64849 103657057.21949    -15691.97749        49.000  
 16 04 02 13 03 12.0000000  0  2G05G02                                          
  19611053.80549 103056781.75849     -7169.67249        49.000  
  19725581.29749 103658626.62149    -15696.07049        49.000  
 16 04 02 13 03 12.1000000  0  2G05G02                                          
  19611190.29749 103057498.99249     -7175.73049        49.000  
  19725880.02349 103660196.42249    -15700.23049        49.000  
 16 04 02 13 03 12.2000000  0  2G05G02                                          
  19611326.90649 103058216.90249     -7182.27349        49.000  
  19726178.82849 103661766.66449    -15704.56649        49.000  
 16 04 02 13 03 12.3000000  0  2G05G02                                          
  19611463.64849 103058935.46149     -7188.66449        49.000  
  19726477.71149 103663337.32049    -15708.59849        49.000  
 16 04 02 13 03 12.4000000  0  2G05G02                                          
  19611600.50049 103059654.61349     -7194.79349        49.000  
  19726776.68049 103664908.39549    -15712.89149        49.000  
 16 04 02 13 03 12.5000000  0  2G05G02                                          
  19611737.47749 103060374.45349     -7201.63349        49.000  
  19727075.72749 103666479.89849    -15717.19149        49.000  
 16 04 02 13 03 12.6000000  0  2G05G02                                          
  19611874.57049 103061094.89549     -7207.82849        49.000  
  19727374.85249 103668051.81649    -15721.46149        49.000  
 16 04 02 13 03 12.7000000  0  2G05G02                                          
  19612011.79749 103061816.02349     -7214.45749        49.000  
  19727674.06249 103669624.17649    -15725.70749        49.000  
 16 04 02 13 03 12.8000000  0  2G05G02                                          
  19612149.15649 103062537.81649     -7221.48849        49.000  
  19727973.35949 103671197.00849    -15730.68849        49.000  
 16 04 02 13 03 12.9000000  0  2G05G02                                          
  19612286.62549 103063260.23049     -7227.42249        49.000  
  19728272.73449 103672770.22749    -15734.40649        49.000  
 16 04 02 13 03 13.0000000  0  2G05G02                                          
  19612424.21949 103063983.29749     -7234.09849        49.000  
  19728572.19549 103674343.90249    -15739.12549        49.000  
 16 04 02 13 03 13.1000000  0  2G05G02                                          
  19612561.94549 103064707.03549     -7240.73049        49.000  
  19728871.74249 103675918.01649    -15743.47349        49.000  
 16 04 02 13 03 13.2000000  0  2G05G02                                          
  19612699.79749 103065431.46549     -7247.53549        49.000  
  19729171.37549 103677492.60549    -15748.04349        49.000  
 16 04 02 13 03 13.3000000  0  2G05G02                                          
  19612837.75849 103066156.46549     -7253.30549        49.000  
  19729471.07849 103679067.54749    -15751.58249        49.000  
 16 04 02 13 03 13.4000000  0  2G05G02                                          
  19612975.85249 103066882.14849     -7260.21949        49.000  
  19729770.86749 103680642.94949    -15756.30949        49.000  
 16 04 02 13 03 13.5000000  0  2G05G02                                          
  19613114.06249 103067608.42249     -7266.19549        49.000  
  19730070.73449 103682218.75449    -15760.41449        49.000  
 16 04 02 13 03 13.6000000  0  2G05G02                                          
  19613252.40649 103068335.43849     -7273.43049        49.000  
  19730370.69549 103683795.05549    -15765.25849        49.000  
 16 04 02 13 03 13.7000000  0  2G05G02                                          
  19613390.87549 103069063.11749     -7280.25049        49.000  
  19730670.74249 103685371.81249    -15769.94549        49.000  
 16 04 02 13 03 13.8000000  0  2G05G02                                          
  19613529.46949 103069791.42649     -7286.42249        49.000  
  19730970.86749 103686948.97349    -15773.89549        49.000  
 16 04 02 13 03 13.9000000  0  2G05G02                                          
  19613668.18849 103070520.37149     -7292.94149        49.000  
  19731271.07049 103688526.56649    -15778.27749        49.000  
 16 04 02 13 03 14.0000000  0  2G05G02                                          
  19613807.03149 103071250.00449     -7299.65649        49.000  
  19731571.36749 103690104.61749    -15782.64549        49.000  
 16 04 02 13 03 14.1000000  0  2G05G02                                          
  19613945.99249 103071980.23449     -7305.47349        49.000  
  19731871.73449 103691683.05949    -15786.40249        49.000  
 16 04 02 13 03 14.2000000  0  2G05G02                                          
  19614085.06249 103072711.03949     -7311.37549        49.000  
  19732172.17249 103693261.85549    -15790.20749        49.000  
 16 04 02 13 03 14.3000000  0  2G05G02                                          
  19614224.26649 103073442.57849     -7318.58649        49.000  
  19732472.70349 103694841.16849    -15795.22349        49.000  
 16 04 02 13 03 14.4000000  0  2G05G02                                          
  19614363.60249 103074174.77749     -7325.44549        49.000  
  19732773.32049 103696420.91049    -15799.78549        49.000  
 16 04 02 13 03 14.5000000  0  2G05G02                                          
  19614503.06249 103074907.65649     -7332.33649        49.000  
  19733074.02349 103698001.14149    -15804.65649        49.000  
 16 04 02 13 03 14.6000000  0  2G05G02                                          
  19614642.64849 103075641.18049     -7338.63749        49.000  
  19733374.80549 103699581.77749    -15808.65649        49.000  
 16 04 02 13 03 14.7000000  0  2G05G02                                          
  19614782.35249 103076375.33249     -7344.86349        49.000  
  19733675.68049 103701162.83649    -15812.77349        49.000  
 16 04 02 13 03 14.8000000  0  2G05G02                                          
  19614922.19549 103077110.19549     -7352.18049        49.000  
  19733976.63349 103702744.38349    -15817.96149        49.000  
 16 04 02 13 03 14.9000000  0  2G05G02                                          
  19615062.15649 103077845.68849     -7358.23049        49.000  
  19734277.67249 103704326.34849    -15821.87549        49.000  
 16 04 02 13 03 15.0000000  0  2G05G02                                          
  19615202.22749 103078581.77749     -7364.16049        49.000  
  19734578.78149 103705908.69149    -15825.53549        49.000  
 16 04 02 13 03 15.1000000  0  2G05G02                                          
  19615342.43049 103079318.53149     -7371.05549        49.000  
  19734879.97749 103707491.46949    -15830.18849        49.000  
 16 04 02 13 03 15.2000000  0  2G05G02                                          
  19615482.75849 103080055.96149     -7377.52049        49.000  
  19735181.25849 103709074.71549    -15834.50849        49.000  
 16 04 02 13 03 15.3000000  0  2G05G02                                          
  19615623.20349 103080793.99649     -7383.74249        49.000  
  19735482.61749 103710658.35549    -15838.76649        49.000  
 16 04 02 13 03 15.4000000  0  2G05G02                                          
  19615763.77349 103081532.71949     -7390.46149        49.000  
  19735784.06249 103712242.44949    -15843.03149        49.000  
 16 04 02 13 03 15.5000000  0  2G05G02                                          
  19615904.46949 103082272.06649     -7396.70749        49.000  
  19736085.58649 103713826.96949    -15847.32449        49.000  
 16 04 02 13 03 15.6000000  0  2G05G02                                          
  19616045.28949 103083012.09049     -7403.67249        49.000  
  19736387.18849 103715411.93849    -15852.19549        49.000  
 16 04 02 13 03 15.7000000  0  2G05G02                                          
  19616186.23449 103083752.77049     -7410.13349        49.000  
  19736688.89149 103716997.34849    -15856.42249        49.000  
 16 04 02 13 03 15.8000000  0  2G05G02                                          
  19616327.30549 103084494.11349     -7416.78549        49.000  
  19736990.66449 103718583.19549    -15860.78149        49.000  
 16 04 02 13 03 15.9000000  0  2G05G02                                          
  19616468.50849 103085236.13349     -7423.63349        49.000  
  19737292.53149 103720169.51249    -15865.41049        49.000  
 16 04 02 13 03 16.0000000  0  2G05G02                                          
  19616609.83649 103085978.77749     -7429.62549        49.000  
  19737594.46949 103721756.23049    -15869.28149        49.000  
 16 04 02 13 03 16.1000000  0  2G05G02                                          
  19616751.25849 103086721.98849     -7435.51249        49.000  
  19737896.47749 103723343.29749    -15872.90249        49.000  
 16 04 02 13 03 16.2000000  0  2G05G02                                          
  19616892.82849 103087465.91849     -7442.59849        49.000  
  19738198.58649 103724930.87549    -15877.94949        49.000  
 16 04 02 13 03 16.3000000  0  2G05G02                                          
  19617034.50849 103088210.45749     -7448.62149        49.000  
  19738500.76649 103726518.83649    -15881.73449        49.000  
 16 04 02 13 03 16.4000000  0  2G05G02                                          
  19617176.31249 103088955.65249     -7455.04349        49.000  
  19738803.02349 103728107.22749    -15886.02749        49.000  
 16 04 02 13 03 16.5000000  0  2G05G02                                          
  19617318.24249 103089701.47349     -7461.64849        49.000  
  19739105.36749 103729696.03149    -15890.36749        49.000  
 16 04 02 13 03 16.6000000  0  2G05G02                                          
  19617460.29749 103090448.00049     -7468.60249        49.000  
  19739407.79749 103731285.32449    -15895.20749        49.000  
 16 04 02 13 03 16.7000000  0  2G05G02                                          
  19617602.46949 103091195.14149     -7474.76249        49.000  
  19739710.31249 103732875.02749    -15899.21949        49.000  
 16 04 02 13 03 16.8000000  0  2G05G02                                          
  19617744.78149 103091942.96149     -7481.42249        49.000  
  19740012.90649 103734465.17249    -15903.65249        49.000  
 16 04 02 13 03 16.9000000  0  2G05G02                                          
  19617887.20349 103092691.39549     -7487.82049        49.000  
  19740315.57849 103736055.71549    -15907.75849        49.000  
 16 04 02 13 03 17.0000000  0  2G05G02                                          
  19618029.75049 103093440.50049     -7494.50849        49.000  
  19740618.33649 103737646.72349    -15912.39549        49.000  
 16 04 02 13 03 17.1000000  0  2G05G02                                          
  19618172.42249 103094190.24649     -7500.77749        49.000  
  19740921.17249 103739238.14549    -15916.41049        49.000  
 16 04 02 13 03 17.2000000  0  2G05G02                                          
  19618315.22749 103094940.67649     -7507.38349        49.000  
  19741224.09449 103740830.03149    -15920.78149        49.000  
 16 04 02 13 03 17.3000000  0  2G05G02                                          
  19618458.12549 103095691.63349     -7513.00449        49.000  
  19741527.08649 103742422.24249    -15924.41849        49.000  
 16 04 02 13 03 17.4000000  0  2G05G02                                          
  19618601.16449 103096443.32049     -7520.11349        49.000  
  19741830.17249 103744014.95349    -15929.27349        49.000  
 16 04 02 13 03 17.5000000  0  2G05G02                                          
  19618744.32849 103097195.65249     -7526.84849        49.000  
  19742133.32849 103745608.08649    -15933.69549        49.000  
 16 04 02 13 03 17.6000000  0  2G05G02                                          
  19618887.62549 103097948.65649     -7533.45749        49.000  
  19742436.58649 103747201.68449    -15938.30949        49.000  
 16 04 02 13 03 17.7000000  0  2G05G02                                          
  19619031.03949 103098702.32049     -7539.97749        49.000  
  19742739.92249 103748795.71949    -15942.47349        49.000  
 16 04 02 13 03 17.8000000  0  2G05G02                                          
  19619174.57049 103099456.58649     -7546.11749        49.000  
  19743043.32849 103750390.14549    -15946.59049        49.000  
 16 04 02 13 03 17.9000000  0  2G05G02                                          
  19619318.22749 103100211.51249     -7552.34849        49.000  
  19743346.82049 103751985.00049    -15950.62149        49.000  
 16 04 02 13 03 18.0000000  0  2G05G02                                          
  19619462.00049 103100967.02349     -7558.53149        49.000  
  19743650.38349 103753580.22749    -15954.50049        49.000  
 16 04 02 13 03 18.1000000  0  2G05G02                                          
  19619605.91449 103101723.28549     -7565.86349        49.000  
  19743954.04749 103755175.99249    -15959.78549        49.000  
 16 04 02 13 03 18.2000000  0  2G05G02                                          
  19619749.93849 103102480.14849     -7572.17249        49.000  
  19744257.78149 103756772.14149    -15963.87149        49.000  
 16 04 02 13 03 18.3000000  0  2G05G02                                          
  19619894.08649 103103237.66049     -7578.50849        49.000  
  19744561.60249 103758368.70349    -15967.99649        49.000  
 16 04 02 13 03 18.4000000  0  2G05G02                                          
  19620038.37549 103103995.90649     -7585.98049        49.000  
  19744865.51649 103759965.80149    -15973.37549        49.000  
 16 04 02 13 03 18.5000000  0  2G05G02                                          
  19620182.78949 103104754.82449     -7592.56649        49.000  
  19745169.52349 103761563.34849    -15977.79749        49.000  
 16 04 02 13 03 18.6000000  0  2G05G02                                          
  19620327.32849 103105514.35549     -7598.92649        49.000  
  19745473.60249 103763161.28149    -15981.85949        49.000  
 16 04 02 13 03 18.7000000  0  2G05G02                                          
  19620471.98449 103106274.53949     -7605.08249        49.000  
  19745777.76649 103764759.66849    -15985.90249        49.000  
 16 04 02 13 03 18.8000000  0  2G05G02                                          
  19620616.75049 103107035.29349     -7610.91049        49.000  
  19746081.99249 103766358.39149    -15989.55149        49.000  
 16 04 02 13 03 18.9000000  0  2G05G02                                          
  19620761.65649 103107796.78149     -7618.23449        49.000  
  19746386.31249 103767957.62949    -15994.70749        49.000  
 16 04 02 13 03 19.0000000  0  2G05G02                                          
  19620906.68849 103108558.95349     -7625.04749        49.000  
  19746690.72749 103769557.33649    -15999.35549        49.000  
 16 04 02 13 03 19.1000000  0  2G05G02                                          
  19621051.82849 103109321.63349     -7630.08649        49.000  
  19746995.20349 103771157.32849    -16002.18849        49.000  
 16 04 02 13 03 19.2000000  0  2G05G02                                          
  19621197.09449 103110085.01649     -7637.20749        49.000  
  19747299.76649 103772757.81249    -16007.08649        49.000  
 16 04 02 13 03 19.3000000  0  2G05G02                                          
  19621342.49249 103110849.06649     -7644.01249        49.000  
  19747604.40649 103774358.74249    -16011.66049        49.000  
 16 04 02 13 03 19.4000000  0  2G05G02                                          
  19621488.00849 103111613.78149     -7650.45349        49.000  
  19747909.14149 103775960.12549    -16016.07049        49.000  
 16 04 02 13 03 19.5000000  0  2G05G02                                          
  19621633.64149 103112379.08649     -7656.42249        49.000  
  19748213.94549 103777561.86749    -16019.64149        49.000  
 16 04 02 13 03 19.6000000  0  2G05G02                                          
  19621779.40649 103113145.07849     -7663.30149        49.000  
  19748518.83649 103779164.08249    -16024.52749        49.000  
 16 04 02 13 03 19.7000000  0  2G05G02                                          
  19621925.29749 103113911.71149     -7669.85949        49.000  
  19748823.81249 103780766.73049    -16028.87149        49.000  
 16 04 02 13 03 19.8000000  0  2G05G02                                          
  19622071.31249 103114679.03149     -7676.45749        49.000  
  19749128.86749 103782369.83249    -16033.14149        49.000  
 16 04 02 13 03 19.9000000  0  2G05G02                                          
  19622217.43849 103115446.93049     -7682.38349        49.000  
  19749434.00049 103783973.30549    -16036.85949        49.000  
 16 04 02 13 03 20.0000000  0  2G05G02                                          
  19622363.68849 103116215.47749     -7688.70349        49.000  
  19749739.21149 103785577.19949    -16041.07049        49.000  
 16 04 02 13 03 20.1000000  0  2G05G02                                          
  19622510.06249 103116984.69549     -7695.60249        49.000  
  19750044.50849 103787181.55549    -16045.91449        49.000  
 16 04 02 13 03 20.2000000  0  2G05G02                                          
  19622656.56249 103117754.55549     -7701.89549        49.000  
  19750349.89149 103788786.33249    -16049.97749        49.000  
 16 04 02 13 03 20.3000000  0  2G05G02                                          
  19622803.18049 103118525.03949     -7708.07849        49.000  
  19750655.34449 103790391.50449    -16053.95749        49.000  
 16 04 02 13 03 20.4000000  0  2G05G02                                          
  19622949.91449 103119296.13349     -7714.26649        49.000  
  19750960.87549 103791997.08249    -16057.92249        49.000  
 16 04 02 13 03 20.5000000  0  2G05G02                                          
  19623096.77349 103120067.89549     -7720.79349        49.000  
  19751266.49249 103793603.10949    -16062.38749        49.000  
 16 04 02 13 03 20.6000000  0  2G05G02                                          
  19623243.75049 103120840.25449     -7726.91049        49.000  
  19751572.18049 103795209.49649    -16066.07849        49.000  
 16 04 02 13 03 20.7000000  0  2G05G02                                          
  19623390.84449 103121613.27349     -7733.64849        49.000  
  19751877.95349 103796816.34849    -16070.78949        49.000  
 16 04 02 13 03 20.8000000  0  2G05G02                                          
  19623538.07049 103122386.94149     -7740.02049        49.000  
  19752183.81249 103798423.62949    -16075.09449        49.000  
 16 04 02 13 03 20.9000000  0  2G05G02                                          
  19623685.42249 103123161.25849     -7746.35949        49.000  
  19752489.74249 103800031.31249    -16079.15649        49.000  
 16 04 02 13 03 21.0000000  0  2G05G02                                          
  19623832.89849 103123936.25849     -7753.45349        49.000  
  19752795.76649 103801639.48049    -16083.98449        49.000  
 16 04 02 13 03 21.1000000  0  2G05G02                                          
  19623980.49249 103124711.86349     -7759.49249        49.000  
  19753101.86749 103803248.03949    -16087.94149        49.000  
 16 04 02 13 03 21.2000000  0  2G05G02                                          
  19624128.21149 103125488.16449     -7766.16449        49.000  
  19753408.05549 103804857.06249    -16092.32449        49.000  
 16 04 02 13 03 21.3000000  0  2G05G02                                          
  19624276.04749 103126265.03949     -7772.05149        49.000  
  19753714.31249 103806466.45349    -16096.10949        49.000  
 16 04 02 13 03 21.4000000  0  2G05G02                                          
  19624424.01649 103127042.60949     -7779.01249        49.000  
  19754020.65649 103808076.31249    -16100.86749        49.000  
 16 04 02 13 03 21.5000000  0  2G05G02                                          
  19624572.10949 103127820.85949     -7785.86349        49.000  
  19754327.09449 103809686.63349    -16105.41449        49.000  
 16 04 02 13 03 21.6000000  0  2G05G02                                          
  19624720.32849 103128599.75449     -7792.40249        49.000  
  19754633.60949 103811297.39149    -16109.93449        49.000  
 16 04 02 13 03 21.7000000  0  2G05G02                                          
  19624868.68049 103129379.33649     -7799.21149        49.000  
  19754940.21149 103812908.60249    -16114.46149        49.000  
 16 04 02 13 03 21.8000000  0  2G05G02                                          
  19625017.14849 103130159.54349     -7805.34849        49.000  
  19755246.89149 103814520.22749    -16118.41849        49.000  
 16 04 02 13 03 21.9000000  0  2G05G02                                          
  19625165.73449 103130940.38349     -7811.53549        49.000  
  19755553.65649 103816132.26249    -16122.29349        49.000  
 16 04 02 13 03 22.0000000  0  2G05G02                                          
  19625314.43049 103131721.78549     -7817.18849        49.000  
  19755860.47749 103817744.64149    -16125.83649        49.000  
 16 04 02 13 03 22.1000000  0  2G05G02                                          
  19625463.25049 103132503.84849     -7823.83649        49.000  
  19756167.39149 103819357.46149    -16130.28549        49.000  
 16 04 02 13 03 22.2000000  0  2G05G02                                          
  19625612.20349 103133286.58649     -7831.07449        49.000  
  19756474.38349 103820970.74649    -16135.38749        49.000  
 16 04 02 13 03 22.3000000  0  2G05G02                                          
  19625761.28949 103134070.05149     -7838.05949        49.000  
  19756781.47749 103822584.53149    -16140.18849        49.000  
 16 04 02 13 03 22.4000000  0  2G05G02                                          
  19625910.50049 103134854.13349     -7844.14849        49.000  
  19757088.64849 103824198.72349    -16144.24249        49.000  
 16 04 02 13 03 22.5000000  0  2G05G02                                          
  19626059.83649 103135638.88749     -7850.96549        49.000  
  19757395.90649 103825813.35249    -16148.64849        49.000  
 16 04 02 13 03 22.6000000  0  2G05G02                                          
  19626209.29749 103136424.31649     -7857.64149        49.000  
  19757703.25049 103827428.44149    -16153.08649        49.000  
 16 04 02 13 03 22.7000000  0  2G05G02                                          
  19626358.86749 103137210.34849     -7863.72349        49.000  
  19758010.66449 103829043.91849    -16157.08649        49.000  
 16 04 02 13 03 22.8000000  0  2G05G02                                          
  19626508.57049 103137997.02749     -7870.05949        49.000  
  19758318.16449 103830659.84049    -16161.39849        49.000  
 16 04 02 13 03 22.9000000  0  2G05G02                                          
  19626658.39849 103138784.40649     -7877.28149        49.000  
  19758625.75049 103832276.21949    -16166.22749        49.000  
 16 04 02 13 03 23.0000000  0  2G05G02                                          
  19626808.35949 103139572.45349     -7883.77349        49.000  
  19758933.42249 103833893.04749    -16170.46549        49.000  
 16 04 02 13 03 23.1000000  0  2G05G02                                          
  19626958.43849 103140361.09849     -7889.81649        49.000  
  19759241.17249 103835510.27349    -16174.41849        49.000  
 16 04 02 13 03 23.2000000  0  2G05G02                                          
  19627108.62549 103141150.37149     -7896.17649        49.000  
  19759548.99249 103837127.88349    -16178.43849        49.000  
 16 04 02 13 03 23.3000000  0  2G05G02                                          
  19627258.93849 103141940.28149     -7902.44149        49.000  
  19759856.89849 103838745.93849    -16182.65649        49.000  
 16 04 02 13 03 23.4000000  0  2G05G02                                          
  19627409.37549 103142730.81249     -7908.68849        49.000  
  19760164.87549 103840364.37949    -16186.60949        49.000  
 16 04 02 13 03 23.5000000  0  2G05G02                                          
  19627559.93849 103143522.02349     -7915.41049        49.000  
  19760472.94549 103841983.27049    -16191.14849        49.000  
 16 04 02 13 03 23.6000000  0  2G05G02                                          
  19627710.60949 103144313.82449     -7921.35549        49.000  
  19760781.08649 103843602.55949    -16195.05149        49.000  
 16 04 02 13 03 23.7000000  0  2G05G02                                          
  19627861.41449 103145106.31249     -7928.18049        49.000  
  19761089.31249 103845222.29749    -16199.50049        49.000  
 16 04 02 13 03 23.8000000  0  2G05G02                                          
  19628012.35249 103145899.46949     -7935.00849        49.000  
  19761397.62549 103846842.50049    -16204.40649        49.000  
 16 04 02 13 03 23.9000000  0  2G05G02                                          
  19628163.39849 103146693.23449     -7940.95349        49.000  
  19761706.00849 103848463.07049    -16207.91449        49.000  
 16 04 02 13 03 24.0000000  0  2G05G02                                          
  19628314.57049 103147487.65249     -7947.47349        49.000  
  19762014.47749 103850084.09049    -16212.43849        49.000  
