     2.10           OBSERVATION DATA    G (GPS)             RINEX VERSION / TYPE
Convert v1.8.0                          09-Jun-2016 15:03   PGM / RUN BY / DATE 
Signal Strength values S1,S2 are in dBHz                    COMMENT             
                                                            MARKER NAME         
                                                            MARKER NUMBER       
                                                            OBSERVER / AGENCY   
                    NovAtel GPSCard                         REC # / TYPE / VERS 
                                                            ANT # / TYPE        
0.0000        0.0000        0.0000                          APPROX POSITION XYZ 
        0.0000        0.0000        0.0000                  ANTENNA: DELTA H/E/N
     1     0                                                WAVELENGTH FACT L1/2
     1     0     4   G04   G05   G20   G21                  WAVELENGTH FACT L1/2
                                                            COMMENT             
                                                            COMMENT             
                                                            COMMENT             
                                                            COMMENT             
                                                            COMMENT             
                                                            COMMENT             
     4    C1    L1    D1    S1                              # / TYPES OF OBSERV 
     0.100                                                  INTERVAL            
  2016    04    02    14    31     6.9000000    GPS         TIME OF FIRST OBS   
  2016    04    02    14    33    23.7000000    GPS         TIME OF LAST OBS    
Leap Seconds Unknown                                        COMMENT             
                                                            END OF HEADER       
 16 04 02 14 31  6.9000000  0  2G05G21                                          
  22627386.84449 118907719.73059     -6766.87149        50.000  
  23181972.57049 121822087.34059     -3212.07449        50.000  
 16 04 02 14 31  7.0000000  0  2G05G21                                          
  22627515.64849 118908396.61349     -6771.89149        50.000  
  23182033.71149 121822408.65249     -3215.08249        50.000  
 16 04 02 14 31  7.1000000  0  2G05G21                                          
  22627644.56249 118909074.09449     -6777.85249        50.000  
  23182094.93049 121822730.35549     -3219.11749        50.000  
 16 04 02 14 31  7.2000000  0  2G05G21                                          
  22627773.60249 118909752.17249     -6783.65649        50.000  
  23182156.22749 121823052.46549     -3222.88749        50.000  
 16 04 02 14 31  7.3000000  0  2G05G21                                          
  22627902.73449 118910430.77349     -6788.94549        50.000  
  23182217.57849 121823374.88749     -3226.29749        50.000  
 16 04 02 14 31  7.4000000  0  2G05G21                                          
  22628031.99249 118911110.01249     -6795.33249        50.000  
  23182279.03149 121823697.74249     -3230.50449        50.000  
 16 04 02 14 31  7.5000000  0  2G05G21                                          
  22628161.35949 118911789.82049     -6801.17649        50.000  
  23182340.53949 121824020.96949     -3234.39849        50.000  
 16 04 02 14 31  7.6000000  0  2G05G21                                          
  22628290.82849 118912470.19949     -6806.93849        50.000  
  23182402.11749 121824344.57049     -3238.17649        50.000  
 16 04 02 14 31  7.7000000  0  2G05G21                                          
  22628420.43049 118913151.24249     -6813.48449        50.000  
  23182463.78149 121824668.62549     -3242.63349        50.000  
 16 04 02 14 31  7.8000000  0  2G05G21                                          
  22628550.13349 118913832.80549     -6818.68049        50.000  
  23182525.50849 121824993.00849     -3245.82049        50.000  
 16 04 02 14 31  7.9000000  0  3G05G21G04                                       
  22628679.93849 118914514.94949     -6824.42649        50.000  
  23182587.30549 121825317.75849     -3249.47349        50.000  
  24369218.85249 128061108.93459    -11765.43049        49.000  
 16 04 02 14 31  8.0000000  0  3G05G21G04                                       
  22628809.85249 118915197.65649     -6830.02349        50.000  
  23182649.18049 121825642.87149     -3253.05949        50.000  
  24369442.75849 128062285.57449    -11767.33249        49.000  
 16 04 02 14 31  8.1000000  0  3G05G21G04                                       
  22628939.88349 118915880.93849     -6835.60949        50.000  
  23182711.11749 121825968.37549     -3256.84849        50.000  
  24369666.70349 128063462.45349    -11769.66849        49.000  
 16 04 02 14 31  8.2000000  0  3G05G21G04                                       
  22629070.01649 118916564.79349     -6841.59849        50.000  
  23182773.12549 121826294.23449     -3260.73049        50.000  
  24369890.69549 128064639.52749    -11771.79749        49.000  
 16 04 02 14 31  8.3000000  0  3G05G21G04                                       
  22629200.26649 118917249.29349     -6848.02049        50.000  
  23182835.21949 121826620.53549     -3265.09449        50.000  
  24370114.74249 128065816.89149    -11774.77049        49.000  
 16 04 02 14 31  8.4000000  0  3G05G21G04                                       
  22629330.64149 118917934.39149     -6853.91049        50.000  
  23182897.39149 121826947.23849     -3269.03549        50.000  
  24370338.83649 128066994.49249    -11777.00849        49.000  
 16 04 02 14 31  8.5000000  0  3G05G21G04                                       
  22629461.10949 118918620.03949     -6859.56249        50.000  
  23182959.64149 121827274.29749     -3272.67649        50.000  
  24370562.97749 128068172.29349    -11779.11749        49.000  
 16 04 02 14 31  8.6000000  0  3G05G21G04                                       
  22629591.68849 118919306.27049     -6865.32849        50.000  
  23183021.94549 121827601.72749     -3276.46549        50.000  
  24370787.14849 128069350.31249    -11781.28949        49.000  
 16 04 02 14 31  8.7000000  0  3G05G21G04                                       
  22629722.38349 118919993.03549     -6870.46949        50.000  
  23183084.32049 121827929.49249     -3279.50449        50.000  
  24371011.35249 128070528.51249    -11782.87149        49.000  
 16 04 02 14 31  8.8000000  0  3G05G21G04                                       
  22629853.18049 118920680.39549     -6876.50449        50.000  
  23183146.76649 121828257.65249     -3283.57049        50.000  
  24371235.60249 128071706.94149    -11785.23849        49.000  
 16 04 02 14 31  8.9000000  0  3G05G21G04                                       
  22629984.08649 118921368.34849     -6882.73049        50.000  
  23183209.28949 121828586.20749     -3287.71549        50.000  
  24371459.91449 128072885.60949    -11787.84849        49.000  
 16 04 02 14 31  9.0000000  0  3G05G21G04                                       
  22630115.12549 118922056.93049     -6888.75449        50.000  
  23183271.89849 121828915.18449     -3291.82849        50.000  
  24371684.25849 128074064.55149    -11790.50449        49.000  
 16 04 02 14 31  9.1000000  0  3G05G21G04                                       
  22630246.25849 118922746.00849     -6893.81249        50.000  
  23183334.55549 121829244.44949     -3294.68049        50.000  
  24371908.62549 128075243.61349    -11791.70349        49.000  
 16 04 02 14 31  9.2000000  0  3G05G21G04                                       
  22630377.50049 118923435.70749     -6900.01249        50.000  
  23183397.29749 121829574.14849     -3298.98049        50.000  
  24372133.04749 128076422.96149    -11794.45749        49.000  
 16 04 02 14 31  9.3000000  0  3G05G21G04                                       
  22630508.86749 118924126.02749     -6906.22749        50.000  
  23183460.11749 121829904.27049     -3303.25049        50.000  
  24372357.51649 128077602.56649    -11797.19549        49.000  
 16 04 02 14 31  9.4000000  0  3G05G21G04                                       
  22630640.33649 118924816.91849     -6911.98449        50.000  
  23183523.00049 121830234.75449     -3307.00049        50.000  
  24372582.02349 128078782.36749    -11799.21549        49.000  
 16 04 02 14 31  9.5000000  0  3G05G21G04                                       
  22630771.91449 118925508.39549     -6917.78549        50.000  
  23183585.96149 121830565.61349     -3310.64849        50.000  
  24372806.58649 128079962.41049    -11801.44949        49.000  
 16 04 02 14 31  9.6000000  0  3G05G21G04                                       
  22630903.60949 118926200.44949     -6923.46149        50.000  
  23183649.00049 121830896.86749     -3314.41049        50.000  
  24373031.18049 128081142.66849    -11803.47749        49.000  
 16 04 02 14 31  9.7000000  0  3G05G21G04                                       
  22631035.41449 118926893.04749     -6928.88349        50.000  
  23183712.09449 121831228.44949     -3317.82049        50.000  
  24373255.83649 128082323.11349    -11805.40649        49.000  
 16 04 02 14 31  9.8000000  0  3G05G21G04                                       
  22631167.32849 118927586.25449     -6935.02049        50.000  
  23183775.27349 121831560.44949     -3322.00849        50.000  
  24373480.51649 128083503.81649    -11808.11749        49.000  
 16 04 02 14 31  9.9000000  0  3G05G21G04                                       
  22631299.33649 118928280.00849     -6940.45749        50.000  
  23183838.51649 121831892.78549     -3325.32849        50.000  
  24373705.25849 128084684.69149    -11809.75849        49.000  
 16 04 02 14 31 10.0000000  0  3G05G21G04                                       
  22631431.46149 118928974.33649     -6946.19149        50.000  
  23183901.82049 121832225.51249     -3329.15649        50.000  
  24373930.01649 128085865.79749    -11812.01649        49.000  
 16 04 02 14 31 10.1000000  0  3G05G21G04                                       
  22631563.70349 118929669.28549     -6952.61349        50.000  
  23183965.21949 121832558.64149     -3333.41849        50.000  
  24374154.84449 128087047.16049    -11814.78149        49.000  
 16 04 02 14 31 10.2000000  0  3G05G21G04                                       
  22631696.05549 118930364.80549     -6958.26249        50.000  
  23184028.68049 121832892.14849     -3337.21149        50.000  
  24374379.69549 128088228.73049    -11816.88349        49.000  
 16 04 02 14 31 10.3000000  0  3G05G21G04                                       
  22631828.51649 118931060.89549     -6964.01249        50.000  
  23184092.21949 121833226.02349     -3340.97349        50.000  
  24374604.58649 128089410.51249    -11818.98849        49.000  
 16 04 02 14 31 10.4000000  0  3G05G21G04                                       
  22631961.10949 118931757.66449     -6970.87549        50.000  
  23184155.83649 121833560.37149     -3345.72749        50.000  
  24374829.53149 128090592.62549    -11822.34449        49.000  
 16 04 02 14 31 10.5000000  0  3G05G21G04                                       
  22632093.78149 118932454.89549     -6975.08249        50.000  
  23184219.51649 121833894.99649     -3347.96549        50.000  
  24375054.48449 128091774.83649    -11823.05149        49.000  
 16 04 02 14 31 10.6000000  0  3G05G21G04                                       
  22632226.57849 118933152.71149     -6981.30549        50.000  
  23184283.25849 121834229.98449     -3352.16849        50.000  
  24375279.50049 128092957.26249    -11825.47749        49.000  
 16 04 02 14 31 10.7000000  0  3G05G21G04                                       
  22632359.49249 118933851.17249     -6987.65249        50.000  
  23184347.08649 121834565.43449     -3356.50849        50.000  
  24375504.57049 128094139.98849    -11828.30549        49.000  
 16 04 02 14 31 10.8000000  0  3G05G21G04                                       
  22632492.50049 118934550.14149     -6992.74249        50.000  
  23184410.98449 121834901.18049     -3359.64549        50.000  
  24375729.66449 128095322.86349    -11829.89849        49.000  
 16 04 02 14 31 10.9000000  0  3G05G21G04                                       
  22632625.61749 118935249.71949     -6998.65249        50.000  
  23184474.94549 121835237.33249     -3363.41049        50.000  
  24375954.80549 128096505.98049    -11832.13349        49.000  
 16 04 02 14 31 11.0000000  0  3G05G21G04                                       
  22632758.85949 118935949.89849     -7004.76249        50.000  
  23184538.99249 121835573.90249     -3367.64549        50.000  
  24376179.99249 128097689.34849    -11834.63349        49.000  
 16 04 02 14 31 11.1000000  0  3G05G21G04                                       
  22632892.20349 118936650.62149     -7010.16049        50.000  
  23184603.10949 121835910.80149     -3370.98049        50.000  
  24376405.20349 128098872.90249    -11836.52349        49.000  
 16 04 02 14 31 11.2000000  0  3G05G21G04                                       
  22633025.65649 118937351.89849     -7015.65649        50.000  
  23184667.28949 121836248.06249     -3374.55549        50.000  
  24376630.46149 128100056.64849    -11838.44149        49.000  
 16 04 02 14 31 11.3000000  0  3G05G21G04                                       
  22633159.21149 118938053.74649     -7021.55949        49.000  
  23184731.53949 121836585.68049     -3378.32849        50.000  
  24376855.73449 128101240.60549    -11840.65249        49.000  
 16 04 02 14 31 11.4000000  0  3G05G21G04                                       
  22633292.89149 118938756.23049     -7027.85249        49.000  
  23184795.86749 121836923.74649     -3382.61349        50.000  
  24377081.08649 128102424.84049    -11843.34849        49.000  
 16 04 02 14 31 11.5000000  0  3G05G21G04                                       
  22633426.67249 118939459.21549     -7032.74649        49.000  
  23184860.25049 121837262.11349     -3385.53549        50.000  
  24377306.46149 128103609.22749    -11844.84449        49.000  
 16 04 02 14 31 11.6000000  0  3G05G21G04                                       
  22633560.56249 118940162.82049     -7039.17249        49.000  
  23184924.71949 121837600.89549     -3389.95749        50.000  
  24377531.89149 128104793.86749    -11847.50049        49.000  
 16 04 02 14 31 11.7000000  0  3G05G21G04                                       
  22633694.56249 118940867.02049     -7044.94549        49.000  
  23184989.26649 121837940.07049     -3393.81249        50.000  
  24377757.37549 128105978.74649    -11849.90249        49.000  
 16 04 02 14 31 11.8000000  0  3G05G21G04                                       
  22633828.68049 118941571.80949     -7050.96549        49.000  
  23185053.88349 121838279.63349     -3397.75849        50.000  
  24377982.89849 128107163.84849    -11852.18449        49.000  
 16 04 02 14 31 11.9000000  0  3G05G21G04                                       
  22633962.91449 118942277.16849     -7056.54349        49.000  
  23185118.57049 121838619.57449     -3401.38349        50.000  
  24378208.45349 128108349.17649    -11854.28149        49.000  
 16 04 02 14 31 12.0000000  0  3G05G21G04                                       
  22634097.25049 118942983.12149     -7062.68449        49.000  
  23185183.33649 121838959.89549     -3405.42649        50.000  
  24378434.05549 128109534.73049    -11856.69149        49.000  
 16 04 02 14 31 12.1000000  0  3G05G21G04                                       
  22634231.69549 118943689.64549     -7068.09849        49.000  
  23185248.16449 121839300.59449     -3408.89849        50.000  
  24378659.69549 128110720.49249    -11858.59849        49.000  
 16 04 02 14 31 12.2000000  0  3G05G21G04                                       
  22634366.24249 118944396.70749     -7073.57449        50.000  
  23185313.06249 121839641.63349     -3412.35949        50.000  
  24378885.37549 128111906.44149    -11860.46549        49.000  
 16 04 02 14 31 12.3000000  0  3G05G21G04                                       
  22634500.91449 118945104.40249     -7080.02349        49.000  
  23185378.03949 121839983.10549     -3416.80949        50.000  
  24379111.10949 128113092.66449    -11863.34049        49.000  
 16 04 02 14 31 12.4000000  0  3G05G21G04                                       
  22634635.69549 118945812.66449     -7085.63349        50.000  
  23185443.08649 121840324.93849     -3420.40249        50.000  
  24379336.88349 128114279.09449    -11865.41849        49.000  
 16 04 02 14 31 12.5000000  0  3G05G21G04                                       
  22634770.57049 118946521.46149     -7090.95349        49.000  
  23185508.20349 121840667.11349     -3423.74649        50.000  
  24379562.69549 128115465.70349    -11867.05149        49.000  
 16 04 02 14 31 12.6000000  0  3G05G21G04                                       
  22634905.57049 118947230.88749     -7097.13349        49.000  
  23185573.39849 121841009.71549     -3427.97749        50.000  
  24379788.55549 128116652.58649    -11869.78549        49.000  
 16 04 02 14 31 12.7000000  0  3G05G21G04                                       
  22635040.67249 118947940.87949     -7103.07449        49.000  
  23185638.66449 121841352.67649     -3431.86349        50.000  
  24380014.44549 128117839.67249    -11872.03149        49.000  
 16 04 02 14 31 12.8000000  0  3G05G21G04                                       
  22635175.89149 118948651.47349     -7108.92649        49.000  
  23185704.00849 121841696.04349     -3435.64849        50.000  
  24380240.38349 128119027.00049    -11874.32049        49.000  
 16 04 02 14 31 12.9000000  0  3G05G21G04                                       
  22635311.23449 118949362.69549     -7115.34449        49.000  
  23185769.43049 121842039.84849     -3440.15249        50.000  
  24380466.37549 128120214.60249    -11877.18849        49.000  
 16 04 02 14 31 13.0000000  0  3G05G21G04                                       
  22635446.68049 118950074.48849     -7121.03149        49.000  
  23185834.92249 121842384.00449     -3443.77749        50.000  
  24380692.41449 128121402.41849    -11879.30949        49.000  
 16 04 02 14 31 13.1000000  0  3G05G21G04                                       
  22635582.23449 118950786.82049     -7126.34049        49.000  
  23185900.49249 121842728.52349     -3447.16449        50.000  
  24380918.47749 128122590.41049    -11880.99649        49.000  
 16 04 02 14 31 13.2000000  0  3G05G21G04                                       
  22635717.89849 118951499.73449     -7132.01649        49.000  
  23185966.11749 121843073.39849     -3450.79349        50.000  
  24381144.58649 128123778.62149    -11883.09449        49.000  
 16 04 02 14 31 13.3000000  0  3G05G21G04                                       
  22635853.68049 118952213.22349     -7137.84849        49.000  
  23186031.82049 121843418.67249     -3454.78149        50.000  
  24381370.74249 128124967.05949    -11885.35949        49.000  
 16 04 02 14 31 13.4000000  0  3G05G21G04                                       
  22635989.57849 118952927.35549     -7144.35549        49.000  
  23186097.60949 121843764.37549     -3459.02049        50.000  
  24381596.95349 128126155.77349    -11888.15649        49.000  
 16 04 02 14 31 13.5000000  0  3G05G21G04                                       
  22636125.57049 118953642.01249     -7149.45749        50.000  
  23186163.45349 121844110.40649     -3462.31249        50.000  
  24381823.19549 128127344.65649    -11889.77349        49.000  
 16 04 02 14 31 13.6000000  0  3G05G21G04                                       
  22636261.68049 118954357.26249     -7155.42249        49.000  
  23186229.38349 121844456.83249     -3466.12949        50.000  
  24382049.47749 128128533.78149    -11892.15249        49.000  
 16 04 02 14 31 13.7000000  0  3G05G21G04                                       
  22636397.88349 118955073.05149     -7160.89549        50.000  
  23186295.36749 121844803.59449     -3469.70349        50.000  
  24382275.79749 128129723.07849    -11894.07849        49.000  
 16 04 02 14 31 13.8000000  0  3G05G21G04                                       
  22636534.21149 118955789.43849     -7166.92249        50.000  
  23186361.43049 121845150.75449     -3473.71149        50.000  
  24382502.16449 128130912.62549    -11896.51249        49.000  
 16 04 02 14 31 13.9000000  0  3G05G21G04                                       
  22636670.64849 118956506.43449     -7172.97749        50.000  
  23186427.56249 121845498.32049     -3477.67649        50.000  
  24382728.58649 128132102.41449    -11898.97749        49.000  
 16 04 02 14 31 14.0000000  0  3G05G21G04                                       
  22636807.19549 118957223.99249     -7178.52349        50.000  
  23186493.78149 121845846.27049     -3481.41449        50.000  
  24382955.03149 128133292.40649    -11900.93049        49.000  
 16 04 02 14 31 14.1000000  0  3G05G21G04                                       
  22636943.83649 118957942.06649     -7183.63749        50.000  
  23186560.04749 121846194.51249     -3484.38749        50.000  
  24383181.50049 128134482.56249    -11902.48049        49.000  
 16 04 02 14 31 14.2000000  0  3G05G21G04                                       
  22637080.60249 118958660.78149     -7190.18449        49.000  
  23186626.39849 121846543.20349     -3488.98849        50.000  
  24383408.03949 128135673.00049    -11905.46949        49.000  
 16 04 02 14 31 14.3000000  0  3G05G21G04                                       
  22637217.47749 118959380.08649     -7195.95349        49.000  
  23186692.83649 121846892.28949     -3492.85249        50.000  
  24383634.61749 128136863.66449    -11907.71549        49.000  
 16 04 02 14 31 14.4000000  0  3G05G21G04                                       
  22637354.45349 118960099.91449     -7201.25849        50.000  
  23186759.32049 121847241.69949     -3496.16049        50.000  
  24383861.22749 128138054.50049    -11909.37149        49.000  
 16 04 02 14 31 14.5000000  0  3G05G21G04                                       
  22637491.55549 118960820.37549     -7207.46949        50.000  
  23186825.89149 121847591.53149     -3500.28149        50.000  
  24384087.86749 128139245.60549    -11912.01249        49.000  
 16 04 02 14 31 14.6000000  0  3G05G21G04                                       
  22637628.75849 118961541.39149     -7213.21549        49.000  
  23186892.53149 121847941.73049     -3504.09449        50.000  
  24384314.56249 128140436.90249    -11914.05949        49.000  
 16 04 02 14 31 14.7000000  0  3G05G21G04                                       
  22637766.09449 118962263.05949     -7219.60549        50.000  
  23186959.25849 121848292.37549     -3508.43849        50.000  
  24384541.32049 128141628.50849    -11917.05149        49.000  
 16 04 02 14 31 14.8000000  0  3G05G21G04                                       
  22637903.52349 118962985.23849     -7224.71949        50.000  
  23187026.04749 121848643.32849     -3511.50449        50.000  
  24384768.10249 128142820.25849    -11918.62549        49.000  
 16 04 02 14 31 14.9000000  0  3G05G21G04                                       
  22638041.04749 118963707.94549     -7229.99649        50.000  
  23187092.89149 121848994.61749     -3514.86749        50.000  
  24384994.91449 128144012.17649    -11920.21949        49.000  
 16 04 02 14 31 15.0000000  0  3G05G21G04                                       
  22638178.69549 118964431.28549     -7236.33649        50.000  
  23187159.82049 121849346.33649     -3519.11349        50.000  
  24385221.77349 128145204.36349    -11922.84849        49.000  
 16 04 02 14 31 15.1000000  0  3G05G21G04                                       
  22638316.45349 118965155.18449     -7242.03949        50.000  
  23187226.81249 121849698.41849     -3522.82049        50.000  
  24385448.69549 128146396.77049    -11925.11749        49.000  
 16 04 02 14 31 15.2000000  0  3G05G21G04                                       
  22638454.31249 118965879.66449     -7247.80949        50.000  
  23187293.88349 121850050.87949     -3526.69549        50.000  
  24385675.64849 128147589.38349    -11927.25849        49.000  
 16 04 02 14 31 15.3000000  0  3G05G21G04                                       
  22638592.28149 118966604.68049     -7253.18849        49.000  
  23187361.02349 121850403.67649     -3530.02749        50.000  
  24385902.63349 128148782.17649    -11929.00449        49.000  
 16 04 02 14 31 15.4000000  0  3G05G21G04                                       
  22638730.38349 118967330.38349     -7260.18849        50.000  
  23187428.25049 121850756.96549     -3535.05149        50.000  
  24386129.68049 128149975.30549    -11932.39849        49.000  
 16 04 02 14 31 15.5000000  0  3G05G21G04                                       
  22638868.57049 118968056.61749     -7265.31649        50.000  
  23187495.53949 121851110.57849     -3538.14849        50.000  
  24386356.75049 128151168.59849    -11933.98049        49.000  
 16 04 02 14 31 15.6000000  0  3G05G21G04                                       
  22639006.87549 118968783.38349     -7270.69949        50.000  
  23187562.88349 121851464.52749     -3541.47749        50.000  
  24386583.85949 128152362.07049    -11935.70349        49.000  
 16 04 02 14 31 15.7000000  0  3G05G21G04                                       
  22639145.29749 118969510.77749     -7277.03949        50.000  
  23187630.31249 121851818.91049     -3545.98049        50.000  
  24386811.02349 128153555.81649    -11938.54749        49.000  
 16 04 02 14 31 15.8000000  0  3G05G21G04                                       
  22639283.83649 118970238.80949     -7283.03549        50.000  
  23187697.82849 121852173.73049     -3549.94549        50.000  
  24387038.23449 128154749.84049    -11941.13349        49.000  
 16 04 02 14 31 15.9000000  0  3G05G21G04                                       
  22639422.46949 118970967.31249     -7288.25849        50.000  
  23187765.39849 121852528.81649     -3552.99249        50.000  
  24387265.46949 128155943.96549    -11942.41449        49.000  
 16 04 02 14 31 16.0000000  0  3G05G21G04                                       
  22639561.21949 118971696.45749     -7294.44949        50.000  
  23187833.06249 121852884.35249     -3557.29349        50.000  
  24387492.75849 128157138.39149    -11945.17249        49.000  
 16 04 02 14 31 16.1000000  0  3G05G21G04                                       
  22639700.08649 118972426.18449     -7300.33249        50.000  
  23187900.78949 121853240.27749     -3561.35249        50.000  
  24387720.10249 128158333.03949    -11947.65249        49.000  
 16 04 02 14 31 16.2000000  0  3G05G21G04                                       
  22639839.04749 118973156.44149     -7305.50449        50.000  
  23187968.57849 121853596.51249     -3564.41049        50.000  
  24387947.46949 128159527.85249    -11949.14849        49.000  
 16 04 02 14 31 16.3000000  0  3G05G21G04                                       
  22639978.10949 118973887.23049     -7310.83249        50.000  
  23188036.43849 121853953.09449     -3567.69149        50.000  
  24388174.87549 128160722.84049    -11950.87949        49.000  
 16 04 02 14 31 16.4000000  0  3G05G21G04                                       
  22640117.29749 118974618.65249     -7317.09849        50.000  
  23188104.37549 121854310.10949     -3572.16049        50.000  
  24388402.32849 128161918.09449    -11953.48449        49.000  
 16 04 02 14 31 16.5000000  0  3G05G21G04                                       
  22640256.59449 118975350.62149     -7322.80149        50.000  
  23188172.38349 121854667.46149     -3575.61749        50.000  
  24388629.81249 128163113.55149    -11955.63749        49.000  
 16 04 02 14 31 16.6000000  0  3G05G21G04                                       
  22640395.99249 118976083.17649     -7328.39549        50.000  
  23188240.46149 121855025.23049     -3579.57449        50.000  
  24388857.34449 128164309.23449    -11957.88349        49.000  
 16 04 02 14 31 16.7000000  0  3G05G21G04                                       
  22640535.50849 118976816.33249     -7334.56249        50.000  
  23188308.61749 121855383.37149     -3583.55549        50.000  
  24389084.90649 128165505.15649    -11960.42249        49.000  
 16 04 02 14 31 16.8000000  0  3G05G21G04                                       
  22640675.11749 118977550.00849     -7339.54749        50.000  
  23188376.82849 121855741.84049     -3586.47749        50.000  
  24389312.51649 128166701.23449    -11961.73049        49.000  
 16 04 02 14 31 16.9000000  0  3G05G21G04                                       
  22640814.84449 118978284.25049     -7345.50049        50.000  
  23188445.10949 121856100.68449     -3590.35549        50.000  
  24389540.16449 128167897.52749    -11963.96549        49.000  
 16 04 02 14 31 17.0000000  0  3G05G21G04                                       
  22640954.68849 118979019.13749     -7351.94149        50.000  
  23188513.47749 121856459.96949     -3594.92249        50.000  
  24389767.86749 128169094.10549    -11966.85549        49.000  
 16 04 02 14 31 17.1000000  0  3G05G21G04                                       
  22641094.64849 118979754.60949     -7357.75449        50.000  
  23188581.92249 121856819.64149     -3598.90249        50.000  
  24389995.61749 128170290.91849    -11969.24649        49.000  
 16 04 02 14 31 17.2000000  0  3G05G21G04                                       
  22641234.71149 118980490.64849     -7363.38349        50.000  
  23188650.43049 121857179.69149     -3602.54749        50.000  
  24390223.39849 128171487.93849    -11971.30549        49.000  
 16 04 02 14 31 17.3000000  0  3G05G21G04                                       
  22641374.89149 118981227.28549     -7369.28549        50.000  
  23188719.01649 121857540.11349     -3606.27049        50.000  
  24390451.22749 128172685.18049    -11973.44949        49.000  
 16 04 02 14 31 17.4000000  0  3G05G21G04                                       
  22641515.17249 118981964.50449     -7375.24649        50.000  
  23188787.68049 121857900.94549     -3610.45349        50.000  
  24390679.10249 128173882.66849    -11976.05149        49.000  
 16 04 02 14 31 17.5000000  0  3G05G21G04                                       
  22641655.58649 118982702.32449     -7381.24249        50.000  
  23188856.41449 121858262.16449     -3614.12549        50.000  
  24390907.00849 128175080.38349    -11978.19149        49.000  
 16 04 02 14 31 17.6000000  0  3G05G21G04                                       
  22641796.08649 118983440.66049     -7386.13749        50.000  
  23188925.21149 121858623.70749     -3617.33649        50.000  
  24391134.96149 128176278.27349    -11979.89149        49.000  
 16 04 02 14 31 17.7000000  0  3G05G21G04                                       
  22641936.70349 118984179.56649     -7392.10249        50.000  
  23188994.08649 121858985.62549     -3621.21549        50.000  
  24391362.96949 128177476.35549    -11981.92649        49.000  
 16 04 02 14 31 17.8000000  0  3G05G21G04                                       
  22642077.41449 118984919.03149     -7397.44149        50.000  
  23189063.03149 121859347.90649     -3624.64149        50.000  
  24391590.99249 128178674.65249    -11983.79349        49.000  
 16 04 02 14 31 17.9000000  0  3G05G21G04                                       
  22642218.24249 118985659.10949     -7403.60949        50.000  
  23189132.04749 121859710.58649     -3628.71549        50.000  
  24391819.05549 128179873.19149    -11986.34449        49.000  
 16 04 02 14 31 18.0000000  0  3G05G21G04                                       
  22642359.18849 118986399.75849     -7409.61749        50.000  
  23189201.14149 121860073.64849     -3632.75849        50.000  
  24392047.18049 128181071.96149    -11988.78949        49.000  
 16 04 02 14 31 18.1000000  0  3G05G21G04                                       
  22642500.23449 118987140.95349     -7414.94949        50.000  
  23189270.29749 121860437.06249     -3636.23849        50.000  
  24392275.34449 128182270.91049    -11990.52349        49.000  
 16 04 02 14 31 18.2000000  0  3G05G21G04                                       
  22642641.39849 118987882.78149     -7421.21549        50.000  
  23189339.53149 121860800.89849     -3640.41849        50.000  
  24392503.54749 128183470.12949    -11993.15249        49.000  
 16 04 02 14 31 18.3000000  0  3G05G21G04                                       
  22642782.66449 118988625.15249     -7426.80549        50.000  
  23189408.82049 121861165.08649     -3644.02049        50.000  
  24392731.78949 128184669.54349    -11995.23449        49.000  
 16 04 02 14 31 18.4000000  0  3G05G21G04                                       
  22642924.04749 118989368.12149     -7432.35949        50.000  
  23189478.20349 121861529.67649     -3647.67249        50.000  
  24392960.07049 128185869.18849    -11997.22349        49.000  
 16 04 02 14 31 18.5000000  0  3G05G21G04                                       
  22643065.53149 118990111.65649     -7438.49249        50.000  
  23189547.64849 121861894.62949     -3651.70749        50.000  
  24393188.39849 128187069.04349    -11999.69149        49.000  
 16 04 02 14 31 18.6000000  0  3G05G21G04                                       
  22643207.13349 118990855.75449     -7443.93049        50.000  
  23189617.17249 121862259.95749     -3655.23449        50.000  
  24393416.76649 128188269.10949    -12001.61749        49.000  
 16 04 02 14 31 18.7000000  0  3G05G21G04                                       
  22643348.82849 118991600.40649     -7449.54349        50.000  
  23189686.75049 121862625.62149     -3658.73849        50.000  
  24393645.16449 128189469.36749    -12003.64849        49.000  
 16 04 02 14 31 18.8000000  0  3G05G21G04                                       
  22643490.64149 118992345.64149     -7455.13749        50.000  
  23189756.41449 121862991.68449     -3662.49249        50.000  
  24393873.60949 128190669.84449    -12005.66449        49.000  
 16 04 02 14 31 18.9000000  0  3G05G21G04                                       
  22643632.57049 118993091.45349     -7461.16449        50.000  
  23189826.14149 121863358.12949     -3666.45349        50.000  
  24394102.10249 128191870.55149    -12008.02749        49.000  
 16 04 02 14 31 19.0000000  0  3G05G21G04                                       
  22643774.60249 118993837.84849     -7466.87949        50.000  
  23189895.94549 121863724.94949     -3670.14549        50.000  
  24394330.63349 128193071.48449    -12010.35249        49.000  
 16 04 02 14 31 19.1000000  0  3G05G21G04                                       
  22643916.73449 118994584.77349     -7472.47349        50.000  
  23189965.81249 121864092.10949     -3673.83649        50.000  
  24394559.20349 128194272.58249    -12012.16049        49.000  
 16 04 02 14 31 19.2000000  0  3G05G21G04                                       
  22644058.99249 118995332.34449     -7478.48449        50.000  
  23190035.77349 121864459.71149     -3677.90249        50.000  
  24394787.82049 128195473.97749    -12014.86349        49.000  
 16 04 02 14 31 19.3000000  0  3G05G21G04                                       
  22644201.35249 118996080.42649     -7483.65249        50.000  
  23190105.78949 121864827.62549     -3681.16049        50.000  
  24395016.46949 128196675.50449    -12016.29749        49.000  
 16 04 02 14 31 19.4000000  0  3G05G21G04                                       
  22644343.82049 118996829.14149     -7490.27349        50.000  
  23190175.87549 121865195.96549     -3685.68849        50.000  
  24395245.16449 128197877.31649    -12019.24249        49.000  
 16 04 02 14 31 19.5000000  0  3G05G21G04                                       
  22644486.40649 118997578.41849     -7495.82849        50.000  
  23190246.04749 121865564.69549     -3689.39549        50.000  
  24395473.92249 128199079.34049    -12021.37149        49.000  
 16 04 02 14 31 19.6000000  0  3G05G21G04                                       
  22644629.10249 118998328.25449     -7501.30949        50.000  
  23190316.27349 121865933.75849     -3692.57849        50.000  
  24395702.69549 128200281.56649    -12023.23449        49.000  
 16 04 02 14 31 19.7000000  0  3G05G21G04                                       
  22644771.88349 118999078.62549     -7506.62549        50.000  
  23190386.57849 121866303.18049     -3696.19549        50.000  
  24395931.50849 128201483.96149    -12024.98049        49.000  
 16 04 02 14 31 19.8000000  0  3G05G21G04                                       
  22644914.78149 118999829.54749     -7512.14149        50.000  
  23190456.93849 121866672.94549     -3699.59449        50.000  
  24396160.35249 128202686.54749    -12026.73049        49.000  
 16 04 02 14 31 19.9000000  0  4G20G05G21G04                                    
  21732042.35949 114202652.68459     14828.03149        49.000  
  22645057.79749 119000581.11749     -7518.57049        50.000  
  23190527.39149 121867043.15649     -3704.07049        50.000  
  24396389.25849 128203889.43849    -12029.77749        49.000  
 16 04 02 14 31 20.0000000  0  4G20G05G21G04                                    
  21731760.25049 114201170.18049     14821.99649        49.000  
  22645200.93049 119001333.24649     -7524.23049        50.000  
  23190597.90649 121867413.73449     -3707.75849        50.000  
  24396618.19549 128205092.51649    -12031.82449        49.000  
 16 04 02 14 31 20.1000000  0  4G20G05G21G04                                    
  21731478.21149 114199688.26249     14816.11349        49.000  
  22645344.15649 119002085.90649     -7529.63749        50.000  
  23190668.49249 121867784.65649     -3711.34049        50.000  
  24396847.17249 128206295.78149    -12033.74649        49.000  
 16 04 02 14 31 20.2000000  0  4G20G05G21G04                                    
  21731196.32849 114198206.96149     14810.11349        49.000  
  22645487.49249 119002839.15249     -7535.13349        50.000  
  23190739.14849 121868155.94949     -3714.68449        50.000  
  24397076.18849 128207499.26649    -12035.73849        49.000  
 16 04 02 14 31 20.3000000  0  4G20G05G21G04                                    
  21730914.54749 114196726.25849     14803.92649        49.000  
  22645630.93049 119003592.96549     -7541.19149        50.000  
  23190809.87549 121868527.61349     -3718.85949        50.000  
  24397305.25049 128208702.94949    -12038.08249        49.000  
 16 04 02 14 31 20.4000000  0  4G20G05G21G04                                    
  21730632.90649 114195246.21949     14797.46149        49.000  
  22645774.49249 119004347.39149     -7547.09049        50.000  
  23190880.68049 121868899.69949     -3722.81249        50.000  
  24397534.35949 128209906.89849    -12040.48849        49.000  
 16 04 02 14 31 20.5000000  0  4G20G05G21G04                                    
  21730351.39149 114193766.76249     14791.60949        49.000  
  22645918.15649 119005102.34449     -7552.50849        50.000  
  23190951.54749 121869272.12149     -3726.19149        50.000  
  24397763.50049 128211111.02049    -12042.28549        49.000  
 16 04 02 14 31 20.6000000  0  4G20G05G21G04                                    
  21730069.97749 114192287.91849     14785.39849        49.000  
  22646061.93049 119005857.88749     -7558.41849        50.000  
  23191022.48449 121869644.91449     -3730.18449        50.000  
  24397992.68049 128212315.35949    -12044.42649        49.000  
 16 04 02 14 31 20.7000000  0  4G20G05G21G04                                    
  21729788.70349 114190809.74649     14778.65249        49.000  
  22646205.82049 119006614.05949     -7564.78549        50.000  
  23191093.50849 121870018.14849     -3734.40649        50.000  
  24398221.90649 128213519.98449    -12047.26649        49.000  
 16 04 02 14 31 20.8000000  0  4G20G05G21G04                                    
  21729507.53949 114189332.21949     14772.21549        49.000  
  22646349.82849 119007370.82049     -7570.77049        50.000  
  23191164.60249 121870391.77349     -3738.46549        50.000  
  24398451.18849 128214724.83249    -12049.64849        49.000  
 16 04 02 14 31 20.9000000  0  4G20G05G21G04                                    
  21729226.47749 114187855.30149     14766.19549        49.000  
  22646493.93849 119008128.16049     -7576.33249        50.000  
  23191235.77349 121870765.78549     -3742.03949        50.000  
  24398680.50849 128215929.90649    -12051.74249        49.000  
 16 04 02 14 31 21.0000000  0  4G20G05G21G04                                    
  21728945.53949 114186378.93849     14760.55949        49.000  
  22646638.14849 119008885.99649     -7581.33649        49.000  
  23191307.00049 121871140.09449     -3745.12549        50.000  
  24398909.85249 128217135.12149    -12053.20749        49.000  
 16 04 02 14 31 21.1000000  0  4G20G05G21G04                                    
  21728664.72749 114184903.18849     14754.70349        49.000  
  22646782.47749 119009644.43049     -7586.97349        50.000  
  23191378.30549 121871514.80149     -3748.74649        50.000  
  24399139.25049 128218340.57049    -12055.25849        49.000  
 16 04 02 14 31 21.2000000  0  4G20G05G21G04                                    
  21728384.01649 114183428.03149     14748.65249        49.000  
  22646926.90649 119010403.39549     -7592.54349        50.000  
  23191449.67249 121871889.83649     -3752.32049        50.000  
  24399368.67249 128219546.19549    -12057.23449        49.000  
 16 04 02 14 31 21.3000000  0  4G20G05G21G04                                    
  21728103.40649 114181953.48449     14742.43049        49.000  
  22647071.43849 119011162.92649     -7598.36349        50.000  
  23191521.10249 121872265.25049     -3756.18049        50.000  
  24399598.12549 128220752.02749    -12059.39549        49.000  
 16 04 02 14 31 21.4000000  0  4G20G05G21G04                                    
  21727822.93849 114180479.63749     14735.56649        49.000  
  22647216.10249 119011923.13349     -7604.93449        50.000  
  23191592.63349 121872641.13749     -3760.77349        50.000  
  24399827.64849 128221958.18449    -12062.46949        49.000  
 16 04 02 14 31 21.5000000  0  4G20G05G21G04                                    
  21727542.56249 114179006.37949     14729.36749        49.000  
  22647360.85949 119012683.86349     -7610.58249        50.000  
  23191664.21949 121873017.34849     -3764.46949        50.000  
  24400057.20349 128223164.49649    -12064.47749        49.000  
 16 04 02 14 31 21.6000000  0  4G20G05G21G04                                    
  21727262.34449 114177533.80949     14722.60949        49.000  
  22647505.74249 119013445.23849     -7616.74649        50.000  
  23191735.89849 121873394.02349     -3768.75049        50.000  
  24400286.81249 128224371.10249    -12067.14549        49.000  
 16 04 02 14 31 21.7000000  0  4G20G05G21G04                                    
  21726982.21149 114176061.80149     14716.98449        49.000  
  22647650.73449 119014207.16849     -7622.29349        50.000  
  23191807.64149 121873771.02349     -3772.10949        50.000  
  24400516.45349 128225577.89549    -12068.97349        49.000  
 16 04 02 14 31 21.8000000  0  4G20G05G21G04                                    
  21726702.23449 114174590.48849     14710.03149        49.000  
  22647795.84449 119014969.71549     -7628.50849        50.000  
  23191879.45349 121874148.47349     -3776.57449        50.000  
  24400746.14849 128226784.96549    -12071.79749        49.000  
 16 04 02 14 31 21.9000000  0  4G20G05G21G04                                    
  21726422.39849 114173119.76649     14704.24649        49.000  
  22647941.06249 119015732.83649     -7634.17249        50.000  
  23191951.34449 121874526.27749     -3780.03949        50.000  
  24400975.89149 128227992.22749    -12073.70749        49.000  
 16 04 02 14 31 22.0000000  0  4G20G05G21G04                                    
  21726142.64149 114171649.63749     14698.32049        49.000  
  22648086.38349 119016496.48049     -7639.44549        50.000  
  23192023.30549 121874904.43049     -3783.57849        50.000  
  24401205.65649 128229199.68049    -12075.55149        49.000  
 16 04 02 14 31 22.1000000  0  4G20G05G21G04                                    
  21725863.02349 114170180.14149     14692.05549        49.000  
  22648231.82049 119017260.73049     -7645.39149        50.000  
  23192095.34449 121875282.97349     -3787.47349        50.000  
  24401435.47749 128230407.36349    -12077.81249        49.000  
 16 04 02 14 31 22.2000000  0  4G20G05G21G04                                    
  21725583.50849 114168711.27749     14685.46549        49.000  
  22648377.35949 119018025.55949     -7651.50049        50.000  
  23192167.45349 121875661.91049     -3791.63749        50.000  
  24401665.33649 128231615.28149    -12080.38349        49.000  
 16 04 02 14 31 22.3000000  0  4G20G05G21G04                                    
  21725304.12549 114167243.07049     14679.11749        49.000  
  22648523.00849 119018791.02049     -7657.48849        50.000  
  23192239.63349 121876041.26649     -3795.56649        50.000  
  24401895.24249 128232823.45749    -12082.77049        49.000  
 16 04 02 14 31 22.4000000  0  4G20G05G21G04                                    
  21725024.84449 114165775.44149     14673.26649        49.000  
  22648668.77349 119019557.00849     -7662.86749        50.000  
  23192311.89149 121876420.96549     -3799.05549        50.000  
  24402125.18049 128234031.80949    -12084.63349        49.000  
 16 04 02 14 31 22.5000000  0  4G20G05G21G04                                    
  21724745.70349 114164308.46949     14666.68049        49.000  
  22648814.65649 119020323.59449     -7668.88349        50.000  
  23192384.21949 121876801.06649     -3803.04749        50.000  
  24402355.17249 128235240.41449    -12087.14849        49.000  
 16 04 02 14 31 22.6000000  0  4G20G05G21G04                                    
  21724466.66449 114162842.09449     14660.91849        49.000  
  22648960.64849 119021090.76249     -7674.41849        50.000  
  23192456.62549 121877181.54749     -3806.59449        50.000  
  24402585.20349 128236449.22749    -12089.03549        49.000  
 16 04 02 14 31 22.7000000  0  4G20G05G21G04                                    
  21724187.73449 114161376.29349     14655.07449        49.000  
  22649106.73449 119021858.43449     -7679.75449        50.000  
  23192529.08649 121877562.32849     -3810.00849        50.000  
  24402815.23449 128237658.18449    -12090.63349        49.000  
 16 04 02 14 31 22.8000000  0  4G20G05G21G04                                    
  21723908.93849 114159911.17649     14648.16449        49.000  
  22649252.93849 119022626.76649     -7686.20349        50.000  
  23192601.63349 121877943.58249     -3814.53149        50.000  
  24403045.35249 128238867.46549    -12093.71149        49.000  
 16 04 02 14 31 22.9000000  0  4G20G05G21G04                                    
  21723630.26649 114158446.71149     14641.63349        49.000  
  22649399.25849 119023395.68849     -7692.28149        50.000  
  23192674.25849 121878325.23049     -3818.61349        50.000  
  24403275.52349 128240076.96149    -12096.12149        49.000  
 16 04 02 14 31 23.0000000  0  4G20G05G21G04                                    
  21723351.70349 114156982.84049     14635.62949        49.000  
  22649545.68049 119024165.17249     -7697.78549        50.000  
  23192746.94549 121878707.23449     -3822.14549        50.000  
  24403505.71949 128241286.66849    -12098.21949        49.000  
 16 04 02 14 31 23.1000000  0  4G20G05G21G04                                    
  21723073.23449 114155519.55549     14629.82449        49.000  
  22649692.21149 119024935.18849     -7703.14849        50.000  
  23192819.71149 121879089.59049     -3825.50449        50.000  
  24403735.96149 128242496.55549    -12099.93449        49.000  
 16 04 02 14 31 23.2000000  0  4G20G05G21G04                                    
  21722794.89849 114154056.88749     14623.81249        49.000  
  22649838.85249 119025705.79349     -7708.75849        50.000  
  23192892.53949 121879472.32049     -3829.19549        50.000  
  24403966.23449 128243706.65249    -12101.96549        49.000  
 16 04 02 14 31 23.3000000  0  4G20G05G21G04                                    
  21722516.68049 114152594.75449     14618.46949        49.000  
  22649985.57849 119026476.88349     -7713.70749        49.000  
  23192965.42249 121879855.34449     -3832.20749        50.000  
  24404196.53149 128244916.88749    -12103.23849        49.000  
 16 04 02 14 31 23.4000000  0  4G20G05G21G04                                    
  21722238.56249 114151133.25849     14612.14149        49.000  
  22650132.42249 119027248.56649     -7719.67249        50.000  
  23193038.38349 121880238.75449     -3835.94949        50.000  
  24404426.87549 128246127.35249    -12105.44149        49.000  
 16 04 02 14 31 23.5000000  0  4G20G05G21G04                                    
  21721960.57849 114149672.41049     14605.41449        49.000  
  22650279.38349 119028020.85949     -7725.99249        49.000  
  23193111.43049 121880622.59449     -3840.41049        50.000  
  24404657.27349 128247338.08249    -12108.37549        49.000  
 16 04 02 14 31 23.6000000  0  4G20G05G21G04                                    
  21721682.71149 114148212.19949     14599.04749        49.000  
  22650426.45349 119028793.72349     -7731.65249        49.000  
  23193184.54749 121881006.80549     -3844.17249        50.000  
  24404887.71149 128248549.03149    -12110.57049        49.000  
 16 04 02 14 31 23.7000000  0  4G20G05G21G04                                    
  21721404.95349 114146752.55949     14593.19549        49.000  
  22650573.62549 119029567.12549     -7737.18449        50.000  
  23193257.71949 121881391.35549     -3847.71549        50.000  
  24405118.17249 128249760.15649    -12112.46149        49.000  
 16 04 02 14 31 23.8000000  0  4G20G05G21G04                                    
  21721127.32849 114145293.59849     14586.52049        49.000  
  22650720.92249 119030341.16849     -7743.46149        50.000  
  23193330.98449 121881776.35249     -3852.07449        50.000  
  24405348.69549 128250971.55549    -12115.09849        49.000  
 16 04 02 14 31 23.9000000  0  4G20G05G21G04                                    
  21720849.81249 114143835.32449     14579.54749        49.000  
  22650868.34449 119031115.85549     -7749.97749        50.000  
  23193404.32849 121882161.78549     -3856.60249        50.000  
  24405579.26649 128252183.23449    -12118.06649        49.000  
 16 04 02 14 31 24.0000000  0  4G20G05G21G04                                    
  21720572.43049 114142377.67249     14573.40649        49.000  
  22651015.86749 119031891.11349     -7755.61749        50.000  
  23193477.75049 121882547.61349     -3860.41849        50.000  
  24405809.89149 128253395.14149    -12120.16449        49.000  
 16 04 02 14 31 24.1000000  0  4G20G05G21G04                                    
  21720295.14849 114140920.57849     14567.94549        49.000  
  22651163.49249 119032666.89549     -7760.82449        50.000  
  23193551.22749 121882933.73849     -3863.48449        50.000  
  24406040.53149 128254607.20749    -12121.81649        49.000  
 16 04 02 14 31 24.2000000  0  4G20G05G21G04                                    
  21720018.00849 114139464.17249     14561.21549        49.000  
  22651311.24249 119033443.30549     -7766.91049        50.000  
  23193624.79749 121883320.32449     -3867.68849        50.000  
  24406271.22749 128255819.54349    -12124.29349        49.000  
 16 04 02 14 31 24.3000000  0  4G20G05G21G04                                    
  21719740.99249 114138008.44949     14554.00449        49.000  
  22651459.10949 119034220.35949     -7773.73449        50.000  
  23193698.43849 121883707.34049     -3872.51649        50.000  
  24406501.98449 128257032.17249    -12127.47749        49.000  
 16 04 02 14 31 24.4000000  0  4G20G05G21G04                                    
  21719464.08649 114136553.28149     14548.88349        49.000  
  22651607.07849 119034997.93449     -7778.50049        50.000  
  23193772.14849 121884094.68849     -3875.15249        50.000  
  24406732.76649 128258244.96149    -12128.78149        49.000  
 16 04 02 14 31 24.5000000  0  4G20G05G21G04                                    
  21719187.29749 114135098.69549     14542.99649        49.000  
  22651755.14149 119035776.02349     -7783.86349        50.000  
  23193845.93049 121884482.35549     -3878.65249        50.000  
  24406963.57849 128259457.90649    -12130.46149        49.000  
 16 04 02 14 31 24.6000000  0  4G20G05G21G04                                    
  21718910.62549 114133644.77049     14536.28949        49.000  
  22651903.32849 119036554.74649     -7790.16849        50.000  
  23193919.78149 121884870.45349     -3883.05549        50.000  
  24407194.44549 128260671.12549    -12133.11749        49.000  
 16 04 02 14 31 24.7000000  0  4G20G05G21G04                                    
  21718634.06249 114132191.41449     14530.59049        49.000  
  22652051.61749 119037334.00449     -7795.44149        50.000  
  23193993.69549 121885258.88349     -3886.15249        50.000  
  24407425.35249 128261884.52349    -12134.91449        49.000  
 16 04 02 14 31 24.8000000  0  4G20G05G21G04                                    
  21718357.60949 114130738.65649     14524.74649        49.000  
  22652200.00049 119038113.78949     -7800.67249        50.000  
  23194067.67249 121885647.66049     -3889.68449        50.000  
  24407656.28949 128263098.09049    -12136.52349        49.000  
 16 04 02 14 31 24.9000000  0  4G20G05G21G04                                    
  21718081.29749 114129286.54749     14518.09449        49.000  
  22652348.50849 119038894.19149     -7806.91849        50.000  
  23194141.73449 121886036.84849     -3893.81649        50.000  
  24407887.28949 128264311.92249    -12139.30549        49.000  
 16 04 02 14 31 25.0000000  0  4G20G05G21G04                                    
  21717805.08649 114127835.05949     14511.86349        49.000  
  22652497.12549 119039675.16849     -7812.83249        50.000  
  23194215.86749 121886426.41849     -3897.72349        50.000  
  24408118.31249 128265525.96149    -12141.43449        49.000  
 16 04 02 14 31 25.1000000  0  4G20G05G21G04                                    
  21717529.00049 114126384.16449     14506.00849        49.000  
  22652645.83649 119040456.68849     -7818.05149        50.000  
  23194290.06249 121886816.33249     -3901.01249        50.000  
  24408349.36749 128266740.19549    -12143.29749        49.000  
 16 04 02 14 31 25.2000000  0  4G20G05G21G04                                    
  21717253.00849 114124933.80549     14500.73849        49.000  
  22652794.64849 119041238.70349     -7822.89149        50.000  
  23194364.31249 121887206.54749     -3903.94149        50.000  
  24408580.45349 128267954.56249    -12144.57449        49.000  
 16 04 02 14 31 25.3000000  0  4G20G05G21G04                                    
  21716977.13349 114123484.10549     14494.17649        49.000  
  22652943.57849 119042021.33249     -7829.10949        50.000  
  23194438.65649 121887597.18849     -3908.30149        50.000  
  24408811.59449 128269169.18849    -12147.16449        49.000  
 16 04 02 14 31 25.4000000  0  4G20G05G21G04                                    
  21716701.39149 114122035.08249     14487.28149        49.000  
  22653092.62549 119042804.59449     -7835.63349        50.000  
  23194513.07849 121887988.25049     -3912.65649        50.000  
  24409042.78149 128270384.09049    -12150.03549        49.000  
 16 04 02 14 31 25.5000000  0  4G20G05G21G04                                    
  21716425.77349 114120586.67649     14480.87949        49.000  
  22653241.78149 119043588.41849     -7841.38749        50.000  
  23194587.56249 121888379.68849     -3916.67249        50.000  
  24409274.03149 128271599.19949    -12152.38349        49.000  
 16 04 02 14 31 25.6000000  0  4G20G05G21G04                                    
  21716150.27349 114119138.90249     14474.71549        49.000  
  22653391.05549 119044372.84449     -7847.30149        50.000  
  23194662.12549 121888771.52049     -3920.46949        50.000  
  24409505.30549 128272814.53949    -12154.50449        49.000  
 16 04 02 14 31 25.7000000  0  4G20G05G21G04                                    
  21715874.89849 114117691.75049     14468.50849        49.000  
  22653540.43849 119045157.82849     -7852.85249        50.000  
  23194736.75849 121889163.72749     -3924.08649        50.000  
  24409736.60949 128274030.09849    -12156.62949        49.000  
 16 04 02 14 31 25.8000000  0  4G20G05G21G04                                    
  21715599.62549 114116245.21549     14462.39849        49.000  
  22653689.92249 119045943.40249     -7858.71149        50.000  
  23194811.46149 121889556.31649     -3927.77049        50.000  
  24409967.96949 128275245.87149    -12158.72349        49.000  
 16 04 02 14 31 25.9000000  0  4G20G05G21G04                                    
  21715324.49249 114114799.30549     14456.07049        49.000  
  22653839.51649 119046729.53949     -7864.44949        50.000  
  23194886.24249 121889949.28549     -3931.73849        50.000  
  24410199.35249 128276461.86749    -12161.02749        49.000  
 16 04 02 14 31 26.0000000  0  4G20G05G21G04                                    
  21715049.45349 114113353.96949     14450.50449        49.000  
  22653989.21949 119047516.21149     -7869.53149        50.000  
  23194961.07849 121890342.58649     -3934.86749        50.000  
  24410430.78149 128277678.02749    -12162.55149        49.000  
 16 04 02 14 31 26.1000000  0  4G20G05G21G04                                    
  21714774.53949 114111909.30949     14443.62149        49.000  
  22654139.03949 119048303.52049     -7876.03949        50.000  
  23195036.00049 121890736.32049     -3939.35249        50.000  
  24410662.25849 128278894.46549    -12165.34049        49.000  
 16 04 02 14 31 26.2000000  0  4G20G05G21G04                                    
  21714499.75049 114110465.27049     14437.26649        49.000  
  22654288.96149 119049091.38749     -7881.88749        50.000  
  23195111.00049 121891130.43449     -3943.33649        50.000  
  24410893.78149 128280111.11749    -12167.64849        49.000  
 16 04 02 14 31 26.3000000  0  4G20G05G21G04                                    
  21714225.05549 114109021.85549     14431.12949        49.000  
  22654439.00849 119049879.84449     -7887.48049        50.000  
  23195186.07049 121891524.93449     -3946.96549        50.000  
  24411125.35949 128281327.99649    -12169.81249        49.000  
 16 04 02 14 31 26.4000000  0  4G20G05G21G04                                    
  21713950.49249 114107579.00449     14425.53949        49.000  
  22654589.14149 119050668.82049     -7892.66849        50.000  
  23195261.19549 121891919.75449     -3950.12949        50.000  
  24411356.95349 128282545.03949    -12171.39849        49.000  
 16 04 02 14 31 26.5000000  0  4G20G05G21G04                                    
  21713676.04749 114106136.75849     14419.62549        49.000  
  22654739.39149 119051458.35249     -7898.19949        50.000  
  23195336.39849 121892314.94149     -3953.78149        50.000  
  24411588.58649 128283762.27049    -12173.29349        49.000  
 16 04 02 14 31 26.6000000  0  4G20G05G21G04                                    
  21713401.71149 114104695.09049     14413.86349        49.000  
  22654889.73449 119052248.40649     -7903.39849        50.000  
  23195411.66449 121892710.44949     -3957.09449        50.000  
  24411820.25049 128284979.68449    -12175.00849        49.000  
 16 04 02 14 31 26.7000000  0  4G20G05G21G04                                    
  21713127.50049 114103254.09849     14406.96549        49.000  
  22655040.19549 119053039.10249     -7909.76249        50.000  
  23195487.00849 121893106.39849     -3961.43049        50.000  
  24412051.97749 128286197.36349    -12177.71149        49.000  
 16 04 02 14 31 26.8000000  0  4G20G05G21G04                                    
  21712853.41449 114101813.78149     14400.02049        49.000  
  22655190.78149 119053830.41849     -7916.27349        50.000  
  23195562.43849 121893502.77349     -3965.89849        50.000  
  24412283.75049 128287415.31249    -12180.64849        49.000  
 16 04 02 14 31 26.9000000  0  4G20G05G21G04                                    
  21712579.44549 114100374.02749     14394.46149        49.000  
  22655341.46149 119054622.26249     -7921.45349        50.000  
  23195637.93049 121893899.48449     -3969.13349        50.000  
  24412515.54749 128288633.43449    -12182.23849        49.000  
 16 04 02 14 31 27.0000000  0  4G20G05G21G04                                    
  21712305.58649 114098934.88749     14388.33649        49.000  
  22655492.25049 119055414.66049     -7927.07049        50.000  
  23195713.49249 121894296.56249     -3972.81649        50.000  
  24412747.38349 128289851.75049    -12184.27349        49.000  
 16 04 02 14 31 27.1000000  0  4G20G05G21G04                                    
  21712031.82849 114097496.33649     14382.55549        49.000  
  22655643.13349 119056207.60249     -7932.21549        50.000  
  23195789.11749 121894693.98049     -3976.11749        50.000  
  24412979.25849 128291070.26249    -12185.98849        49.000  
 16 04 02 14 31 27.2000000  0  4G20G05G21G04                                    
  21711758.21149 114096058.46949     14375.62549        49.000  
  22655794.14849 119057001.18849     -7938.86749        50.000  
  23195864.82849 121895091.83649     -3980.64849        50.000  
  24413211.18049 128292289.04749    -12188.89149        49.000  
 16 04 02 14 31 27.3000000  0  4G20G05G21G04                                    
  21711484.72749 114094621.24249     14369.18049        49.000  
  22655945.27349 119057795.36349     -7944.76249        50.000  
  23195940.61749 121895490.10249     -3984.71549        50.000  
  24413443.16449 128293508.07049    -12191.30549        49.000  
 16 04 02 14 31 27.4000000  0  4G20G05G21G04                                    
  21711211.33649 114093184.56649     14363.76649        49.000  
  22656096.50049 119058590.05549     -7949.78549        50.000  
  23196016.46949 121895888.67649     -3987.76249        50.000  
  24413675.16449 128294727.25049    -12192.78549        49.000  
 16 04 02 14 31 27.5000000  0  4G20G05G21G04                                    
  21710938.05549 114091748.54349     14357.24649        49.000  
  22656247.83649 119059385.32849     -7955.66049        50.000  
  23196092.39149 121896287.65649     -3991.79749        50.000  
  24413907.21949 128295946.66049    -12195.09049        49.000  
 16 04 02 14 31 27.6000000  0  4G20G05G21G04                                    
  21710664.91449 114090313.14549     14350.85949        49.000  
  22656399.28149 119060181.19549     -7961.80149        50.000  
  23196168.39149 121896687.01249     -3995.75049        50.000  
  24414139.30549 128297166.30549    -12197.57849        49.000  
 16 04 02 14 31 27.7000000  0  4G20G05G21G04                                    
  21710391.88349 114088878.39149     14344.58249        49.000  
  22656550.83649 119060977.66049     -7967.47349        50.000  
  23196244.46149 121897086.77349     -3999.52749        50.000  
  24414371.43849 128298386.18449    -12199.76249        49.000  
 16 04 02 14 31 27.8000000  0  4G20G05G21G04                                    
  21710118.96949 114087444.21149     14338.71149        49.000  
  22656702.50049 119061774.65249     -7972.93849        50.000  
  23196320.59449 121897486.87149     -4003.02049        50.000  
  24414603.60949 128299606.23449    -12201.58649        49.000  
 16 04 02 14 31 27.9000000  0  4G20G05G21G04                                    
  21709846.17249 114086010.64149     14332.73449        49.000  
  22656854.25849 119062572.19149     -7978.30549        50.000  
  23196396.80549 121897887.33249     -4006.56649        50.000  
  24414835.81249 128300826.48449    -12203.48849        49.000  
 16 04 02 14 31 28.0000000  0  4G20G05G21G04                                    
  21709573.49249 114084577.69149     14326.46549        49.000  
  22657006.14149 119063370.32049     -7984.25849        50.000  
  23196473.08649 121898288.16449     -4010.37549        50.000  
  24415068.06249 128302046.95349    -12205.71549        49.000  
 16 04 02 14 31 28.1000000  0  4G20G05G21G04                                    
  21709300.93849 114083145.39149     14320.07049        49.000  
  22657158.13349 119064169.04349     -7990.09449        50.000  
  23196549.43849 121898689.41049     -4014.39149        50.000  
  24415300.35249 128303267.66449    -12208.03949        49.000  
 16 04 02 14 31 28.2000000  0  4G20G05G21G04                                    
  21709028.49249 114081713.65649     14314.21949        49.000  
  22657310.21949 119064968.28549     -7995.54749        50.000  
  23196625.85249 121899090.97749     -4017.81649        50.000  
  24415532.68049 128304488.53549    -12209.76249        49.000  
 16 04 02 14 31 28.3000000  0  4G20G05G21G04                                    
  21708756.14849 114080282.57849     14307.80549        49.000  
  22657462.43049 119065768.13349     -8001.25449        50.000  
  23196702.34449 121899492.95349     -4021.67649        50.000  
  24415765.06249 128305709.66449    -12212.18049        49.000  
 16 04 02 14 31 28.4000000  0  4G20G05G21G04                                    
  21708483.94549 114078852.12149     14301.43849        49.000  
  22657614.74249 119066568.57049     -8007.41849        50.000  
  23196778.91449 121899895.32049     -4025.82049        50.000  
  24415997.47749 128306931.01249    -12214.58649        49.000  
 16 04 02 14 31 28.5000000  0  4G20G05G21G04                                    
  21708211.84449 114077422.26649     14295.64849        49.000  
  22657767.16449 119067369.54749     -8012.59449        50.000  
  23196855.54749 121900298.03949     -4029.01249        50.000  
  24416229.93049 128308152.54749    -12216.25049        49.000  
 16 04 02 14 31 28.6000000  0  4G20G05G21G04                                    
  21707939.86749 114075993.00849     14289.62149        49.000  
  22657919.68849 119068171.07449     -8018.18049        50.000  
  23196932.25049 121900701.10249     -4032.63349        50.000  
  24416462.41449 128309374.27349    -12218.22349        49.000  
 16 04 02 14 31 28.7000000  0  4G20G05G21G04                                    
  21707668.00049 114074564.39849     14282.94549        49.000  
  22658072.32849 119068973.19549     -8024.23049        50.000  
  23197009.03149 121901104.58649     -4036.95349        50.000  
  24416694.95349 128310596.25049    -12220.87949        49.000  
 16 04 02 14 31 28.8000000  0  4G20G05G21G04                                    
  21707396.25849 114073136.38349     14277.13749        49.000  
  22658225.07849 119069775.87549     -8029.65249        50.000  
  23197085.87549 121901508.41449     -4040.29749        50.000  
  24416927.52349 128311818.41849    -12222.65249        49.000  
 16 04 02 14 31 28.9000000  0  4G20G05G21G04                                    
  21707124.64149 114071708.98449     14271.05549        49.000  
  22658377.93049 119070579.10949     -8035.21949        50.000  
  23197162.78949 121901912.61349     -4043.96549        50.000  
  24417160.13349 128313040.78149    -12224.60249        49.000  
 16 04 02 14 31 29.0000000  0  4G20G05G21G04                                    
  21706853.12549 114070282.15649     14265.41849        49.000  
  22658530.88349 119071382.88749     -8040.44549        50.000  
  23197239.77349 121902317.14549     -4047.24249        50.000  
  24417392.77349 128314263.33249    -12226.29349        49.000  
 16 04 02 14 31 29.1000000  0  4G20G05G21G04                                    
  21706581.73449 114068856.01249     14258.55949        49.000  
  22658683.95349 119072187.29749     -8047.05949        50.000  
  23197316.84449 121902722.11349     -4051.76649        50.000  
  24417625.46949 128315486.15249    -12229.22749        49.000  
 16 04 02 14 31 29.2000000  0  4G20G05G21G04                                    
  21706310.46949 114067430.52349     14251.89549        49.000  
  22658837.14149 119072992.28949     -8052.83649        50.000  
  23197393.98449 121903127.49249     -4055.73049        50.000  
  24417858.21149 128316709.21149    -12231.60249        49.000  
 16 04 02 14 31 29.3000000  0  4G20G05G21G04                                    
  21706039.32049 114066005.62149     14245.78549        49.000  
  22658990.43049 119073797.84049     -8058.71149        50.000  
  23197471.18849 121903533.21149     -4059.48849        50.000  
  24418090.98449 128317932.46149    -12233.75049        49.000  
 16 04 02 14 31 29.4000000  0  4G20G05G21G04                                    
  21705768.31249 114064581.43049     14238.82849        49.000  
  22659143.84449 119074604.05149     -8065.13749        50.000  
  23197548.49249 121903939.41049     -4064.09449        50.000  
  24418323.81249 128319156.02049    -12236.71149        49.000  
 16 04 02 14 31 29.5000000  0  4G20G05G21G04                                    
  21705497.39149 114063157.77349     14233.58249        49.000  
  22659297.35949 119075410.73849     -8069.79749        50.000  
  23197625.84449 121904345.89149     -4066.71549        50.000  
  24418556.66449 128320379.69549    -12237.84049        49.000  
 16 04 02 14 31 29.6000000  0  4G20G05G21G04                                    
  21705226.59449 114061734.73049     14227.38749        49.000  
  22659450.97749 119076218.01249     -8075.67649        50.000  
  23197703.25849 121904752.73049     -4070.56249        50.000  
  24418789.56249 128321603.58649    -12239.96149        49.000  
 16 04 02 14 31 29.7000000  0  4G20G05G21G04                                    
  21704955.92249 114060312.32849     14221.17649        49.000  
  22659604.70349 119077025.85949     -8081.34849        50.000  
  23197780.75849 121905159.99649     -4074.59849        50.000  
  24419022.51649 128322827.71549    -12242.18449        49.000  
 16 04 02 14 31 29.8000000  0  4G20G05G21G04                                    
  21704685.38349 114058890.63749     14213.93849        49.000  
  22659758.55549 119077834.36749     -8088.09049        50.000  
  23197858.34449 121905567.68849     -4078.91049        50.000  
  24419255.51649 128324052.13349    -12245.19949        49.000  
 16 04 02 14 31 29.9000000  0  4G20G05G21G04                                    
  21704414.96149 114057469.52349     14208.00049        49.000  
  22659912.50849 119078643.41849     -8093.73849        50.000  
  23197936.00049 121905975.76249     -4082.74249        50.000  
  24419488.54749 128325276.75049    -12247.31649        49.000  
 16 04 02 14 31 30.0000000  0  4G20G05G21G04                                    
  21704144.64849 114056049.01249     14202.26649        49.000  
  22660066.57049 119079453.01649     -8098.81249        50.000  
  23198013.71149 121906384.16049     -4085.89849        50.000  
  24419721.61749 128326501.53949    -12248.78149        49.000  
 16 04 02 14 31 30.1000000  0  4G20G05G21G04                                    
  21703874.43849 114054629.02349     14197.12149        49.000  
  22660220.72749 119080263.07449     -8103.30549        50.000  
  23198091.47749 121906792.84049     -4088.53949        50.000  
  24419954.71149 128327726.45749    -12249.96549        49.000  
 16 04 02 14 31 30.2000000  0  4G20G05G21G04                                    
  21703604.34449 114053209.68849     14190.48449        49.000  
  22660374.99249 119081073.75449     -8109.72349        50.000  
  23198169.32849 121907201.94549     -4092.95349        50.000  
  24420187.85249 128328951.62149    -12252.66049        49.000  
 16 04 02 14 31 30.3000000  0  4G20G05G21G04                                    
  21703334.37549 114051791.00049     14183.90649        49.000  
  22660529.36749 119081885.02049     -8115.58249        50.000  
  23198247.25049 121907611.44149     -4097.02349        50.000  
  24420421.02349 128330177.01649    -12255.00049        49.000  
 16 04 02 14 31 30.4000000  0  4G20G05G21G04                                    
  21703064.53149 114050372.93049     14177.57449        49.000  
  22660683.85249 119082696.86349     -8121.48449        50.000  
  23198325.25049 121908021.31249     -4100.89149        50.000  
  24420654.25849 128331402.62949    -12257.28149        49.000  
 16 04 02 14 31 30.5000000  0  4G20G05G21G04                                    
  21702794.80549 114048955.51249     14171.25049        49.000  
  22660838.45349 119083509.30949     -8127.32049        50.000  
  23198403.32049 121908431.60249     -4104.79749        50.000  
  24420887.53149 128332628.48849    -12259.60949        49.000  
 16 04 02 14 31 30.6000000  0  4G20G05G21G04                                    
  21702525.18849 114047538.67249     14165.37949        49.000  
  22660993.15649 119084322.27349     -8132.59849        50.000  
  23198481.46149 121908842.21149     -4108.04349        50.000  
  24421120.83649 128333854.52049    -12261.37549        49.000  
 16 04 02 14 31 30.7000000  0  4G20G05G21G04                                    
  21702255.68849 114046122.42249     14159.51649        49.000  
  22661147.96949 119085135.79349     -8138.04349        50.000  
  23198559.66449 121909253.17649     -4111.57849        50.000  
  24421354.18049 128335080.73849    -12263.16449        49.000  
 16 04 02 14 31 30.8000000  0  4G20G05G21G04                                    
  21701986.31249 114044706.83249     14152.68849        49.000  
  22661302.89149 119085949.91449     -8144.43849        50.000  
  23198637.95349 121909664.55149     -4116.11349        50.000  
  24421587.57049 128336307.19549    -12265.81649        49.000  
 16 04 02 14 31 30.9000000  0  4G20G05G21G04                                    
  21701717.07049 114043291.91449     14146.17649        49.000  
  22661457.93849 119086764.65649     -8150.40649        50.000  
  23198716.31249 121910076.35949     -4120.05149        50.000  
  24421821.00849 128337533.93049    -12268.46549        49.000  
 16 04 02 14 31 31.0000000  0  4G20G05G21G04                                    
  21701447.93049 114041877.55949     14140.43049        49.000  
  22661613.07049 119087579.91049     -8155.68849        50.000  
  23198794.73449 121910488.47749     -4123.40649        50.000  
  24422054.47749 128338760.81649    -12270.02049        49.000  
 16 04 02 14 31 31.1000000  0  4G20G05G21G04                                    
  21701178.89849 114040463.86349     14133.92249        49.000  
  22661768.32849 119088395.78149     -8161.63749        50.000  
  23198873.24249 121910901.02049     -4127.46549        50.000  
  24422288.00049 128339987.96149    -12272.41849        49.000  
 16 04 02 14 31 31.2000000  0  4G20G05G21G04                                    
  21700909.99249 114039050.73449     14128.47749        49.000  
  22661923.68049 119089212.16849     -8166.62149        50.000  
  23198951.80549 121911313.87949     -4130.39549        50.000  
  24422521.54749 128341215.25849    -12273.84449        49.000  
 16 04 02 14 31 31.3000000  0  4G20G05G21G04                                    
  21700641.18849 114037638.20749     14122.37949        49.000  
  22662079.14149 119090029.09849     -8172.26249        50.000  
  23199030.43849 121911727.09849     -4134.15649        50.000  
  24422755.13349 128342442.75449    -12275.80149        49.000  
 16 04 02 14 31 31.4000000  0  4G20G05G21G04                                    
  21700372.52349 114036226.35549     14115.49249        49.000  
  22662234.71949 119090846.66449     -8178.61749        50.000  
  23199109.15649 121912140.74649     -4138.56249        50.000  
  24422988.76649 128343670.51649    -12278.63349        49.000  
 16 04 02 14 31 31.5000000  0  4G20G05G21G04                                    
  21700103.96149 114034815.09849     14109.48849        49.000  
  22662390.39149 119091664.76249     -8184.01249        50.000  
  23199187.93849 121912554.74249     -4142.07849        50.000  
  24423222.44549 128344898.47749    -12280.64549        49.000  
 16 04 02 14 31 31.6000000  0  4G20G05G21G04                                    
  21699835.52349 114033404.48449     14103.10949        49.000  
  22662546.18849 119092483.46549     -8190.03549        50.000  
  23199266.79749 121912969.14549     -4146.04749        50.000  
  24423456.15649 128346126.65649    -12282.92249        49.000  
 16 04 02 14 31 31.7000000  0  4G20G05G21G04                                    
  21699567.21949 114031994.52049     14096.62149        49.000  
  22662702.09449 119093302.76649     -8196.02749        50.000  
  23199345.73449 121913383.94549     -4150.07449        50.000  
  24423689.92249 128347355.09049    -12285.36349        49.000  
 16 04 02 14 31 31.8000000  0  4G20G05G21G04                                    
  21699299.02349 114030585.15249     14090.71949        49.000  
  22662858.10949 119094122.60549     -8201.27749        50.000  
  23199424.73449 121913799.10249     -4153.52349        50.000  
  24423923.71949 128348583.69949    -12287.07449        49.000  
 16 04 02 14 31 31.9000000  0  4G20G05G21G04                                    
  21699030.93849 114029176.41449     14084.47349        49.000  
  22663014.22749 119094943.02749     -8207.05149        50.000  
  23199503.81249 121914214.63349     -4157.23449        50.000  
  24424157.56249 128349812.54349    -12289.29749        49.000  
 16 04 02 14 31 32.0000000  0  4G20G05G21G04                                    
  21698762.99249 114027768.32849     14077.84449        49.000  
  22663170.46149 119095764.05149     -8213.16449        50.000  
  23199582.96149 121914630.59049     -4161.51249        50.000  
  24424391.44549 128351041.62949    -12291.81649        49.000  
 16 04 02 14 31 32.1000000  0  4G20G05G21G04                                    
  21698495.16449 114026360.84049     14071.86749        49.000  
  22663326.79749 119096585.63349     -8218.82849        50.000  
  23199662.18049 121915046.89149     -4165.05549        50.000  
  24424625.38349 128352270.90649    -12293.84049        49.000  
 16 04 02 14 31 32.2000000  0  4G20G05G21G04                                    
  21698227.45349 114024953.97749     14065.55949        49.000  
  22663483.24249 119097407.77049     -8224.32449        50.000  
  23199741.46949 121915463.55949     -4168.76249        50.000  
  24424859.34449 128353500.39149    -12295.82049        49.000  
 16 04 02 14 31 32.3000000  0  4G20G05G21G04                                    
  21697959.83649 114023547.75449     14059.16049        49.000  
  22663639.80549 119098230.51649     -8230.45349        50.000  
  23199820.83649 121915880.64549     -4172.91449        50.000  
  24425093.35949 128354730.12549    -12298.36749        49.000  
 16 04 02 14 31 32.4000000  0  4G20G05G21G04                                    
  21697692.35949 114022142.13749     14053.21949        49.000  
  22663796.47749 119099053.80149     -8235.72749        50.000  
  23199900.27349 121916298.08249     -4176.27349        50.000  
  24425327.40649 128355960.05149    -12300.25449        49.000  
 16 04 02 14 31 32.5000000  0  4G20G05G21G04                                    
  21697425.00049 114020737.14849     14046.80949        49.000  
  22663953.25849 119099877.67249     -8241.70349        50.000  
  23199979.78149 121916715.91049     -4180.33249        50.000  
  24425561.48449 128357190.19149    -12302.47749        49.000  
 16 04 02 14 31 32.6000000  0  4G20G05G21G04                                    
  21697157.75049 114019332.76649     14040.93449        49.000  
  22664110.13349 119100702.07849     -8247.09449        50.000  
  23200059.35249 121917134.07449     -4183.65249        50.000  
  24425795.60949 128358420.53149    -12304.41049        49.000  
 16 04 02 14 31 32.7000000  0  4G20G05G21G04                                    
  21696890.63349 114017929.05549     14034.09849        49.000  
  22664267.14149 119101527.14149     -8253.50449        50.000  
  23200139.01649 121917552.69149     -4188.06649        50.000  
  24426029.78949 128359651.13749    -12307.05549        49.000  
 16 04 02 14 31 32.8000000  0  4G20G05G21G04                                    
  21696623.63349 114016525.94949     14028.07049        49.000  
  22664424.24249 119102352.73049     -8258.83649        50.000  
  23200218.74249 121917971.65649     -4191.63349        50.000  
  24426264.00049 128360881.94149    -12309.04349        49.000  
 16 04 02 14 31 32.9000000  0  4G20G05G21G04                                    
  21696356.73449 114015123.44949     14021.93049        49.000  
  22664581.45349 119103178.89149     -8264.57849        50.000  
  23200298.53949 121918390.99249     -4195.34849        50.000  
  24426498.25049 128362112.94549    -12311.02049        49.000  
 16 04 02 14 31 33.0000000  0  4G20G05G21G04                                    
  21696089.96149 114013721.54749     14016.02049        49.000  
  22664738.77349 119104005.59049     -8269.93049        50.000  
  23200378.40649 121918810.67249     -4198.83249        50.000  
  24426732.53949 128363344.13749    -12312.95749        49.000  
 16 04 02 14 31 33.1000000  0  4G20G05G21G04                                    
  21695823.30549 114012320.25849     14010.02749        49.000  
  22664896.18849 119104832.83649     -8275.37949        50.000  
  23200458.33649 121919230.70749     -4202.37549        50.000  
  24426966.85949 128364575.52349    -12314.89149        49.000  
 16 04 02 14 31 33.2000000  0  4G20G05G21G04                                    
  21695556.78149 114010919.64549     14003.13749        49.000  
  22665053.73449 119105660.72749     -8281.78149        50.000  
  23200538.35949 121919651.19949     -4206.94949        50.000  
  24427201.24249 128365807.18849    -12317.65649        49.000  
 16 04 02 14 31 33.3000000  0  4G20G05G21G04                                    
  21695290.36749 114009519.64849     13996.85249        49.000  
  22665211.38349 119106489.18849     -8287.73049        50.000  
  23200618.44549 121920072.05149     -4210.77749        50.000  
  24427435.65649 128367039.06249    -12319.91449        49.000  
 16 04 02 14 31 33.4000000  0  4G20G05G21G04                                    
  21695024.08649 114008120.33249     13990.03149        49.000  
  22665369.14849 119107318.25849     -8293.69149        50.000  
  23200698.60949 121920493.33249     -4214.85549        50.000  
  24427670.12549 128368271.20749    -12322.52749        49.000  
 16 04 02 14 31 33.5000000  0  4G20G05G21G04                                    
  21694757.92249 114006721.60949     13984.09049        49.000  
  22665527.01649 119108147.87949     -8299.28949        50.000  
  23200778.83649 121920914.96149     -4218.40249        50.000  
  24427904.63349 128369503.52749    -12324.30149        49.000  
 16 04 02 14 31 33.6000000  0  4G20G05G21G04                                    
  21694491.87549 114005323.51649     13977.89549        49.000  
  22665685.00049 119108978.08649     -8305.01249        50.000  
  23200859.14849 121921336.98449     -4222.14549        50.000  
  24428139.18049 128370736.07449    -12326.49249        49.000  
 16 04 02 14 31 33.7000000  0  4G20G05G21G04                                    
  21694225.93849 114003925.98049     13972.32049        49.000  
  22665843.07049 119109808.78949     -8310.07449        50.000  
  23200939.51649 121921759.32049     -4225.41449        50.000  
  24428373.75849 128371968.77749    -12328.07449        49.000  
 16 04 02 14 31 33.8000000  0  4G20G05G21G04                                    
  21693960.11749 114002529.08249     13966.23849        49.000  
  22666001.25849 119110640.07049     -8315.60549        50.000  
  23201019.95349 121922182.03549     -4228.98049        50.000  
  24428608.37549 128373201.69949    -12330.02349        49.000  
 16 04 02 14 31 33.9000000  0  4G20G05G21G04                                    
  21693694.42249 114001132.80949     13959.71949        49.000  
  22666159.55549 119111471.93049     -8321.43449        50.000  
  23201100.46949 121922605.13349     -4232.91049        50.000  
  24428843.03149 128374434.84049    -12332.36349        49.000  
 16 04 02 14 31 34.0000000  0  4G20G05G21G04                                    
  21693428.82849 113999737.09049     13954.12549        49.000  
  22666317.95349 119112304.30149     -8326.79349        50.000  
  23201181.03149 121923028.54349     -4236.30149        50.000  
  24429077.71949 128375668.12549    -12333.89149        49.000  
 16 04 02 14 31 34.1000000  0  4G20G05G21G04                                    
  21693163.35949 113998342.03149     13947.65249        49.000  
  22666476.46149 119113137.27349     -8332.53949        50.000  
  23201261.68849 121923452.37149     -4240.21549        50.000  
  24429312.46149 128376901.67249    -12336.37949        49.000  
 16 04 02 14 31 34.2000000  0  4G20G05G21G04                                    
  21692898.00849 113996947.58249     13941.46949        49.000  
  22666635.07849 119113970.80549     -8338.26649        50.000  
  23201342.40649 121923876.55549     -4243.81649        50.000  
  24429547.23449 128378135.40649    -12338.27749        49.000  
 16 04 02 14 31 34.3000000  0  4G20G05G21G04                                    
  21692632.76649 113995553.69549     13935.87549        49.000  
  22666793.78949 119114804.84449     -8343.30149        50.000  
  23201423.18849 121924301.06249     -4246.98449        50.000  
  24429782.03949 128379369.30549    -12339.90249        49.000  
 16 04 02 14 31 34.4000000  0  4G20G05G21G04                                    
  21692367.65649 113994160.55149     13928.40649        49.000  
  22666952.63349 119115639.57049     -8350.27049        50.000  
  23201504.07049 121924726.06649     -4252.12149        50.000  
  24430016.89849 128380603.52749    -12343.23049        49.000  
 16 04 02 14 31 34.5000000  0  4G20G05G21G04                                    
  21692102.65649 113992767.97349     13922.69949        49.000  
  22667111.57049 119116474.81649     -8355.37149        50.000  
  23201585.00049 121925151.39149     -4255.30549        50.000  
  24430251.80549 128381837.91049    -12344.89549        49.000  
 16 04 02 14 31 34.6000000  0  4G20G05G21G04                                    
  21691837.77349 113991375.98449     13916.90649        49.000  
  22667270.61749 119117310.60249     -8360.85549        50.000  
  23201666.00049 121925577.05949     -4258.73049        50.000  
  24430486.73449 128383072.47349    -12346.65649        49.000  
 16 04 02 14 31 34.7000000  0  4G20G05G21G04                                    
  21691573.01649 113989984.66049     13910.23049        49.000  
  22667429.77349 119118146.98449     -8366.78549        50.000  
  23201747.08649 121926003.13349     -4262.77049        50.000  
  24430721.71949 128384307.28949    -12349.17649        49.000  
 16 04 02 14 31 34.8000000  0  4G20G05G21G04                                    
  21691308.36749 113988593.95349     13904.11749        49.000  
  22667589.04749 119118983.95349     -8372.50049        50.000  
  23201828.23449 121926429.59849     -4266.59849        50.000  
  24430956.73449 128385542.32849    -12351.39549        49.000  
 16 04 02 14 31 34.9000000  0  4G20G05G21G04                                    
  21691043.86749 113987203.92649     13897.16449        49.000  
  22667748.43049 119119821.53549     -8378.93849        50.000  
  23201909.46949 121926856.47749     -4270.96549        50.000  
  24431191.79749 128386777.61349    -12354.03949        49.000  
 16 04 02 14 31 35.0000000  0  4G20G05G21G04                                    
  21690779.46949 113985814.48449     13891.37549        49.000  
  22667907.92249 119120659.64849     -8384.09049        50.000  
  23201990.76649 121927283.70349     -4274.22749        50.000  
  24431426.89849 128388013.08249    -12355.66449        49.000  
 16 04 02 14 31 35.1000000  0  4G20G05G21G04                                    
  21690515.18049 113984425.62149     13885.64149        49.000  
  22668067.50849 119121498.29749     -8389.39549        50.000  
  23202072.13349 121927711.27049     -4277.54349        50.000  
  24431662.03149 128389248.72749    -12357.40249        49.000  
 16 04 02 14 31 35.2000000  0  4G20G05G21G04                                    
  21690251.00849 113983037.39849     13879.20349        49.000  
  22668227.20349 119122337.52049     -8395.23049        50.000  
  23202153.57049 121928139.21949     -4281.60549        50.000  
  24431897.21149 128390484.59849    -12359.69949        49.000  
 16 04 02 14 31 35.3000000  0  4G20G05G21G04                                    
  21689986.96949 113981649.82449     13872.73449        49.000  
  22668387.02349 119123177.35549     -8401.28549        50.000  
  23202235.08649 121928567.57849     -4285.53549        50.000  
  24432132.43049 128391720.70749    -12362.09049        49.000  
 16 04 02 14 31 35.4000000  0  4G20G05G21G04                                    
  21689723.03149 113980262.82049     13866.97749        49.000  
  22668546.93049 119124017.69549     -8406.47749        50.000  
  23202316.66449 121928996.26649     -4288.96549        50.000  
  24432367.68849 128392956.98049    -12363.81249        49.000  
 16 04 02 14 31 35.5000000  0  4G20G05G21G04                                    
  21689459.21149 113978876.40649     13861.31249        49.000  
  22668706.94549 119124858.57049     -8411.51249        50.000  
  23202398.29749 121929425.28149     -4292.00849        50.000  
  24432602.97749 128394193.42249    -12365.27749        49.000  
 16 04 02 14 31 35.6000000  0  4G20G05G21G04                                    
  21689195.50049 113977490.61749     13854.77349        49.000  
  22668867.07049 119125700.02349     -8417.56649        50.000  
  23202480.00849 121929854.68849     -4296.17249        50.000  
  24432838.30549 128395430.09849    -12367.75849        49.000  
 16 04 02 14 31 35.7000000  0  4G20G05G21G04                                    
  21688931.92249 113976105.51249     13848.02349        49.000  
  22669027.31249 119126542.10249     -8423.71149        50.000  
  23202561.80549 121930284.52749     -4300.37549        50.000  
  24433073.68849 128396667.03549    -12370.39149        49.000  
 16 04 02 14 31 35.8000000  0  4G20G05G21G04                                    
  21688668.46149 113974720.99649     13842.07049        49.000  
  22669187.65649 119127384.72349     -8429.13349        50.000  
  23202643.66449 121930714.71149     -4303.81649        50.000  
  24433309.10249 128397904.16049    -12372.34849        49.000  
 16 04 02 14 31 35.9000000  0  4G20G05G21G04                                    
  21688405.10949 113973337.09449     13835.88349        49.000  
  22669348.10949 119128227.89549     -8434.76249        50.000  
  23202725.59449 121931145.25849     -4307.54749        50.000  
  24433544.55549 128399141.47349    -12374.24249        49.000  
 16 04 02 14 31 36.0000000  0  4G20G05G21G04                                    
  21688141.88349 113971953.85249     13829.30149        49.000  
  22669508.68049 119129071.69549     -8441.07049        50.000  
  23202807.60949 121931576.23449     -4311.89849        50.000  
  24433780.05549 128400379.05949    -12376.91849        49.000  
 16 04 02 14 31 36.1000000  0  4G20G05G21G04                                    
  21687878.78949 113970571.24249     13823.00849        49.000  
  22669669.35249 119129916.04749     -8446.63349        50.000  
  23202889.69549 121932007.57049     -4315.57449        50.000  
  24434015.60949 128401616.84049    -12378.94549        49.000  
 16 04 02 14 31 36.2000000  0  4G20G05G21G04                                    
  21687615.80549 113969189.26649     13816.75449        49.000  
  22669830.14149 119130760.98449     -8452.27349        50.000  
  23202971.85249 121932439.30949     -4319.25849        50.000  
  24434251.19549 128402854.85949    -12381.15249        49.000  
 16 04 02 14 31 36.3000000  0  4G20G05G21G04                                    
  21687352.95349 113967807.85949     13811.11349        49.000  
  22669991.02349 119131606.44949     -8457.50849        50.000  
  23203054.07049 121932871.37549     -4322.55149        50.000  
  24434486.80549 128404093.04349    -12382.75049        49.000  
 16 04 02 14 31 36.4000000  0  4G20G05G21G04                                    
  21687090.20349 113966427.09449     13804.77349        49.000  
  22670152.01649 119132452.49249     -8463.26249        50.000  
  23203136.36749 121933303.82849     -4326.47349        50.000  
  24434722.46949 128405331.44949    -12384.95749        49.000  
 16 04 02 14 31 36.5000000  0  4G20G05G21G04                                    
  21686827.56249 113965046.93849     13798.60949        49.000  
  22670313.12549 119133299.09449     -8468.89849        50.000  
  23203218.72749 121933736.64149     -4330.10249        50.000  
  24434958.17249 128406570.05949    -12387.10249        49.000  
 16 04 02 14 31 36.6000000  0  4G20G05G21G04                                    
  21686565.03949 113963667.37949     13792.60249        49.000  
  22670474.32849 119134146.24649     -8474.37949        50.000  
  23203301.16449 121934169.81249     -4333.68449        50.000  
  24435193.89849 128407808.84849    -12388.89549        49.000  
 16 04 02 14 31 36.7000000  0  4G20G05G21G04                                    
  21686302.62549 113962288.43049     13786.51249        49.000  
  22670635.64149 119134993.93849     -8479.87949        50.000  
  23203383.66449 121934603.34449     -4337.29749        50.000  
  24435429.68049 128409047.84449    -12390.97349        49.000  
 16 04 02 14 31 36.8000000  0  4G20G05G21G04                                    
  21686040.34449 113960910.12549     13779.95349        49.000  
  22670797.07049 119135842.23449     -8485.92649        50.000  
  23203466.23449 121935037.26249     -4341.29349        50.000  
  24435665.50049 128410287.06649    -12393.29749        49.000  
 16 04 02 14 31 36.9000000  0  4G20G05G21G04                                    
  21685778.18849 113959532.47749     13773.50849        49.000  
  22670958.60949 119136691.12149     -8491.79349        50.000  
  23203548.89149 121935471.60549     -4345.39849        50.000  
  24435901.35249 128411526.53549    -12395.65649        49.000  
 16 04 02 14 31 37.0000000  0  4G20G05G21G04                                    
  21685516.15649 113958155.46549     13767.03149        49.000  
  22671120.25849 119137540.59049     -8497.75849        50.000  
  23203631.61749 121935906.33249     -4349.40249        50.000  
  24436137.25849 128412766.22749    -12398.01649        49.000  
 16 04 02 14 31 37.1000000  0  4G20G05G21G04                                    
  21685254.24249 113956779.07449     13760.89549        49.000  
  22671282.01649 119138390.63749     -8503.37549        50.000  
  23203714.41449 121936341.43449     -4353.05549        50.000  
  24436373.20349 128414006.13749    -12400.12949        49.000  
 16 04 02 14 31 37.2000000  0  4G20G05G21G04                                    
  21684992.43049 113955403.26649     13755.00449        49.000  
  22671443.87549 119139241.20349     -8508.66849        50.000  
  23203797.27349 121936776.86749     -4356.43849        50.000  
  24436609.18049 128415246.21549    -12401.80949        49.000  
 16 04 02 14 31 37.3000000  0  4G20G05G21G04                                    
  21684730.75849 113954028.14149     13748.03549        49.000  
  22671605.85249 119140092.40249     -8515.15649        50.000  
  23203880.21949 121937212.74249     -4360.96549        50.000  
  24436845.22749 128416486.56649    -12404.69949        49.000  
 16 04 02 14 31 37.4000000  0  4G20G05G21G04                                    
  21684469.19549 113952653.63749     13742.04349        49.000  
  22671767.93849 119140944.16849     -8520.52349        50.000  
  23203963.23449 121937648.98849     -4364.37949        50.000  
  24437081.29749 128417727.13349    -12406.61349        49.000  
 16 04 02 14 31 37.5000000  0  4G20G05G21G04                                    
  21684207.75849 113951279.75049     13735.69949        49.000  
  22671930.12549 119141796.49249     -8526.32049        50.000  
  23204046.32049 121938085.60949     -4368.34849        50.000  
  24437317.41449 128418967.89549    -12408.82049        49.000  
 16 04 02 14 31 37.6000000  0  4G20G05G21G04                                    
  21683946.43849 113949906.51649     13729.32049        49.000  
  22672092.43049 119142649.41849     -8532.19149        50.000  
  23204129.47749 121938522.62149     -4372.18849        50.000  
  24437553.57049 128420208.90249    -12411.10949        49.000  
 16 04 02 14 31 37.7000000  0  4G20G05G21G04                                    
  21683685.24249 113948533.89849     13722.94949        49.000  
  22672254.84449 119143502.90649     -8538.10249        50.000  
  23204212.71949 121938960.02049     -4376.24649        50.000  
  24437789.76649 128421450.11349    -12413.37949        49.000  
 16 04 02 14 31 37.8000000  0  4G20G05G21G04                                    
  21683424.16449 113947161.92649     13716.73849        49.000  
  22672417.36749 119144356.98049     -8543.69949        50.000  
  23204296.02349 121939397.79349     -4379.77349        50.000  
  24438026.00049 128422691.56249    -12415.58249        49.000  
 16 04 02 14 31 37.9000000  0  4G20G05G21G04                                    
  21683163.22749 113945790.62949     13709.95749        49.000  
  22672580.00849 119145211.66849     -8549.80549        50.000  
  23204379.42249 121939836.02349     -4384.14549        50.000  
  24438262.29749 128423933.27049    -12418.03949        49.000  
 16 04 02 14 31 38.0000000  0  4G20G05G21G04                                    
  21682902.39149 113944419.89849     13704.19949        49.000  
  22672742.75049 119146066.87549     -8555.11749        50.000  
  23204462.87549 121940274.55149     -4387.38349        50.000  
  24438498.60949 128425175.12949    -12419.74649        49.000  
 16 04 02 14 31 38.1000000  0  4G20G05G21G04                                    
  21682641.67249 113943049.82049     13697.70349        49.000  
  22672905.60249 119146922.69149     -8561.15649        50.000  
  23204546.39849 121940713.49649     -4391.50049        50.000  
  24438734.97749 128426417.24649    -12422.15649        49.000  
 16 04 02 14 31 38.2000000  0  4G20G05G21G04                                    
  21682381.07049 113941680.35949     13691.77049        49.000  
  22673068.56249 119147779.04749     -8566.33649        50.000  
  23204629.99249 121941152.80549     -4394.92649        50.000  
  24438971.38349 128427659.54749    -12423.90249        49.000  
 16 04 02 14 31 38.3000000  0  4G20G05G21G04                                    
  21682120.57049 113940311.45349     13686.26249        49.000  
  22673231.62549 119148635.93049     -8571.50449        50.000  
  23204713.64849 121941592.42649     -4397.98849        50.000  
  24439207.81249 128428902.00849    -12425.38749        49.000  
 16 04 02 14 31 38.4000000  0  4G20G05G21G04                                    
  21681860.19549 113938943.19949     13679.60549        49.000  
  22673394.79749 119149493.38349     -8577.48449        50.000  
  23204797.38349 121942032.44549     -4402.25449        50.000  
  24439444.28949 128430144.69949    -12427.84849        49.000  
 16 04 02 14 31 38.5000000  0  4G20G05G21G04                                    
  21681599.94549 113937575.57849     13673.21149        49.000  
  22673558.07849 119150351.42249     -8583.23849        50.000  
  23204881.18849 121942472.84849     -4406.00049        50.000  
  24439680.80549 128431387.61349    -12430.09049        49.000  
 16 04 02 14 31 38.6000000  0  4G20G05G21G04                                    
  21681339.80549 113936208.54349     13667.41449        49.000  
  22673721.45349 119151209.98449     -8588.45349        50.000  
  23204965.06249 121942913.59449     -4409.32849        50.000  
  24439917.35949 128432630.70349    -12431.83649        49.000  
 16 04 02 14 31 38.7000000  0  4G20G05G21G04                                    
  21681079.78149 113934842.08649     13661.50849        49.000  
  22673884.93849 119152069.09049     -8594.06649        50.000  
  23205049.00049 121943354.67249     -4412.89549        50.000  
  24440153.93849 128433873.95749    -12433.59449        49.000  
 16 04 02 14 31 38.8000000  0  4G20G05G21G04                                    
  21680819.88349 113933476.32449     13654.66849        49.000  
  22674048.53149 119152928.81649     -8600.14849        50.000  
  23205133.01649 121943796.18449     -4417.07849        50.000  
  24440390.57849 128435117.50049    -12436.36349        49.000  
 16 04 02 14 31 38.9000000  0  4G20G05G21G04                                    
  21680560.10249 113932111.12549     13649.14149        49.000  
  22674212.23449 119153789.06649     -8605.26249        50.000  
  23205217.10249 121944238.03149     -4420.22349        50.000  
  24440627.25849 128436361.19549    -12437.86749        49.000  
 16 04 02 14 31 39.0000000  0  4G20G05G21G04                                    
  21680300.43849 113930746.55949     13642.58649        49.000  
  22674376.04749 119154649.88349     -8611.24249        50.000  
  23205301.25049 121944680.26249     -4424.46149        50.000  
  24440863.96149 128437605.10249    -12440.18049        49.000  
 16 04 02 14 31 39.1000000  0  4G20G05G21G04                                    
  21680040.89849 113929382.71549     13635.33249        49.000  
  22674539.97749 119155511.35949     -8617.96549        50.000  
  23205385.49249 121945122.95349     -4429.13349        50.000  
  24441100.72749 128438849.32449    -12443.30549        49.000  
 16 04 02 14 31 39.2000000  0  4G20G05G21G04                                    
  21679781.48449 113928019.47349     13629.28549        49.000  
  22674704.01649 119156373.39149     -8623.27349        50.000  
  23205469.80549 121945566.00449     -4432.59849        50.000  
  24441337.53149 128440093.73849    -12445.27049        49.000  
 16 04 02 14 31 39.3000000  0  4G20G05G21G04                                    
  21679522.17249 113926656.81649     13623.60249        49.000  
  22674868.15649 119157235.93849     -8628.25849        50.000  
  23205554.17249 121946009.39549     -4435.75449        50.000  
  24441574.37549 128441338.31649    -12446.74649        49.000  
 16 04 02 14 31 39.4000000  0  4G20G05G21G04                                    
  21679262.97749 113925294.75049     13617.64549        49.000  
  22675032.39849 119158099.04349     -8633.97349        50.000  
  23205638.61749 121946453.12949     -4439.29349        50.000  
  24441811.24249 128442583.07449    -12448.55949        49.000  
 16 04 02 14 31 39.5000000  0  4G20G05G21G04                                    
  21679003.91449 113923933.40649     13610.43449        49.000  
  22675196.76649 119158962.78949     -8640.43849        50.000  
  23205723.14149 121946897.32449     -4444.05149        50.000  
  24442048.16449 128443828.13749    -12451.64549        49.000  
 16 04 02 14 31 39.6000000  0  4G20G05G21G04                                    
  21678744.96949 113922572.60949     13604.94949        49.000  
  22675361.23449 119159827.04349     -8645.41449        50.000  
  23205807.73449 121947341.83249     -4446.94149        50.000  
  24442285.12549 128445073.35549    -12453.19149        49.000  
 16 04 02 14 31 39.7000000  0  4G20G05G21G04                                    
  21678486.14149 113921212.39549     13599.11349        49.000  
  22675525.78949 119160691.81249     -8650.56649        50.000  
  23205892.38349 121947786.66449     -4450.35949        50.000  
  24442522.10949 128446318.71549    -12454.64849        49.000  
 16 04 02 14 31 39.8000000  0  4G20G05G21G04                                    
  21678227.43049 113919852.85249     13592.43849        49.000  
  22675690.46949 119161557.20749     -8656.87949        50.000  
  23205977.11749 121948231.93449     -4454.70349        50.000  
  24442759.14849 128447564.35249    -12457.34049        49.000  
 16 04 02 14 31 39.9000000  0  4G20G05G21G04                                    
  21677968.85249 113918493.96949     13585.84449        49.000  
  22675855.26649 119162423.20349     -8662.93449        50.000  
  23206061.92249 121948677.60549     -4458.94549        50.000  
  24442996.24249 128448810.23849    -12459.94549        49.000  
 16 04 02 14 31 40.0000000  0  4G20G05G21G04                                    
  21677710.37549 113917135.68449     13579.83249        49.000  
  22676020.16449 119163289.74649     -8668.38349        50.000  
  23206146.79749 121949123.61749     -4462.17249        50.000  
  24443233.35949 128450056.30149    -12461.68049        49.000  
 16 04 02 14 31 40.1000000  0  4G20G05G21G04                                    
  21677452.01649 113915778.04349     13573.52349        49.000  
  22676185.17249 119164156.85249     -8673.79749        50.000  
  23206231.75049 121949570.04749     -4466.04349        50.000  
  24443470.52349 128451302.59049    -12463.79749        49.000  
 16 04 02 14 31 40.2000000  0  4G20G05G21G04                                    
  21677193.76649 113914420.90649     13568.31249        49.000  
  22676350.26649 119165024.43849     -8678.80149        50.000  
  23206316.75049 121950016.72349     -4468.86349        50.000  
  24443707.70349 128452548.98049    -12464.90249        49.000  
 16 04 02 14 31 40.3000000  0  4G20G05G21G04                                    
  21676935.64849 113913064.47349     13561.53549        49.000  
  22676515.47749 119165892.64149     -8684.81249        50.000  
  23206401.82849 121950463.84049     -4472.91449        50.000  
  24443944.93849 128453795.65649    -12467.56649        49.000  
 16 04 02 14 31 40.4000000  0  4G20G05G21G04                                    
  21676677.64849 113911708.69549     13554.57049        49.000  
  22676680.80549 119166761.45349     -8691.23049        50.000  
  23206486.99249 121950911.37949     -4477.53149        50.000  
  24444182.21149 128455042.56249    -12470.21949        49.000  
 16 04 02 14 31 40.5000000  0  4G20G05G21G04                                    
  21676419.78149 113910353.57449     13548.05149        49.000  
  22676846.25049 119167630.87149     -8697.12949        50.000  
  23206572.23449 121951359.31249     -4481.37549        50.000  
  24444419.54749 128456289.73849    -12472.82049        49.000  
 16 04 02 14 31 40.6000000  0  4G20G05G21G04                                    
  21676162.00849 113908998.94949     13543.28149        49.000  
  22677011.78149 119168500.73049     -8701.52349        50.000  
  23206657.53149 121951807.52749     -4484.01649        50.000  
  24444656.89149 128457536.99249    -12473.53549        49.000  
 16 04 02 14 31 40.7000000  0  4G20G05G21G04                                    
  21675904.35249 113907645.00849     13536.45349        49.000  
  22677177.43049 119169371.20749     -8707.66449        50.000  
  23206742.89849 121952256.15649     -4488.35949        50.000  
  24444894.28949 128458784.50449    -12476.07049        49.000  
 16 04 02 14 31 40.8000000  0  4G20G05G21G04                                    
  21675646.84449 113906291.76649     13529.43449        49.000  
  22677343.19549 119170242.32449     -8714.05549        50.000  
  23206828.35249 121952705.22349     -4492.62149        50.000  
  24445131.73449 128460032.29749    -12478.94549        49.000  
 16 04 02 14 31 40.9000000  0  4G20G05G21G04                                    
  21675389.43049 113904939.06649     13523.87949        49.000  
  22677509.05549 119171113.93449     -8719.14149        50.000  
  23206913.86749 121953154.59849     -4495.78949        50.000  
  24445369.21949 128461280.23849    -12480.43449        49.000  
 16 04 02 14 31 41.0000000  0  4G20G05G21G04                                    
  21675132.14149 113903587.01649     13517.49249        49.000  
  22677675.03149 119171986.13749     -8724.94149        50.000  
  23206999.45349 121953604.37149     -4499.77749        50.000  
  24445606.73449 128462528.41049    -12482.75849        49.000  
 16 04 02 14 31 41.1000000  0  4G20G05G21G04                                    
  21674874.99249 113902235.61749     13511.01649        49.000  
  22677841.11749 119172858.93049     -8730.91049        50.000  
  23207085.11749 121954054.55149     -4503.87149        50.000  
  24445844.30549 128463776.80149    -12484.93849        49.000  
 16 04 02 14 31 41.2000000  0  4G20G05G21G04                                    
  21674617.94549 113900884.82049     13505.05149        49.000  
  22678007.30549 119173732.26249     -8736.29349        50.000  
  23207170.85249 121954505.06649     -4507.23049        50.000  
  24446081.90649 128465025.40649    -12487.03949        49.000  
 16 04 02 14 31 41.3000000  0  4G20G05G21G04                                    
  21674361.03949 113899534.67249     13498.37149        49.000  
  22678173.60949 119174606.18449     -8742.18449        50.000  
  23207256.65649 121954955.99649     -4511.37949        50.000  
  24446319.54749 128466274.21949    -12489.14549        49.000  
 16 04 02 14 31 41.4000000  0  4G20G05G21G04                                    
  21674104.24249 113898185.21949     13491.41049        49.000  
  22678340.03149 119175480.75049     -8748.60549        50.000  
  23207342.55549 121955407.36349     -4515.74249        50.000  
  24446557.24249 128467523.32849    -12492.10249        49.000  
 16 04 02 14 31 41.5000000  0  4G20G05G21G04                                    
  21673847.57049 113896836.30949     13485.96149        49.000  
  22678506.54749 119176355.79349     -8753.35949        50.000  
  23207428.50049 121955859.03149     -4518.68449        50.000  
  24446794.96149 128468772.57049    -12493.43849        49.000  
 16 04 02 14 31 41.6000000  0  4G20G05G21G04                                    
  21673591.00049 113895488.03549     13479.62549        49.000  
  22678673.17249 119177231.43449     -8759.37149        50.000  
  23207514.53149 121956311.08649     -4522.66049        50.000  
  24447032.72749 128470022.03549    -12495.70349        49.000  
 16 04 02 14 31 41.7000000  0  4G20G05G21G04                                    
  21673334.53949 113894140.35249     13474.04749        49.000  
  22678839.89849 119178107.59849     -8764.34849        50.000  
  23207600.61749 121956763.49649     -4525.82449        50.000  
  24447270.53149 128471271.67249    -12497.22349        49.000  
 16 04 02 14 31 41.8000000  0  4G20G05G21G04                                    
  21673078.20349 113892793.27349     13467.81249        49.000  
  22679006.73449 119178984.30549     -8769.91049        50.000  
  23207686.77349 121957216.24649     -4529.41449        50.000  
  24447508.35949 128472521.49649    -12499.07049        49.000  
 16 04 02 14 31 41.9000000  0  4G20G05G21G04                                    
  21672821.96149 113891446.80549     13461.82049        49.000  
  22679173.66449 119179861.55149     -8775.14549        50.000  
  23207773.00049 121957669.33649     -4532.75049        50.000  
  24447746.22749 128473771.50849    -12500.90249        49.000  
 16 04 02 14 31 42.0000000  0  4G20G05G21G04                                    
  21672565.85249 113890100.93049     13455.79349        49.000  
  22679340.71149 119180739.35549     -8780.85249        50.000  
  23207859.29749 121958122.81249     -4536.69149        50.000  
  24447984.14149 128475021.73049    -12503.10249        49.000  
 16 04 02 14 31 42.1000000  0  4G20G05G21G04                                    
  21672309.86749 113888755.75049     13448.66449        49.000  
  22679507.86749 119181617.78949     -8787.31649        50.000  
  23207945.66449 121958576.71149     -4541.07849        50.000  
  24448222.10249 128476272.19949    -12505.81649        49.000  
 16 04 02 14 31 42.2000000  0  4G20G05G21G04                                    
  21672053.99249 113887411.14549     13443.10549        49.000  
  22679675.12549 119182496.73849     -8792.35949        50.000  
  23208032.10949 121959030.94149     -4544.26649        50.000  
  24448460.09449 128477522.84849    -12507.39149        49.000  
 16 04 02 14 31 42.3000000  0  4G20G05G21G04                                    
  21671798.23449 113886067.14549     13436.96949        49.000  
  22679842.48449 119183376.23049     -8797.85949        50.000  
  23208118.60949 121959485.52049     -4547.83249        50.000  
  24448698.11749 128478773.68849    -12509.31649        49.000  
 16 04 02 14 31 42.4000000  0  4G20G05G21G04                                    
  21671542.61749 113884723.86349     13429.64149        49.000  
  22680009.97749 119184256.38349     -8804.64149        50.000  
  23208205.20349 121959940.56649     -4552.58649        50.000  
  24448936.20349 128480024.81249    -12512.41449        49.000  
 16 04 02 14 31 42.5000000  0  4G20G05G21G04                                    
  21671287.13349 113883381.24249     13423.06249        49.000  
  22680177.58649 119185137.14849     -8810.69149        50.000  
  23208291.87549 121960396.04349     -4556.84049        50.000  
  24449174.33649 128481276.21149    -12515.10249        49.000  
 16 04 02 14 31 42.6000000  0  4G20G05G21G04                                    
  21671031.75049 113882039.21149     13417.18449        49.000  
  22680345.28949 119186018.43449     -8815.94149        50.000  
  23208378.61749 121960851.84449     -4560.27349        50.000  
  24449412.50049 128482527.75849    -12516.68449        49.000  
 16 04 02 14 31 42.7000000  0  4G20G05G21G04                                    
  21670776.50049 113880697.86349     13410.37949        49.000  
  22680513.10949 119186900.34849     -8822.22749        50.000  
  23208465.43849 121961308.08249     -4564.48449        50.000  
  24449650.71949 128483779.59449    -12519.44549        49.000  
 16 04 02 14 31 42.8000000  0  4G20G05G21G04                                    
  21670521.36749 113879357.13349     13404.24249        49.000  
  22680681.03949 119187782.81249     -8827.61349        50.000  
  23208552.32049 121961764.68049     -4568.00849        50.000  
  24449888.96949 128485031.60949    -12521.21549        49.000  
 16 04 02 14 31 42.9000000  0  4G20G05G21G04                                    
  21670266.34449 113878016.97349     13398.72349        49.000  
  22680849.06249 119188665.79749     -8832.51249        50.000  
  23208639.28149 121962221.60949     -4571.19949        50.000  
  24450127.25849 128486283.80949    -12522.88349        49.000  
 16 04 02 14 31 43.0000000  0  4G20G05G21G04                                    
  21670011.45349 113876677.50849     13391.57049        49.000  
  22681017.21149 119189549.42249     -8839.24249        50.000  
  23208726.31249 121962678.98449     -4575.79349        50.000  
  24450365.59449 128487536.27049    -12525.60249        49.000  
 16 04 02 14 31 43.1000000  0  4G20G05G21G04                                    
  21669756.66449 113875338.58649     13386.27049        49.000  
  22681185.45349 119190433.52349     -8843.96549        50.000  
  23208813.40649 121963136.64849     -4578.66849        50.000  
  24450603.95349 128488788.87149    -12526.95349        49.000  
 16 04 02 14 31 43.2000000  0  4G20G05G21G04                                    
  21669501.99249 113874000.30949     13379.88349        49.000  
  22681353.80549 119191318.21549     -8849.74249        50.000  
  23208900.57049 121963594.71949     -4582.63749        50.000  
  24450842.35949 128490041.69549    -12529.18849        49.000  
 16 04 02 14 31 43.3000000  0  4G20G05G21G04                                    
  21669247.45349 113872662.71949     13372.96549        49.000  
  22681522.27349 119192203.53549     -8856.07049        50.000  
  23208987.82849 121964053.21149     -4586.86349        50.000  
  24451080.82049 128491294.78549    -12531.85549        49.000  
 16 04 02 14 31 43.4000000  0  4G20G05G21G04                                    
  21668993.03949 113871325.77349     13366.34449        49.000  
  22681690.85249 119193089.42249     -8861.94549        50.000  
  23209075.14849 121964512.09449     -4590.97749        50.000  
  24451319.32049 128492548.11749    -12534.44549        49.000  
 16 04 02 14 31 43.5000000  0  4G20G05G21G04                                    
  21668738.74249 113869989.41049     13360.67249        49.000  
  22681859.53149 119193975.85249     -8867.06649        50.000  
  23209162.53949 121964971.32049     -4594.16049        50.000  
  24451557.85249 128493801.59449    -12535.75449        49.000  
 16 04 02 14 31 43.6000000  0  4G20G05G21G04                                    
  21668484.55549 113868653.65649     13354.49649        49.000  
  22682028.32049 119194862.84449     -8872.91449        50.000  
  23209250.00049 121965430.93049     -4598.17649        50.000  
  24451796.42249 128495055.29749    -12538.04349        49.000  
 16 04 02 14 31 43.7000000  0  4G20G05G21G04                                    
  21668230.50049 113867318.55149     13348.23049        49.000  
  22682197.21949 119195750.39149     -8878.19949        50.000  
  23209337.52349 121965890.89149     -4601.50049        50.000  
  24452035.03149 128496309.20749    -12539.99249        49.000  
 16 04 02 14 31 43.8000000  0  4G20G05G21G04                                    
  21667976.54749 113865984.03149     13342.15649        49.000  
  22682366.21949 119196638.49649     -8884.03149        50.000  
  23209425.12549 121966351.21549     -4605.30949        50.000  
  24452273.68049 128497563.30549    -12541.86749        49.000  
 16 04 02 14 31 43.9000000  0  4G20G05G21G04                                    
  21667722.71949 113864650.16449     13335.75449        49.000  
  22682535.32849 119197527.16849     -8889.72349        50.000  
  23209512.79749 121966811.92649     -4609.12149        50.000  
  24452512.36749 128498817.62549    -12544.20749        49.000  
 16 04 02 14 31 44.0000000  0  4G20G05G21G04                                    
  21667469.00849 113863316.91849     13329.37149        49.000  
  22682704.54749 119198416.40649     -8895.36349        50.000  
  23209600.53949 121967273.02049     -4612.98049        50.000  
  24452751.09449 128500072.15249    -12546.31249        49.000  
 16 04 02 14 31 44.1000000  0  4G20G05G21G04                                    
  21667215.42249 113861984.34049     13322.76249        49.000  
  22682873.88349 119199306.27049     -8901.43449        50.000  
  23209688.35949 121967734.52749     -4617.04749        50.000  
  24452989.86749 128501326.93849    -12548.78949        49.000  
 16 04 02 14 31 44.2000000  0  4G20G05G21G04                                    
  21666961.95349 113860652.35549     13316.71149        49.000  
  22683043.32049 119200196.66049     -8907.02349        50.000  
  23209776.25049 121968196.38749     -4620.75849        50.000  
  24453228.68049 128502581.90249    -12550.73049        49.000  
 16 04 02 14 31 44.3000000  0  4G20G05G21G04                                    
  21666708.59449 113859320.96149     13310.89149        49.000  
  22683212.85249 119201087.57049     -8911.99249        50.000  
  23209864.20349 121968658.57449     -4623.87549        50.000  
  24453467.51649 128503837.03949    -12552.36749        49.000  
 16 04 02 14 31 44.4000000  0  4G20G05G21G04                                    
  21666455.36749 113857990.25849     13303.94149        49.000  
  22683382.50849 119201979.11749     -8918.57849        50.000  
  23209952.24249 121969121.21149     -4628.46949        50.000  
  24453706.41449 128505092.44549    -12555.15249        49.000  
 16 04 02 14 31 44.5000000  0  4G20G05G21G04                                    
  21666202.25849 113856660.20349     13297.48049        49.000  
  22683552.27349 119202871.24249     -8924.17249        50.000  
  23210040.34449 121969584.24249     -4632.33649        50.000  
  24453945.35949 128506348.09849    -12557.54349        49.000  
 16 04 02 14 31 44.6000000  0  4G20G05G21G04                                    
  21665949.27349 113855330.73849     13291.72749        49.000  
  22683722.14149 119203763.90649     -8929.41449        50.000  
  23210128.52349 121970047.60549     -4635.55949        50.000  
  24454184.33649 128507603.90649    -12559.03949        49.000  
 16 04 02 14 31 44.7000000  0  4G20G05G21G04                                    
  21665696.40649 113854001.87949     13285.50049        49.000  
  22683892.11749 119204657.12149     -8935.12149        50.000  
  23210216.76649 121970511.33649     -4639.44949        50.000  
  24454423.35249 128508859.91849    -12561.12949        49.000  
 16 04 02 14 31 44.8000000  0  4G20G05G21G04                                    
  21665443.66449 113852673.70349     13278.76249        49.000  
  22684062.21149 119205550.96549     -8941.23849        50.000  
  23210305.09449 121970975.49649     -4643.46149        50.000  
  24454662.41449 128510116.19549    -12563.69149        49.000  
 16 04 02 14 31 44.9000000  0  4G20G05G21G04                                    
  21665191.02349 113851346.06249     13273.21549        49.000  
  22684232.39149 119206445.26649     -8946.02749        50.000  
  23210393.47749 121971439.94549     -4646.50049        50.000  
  24454901.49249 128511372.58249    -12564.92249        49.000  
 16 04 02 14 31 45.0000000  0  4G20G05G21G04                                    
  21664938.50849 113850019.09449     13266.65249        49.000  
  22684402.68849 119207340.19949     -8952.23449        50.000  
  23210481.93849 121971904.81249     -4650.79349        50.000  
  24455140.62549 128512629.24249    -12567.57849        49.000  
 16 04 02 14 31 45.1000000  0  4G20G05G21G04                                    
  21664686.11749 113848692.77749     13260.13749        49.000  
  22684573.09449 119208235.69549     -8957.96949        50.000  
  23210570.47749 121972370.07449     -4654.69949        50.000  
  24455379.80549 128513886.12149    -12569.78949        49.000  
 16 04 02 14 31 45.2000000  0  4G20G05G21G04                                    
  21664433.82849 113847367.02049     13254.64849        49.000  
  22684743.60249 119209131.72749     -8963.11749        50.000  
  23210659.07049 121972835.65249     -4657.68049        50.000  
  24455619.00849 128515143.15649    -12571.27049        49.000  
 16 04 02 14 31 45.3000000  0  4G20G05G21G04                                    
  21664181.67249 113846041.93849     13247.81249        49.000  
  22684914.22749 119210028.32849     -8969.09449        50.000  
  23210747.75049 121973301.65249     -4662.04749        50.000  
  24455858.26649 128516400.43449    -12573.81249        49.000  
 16 04 02 14 31 45.4000000  0  4G20G05G21G04                                    
  21663929.64149 113844717.48049     13241.50849        49.000  
  22685084.95349 119210925.52349     -8974.83249        50.000  
  23210836.49249 121973768.02049     -4665.73049        50.000  
  24456097.55549 128517657.93849    -12576.04749        49.000  
 16 04 02 14 31 45.5000000  0  4G20G05G21G04                                    
  21663677.71149 113843393.59449     13235.85949        49.000  
  22685255.78149 119211823.22349     -8979.84449        50.000  
  23210925.30549 121974234.72349     -4668.91449        50.000  
  24456336.88349 128518915.57449    -12577.32849        49.000  
 16 04 02 14 31 45.6000000  0  4G20G05G21G04                                    
  21663425.91449 113842070.38749     13229.01649        49.000  
  22685426.72749 119212721.54349     -8986.11749        50.000  
  23211014.19549 121974701.83649     -4673.25849        50.000  
  24456576.25849 128520173.49649    -12580.21549        49.000  
 16 04 02 14 31 45.7000000  0  4G20G05G21G04                                    
  21663174.22749 113840747.77049     13223.30949        49.000  
  22685597.76649 119213620.37949     -8991.15249        50.000  
  23211103.14849 121975169.29749     -4676.39849        50.000  
  24456815.65649 128521431.57449    -12581.66049        49.000  
 16 04 02 14 31 45.8000000  0  4G20G05G21G04                                    
  21662922.68049 113839425.87549     13215.62549        49.000  
  22685768.93849 119214519.90249     -8998.38349        50.000  
  23211192.19549 121975637.24249     -4681.80149        50.000  
  24457055.12549 128522689.97749    -12585.29749        49.000  
 16 04 02 14 31 45.9000000  0  4G20G05G21G04                                    
  21662671.25049 113838104.57049     13210.08249        49.000  
  22685940.21949 119215419.94149     -9003.30949        50.000  
  23211281.31249 121976105.51649     -4684.65249        50.000  
  24457294.62549 128523948.53949    -12586.64549        49.000  
 16 04 02 14 31 46.0000000  0  4G20G05G21G04                                    
  21662419.92249 113836783.81249     13204.82049        49.000  
  22686111.57849 119216320.45349     -9007.79749        50.000  
  23211370.47749 121976574.08249     -4687.41449        50.000  
  24457534.14149 128525207.23049    -12587.64849        49.000  
 16 04 02 14 31 46.1000000  0  4G20G05G21G04                                    
  21662168.70349 113835463.67249     13198.47749        49.000  
  22686283.04749 119217221.53949     -9013.71149        50.000  
  23211459.71149 121977043.01649     -4691.35249        50.000  
  24457773.71149 128526466.12549    -12589.89549        49.000  
 16 04 02 14 31 46.2000000  0  4G20G05G21G04                                    
  21661917.62549 113834144.21549     13191.54749        49.000  
  22686454.62549 119218123.22749     -9019.77749        50.000  
  23211549.03149 121977512.37549     -4695.64149        50.000  
  24458013.32049 128527725.28949    -12592.57849        49.000  
 16 04 02 14 31 46.3000000  0  4G20G05G21G04                                    
  21661666.65649 113832825.39549     13185.09849        49.000  
  22686626.32849 119219025.51249     -9025.71549        50.000  
  23211638.42249 121977982.13749     -4699.57849        50.000  
  24458252.97749 128528984.66449    -12594.82049        49.000  
 16 04 02 14 31 46.4000000  0  4G20G05G21G04                                    
  21661415.79749 113831507.12149     13179.69149        49.000  
  22686798.11749 119219928.27349     -9030.59849        50.000  
  23211727.86749 121978452.18449     -4702.44149        50.000  
  24458492.64849 128530244.18049    -12596.14849        49.000  
 16 04 02 14 31 46.5000000  0  4G20G05G21G04                                    
  21661165.06249 113830189.51649     13173.05549        49.000  
  22686970.02349 119220831.64149     -9036.64549        50.000  
  23211817.39149 121978922.64549     -4706.81649        50.000  
  24458732.37549 128531503.93849    -12598.66049        49.000  
 16 04 02 14 31 46.6000000  0  4G20G05G21G04                                    
  21660914.46149 113828872.57449     13166.29749        49.000  
  22687142.03949 119221735.60249     -9042.66449        50.000  
  23211906.99249 121979393.52349     -4710.90649        50.000  
  24458972.14149 128532763.94549    -12601.09849        49.000  
 16 04 02 14 31 46.7000000  0  4G20G05G21G04                                    
  21660663.99249 113827556.30149     13159.65249        49.000  
  22687314.18049 119222640.17649     -9048.65649        50.000  
  23211996.68049 121979864.82049     -4714.99649        50.000  
  24459211.97749 128534024.20349    -12603.66049        49.000  
 16 04 02 14 31 46.8000000  0  4G20G05G21G04                                    
  21660413.63349 113826240.65649     13153.20349        49.000  
  22687486.42249 119223545.33249     -9054.66049        50.000  
  23212086.43049 121980336.49249     -4718.96149        50.000  
  24459451.83649 128535284.67649    -12605.87149        49.000  
 16 04 02 14 31 46.9000000  0  4G20G05G21G04                                    
  21660163.39149 113824925.64149     13147.16449        49.000  
  22687658.77349 119224451.03549     -9059.85549        50.000  
  23212176.25849 121980808.54349     -4722.43049        50.000  
  24459691.73449 128536545.35549    -12607.77049        49.000  
 16 04 02 14 31 47.0000000  0  4G20G05G21G04                                    
  21659913.25049 113823611.18049     13141.74249        49.000  
  22687831.21949 119225357.23849     -9064.86749        50.000  
  23212266.14149 121981280.89849     -4725.45349        50.000  
  24459931.65649 128537806.18049    -12609.10949        49.000  
 16 04 02 14 31 47.1000000  0  4G20G05G21G04                                    
  21659663.24249 113822297.39149     13135.10549        49.000  
  22688003.78149 119226264.05549     -9070.87149        50.000  
  23212356.10949 121981753.66849     -4729.44949        50.000  
  24460171.62549 128539067.24649    -12611.46549        49.000  
 16 04 02 14 31 47.2000000  0  4G20G05G21G04                                    
  21659413.35949 113820984.25449     13128.36749        49.000  
  22688176.45349 119227171.45749     -9076.94949        50.000  
  23212446.15649 121982226.84449     -4733.74649        50.000  
  24460411.64849 128540328.55549    -12614.06649        49.000  
 16 04 02 14 31 47.3000000  0  4G20G05G21G04                                    
  21659163.59449 113819671.73849     13122.22349        49.000  
  22688349.23449 119228079.41449     -9082.42649        50.000  
  23212536.26649 121982700.39149     -4737.32849        50.000  
  24460651.69549 128541590.06649    -12616.07849        49.000  
 16 04 02 14 31 47.4000000  0  4G20G05G21G04                                    
  21658913.93849 113818359.76649     13116.80149        49.000  
  22688522.10249 119228987.85549     -9087.30549        50.000  
  23212626.43849 121983174.22749     -4740.34449        50.000  
  24460891.78149 128542851.69949    -12617.23449        49.000  
 16 04 02 14 31 47.5000000  0  4G20G05G21G04                                    
  21658664.40649 113817048.46549     13110.13349        49.000  
  22688695.08649 119229896.90649     -9093.19549        50.000  
  23212716.68849 121983648.48449     -4744.46949        50.000  
  24461131.90649 128544113.58649    -12619.66449        49.000  
 16 04 02 14 31 47.6000000  0  4G20G05G21G04                                    
  21658414.99249 113815737.78149     13103.69149        49.000  
  22688868.18049 119230806.51249     -9099.03149        50.000  
  23212807.00849 121984123.09849     -4748.34049        50.000  
  24461372.07849 128545375.68449    -12622.07049        49.000  
 16 04 02 14 31 47.7000000  0  4G20G05G21G04                                    
  21658165.69549 113814427.77349     13097.05549        49.000  
  22689041.39149 119231716.74249     -9105.16849        50.000  
  23212897.40649 121984598.15249     -4752.50449        50.000  
  24461612.29749 128546638.03549    -12624.58249        49.000  
 16 04 02 14 31 47.8000000  0  4G20G05G21G04                                    
  21657916.53149 113813118.41849     13090.56249        49.000  
  22689214.71149 119232627.53949     -9110.93449        50.000  
  23212987.88349 121985073.59049     -4756.44549        50.000  
  24461852.55549 128547900.60549    -12626.75049        49.000  
 16 04 02 14 31 47.9000000  0  4G20G05G21G04                                    
  21657667.49249 113811809.66449     13084.49649        49.000  
  22689388.14149 119233538.88349     -9116.40249        50.000  
  23213078.42249 121985549.37549     -4759.97349        50.000  
  24462092.85249 128549163.35949    -12628.57049        49.000  
 16 04 02 14 31 48.0000000  0  4G20G05G21G04                                    
  21657418.56249 113810501.53549     13078.42249        49.000  
  22689561.67249 119234450.80549     -9121.99249        50.000  
  23213169.03149 121986025.55949     -4763.68449        50.000  
  24462333.19549 128550426.35249    -12630.73049        49.000  
 16 04 02 14 31 48.1000000  0  4G20G05G21G04                                    
  21657169.74249 113809193.99649     13072.34449        49.000  
  22689735.29749 119235363.23049     -9127.24249        50.000  
  23213259.71149 121986502.05549     -4767.06249        50.000  
  24462573.56249 128551689.48049    -12632.32449        49.000  
 16 04 02 14 31 48.2000000  0  4G20G05G21G04                                    
  21656921.05549 113807887.10549     13065.93449        49.000  
  22689909.04749 119236276.26649     -9133.19149        50.000  
  23213350.46149 121986978.96949     -4771.01649        50.000  
  24462813.96949 128552952.85949    -12634.65649        49.000  
 16 04 02 14 31 48.3000000  0  4G20G05G21G04                                    
  21656672.47749 113806580.83649     13059.74649        49.000  
  22690082.89149 119237189.84049     -9138.54749        50.000  
  23213441.28149 121987456.23449     -4774.57449        50.000  
  24463054.42249 128554216.43449    -12636.64149        49.000  
 16 04 02 14 31 48.4000000  0  4G20G05G21G04                                    
  21656424.01649 113805275.16449     13053.49649        49.000  
  22690256.84449 119238103.96149     -9144.34849        50.000  
  23213532.17249 121987933.85549     -4778.50049        50.000  
  24463294.90649 128555480.19149    -12638.73849        49.000  
 16 04 02 14 31 48.5000000  0  4G20G05G21G04                                    
  21656175.68849 113803970.18449     13046.87149        49.000  
  22690430.90649 119239018.70749     -9150.36749        50.000  
  23213623.14849 121988411.91049     -4782.57049        50.000  
  24463535.45349 128556744.21949    -12641.23449        49.000  
 16 04 02 14 31 48.6000000  0  4G20G05G21G04                                    
  21655927.47749 113802665.80149     13040.76249        49.000  
  22690605.07849 119239933.97349     -9155.69149        50.000  
  23213714.18049 121988890.30949     -4786.07449        50.000  
  24463776.02349 128558008.42249    -12643.11749        49.000  
 16 04 02 14 31 48.7000000  0  4G20G05G21G04                                    
  21655679.37549 113801362.06249     13034.43049        49.000  
  22690779.35949 119240849.84049     -9161.53149        50.000  
  23213805.29749 121989369.11749     -4790.05549        50.000  
  24464016.63349 128559272.85549    -12645.28149        49.000  
 16 04 02 14 31 48.8000000  0  4G20G05G21G04                                    
  21655431.39849 113800058.93849     13028.17649        49.000  
  22690953.75049 119241766.25049     -9167.02349        50.000  
  23213896.47749 121989848.27349     -4793.60949        50.000  
  24464257.28149 128560537.48449    -12647.26649        49.000  
 16 04 02 14 31 48.9000000  0  4G20G05G21G04                                    
  21655183.53949 113798756.42249     13022.35249        49.000  
  22691128.24249 119242683.20749     -9172.32449        50.000  
  23213987.72749 121990327.78149     -4797.06649        50.000  
  24464497.96949 128561802.30549    -12649.08249        49.000  
 16 04 02 14 31 49.0000000  0  4G20G05G21G04                                    
  21654935.79749 113797454.52049     13016.14149        49.000  
  22691302.83649 119243600.71149     -9177.88749        50.000  
  23214079.03949 121990807.65249     -4800.63749        50.000  
  24464738.69549 128563067.31249    -12651.02349        49.000  
 16 04 02 14 31 49.1000000  0  4G20G05G21G04                                    
  21654688.15649 113796153.21949     13010.10549        49.000  
  22691477.53149 119244518.75049     -9183.23049        50.000  
  23214170.43049 121991287.87149     -4804.22749        50.000  
  24464979.44549 128564332.50849    -12652.89149        49.000  
 16 04 02 14 31 49.2000000  0  4G20G05G21G04                                    
  21654440.65649 113794852.59049     13003.34049        49.000  
  22691652.34449 119245437.39849     -9189.38749        50.000  
  23214261.89149 121991768.52049     -4808.41049        50.000  
  24465220.25849 128565597.95349    -12655.42249        49.000  
 16 04 02 14 31 49.3000000  0  4G20G05G21G04                                    
  21654193.28949 113793552.62949     12996.59849        49.000  
  22691827.27349 119246356.65249     -9195.32849        50.000  
  23214353.43049 121992249.56249     -4812.28549        50.000  
  24465461.10949 128566863.64549    -12657.81649        49.000  
 16 04 02 14 31 49.4000000  0  4G20G05G21G04                                    
  21653946.00849 113792253.18849     12991.26249        49.000  
  22692002.28949 119247276.37149     -9200.18449        50.000  
  23214445.03149 121992730.89849     -4815.41849        50.000  
  24465701.98449 128568129.44549    -12659.05549        49.000  
 16 04 02 14 31 49.5000000  0  4G20G05G21G04                                    
  21653698.87549 113790954.45749     12984.33649        49.000  
  22692177.43049 119248196.73049     -9206.45749        50.000  
  23214536.71149 121993212.68849     -4819.77049        50.000  
  24465942.90649 128569395.53149    -12661.72749        49.000  
 16 04 02 14 31 49.6000000  0  4G20G05G21G04                                    
  21653451.85249 113789656.33649     12978.11349        49.000  
  22692352.67249 119249117.62549     -9211.91449        50.000  
  23214628.46149 121993694.82049     -4823.43049        50.000  
  24466183.86749 128570661.80949    -12663.82049        49.000  
 16 04 02 14 31 49.7000000  0  4G20G05G21G04                                    
  21653204.93849 113788358.82849     12971.91449        49.000  
  22692528.02349 119250039.09049     -9217.60949        50.000  
  23214720.27349 121994177.32849     -4827.15649        50.000  
  24466424.86749 128571928.28549    -12665.85249        49.000  
 16 04 02 14 31 49.8000000  0  4G20G05G21G04                                    
  21652958.14849 113787061.96549     12965.72349        49.000  
  22692703.47749 119250961.12149     -9223.19149        50.000  
  23214812.16449 121994660.22349     -4830.91449        50.000  
  24466665.91449 128573194.99249    -12667.99649        49.000  
 16 04 02 14 31 49.9000000  0  4G20G05G21G04                                    
  21652711.48449 113785765.76649     12959.09049        49.000  
  22692879.05549 119251883.74249     -9229.05949        50.000  
  23214904.13349 121995143.52349     -4834.92249        50.000  
  24466907.00849 128574461.92649    -12670.30549        49.000  
 16 04 02 14 31 50.0000000  0  4G20G05G21G04                                    
  21652464.93849 113784470.12149     12953.40649        49.000  
  22693054.71949 119252806.87549     -9234.19549        50.000  
  23214996.16449 121995627.12949     -4838.01649        50.000  
  24467148.12549 128575729.00449    -12671.76649        49.000  
 16 04 02 14 31 50.1000000  0  4G20G05G21G04                                    
  21652218.50849 113783175.12149     12947.07849        49.000  
  22693230.48449 119253730.57049     -9239.79349        50.000  
  23215088.25849 121996111.12149     -4841.85249        50.000  
  24467389.28949 128576996.30149    -12673.91449        49.000  
 16 04 02 14 31 50.2000000  0  4G20G05G21G04                                    
  21651972.19549 113781880.71549     12941.14149        49.000  
  22693406.36749 119254654.81649     -9245.25449        50.000  
  23215180.43049 121996595.46949     -4845.33249        50.000  
  24467630.48449 128578263.78549    -12675.77749        49.000  
 16 04 02 14 31 50.3000000  0  4G20G05G21G04                                    
  21651726.00849 113780586.94549     12934.74649        49.000  
  22693582.35249 119255579.61749     -9250.92649        50.000  
  23215272.67249 121997080.19149     -4849.25049        50.000  
  24467871.71949 128579531.46949    -12677.77049        49.000  
 16 04 02 14 31 50.4000000  0  4G20G05G21G04                                    
  21651479.94549 113779293.87549     12927.65649        49.000  
  22693758.45349 119256505.04749     -9257.30149        50.000  
  23215364.99249 121997565.35549     -4853.78949        50.000  
  24468113.00049 128580799.44149    -12680.78149        49.000  
 16 04 02 14 31 50.5000000  0  4G20G05G21G04                                    
  21651234.00049 113778001.39849     12921.50049        49.000  
  22693934.66449 119257431.02049     -9262.88349        50.000  
  23215457.37549 121998050.86749     -4857.40649        50.000  
  24468354.32849 128582067.58649    -12682.69149        49.000  
 16 04 02 14 31 50.6000000  0  4G20G05G21G04                                    
  21650988.16449 113776709.55149     12915.45349        49.000  
  22694110.97749 119258357.55549     -9268.22749        50.000  
  23215549.83649 121998536.75449     -4860.78149        50.000  
  24468595.68849 128583335.94949    -12684.49649        49.000  
 16 04 02 14 31 50.7000000  0  4G20G05G21G04                                    
  21650742.46149 113775418.36349     12908.91049        49.000  
  22694287.39849 119259284.67649     -9274.10949        50.000  
  23215642.37549 121999023.03949     -4864.79349        50.000  
  24468837.09449 128584604.53149    -12686.78549        49.000  
 16 04 02 14 31 50.8000000  0  4G20G05G21G04                                    
  21650496.87549 113774127.81249     12902.46149        49.000  
  22694463.93849 119260212.37949     -9279.93449        50.000  
  23215734.98449 121999509.72349     -4868.82049        50.000  
  24469078.53949 128585873.35249    -12689.15249        49.000  
 16 04 02 14 31 50.9000000  0  4G20G05G21G04                                    
  21650251.42249 113772837.89849     12895.86349        49.000  
  22694640.57849 119261140.65249     -9285.88349        50.000  
  23215827.67249 121999996.77749     -4872.83649        50.000  
  24469320.02349 128587142.37549    -12691.46149        49.000  
 16 04 02 14 31 51.0000000  0  4G20G05G21G04                                    
  21650006.07049 113771548.57449     12890.32449        49.000  
  22694817.32049 119262069.44949     -9290.80949        50.000  
  23215920.41449 122000484.18449     -4875.84049        50.000  
  24469561.54749 128588411.58249    -12692.98449        49.000  
 16 04 02 14 31 51.1000000  0  4G20G05G21G04                                    
  21649760.83649 113770259.84849     12884.26249        49.000  
  22694994.16449 119262998.77349     -9296.06249        50.000  
  23216013.23449 122000971.92649     -4879.34049        50.000  
  24469803.10249 128589680.95749    -12694.66049        49.000  
 16 04 02 14 31 51.2000000  0  4G20G05G21G04                                    
  21649515.71149 113768971.72349     12878.29749        49.000  
  22695171.10949 119263928.64149     -9301.43849        50.000  
  23216106.10949 122001460.01249     -4882.79349        50.000  
  24470044.68849 128590950.52049    -12696.54749        49.000  
 16 04 02 14 31 51.3000000  0  4G20G05G21G04                                    
  21649270.72749 113767684.30949     12871.07849        49.000  
  22695348.17249 119264859.15249     -9308.06249        50.000  
  23216199.07849 122001948.55549     -4887.39849        50.000  
  24470286.33649 128592220.35949    -12699.44549        49.000  
 16 04 02 14 31 51.4000000  0  4G20G05G21G04                                    
  21649025.85949 113766397.52049     12864.84049        49.000  
  22695525.35249 119265790.23049     -9313.67249        50.000  
  23216292.11749 122002437.48449     -4891.21549        50.000  
  24470528.01649 128593490.42249    -12701.67649        49.000  
 16 04 02 14 31 51.5000000  0  4G20G05G21G04                                    
  21648781.09449 113765111.30949     12859.09049        49.000  
  22695702.62549 119266721.80149     -9318.68849        50.000  
  23216385.21949 122002926.71949     -4894.44149        50.000  
  24470769.73449 128594760.61749    -12703.10249        49.000  
 16 04 02 14 31 51.6000000  0  4G20G05G21G04                                    
  21648536.45349 113763825.71949     12852.93049        49.000  
  22695880.00849 119267653.94149     -9324.19549        50.000  
  23216478.39149 122003416.32849     -4897.99649        50.000  
  24471011.48449 128596031.03149    -12704.99249        49.000  
 16 04 02 14 31 51.7000000  0  4G20G05G21G04                                    
  21648291.93849 113762540.80949     12845.98849        49.000  
  22696057.50049 119268586.69949     -9330.57449        50.000  
  23216571.64149 122003906.36349     -4902.35949        50.000  
  24471253.28149 128597301.70349    -12707.81249        49.000  
 16 04 02 14 31 51.8000000  0  4G20G05G21G04                                    
  21648047.54749 113761256.52049     12839.84049        49.000  
  22696235.10949 119269520.00849     -9336.02749        50.000  
  23216664.96149 122004396.77349     -4906.12549        50.000  
  24471495.11749 128598572.56649    -12709.67249        49.000  
 16 04 02 14 31 51.9000000  0  4G20G05G21G04                                    
  21647803.28149 113759972.87949     12833.28949        49.000  
  22696412.82049 119270453.89149     -9341.77749        50.000  
  23216758.35949 122004887.57049     -4910.01649        50.000  
  24471737.00049 128599843.66849    -12711.96949        49.000  
 16 04 02 14 31 52.0000000  0  4G20G05G21G04                                    
  21647559.12549 113758689.86349     12827.09849        49.000  
  22696590.64149 119271388.35549     -9347.49649        50.000  
  23216851.82049 122005378.74649     -4913.72749        50.000  
  24471978.92249 128601114.97349    -12714.07849        49.000  
 16 04 02 14 31 52.1000000  0  4G20G05G21G04                                    
  21647315.10249 113757407.50449     12820.62549        49.000  
  22696768.57049 119272323.39549     -9353.38349        50.000  
  23216945.36749 122005870.32449     -4917.79349        50.000  
  24472220.88349 128602386.51649    -12716.43049        49.000  
 16 04 02 14 31 52.2000000  0  4G20G05G21G04                                    
  21647071.18849 113756125.74649     12814.51649        49.000  
  22696946.60249 119273258.97349     -9358.75849        50.000  
  23217038.98449 122006362.25849     -4921.37149        50.000  
  24472462.88349 128603658.22749    -12718.13349        49.000  
 16 04 02 14 31 52.3000000  0  4G20G05G21G04                                    
  21646827.39149 113754844.58249     12808.83649        49.000  
  22697124.73449 119274195.06649     -9363.62549        50.000  
  23217132.64849 122006854.49649     -4924.22749        50.000  
  24472704.91449 128604930.10949    -12719.65649        49.000  
 16 04 02 14 31 52.4000000  0  4G20G05G21G04                                    
  21646583.70349 113753564.00049     12802.89149        49.000  
  22697302.96949 119275131.69549     -9369.15649        50.000  
  23217226.39149 122007347.10249     -4928.04349        50.000  
  24472946.97749 128606202.17649    -12721.64149        49.000  
 16 04 02 14 31 52.5000000  0  4G20G05G21G04                                    
  21646340.15649 113752284.11349     12795.97349        49.000  
  22697481.32049 119276068.93849     -9375.24649        50.000  
  23217320.21949 122007840.12149     -4932.14849        50.000  
  24473189.08649 128607474.48049    -12724.02349        49.000  
 16 04 02 14 31 52.6000000  0  4G20G05G21G04                                    
  21646096.71149 113751004.79349     12790.06649        49.000  
  22697659.76649 119277006.68449     -9380.53549        50.000  
  23217414.09449 122008333.46149     -4935.59049        50.000  
  24473431.23449 128608746.94949    -12725.79349        49.000  
 16 04 02 14 31 52.7000000  0  4G20G05G21G04                                    
  21645853.39149 113749726.11349     12783.77749        49.000  
  22697838.32849 119277945.00849     -9386.18049        50.000  
  23217508.05549 122008827.20349     -4939.32449        50.000  
  24473673.41449 128610019.64849    -12727.93849        49.000  
 16 04 02 14 31 52.8000000  0  4G20G05G21G04                                    
  21645610.18049 113748448.03149     12777.91449        49.000  
  22698016.99249 119278883.86349     -9391.33249        50.000  
  23217602.07049 122009321.27349     -4942.59449        50.000  
  24473915.63349 128611292.51249    -12729.50049        49.000  
 16 04 02 14 31 52.9000000  0  4G20G05G21G04                                    
  21645367.10249 113747170.62949     12770.82449        49.000  
  22698195.75849 119279823.33649     -9397.83649        50.000  
  23217696.17249 122009815.77749     -4947.16049        50.000  
  24474157.90649 128612565.64149    -12732.47349        49.000  
 16 04 02 14 31 53.0000000  0  4G20G05G21G04                                    
  21645124.14149 113745893.85549     12764.40249        49.000  
  22698374.64149 119280763.36349     -9403.52049        50.000  
  23217790.34449 122010310.65249     -4951.11349        50.000  
  24474400.21149 128613838.96549    -12734.52049        49.000  
 16 04 02 14 31 53.1000000  0  4G20G05G21G04                                    
  21644881.29749 113744617.73449     12758.16049        49.000  
  22698553.64149 119281703.98049     -9409.13749        50.000  
  23217884.59449 122010805.92249     -4954.82849        50.000  
  24474642.55549 128615112.53149    -12736.60249        49.000  
 16 04 02 14 31 53.2000000  0  4G20G05G21G04                                    
  21644638.57849 113743342.24249     12751.91449        49.000  
  22698732.73449 119282645.15649     -9414.61349        50.000  
  23217978.91449 122011301.57449     -4958.46149        50.000  
  24474884.94549 128616386.30549    -12738.69949        49.000  
 16 04 02 14 31 53.3000000  0  4G20G05G21G04                                    
  21644395.98449 113742067.37149     12745.64849        49.000  
  22698911.93849 119283586.88749     -9420.26649        50.000  
  23218073.29749 122011797.58249     -4962.15249        50.000  
  24475127.37549 128617660.27049    -12740.78549        49.000  
 16 04 02 14 31 53.4000000  0  4G20G05G21G04                                    
  21644153.49249 113740793.09849     12739.89849        49.000  
  22699091.25049 119284529.15249     -9425.38349        50.000  
  23218167.75049 122012293.94149     -4965.42649        50.000  
  24475369.83649 128618934.41449    -12742.26249        49.000  
 16 04 02 14 31 53.5000000  0  4G20G05G21G04                                    
  21643911.13349 113739519.46949     12733.16049        49.000  
  22699270.66449 119285471.98849     -9431.34849        50.000  
  23218262.28149 122012790.69549     -4969.64549        50.000  
  24475612.33649 128620208.77749    -12744.64149        49.000  
 16 04 02 14 31 53.6000000  0  4G20G05G21G04                                    
  21643668.89149 113738246.48849     12726.82449        49.000  
  22699450.18849 119286415.41049     -9437.04749        50.000  
  23218356.88349 122013287.83249     -4973.19549        50.000  
  24475854.88349 128621483.37149    -12746.73049        49.000  
 16 04 02 14 31 53.7000000  0  4G20G05G21G04                                    
  21643426.77349 113736974.15649     12720.03149        49.000  
  22699629.82849 119287359.41849     -9443.35549        50.000  
  23218451.56249 122013785.37949     -4977.71949        50.000  
  24476097.47749 128622758.19949    -12749.52749        49.000  
 16 04 02 14 31 53.8000000  0  4G20G05G21G04                                    
  21643184.77349 113735702.44549     12713.87949        49.000  
  22699809.57049 119288303.97349     -9448.77749        50.000  
  23218546.31249 122014283.27749     -4981.33649        50.000  
  24476340.10249 128624033.21149    -12751.27749        49.000  
 16 04 02 14 31 53.9000000  0  4G20G05G21G04                                    
  21642942.89849 113734431.38349     12707.53549        49.000  
  22699989.42249 119289249.11349     -9454.32849        50.000  
  23218641.13349 122014781.57849     -4985.00849        50.000  
  24476582.78149 128625308.46549    -12753.50049        49.000  
 16 04 02 14 31 54.0000000  0  4G20G05G21G04                                    
  21642701.14149 113733160.92249     12701.52349        49.000  
  22700169.37549 119290194.78949     -9459.76649        50.000  
  23218736.02349 122015280.22349     -4988.57849        50.000  
  24476825.48449 128626583.89149    -12755.28949        49.000  
 16 04 02 14 31 54.1000000  0  4G20G05G21G04                                    
  21642459.49249 113731891.04349     12695.91849        49.000  
  22700349.43049 119291140.96549     -9464.40649        50.000  
  23218830.97749 122015779.19149     -4991.37549        50.000  
  24477068.21949 128627859.46949    -12756.55149        49.000  
 16 04 02 14 31 54.2000000  0  4G20G05G21G04                                    
  21642217.95349 113730621.75449     12689.98049        49.000  
  22700529.58649 119292087.68449     -9469.97749        50.000  
  23218925.99249 122016278.49649     -4994.97349        50.000  
  24477310.99249 128629135.23049    -12758.50049        49.000  
 16 04 02 14 31 54.3000000  0  4G20G05G21G04                                    
  21641976.54749 113729353.18049     12682.82849        49.000  
  22700709.85949 119293035.04349     -9476.45749        50.000  
  23219021.09449 122016778.27049     -4999.55949        50.000  
  24477553.81249 128630411.27349    -12761.34049        49.000  
 16 04 02 14 31 54.4000000  0  4G20G05G21G04                                    
  21641735.25049 113728085.15649     12677.11749        49.000  
  22700890.22749 119293982.88349     -9481.36349        50.000  
  23219116.25849 122017278.33649     -5002.80949        50.000  
  24477796.66449 128631687.44949    -12762.82049        49.000  
 16 04 02 14 31 54.5000000  0  4G20G05G21G04                                    
  21641494.08649 113726817.81249     12670.36749        49.000  
  22701070.71949 119294931.32849     -9487.48049        50.000  
  23219211.50049 122017778.82449     -5007.07049        50.000  
  24478039.56249 128632963.87949    -12765.43049        49.000  
 16 04 02 14 31 54.6000000  0  4G20G05G21G04                                    
  21641253.04749 113725551.14549     12663.57049        49.000  
  22701251.31249 119295880.39149     -9493.57049        50.000  
  23219306.82049 122018279.73449     -5011.20749        50.000  
  24478282.50849 128634240.56249    -12767.86749        49.000  
 16 04 02 14 31 54.7000000  0  4G20G05G21G04                                    
  21641012.13349 113724285.12549     12657.00049        49.000  
  22701432.02349 119296830.02749     -9499.51249        50.000  
  23219402.21949 122018781.03549     -5015.19549        50.000  
  24478525.48449 128635517.47749    -12770.30149        49.000  
 16 04 02 14 31 54.8000000  0  4G20G05G21G04                                    
  21640771.32849 113723019.69949     12651.15249        49.000  
  22701612.83649 119297780.20349     -9504.69549        50.000  
  23219497.68049 122019282.68849     -5018.56249        50.000  
  24478768.50849 128636794.55549    -12771.85549        49.000  
 16 04 02 14 31 54.9000000  0  4G20G05G21G04                                    
  21640530.64149 113721754.86349     12645.32449        49.000  
  22701793.75049 119298730.87549     -9509.70749        50.000  
  23219593.19549 122019784.64849     -5021.69949        50.000  
  24479011.56249 128638071.79749    -12773.35949        49.000  
 16 04 02 14 31 55.0000000  0  4G20G05G21G04                                    
  21640290.08649 113720490.70349     12638.69549        49.000  
  22701974.77349 119299682.18449     -9515.75049        50.000  
  23219688.80549 122020287.05149     -5025.85949        50.000  
  24479254.66449 128639349.30149    -12775.82449        49.000  
 16 04 02 14 31 55.1000000  0  4G20G05G21G04                                    
  21640049.63349 113719227.13749     12632.73049        49.000  
  22702155.89849 119300634.00449     -9521.08249        50.000  
  23219784.47749 122020789.78949     -5029.31649        50.000  
  24479497.78949 128640626.97749    -12777.64849        49.000  
 16 04 02 14 31 55.2000000  0  4G20G05G21G04                                    
  21639809.28949 113717964.14849     12626.96949        49.000  
  22702337.11749 119301586.33249     -9526.02749        50.000  
  23219880.20349 122021292.85249     -5032.48049        50.000  
  24479740.95349 128641904.80549    -12779.06249        49.000  
 16 04 02 14 31 55.3000000  0  4G20G05G21G04                                    
  21639569.07849 113716701.83649     12620.16049        49.000  
  22702518.46149 119302539.26249     -9532.09849        50.000  
  23219976.00849 122021796.32449     -5036.62149        50.000  
  24479984.16449 128643182.87949    -12781.65649        49.000  
 16 04 02 14 31 55.4000000  0  4G20G05G21G04                                    
  21639328.98449 113715440.15249     12613.60249        49.000  
  22702699.90649 119303492.77049     -9538.17249        50.000  
  23220071.89149 122022300.19149     -5040.84449        50.000  
  24480227.41449 128644461.16849    -12783.98849        49.000  
 16 04 02 14 31 55.5000000  0  4G20G05G21G04                                    
  21639089.01649 113714179.13349     12607.18049        49.000  
  22702881.46149 119304446.85949     -9543.78949        50.000  
  23220167.85249 122022804.44949     -5044.50449        50.000  
  24480470.71149 128645739.69549    -12786.25449        49.000  
 16 04 02 14 31 55.6000000  0  4G20G05G21G04                                    
  21638849.15649 113712918.66049     12601.60549        49.000  
  22703063.10949 119305401.43849     -9548.69949        50.000  
  23220263.85949 122023309.00049     -5047.61749        50.000  
  24480714.03149 128647018.34849    -12787.53549        49.000  
 16 04 02 14 31 55.7000000  0  4G20G05G21G04                                    
  21638609.43049 113711658.87949     12594.91049        49.000  
  22703244.87549 119306356.62949     -9554.66049        50.000  
  23220359.96149 122023813.99649     -5051.70749        50.000  
  24480957.40649 128648297.26649    -12790.02749        49.000  
 16 04 02 14 31 55.8000000  0  4G20G05G21G04                                    
  21638369.82049 113710399.70749     12588.58649        49.000  
  22703426.75049 119307312.36749     -9560.32449        50.000  
  23220456.12549 122024319.34449     -5055.48049        50.000  
  24481200.81249 128649576.37149    -12792.11349        49.000  
 16 04 02 14 31 55.9000000  0  4G20G05G21G04                                    
  21638130.32049 113709141.13749     12582.80949        49.000  
  22703608.71949 119308268.63749     -9565.55549        50.000  
  23220552.35249 122024825.03549     -5058.78549        50.000  
  24481444.25849 128650855.65649    -12793.75449        49.000  
 16 04 02 14 31 56.0000000  0  4G20G05G21G04                                    
  21637890.93849 113707883.18449     12576.53149        49.000  
  22703790.79749 119309225.46149     -9571.11349        50.000  
  23220648.64849 122025331.09449     -5062.50849        50.000  
  24481687.73449 128652135.13349    -12795.75449        49.000  
 16 04 02 14 31 56.1000000  0  4G20G05G21G04                                    
  21637651.69549 113706625.94149     12569.37549        49.000  
  22703973.00049 119310182.91449     -9577.53949        50.000  
  23220745.03949 122025837.59449     -5066.99649        50.000  
  24481931.26649 128653414.89549    -12798.62549        49.000  
 16 04 02 14 31 56.2000000  0  4G20G05G21G04                                    
  21637412.57049 113705369.32049     12562.96949        49.000  
  22704155.30549 119311140.92649     -9583.13349        50.000  
  23220841.49249 122026344.48049     -5071.05549        50.000  
  24482174.83649 128654694.86349    -12800.84049        49.000  
 16 04 02 14 31 56.3000000  0  4G20G05G21G04                                    
  21637173.55549 113704113.33649     12556.71549        49.000  
  22704337.71149 119312099.49649     -9588.71149        50.000  
  23220938.01649 122026851.73049     -5074.50849        50.000  
  24482418.44549 128655975.03149    -12802.79349        49.000  
 16 04 02 14 31 56.4000000  0  4G20G05G21G04                                    
  21636934.66449 113702857.93849     12550.97749        49.000  
  22704520.22749 119313058.60249     -9593.77349        50.000  
  23221034.60949 122027359.32049     -5077.84049        50.000  
  24482662.08649 128657255.36749    -12804.30949        49.000  
 16 04 02 14 31 56.5000000  0  4G20G05G21G04                                    
  21636695.89149 113701603.16849     12544.59049        49.000  
  22704702.84449 119314018.25049     -9599.45349        50.000  
  23221131.26649 122027867.27349     -5081.57049        50.000  
  24482905.76649 128658535.91449    -12806.48049        49.000  
 16 04 02 14 31 56.6000000  0  4G20G05G21G04                                    
  21636457.24249 113700349.07049     12538.05949        49.000  
  22704885.57849 119314978.51649     -9605.45349        50.000  
  23221228.00849 122028375.65249     -5085.66849        50.000  
  24483149.49249 128659816.70349    -12808.79349        49.000  
 16 04 02 14 31 56.7000000  0  4G20G05G21G04                                    
  21636218.70349 113699095.53149     12532.36749        49.000  
  22705068.39849 119315939.26249     -9610.27749        50.000  
  23221324.81249 122028884.34049     -5088.78949        50.000  
  24483393.24249 128661097.62149    -12810.06649        49.000  
 16 04 02 14 31 56.8000000  0  4G20G05G21G04                                    
  21635980.28149 113697842.61749     12526.23049        49.000  
  22705251.33649 119316900.57449     -9615.82849        50.000  
  23221421.68049 122029393.38349     -5092.30949        50.000  
  24483637.03149 128662378.76249    -12812.23449        49.000  
 16 04 02 14 31 56.9000000  0  4G20G05G21G04                                    
  21635741.98449 113696590.34849     12519.77749        49.000  
  22705434.36749 119317862.44149     -9621.48049        50.000  
  23221518.62549 122029902.82849     -5096.38349        50.000  
  24483880.86749 128663660.09849    -12814.32049        49.000  
 16 04 02 14 31 57.0000000  0  4G20G05G21G04                                    
  21635503.81249 113695338.72749     12513.09049        49.000  
  22705617.51649 119318824.89549     -9627.42649        50.000  
  23221615.64149 122030412.64149     -5100.17249        50.000  
  24484124.74249 128664941.66849    -12816.73049        49.000  
 16 04 02 14 31 57.1000000  0  4G20G05G21G04                                    
  21635265.75049 113694087.71149     12507.03149        49.000  
  22705800.77349 119319787.90249     -9633.07049        50.000  
  23221712.72749 122030922.84049     -5104.00449        50.000  
  24484368.65649 128666223.42649    -12818.68449        49.000  
 16 04 02 14 31 57.2000000  0  4G20G05G21G04                                    
  21635027.82049 113692837.39149     12500.14149        49.000  
  22705984.14149 119320751.51649     -9639.16049        50.000  
  23221809.89849 122031433.45749     -5108.22349        50.000  
  24484612.61749 128667505.45349    -12821.30549        49.000  
 16 04 02 14 31 57.3000000  0  4G20G05G21G04                                    
  21634790.00849 113691587.71949     12493.61349        49.000  
  22706167.61749 119321715.69949     -9644.77349        50.000  
  23221907.14149 122031944.46549     -5112.16849        50.000  
  24484856.62549 128668787.69149    -12823.45749        49.000  
 16 04 02 14 31 57.4000000  0  4G20G05G21G04                                    
  21634552.31249 113690338.59049     12488.18049        49.000  
  22706351.19549 119322680.37949     -9649.64149        50.000  
  23222004.43849 122032455.76649     -5114.96949        50.000  
  24485100.65649 128670070.06249    -12824.66449        49.000  
 16 04 02 14 31 57.5000000  0  4G20G05G21G04                                    
  21634314.73449 113689090.10549     12481.93049        49.000  
  22706534.87549 119323645.61749     -9655.17649        50.000  
  23222101.80549 122032967.45349     -5118.70749        50.000  
  24485344.73449 128671352.64549    -12826.72349        49.000  
 16 04 02 14 31 57.6000000  0  4G20G05G21G04                                    
  21634077.28149 113687842.28149     12475.25049        49.000  
  22706718.66449 119324611.44949     -9661.11749        50.000  
  23222199.25049 122033479.54349     -5122.87949        50.000  
  24485588.84449 128672635.46949    -12829.12949        49.000  
 16 04 02 14 31 57.7000000  0  4G20G05G21G04                                    
  21633839.93049 113686595.02749     12469.38349        49.000  
  22706902.55549 119325577.79349     -9666.41049        50.000  
  23222296.75849 122033991.94949     -5126.15249        50.000  
  24485832.98449 128673918.44149    -12830.83649        49.000  
 16 04 02 14 31 57.8000000  0  4G20G05G21G04                                    
  21633602.72749 113685348.50049     12462.14149        49.000  
  22707086.57049 119326544.78549     -9672.98849        50.000  
  23222394.35249 122034504.83249     -5130.96549        50.000  
  24486077.18849 128675201.70349    -12833.73849        49.000  
 16 04 02 14 31 57.9000000  0  4G20G05G21G04                                    
  21633365.64149 113684102.60949     12455.70349        49.000  
  22707270.68849 119327512.32849     -9678.34049        50.000  
  23222492.02349 122035018.08249     -5134.68849        50.000  
  24486321.42249 128676485.18849    -12835.93849        49.000  
 16 04 02 14 31 58.0000000  0  4G20G05G21G04                                    
  21633128.67249 113682857.33649     12449.51249        49.000  
  22707454.91449 119328480.43849     -9684.10549        50.000  
  23222589.75849 122035531.69549     -5138.27349        50.000  
  24486565.70349 128677768.86749    -12837.96149        49.000  
 16 04 02 14 31 58.1000000  0  4G20G05G21G04                                    
  21632891.81249 113681612.65249     12443.85949        49.000  
  22707639.23449 119329449.07049     -9689.08249        50.000  
  23222687.56249 122036045.65249     -5141.43849        50.000  
  24486810.01649 128679052.70749    -12839.34849        49.000  
 16 04 02 14 31 58.2000000  0  4G20G05G21G04                                    
  21632655.07049 113680368.56649     12437.98049        49.000  
  22707823.65649 119330418.21149     -9694.36749        50.000  
  23222785.43049 122036559.93849     -5144.71149        50.000  
  24487054.35249 128680336.71149    -12840.96949        49.000  
 16 04 02 14 31 58.3000000  0  4G20G05G21G04                                    
  21632418.46149 113679125.15649     12431.12549        49.000  
  22708008.19549 119331387.96949     -9700.42649        50.000  
  23222883.37549 122037074.66049     -5149.04749        50.000  
  24487298.74249 128681620.98049    -12843.53949        49.000  
 16 04 02 14 31 58.4000000  0  4G20G05G21G04                                    
  21632181.96949 113677882.36749     12424.92249        49.000  
  22708192.83649 119332358.27349     -9705.84849        50.000  
  23222981.39149 122037589.74249     -5152.72349        50.000  
  24487543.17249 128682905.44149    -12845.60249        49.000  
 16 04 02 14 31 58.5000000  0  4G20G05G21G04                                    
  21631945.58649 113676640.18849     12418.87549        49.000  
  22708377.58649 119333329.12149     -9711.24649        50.000  
  23223079.47749 122038105.16849     -5156.25049        50.000  
  24487787.63349 128684190.08249    -12847.38749        49.000  
 16 04 02 14 31 58.6000000  0  4G20G05G21G04                                    
  21631709.32849 113675398.62549     12412.75449        49.000  
  22708562.43849 119334300.51649     -9716.73849        50.000  
  23223177.62549 122038620.96549     -5159.74249        50.000  
  24488032.13349 128685474.92249    -12849.23849        49.000  
 16 04 02 14 31 58.7000000  0  4G20G05G21G04                                    
  21631473.19549 113674157.71949     12406.07449        49.000  
  22708747.39849 119335272.48849     -9722.59849        50.000  
  23223275.85249 122039137.14149     -5163.71549        50.000  
  24488276.68049 128686759.97749    -12851.45749        49.000  
 16 04 02 14 31 58.8000000  0  4G20G05G21G04                                    
  21631237.16449 113672917.39549     12400.19949        49.000  
  22708932.46149 119336244.97749     -9727.82049        50.000  
  23223374.14149 122039653.66049     -5167.11749        50.000  
  24488521.25049 128688045.20749    -12853.32849        49.000  
 16 04 02 14 31 58.9000000  0  4G20G05G21G04                                    
  21631001.26649 113671677.68849     12394.05149        49.000  
  22709117.62549 119337218.01249     -9733.19149        50.000  
  23223472.50049 122040170.55149     -5170.80949        50.000  
  24488765.85949 128689330.62549    -12855.09049        49.000  
 16 04 02 14 31 59.0000000  0  4G20G05G21G04                                    
  21630765.46949 113670438.58649     12388.06249        49.000  
  22709302.88349 119338191.57449     -9738.30549        50.000  
  23223570.92249 122040687.76649     -5174.05149        50.000  
  24489010.50049 128690616.21949    -12856.79349        49.000  
 16 04 02 14 31 59.1000000  0  4G20G05G21G04                                    
  21630529.81249 113669200.13349     12381.42249        49.000  
  22709488.25849 119339165.71949     -9744.40649        50.000  
  23223669.42249 122041205.38749     -5178.26249        50.000  
  24489255.18849 128691902.03949    -12859.24649        49.000  
 16 04 02 14 31 59.2000000  0  4G20G05G21G04                                    
  21630294.26649 113667962.32849     12375.03549        49.000  
  22709673.74249 119340140.44549     -9750.05549        50.000  
  23223768.00049 122041723.39549     -5182.04349        50.000  
  24489499.91449 128693188.08249    -12861.36749        49.000  
 16 04 02 14 31 59.3000000  0  4G20G05G21G04                                    
  21630058.83649 113666725.11349     12368.98849        49.000  
  22709859.32849 119341115.68449     -9755.35949        50.000  
  23223866.63349 122042241.73449     -5185.58649        50.000  
  24489744.66449 128694474.28549    -12863.15649        49.000  
 16 04 02 14 31 59.4000000  0  4G20G05G21G04                                    
  21629823.53149 113665488.60549     12361.86349        49.000  
  22710045.03149 119342091.56249     -9761.81249        50.000  
  23223965.35949 122042760.53949     -5190.17249        50.000  
  24489989.47749 128695760.78149    -12866.10249        49.000  
 16 04 02 14 31 59.5000000  0  4G20G05G21G04                                    
  21629588.36749 113664252.79749     12354.91049        49.000  
  22710230.85249 119343068.06249     -9768.06249        50.000  
  23224064.16449 122043279.76249     -5194.39549        50.000  
  24490234.33649 128697047.52749    -12868.57849        49.000  
 16 04 02 14 31 59.6000000  0  4G20G05G21G04                                    
  21629353.30549 113663017.53549     12349.46149        49.000  
  22710416.76649 119344045.03949     -9772.75049        50.000  
  23224163.03149 122043799.30149     -5197.43449        50.000  
  24490479.22749 128698334.41849    -12869.93449        49.000  
 16 04 02 14 31 59.7000000  0  4G20G05G21G04                                    
  21629118.37549 113661782.94949     12342.82449        49.000  
  22710602.79749 119345022.62549     -9778.62949        50.000  
  23224261.96949 122044319.23049     -5201.32449        50.000  
  24490724.15649 128699621.54349    -12872.18049        49.000  
 16 04 02 14 31 59.8000000  0  4G20G05G21G04                                    
  21628883.55549 113660548.96949     12336.65249        49.000  
  22710788.93049 119346000.74249     -9784.12549        50.000  
  23224360.97749 122044839.51649     -5205.04349        50.000  
  24490969.11749 128700908.85949    -12874.19949        49.000  
 16 04 02 14 31 59.9000000  0  4G20G05G21G04                                    
  21628648.85949 113659315.59849     12330.77749        49.000  
  22710975.15649 119346979.39849     -9789.32849        50.000  
  23224460.05549 122045360.18049     -5208.45749        50.000  
  24491214.12549 128702196.35549    -12875.84849        49.000  
 16 04 02 14 32  0.0000000  0  4G20G05G21G04                                    
  21628414.26649 113658082.83649     12324.71949        49.000  
  22711161.49249 119347958.58649     -9794.71549        50.000  
  23224559.19549 122045881.17249     -5211.85249        50.000  
  24491459.15649 128703484.03549    -12877.68449        49.000  
 16 04 02 14 32  0.1000000  0  4G20G05G21G04                                    
  21628179.81249 113656850.73049     12318.05149        49.000  
  22711347.93849 119348938.36749     -9800.71149        50.000  
  23224658.41449 122046402.56649     -5215.88349        50.000  
  24491704.24249 128704771.94549    -12880.03549        49.000  
 16 04 02 14 32  0.2000000  0  4G20G05G21G04                                    
  21627945.47749 113655619.28549     12311.37949        49.000  
  22711534.49249 119349918.73449     -9806.64149        50.000  
  23224757.70349 122046924.37149     -5220.10949        50.000  
  24491949.36749 128706060.09049    -12882.53949        49.000  
 16 04 02 14 32  0.3000000  0  4G20G05G21G04                                    
  21627711.25049 113654388.47349     12305.14549        49.000  
  22711721.15649 119350899.65649     -9812.02049        50.000  
  23224857.07049 122047446.54349     -5223.51649        50.000  
  24492194.52349 128707348.43049    -12884.32449        49.000  
 16 04 02 14 32  0.4000000  0  4G20G05G21G04                                    
  21627477.14149 113653158.21149     12299.57449        49.000  
  22711907.91449 119351881.06249     -9816.86749        50.000  
  23224956.49249 122047969.01649     -5226.78549        50.000  
  24492439.71949 128708636.91049    -12885.72349        49.000  
 16 04 02 14 32  0.5000000  0  4G20G05G21G04                                    
  21627243.16449 113651928.64149     12292.75849        49.000  
  22712094.78949 119352863.08649     -9823.07049        50.000  
  23225056.00049 122048491.91449     -5230.96149        50.000  
  24492684.95349 128709925.65249    -12888.36349        49.000  
 16 04 02 14 32  0.6000000  0  4G20G05G21G04                                    
  21627009.29749 113650699.67249     12286.70349        49.000  
  22712281.75849 119353845.62949     -9828.32049        50.000  
  23225155.56249 122049015.14849     -5234.34049        50.000  
  24492930.21949 128711214.54749    -12889.93849        49.000  
 16 04 02 14 32  0.7000000  0  4G20G05G21G04                                    
  21626775.54749 113649471.30549     12280.60949        49.000  
  22712468.83649 119354828.71949     -9833.79749        50.000  
  23225255.19549 122049538.74649     -5238.01249        50.000  
  24493175.52349 128712503.64849    -12891.95749        49.000  
 16 04 02 14 32  0.8000000  0  4G20G05G21G04                                    
  21626541.92249 113648243.59849     12273.93049        49.000  
  22712656.02349 119355812.37949     -9839.66849        50.000  
  23225354.91449 122050062.73849     -5241.98049        50.000  
  24493420.87549 128713792.96949    -12894.27349        49.000  
 16 04 02 14 32  0.9000000  0  4G20G05G21G04                                    
  21626308.41449 113647016.49249     12268.02349        49.000  
  22712843.30549 119356796.57449     -9844.76649        50.000  
  23225454.69549 122050587.08649     -5245.44149        50.000  
  24493666.25849 128715082.46149    -12895.81249        49.000  
 16 04 02 14 32  1.0000000  0  4G20G05G21G04                                    
  21626075.01649 113645789.99249     12262.09449        49.000  
  22713030.69549 119357781.30949     -9849.98849        50.000  
  23225554.53949 122051111.77049     -5248.76649        50.000  
  24493911.67249 128716372.14149    -12897.59049        49.000  
 16 04 02 14 32  1.1000000  0  4G20G05G21G04                                    
  21625841.73449 113644564.10949     12255.86349        49.000  
  22713218.18849 119358766.58649     -9855.56649        50.000  
  23225654.45349 122051636.81249     -5252.39149        50.000  
  24494157.12549 128717662.02349    -12899.71149        49.000  
 16 04 02 14 32  1.2000000  0  4G20G05G21G04                                    
  21625608.57849 113643338.85549     12249.57049        49.000  
  22713405.78949 119359752.41849     -9861.26249        50.000  
  23225754.43849 122052162.23449     -5256.14849        50.000  
  24494402.61749 128718952.08249    -12901.64149        49.000  
 16 04 02 14 32  1.3000000  0  4G20G05G21G04                                    
  21625375.53949 113642114.25449     12243.07849        49.000  
  22713593.49249 119360738.82449     -9866.87549        50.000  
  23225854.49249 122052688.03549     -5259.91849        50.000  
  24494648.15649 128720242.37549    -12903.80549        49.000  
 16 04 02 14 32  1.4000000  0  4G20G05G21G04                                    
  21625142.63349 113640890.30549     12236.33649        49.000  
  22713781.31249 119361725.81649     -9872.96549        50.000  
  23225954.62549 122053214.25049     -5264.32849        50.000  
  24494893.73449 128721532.89849    -12906.36749        49.000  
 16 04 02 14 32  1.5000000  0  4G20G05G21G04                                    
  21624909.83649 113639666.99649     12230.08249        49.000  
  22713969.24249 119362713.37149     -9878.36349        50.000  
  23226054.83649 122053740.83249     -5267.57049        50.000  
  24495139.35249 128722823.63349    -12908.30149        49.000  
 16 04 02 14 32  1.6000000  0  4G20G05G21G04                                    
  21624677.15649 113638444.22749     12224.55149        49.000  
  22714157.25849 119363701.40249     -9883.30549        50.000  
  23226155.09449 122054267.71949     -5270.98049        50.000  
  24495384.99249 128724114.47749    -12909.55149        49.000  
 16 04 02 14 32  1.7000000  0  4G20G05G21G04                                    
  21624444.59449 113637222.14549     12217.88349        49.000  
  22714345.38349 119364690.02749     -9889.06649        50.000  
  23226255.43849 122054795.00049     -5274.77349        50.000  
  24495630.69549 128725405.58249    -12911.86749        49.000  
 16 04 02 14 32  1.8000000  0  4G20G05G21G04                                    
  21624212.14849 113636000.62549     12212.24649        49.000  
  22714533.60949 119365679.16449     -9894.09449        50.000  
  23226355.83649 122055322.61749     -5278.03949        50.000  
  24495876.40649 128726696.82049    -12913.23449        49.000  
 16 04 02 14 32  1.9000000  0  4G20G05G21G04                                    
  21623979.82049 113634779.77749     12205.43049        49.000  
  22714721.95349 119366668.89149     -9900.23049        50.000  
  23226456.31249 122055850.63349     -5282.24649        50.000  
  24496122.17249 128727988.32449    -12916.02749        49.000  
 16 04 02 14 32  2.0000000  0  4G20G05G21G04                                    
  21623747.63349 113633559.62149     12198.31249        49.000  
  22714910.40649 119367659.23049     -9906.51249        50.000  
  23226556.87549 122056379.08649     -5286.79749        50.000  
  24496367.98449 128729280.05949    -12918.59849        49.000  
 16 04 02 14 32  2.1000000  0  4G20G05G21G04                                    
  21623515.56249 113632340.06649     12192.44149        49.000  
  22715098.96949 119368650.10249     -9911.60249        50.000  
  23226657.50049 122056907.88349     -5289.94949        50.000  
  24496613.82049 128730571.98849    -12920.27349        49.000  
 16 04 02 14 32  2.2000000  0  4G20G05G21G04                                    
  21623283.60949 113631121.13749     12186.08249        49.000  
  22715287.62549 119369641.52749     -9917.37949        50.000  
  23226758.19549 122057437.04349     -5293.75449        50.000  
  24496859.70349 128731864.10949    -12922.36349        49.000  
 16 04 02 14 32  2.3000000  0  4G20G05G21G04                                    
  21623051.77349 113629902.84449     12179.93449        49.000  
  22715476.39849 119370633.51249     -9922.75849        50.000  
  23226858.96949 122057966.58649     -5297.36749        50.000  
  24497105.63349 128733156.44549    -12924.37949        49.000  
 16 04 02 14 32  2.4000000  0  4G20G05G21G04                                    
  21622820.06249 113628685.16849     12173.68849        49.000  
  22715665.26649 119371626.02749     -9928.14149        50.000  
  23226959.80549 122058496.48449     -5300.97349        50.000  
  24497351.59449 128734448.96549    -12926.23849        49.000  
 16 04 02 14 32  2.5000000  0  4G20G05G21G04                                    
  21622588.43849 113627468.05549     12168.05949        49.000  
  22715854.23449 119372619.06649     -9933.21949        50.000  
  23227060.69549 122059026.69149     -5303.97349        50.000  
  24497597.57849 128735741.62549    -12927.47749        49.000  
 16 04 02 14 32  2.6000000  0  4G20G05G21G04                                    
  21622356.95349 113626251.59849     12161.70349        49.000  
  22716043.30549 119373612.65249     -9938.68849        50.000  
  23227161.67249 122059557.30149     -5307.81249        50.000  
  24497843.60949 128737034.50049    -12929.68449        49.000  
 16 04 02 14 32  2.7000000  0  4G20G05G21G04                                    
  21622125.58649 113625035.76249     12155.33649        49.000  
  22716232.48449 119374606.80949     -9944.35949        50.000  
  23227262.71149 122060088.26649     -5311.60249        50.000  
  24498089.67249 128738327.58649    -12931.76249        49.000  
 16 04 02 14 32  2.8000000  0  4G20G05G21G04                                    
  21621894.34449 113623820.54749     12148.98449        49.000  
  22716421.76649 119375601.50049     -9949.94949        50.000  
  23227363.82049 122060619.59049     -5315.39849        50.000  
  24498335.77349 128739620.85549    -12933.78149        49.000  
 16 04 02 14 32  2.9000000  0  4G20G05G21G04                                    
  21621663.22749 113622606.02749     12141.96549        49.000  
  22716611.17249 119376596.81649     -9956.23449        50.000  
  23227465.01649 122061151.36349     -5319.78149        50.000  
  24498581.92249 128740914.39149    -12936.41049        49.000  
 16 04 02 14 32  3.0000000  0  4G20G05G21G04                                    
  21621432.23449 113621392.13749     12135.70349        49.000  
  22716800.68049 119377592.68449     -9961.65649        50.000  
  23227566.27349 122061683.49649     -5323.44549        50.000  
  24498828.11749 128742208.12949    -12938.44949        49.000  
 16 04 02 14 32  3.1000000  0  4G20G05G21G04                                    
  21621201.34449 113620178.84449     12129.93049        49.000  
  22716990.28149 119378589.08249     -9966.84049        50.000  
  23227667.60249 122062215.96949     -5326.66449        50.000  
  24499074.33649 128743502.05149    -12940.13349        49.000  
 16 04 02 14 32  3.2000000  0  4G20G05G21G04                                    
  21620970.57849 113618966.14149     12124.26249        49.000  
  22717179.99249 119379585.99649     -9971.74249        50.000  
  23227768.99249 122062748.78949     -5329.93449        50.000  
  24499320.59449 128744796.11749    -12941.44149        49.000  
 16 04 02 14 32  3.3000000  0  4G20G05G21G04                                    
  21620739.93849 113617754.12949     12117.21949        49.000  
  22717369.81249 119380583.51249     -9977.99649        50.000  
  23227870.46949 122063282.02749     -5334.35949        50.000  
  24499566.89149 128746090.45349    -12944.23849        49.000  
 16 04 02 14 32  3.4000000  0  4G20G05G21G04                                    
  21620509.41449 113616542.72749     12110.93849        49.000  
  22717559.73449 119381581.57849     -9983.60249        50.000  
  23227972.00849 122063815.61349     -5337.99649        50.000  
  24499813.23449 128747384.96149    -12946.10249        49.000  
 16 04 02 14 32  3.5000000  0  4G20G05G21G04                                    
  21620279.03149 113615332.00449     12104.17249        49.000  
  22717749.77349 119382580.23849     -9989.48449        50.000  
  23228073.62549 122064349.62549     -5342.12949        50.000  
  24500059.62549 128748679.73449    -12948.82449        49.000  
 16 04 02 14 32  3.6000000  0  4G20G05G21G04                                    
  21620048.75049 113614121.86749     12098.33649        49.000  
  22717939.91449 119383579.42249     -9994.66449        50.000  
  23228175.31249 122064883.97749     -5345.43449        50.000  
  24500306.03949 128749974.66849    -12950.34849        49.000  
 16 04 02 14 32  3.7000000  0  4G20G05G21G04                                    
  21619818.58649 113612912.32849     12092.45349        49.000  
  22718130.14849 119384579.12149     -9999.79749        50.000  
  23228277.05549 122065418.64149     -5348.49649        50.000  
  24500552.48449 128751269.74249    -12951.63749        49.000  
 16 04 02 14 32  3.8000000  0  4G20G05G21G04                                    
  21619588.53149 113611703.39149     12086.30149        49.000  
  22718320.48449 119385579.34049    -10005.10549        50.000  
  23228378.86749 122065953.66849     -5352.26249        50.000  
  24500798.96949 128752565.02749    -12953.75849        49.000  
 16 04 02 14 32  3.9000000  0  4G20G05G21G04                                    
  21619358.60949 113610495.16049     12079.33249        49.000  
  22718510.93849 119386580.19949    -10011.29349        50.000  
  23228480.76649 122066489.14149     -5356.64849        50.000  
  24501045.50049 128753860.55949    -12956.25449        49.000  
 16 04 02 14 32  4.0000000  0  4G20G05G21G04                                    
  21619128.81249 113609287.57849     12072.47349        49.000  
  22718701.50849 119387581.64549    -10017.59449        50.000  
  23228582.73449 122067025.00849     -5360.97349        50.000  
  24501292.07849 128755156.34849    -12959.12149        49.000  
 16 04 02 14 32  4.1000000  0  4G20G05G21G04                                    
  21618899.13349 113608080.60949     12066.77749        49.000  
  22718892.18049 119388583.61349    -10022.46149        50.000  
  23228684.77349 122067561.21549     -5364.04349        50.000  
  24501538.68849 128756452.28149    -12960.27049        49.000  
 16 04 02 14 32  4.2000000  0  4G20G05G21G04                                    
  21618669.56249 113606874.21549     12060.90649        49.000  
  22719082.94549 119389586.09049    -10027.63349        50.000  
  23228786.86749 122068097.73849     -5367.18049        50.000  
  24501785.32849 128757748.37949    -12961.87949        49.000  
 16 04 02 14 32  4.3000000  0  4G20G05G21G04                                    
  21618440.11749 113605668.48849     12054.26249        49.000  
  22719273.82049 119390589.14849    -10033.39549        50.000  
  23228889.05549 122068634.69149     -5371.36349        50.000  
  24502032.00849 128759044.71149    -12964.15249        49.000  
 16 04 02 14 32  4.4000000  0  4G20G05G21G04                                    
  21618210.79749 113604463.40249     12047.73049        49.000  
  22719464.79749 119391592.77049    -10039.14849        50.000  
  23228991.29749 122069172.00849     -5375.27049        50.000  
  24502278.73449 128760341.26649    -12966.48049        49.000  
 16 04 02 14 32  4.5000000  0  4G20G05G21G04                                    
  21617981.60949 113603258.98049     12041.08249        49.000  
  22719655.89849 119392596.99649    -10045.13749        50.000  
  23229093.62549 122069709.73849     -5379.37549        50.000  
  24502525.50849 128761638.03949    -12968.73049        49.000  
 16 04 02 14 32  4.6000000  0  4G20G05G21G04                                    
  21617752.53149 113602055.17249     12035.04749        49.000  
  22719847.10249 119393601.74249    -10050.34849        50.000  
  23229196.01649 122070247.80549     -5382.66849        50.000  
  24502772.31249 128762935.02049    -12970.71549        49.000  
 16 04 02 14 32  4.7000000  0  4G20G05G21G04                                    
  21617523.56249 113600851.92249     12029.46149        49.000  
  22720038.39149 119394606.98849    -10055.36349        50.000  
  23229298.46949 122070786.19949     -5385.99649        50.000  
  24503019.14149 128764232.11349    -12971.96149        49.000  
 16 04 02 14 32  4.8000000  0  4G20G05G21G04                                    
  21617294.71949 113599649.33649     12022.93849        49.000  
  22720229.79749 119395612.81249    -10061.00049        50.000  
  23229401.00049 122071324.97349     -5389.51649        50.000  
  24503266.01649 128765529.45749    -12974.19549        49.000  
 16 04 02 14 32  4.9000000  0  4G20G05G21G04                                    
  21617066.00049 113598447.39849     12016.43849        49.000  
  22720421.30549 119396619.21949    -10066.89849        50.000  
  23229503.60249 122071864.15649     -5393.82049        50.000  
  24503512.93049 128766827.00049    -12976.47749        49.000  
 16 04 02 14 32  5.0000000  0  4G20G05G21G04                                    
  21616837.40649 113597246.11349     12009.89149        49.000  
  22720612.93049 119397626.19549    -10072.60949        50.000  
  23229606.27349 122072403.71549     -5397.52049        50.000  
  24503759.89149 128768124.77049    -12978.63349        49.000  
 16 04 02 14 32  5.1000000  0  4G20G05G21G04                                    
  21616608.91449 113596045.45349     12003.54749        49.000  
  22720804.64849 119398633.71549    -10078.11749        50.000  
  23229709.02349 122072943.66049     -5401.36749        50.000  
  24504006.88349 128769422.74249    -12980.70749        49.000  
 16 04 02 14 32  5.2000000  0  4G20G05G21G04                                    
  21616380.56249 113594845.46549     11996.87949        49.000  
  22720996.49249 119399641.83249    -10084.00449        50.000  
  23229811.84449 122073483.99649     -5405.48849        50.000  
  24504253.92249 128770720.95749    -12983.19949        49.000  
 16 04 02 14 32  5.3000000  0  4G20G05G21G04                                    
  21616152.32849 113593646.03549     11991.32449        49.000  
  22721188.42249 119400650.44149    -10088.89549        50.000  
  23229914.72749 122074024.64849     -5408.33649        50.000  
  24504500.98449 128772019.29749    -12984.34449        49.000  
 16 04 02 14 32  5.4000000  0  4G20G05G21G04                                    
  21615924.19549 113592447.22749     11985.07849        49.000  
  22721380.45349 119401659.59449    -10094.35949        50.000  
  23230017.67249 122074565.65249     -5412.05949        50.000  
  24504748.08649 128773317.82849    -12986.30549        49.000  
 16 04 02 14 32  5.5000000  0  4G20G05G21G04                                    
  21615696.21149 113591249.13349     11977.86749        49.000  
  22721572.61749 119402669.37549    -10100.75449        50.000  
  23230120.71149 122075107.11749     -5416.59449        50.000  
  24504995.24249 128774616.64549    -12989.08249        49.000  
 16 04 02 14 32  5.6000000  0  4G20G05G21G04                                    
  21615468.34449 113590051.69549     11971.16449        49.000  
  22721764.88349 119403679.73849    -10106.58649        50.000  
  23230223.82049 122075648.96949     -5420.73849        50.000  
  24505242.43849 128775915.68849    -12991.50849        49.000  
 16 04 02 14 32  5.7000000  0  4G20G05G21G04                                    
  21615240.58649 113588854.83249     11965.50449        49.000  
  22721957.24249 119404690.62549    -10111.75849        50.000  
  23230326.99249 122076191.15649     -5423.87949        50.000  
  24505489.67249 128777214.89549    -12993.12149        49.000  
 16 04 02 14 32  5.8000000  0  4G20G05G21G04                                    
  21615012.95349 113587658.62549     11959.00849        49.000  
  22722149.71149 119405702.05949    -10117.27349        50.000  
  23230430.24249 122076733.71949     -5427.68449        50.000  
  24505736.93849 128778514.29749    -12995.02049        49.000  
 16 04 02 14 32  5.9000000  0  4G20G05G21G04                                    
  21614785.43849 113586463.03949     11952.74649        49.000  
  22722342.28949 119406714.03949    -10122.71949        50.000  
  23230533.56249 122077276.64849     -5431.36349        50.000  
  24505984.25049 128779813.90649    -12996.96549        49.000  
 16 04 02 14 32  6.0000000  0  4G20G05G21G04                                    
  21614558.03949 113585268.04749     11947.16449        49.000  
  22722534.96149 119407726.56249    -10127.76249        50.000  
  23230636.94549 122077819.91449     -5434.35949        50.000  
  24506231.58649 128781113.68049    -12998.42249        49.000  
 16 04 02 14 32  6.1000000  0  4G20G05G21G04                                    
  21614330.75849 113584073.69549     11940.47349        49.000  
  22722727.74249 119408739.62149    -10133.48849        50.000  
  23230740.39849 122078363.56249     -5438.46149        50.000  
  24506478.96149 128782413.65649    -13000.62549        49.000  
 16 04 02 14 32  6.2000000  0  4G20G05G21G04                                    
  21614103.59449 113582879.91049     11934.85549        49.000  
  22722920.61749 119409753.19149    -10138.44149        50.000  
  23230843.90649 122078907.52049     -5441.48049        50.000  
  24506726.36749 128783713.78549    -13002.07449        49.000  
 16 04 02 14 32  6.3000000  0  4G20G05G21G04                                    
  21613876.56249 113581686.83249     11927.72349        49.000  
  22723113.61749 119410767.37949    -10144.74649        50.000  
  23230947.50049 122079451.92249     -5446.01249        50.000  
  24506973.82849 128785014.17649    -13004.79349        49.000  
 16 04 02 14 32  6.4000000  0  4G20G05G21G04                                    
  21613649.64149 113580494.36349     11921.58249        49.000  
  22723306.71149 119411782.10549    -10150.11349        50.000  
  23231051.16449 122079996.66849     -5449.50049        50.000  
  24507221.32049 128786314.75449    -13006.68449        49.000  
 16 04 02 14 32  6.5000000  0  4G20G05G21G04                                    
  21613422.83649 113579302.50449     11915.51649        49.000  
  22723499.90649 119412797.37149    -10155.55149        50.000  
  23231154.89849 122080541.77349     -5452.97349        50.000  
  24507468.85249 128787615.51249    -13008.50849        49.000  
 16 04 02 14 32  6.6000000  0  4G20G05G21G04                                    
  21613196.14849 113578111.24249     11909.56649        49.000  
  22723693.20349 119413813.14149    -10160.61749        50.000  
  23231258.68849 122081087.20349     -5456.35949        50.000  
  24507716.40649 128788916.43049    -13010.11749        49.000  
 16 04 02 14 32  6.7000000  0  4G20G05G21G04                                    
  21612969.57849 113576920.64149     11903.04349        49.000  
  22723886.61749 119414829.51249    -10166.60949        50.000  
  23231362.56249 122081633.05949     -5460.46549        50.000  
  24507964.00849 128790217.59849    -13012.58649        49.000  
 16 04 02 14 32  6.8000000  0  4G20G05G21G04                                    
  21612743.13349 113575730.66049     11896.81649        49.000  
  22724080.12549 119415846.41049    -10171.80949        50.000  
  23231466.50049 122082179.25449     -5463.91049        50.000  
  24508211.64849 128791518.93049    -13014.24249        49.000  
 16 04 02 14 32  6.9000000  0  4G20G05G21G04                                    
  21612516.80549 113574541.29749     11890.64149        49.000  
  22724273.73449 119416863.85249    -10177.23449        50.000  
  23231570.50849 122082725.80549     -5467.41449        50.000  
  24508459.31249 128792820.46149    -13016.23449        49.000  
 16 04 02 14 32  7.0000000  0  4G20G05G21G04                                    
  21612290.59449 113573352.55549     11884.50849        49.000  
  22724467.45349 119417881.84849    -10182.73049        50.000  
  23231674.58649 122083272.72349     -5471.08649        50.000  
  24508707.02349 128794122.18849    -13018.15249        49.000  
 16 04 02 14 32  7.1000000  0  4G20G05G21G04                                    
  21612064.50849 113572164.43049     11878.28949        49.000  
  22724661.28149 119418900.38349    -10188.18449        50.000  
  23231778.72749 122083820.00849     -5474.84849        50.000  
  24508954.76649 128795424.09849    -13020.00849        49.000  
 16 04 02 14 32  7.2000000  0  4G20G05G21G04                                    
  21611838.54749 113570977.00049     11871.22349        49.000  
  22724855.21949 119419919.52349    -10194.40249        50.000  
  23231882.95349 122084367.71949     -5479.12149        50.000  
  24509202.56249 128796726.26249    -13022.70349        49.000  
 16 04 02 14 32  7.3000000  0  4G20G05G21G04                                    
  21611612.69549 113569790.11749     11865.68049        49.000  
  22725049.24249 119420939.14849    -10199.25849        50.000  
  23231987.23449 122084915.71949     -5482.13349        50.000  
  24509450.38349 128798028.56249    -13024.10249        49.000  
 16 04 02 14 32  7.4000000  0  4G20G05G21G04                                    
  21611386.96149 113568603.87949     11859.52049        49.000  
  22725243.37549 119421959.32449    -10204.54749        50.000  
  23232091.58649 122085464.09049     -5485.50049        50.000  
  24509698.24249 128799331.05149    -13025.67249        49.000  
 16 04 02 14 32  7.5000000  0  4G20G05G21G04                                    
  21611161.35249 113567418.33249     11852.36749        49.000  
  22725437.62549 119422980.12149    -10210.86749        50.000  
  23232196.02349 122086012.90649     -5490.16049        50.000  
  24509946.14849 128800633.82049    -13028.69549        49.000  
 16 04 02 14 32  7.6000000  0  4G20G05G21G04                                    
  21610935.85949 113566233.34849     11846.67649        49.000  
  22725631.96949 119424001.40249    -10215.75849        50.000  
  23232300.51649 122086562.02049     -5493.25449        50.000  
  24510194.08649 128801936.71949    -13030.08649        49.000  
 16 04 02 14 32  7.7000000  0  4G20G05G21G04                                    
  21610710.49249 113565049.03149     11840.17249        49.000  
  22725826.42249 119425023.27049    -10221.52349        50.000  
  23232405.08649 122087111.54749     -5497.23449        50.000  
  24510442.06249 128803239.84049    -13032.20349        49.000  
 16 04 02 14 32  7.8000000  0  4G20G05G21G04                                    
  21610485.24249 113563865.32849     11833.94949        49.000  
  22726020.98449 119426045.69149    -10227.15649        50.000  
  23232509.73449 122087661.42649     -5500.89849        50.000  
  24510690.07849 128804543.16849    -13034.32049        49.000  
 16 04 02 14 32  7.9000000  0  4G20G05G21G04                                    
  21610260.11749 113562682.28949     11827.47749        49.000  
  22726215.64849 119427068.67249    -10232.63749        50.000  
  23232614.44549 122088211.69949     -5504.54749        50.000  
  24510938.13349 128805846.70349    -13036.23849        49.000  
 16 04 02 14 32  8.0000000  0  4G20G05G21G04                                    
  21610035.10249 113561499.82449     11821.55949        49.000  
  22726410.41449 119428092.16849    -10237.87949        50.000  
  23232719.22749 122088762.29349     -5507.98049        50.000  
  24511186.21949 128807150.40649    -13038.03149        49.000  
 16 04 02 14 32  8.1000000  0  4G20G05G21G04                                    
  21609810.21149 113560318.00849     11815.23049        49.000  
  22726605.28149 119429116.23049    -10243.44949        50.000  
  23232824.07049 122089313.27749     -5511.80949        50.000  
  24511434.34449 128808454.30549    -13039.89849        49.000  
 16 04 02 14 32  8.2000000  0  4G20G05G21G04                                    
  21609585.44549 113559136.86749     11808.31649        49.000  
  22726800.26649 119430140.87949    -10249.39149        50.000  
  23232929.00049 122089864.66449     -5515.94949        50.000  
  24511682.51649 128809758.46149    -13042.59849        49.000  
 16 04 02 14 32  8.3000000  0  4G20G05G21G04                                    
  21609360.78949 113557956.31649     11802.29749        49.000  
  22726995.35949 119431166.06249    -10254.71149        50.000  
  23233033.99249 122090416.40249     -5519.43049        50.000  
  24511930.71949 128811062.77349    -13044.22349        49.000  
 16 04 02 14 32  8.4000000  0  4G20G05G21G04                                    
  21609136.25849 113556776.36749     11796.64549        49.000  
  22727190.53949 119432191.74249    -10259.54749        50.000  
  23233139.04749 122090968.46149     -5522.35249        50.000  
  24512178.95349 128812367.25449    -13045.59049        49.000  
 16 04 02 14 32  8.5000000  0  4G20G05G21G04                                    
  21608911.83649 113555597.06649     11790.00449        49.000  
  22727385.82849 119433218.01249    -10265.47349        50.000  
  23233244.18049 122091520.92249     -5526.50049        50.000  
  24512427.23449 128813671.94949    -13047.84049        49.000  
 16 04 02 14 32  8.6000000  0  4G20G05G21G04                                    
  21608687.54749 113554418.42249     11783.25449        49.000  
  22727581.23449 119434244.85949    -10271.56649        50.000  
  23233349.38349 122092073.77349     -5530.63349        50.000  
  24512675.55549 128814976.88349    -13050.41849        49.000  
 16 04 02 14 32  8.7000000  0  4G20G05G21G04                                    
  21608463.39149 113553240.45349     11776.65649        49.000  
  22727776.74249 119435272.28949    -10277.20349        50.000  
  23233454.66449 122092627.03549     -5534.61349        50.000  
  24512923.92249 128816282.04349    -13052.67249        49.000  
 16 04 02 14 32  8.8000000  0  4G20G05G21G04                                    
  21608239.34449 113552063.07449     11770.72349        49.000  
  22727972.35949 119436300.24649    -10282.35949        50.000  
  23233560.00849 122093180.64149     -5538.00049        50.000  
  24513172.32049 128817587.37549    -13054.29749        49.000  
 16 04 02 14 32  8.9000000  0  4G20G05G21G04                                    
  21608015.40649 113550886.30549     11764.74649        49.000  
  22728168.07049 119437328.71549    -10287.43849        50.000  
  23233665.42249 122093734.56649     -5541.20749        50.000  
  24513420.75049 128818892.87149    -13055.85549        49.000  
 16 04 02 14 32  9.0000000  0  4G20G05G21G04                                    
  21607791.60249 113549710.19949     11758.19549        49.000  
  22728363.89849 119438357.78549    -10293.37949        50.000  
  23233770.91449 122094288.92249     -5545.29349        50.000  
  24513669.22749 128820198.60949    -13058.18849        49.000  
 16 04 02 14 32  9.1000000  0  4G20G05G21G04                                    
  21607567.90649 113548534.64849     11752.59449        49.000  
  22728559.81249 119439387.32849    -10298.10549        50.000  
  23233876.45349 122094843.55549     -5548.17249        50.000  
  24513917.71949 128821504.46949    -13059.38349        49.000  
 16 04 02 14 32  9.2000000  0  4G20G05G21G04                                    
  21607344.33649 113547359.78549     11745.64549        49.000  
  22728755.84449 119440417.47749    -10304.29749        50.000  
  23233982.07849 122095398.62949     -5552.63749        50.000  
  24514166.26649 128822810.58249    -13062.01249        49.000  
 16 04 02 14 32  9.3000000  0  4G20G05G21G04                                    
  21607120.89149 113546185.55949     11739.21949        49.000  
  22728951.98449 119441448.18849    -10309.91049        50.000  
  23234087.78149 122095954.07049     -5556.43049        50.000  
  24514414.85949 128824116.91049    -13064.30149        49.000  
 16 04 02 14 32  9.4000000  0  4G20G05G21G04                                    
  21606897.55549 113545011.92249     11733.25049        49.000  
  22729148.21949 119442479.40249    -10315.08249        50.000  
  23234193.53949 122096509.84049     -5559.66449        50.000  
  24514663.46949 128825423.38749    -13065.78549        49.000  
 16 04 02 14 32  9.5000000  0  4G20G05G21G04                                    
  21606674.34449 113543838.93049     11726.84049        49.000  
  22729344.56249 119443511.19149    -10320.73849        50.000  
  23234299.36749 122097066.00049     -5563.58249        50.000  
  24514912.12549 128826730.07049    -13067.78549        49.000  
 16 04 02 14 32  9.6000000  0  4G20G05G21G04                                    
  21606451.25049 113542666.54749     11720.84449        49.000  
  22729541.00049 119444543.50449    -10325.98049        50.000  
  23234405.26649 122097622.50049     -5566.90249        50.000  
  24515160.81249 128828036.94149    -13069.59449        49.000  
 16 04 02 14 32  9.7000000  0  4G20G05G21G04                                    
  21606228.26649 113541494.78149     11714.55949        49.000  
  22729737.54749 119445576.36349    -10331.57449        50.000  
  23234511.23449 122098179.35949     -5570.64849        50.000  
  24515409.53949 128829343.99649    -13071.57449        49.000  
 16 04 02 14 32  9.8000000  0  4G20G05G21G04                                    
  21606005.41449 113540323.67649     11708.12549        49.000  
  22729934.20349 119446609.78149    -10336.98449        50.000  
  23234617.27349 122098736.61749     -5574.39149        50.000  
  24515658.31249 128830651.27749    -13073.66449        49.000  
 16 04 02 14 32  9.9000000  0  4G20G05G21G04                                    
  21605782.68049 113539153.20349     11701.62549        49.000  
  22730130.96949 119447643.78149    -10342.87149        50.000  
  23234723.39149 122099294.25449     -5578.43049        50.000  
  24515907.11749 128831958.76249    -13075.84049        49.000  
 16 04 02 14 32 10.0000000  0  4G20G05G21G04                                    
  21605560.07049 113537983.38349     11695.12149        49.000  
  22730327.83649 119448678.34049    -10348.48049        50.000  
  23234829.57849 122099852.26649     -5582.16449        50.000  
  24516155.96149 128833266.45749    -13077.97349        49.000  
 16 04 02 14 32 10.1000000  0  4G20G05G21G04                                    
  21605337.57849 113536814.14849     11689.24249        49.000  
  22730524.80549 119449713.39549    -10353.47749        50.000  
  23234935.82849 122100410.61749     -5585.43849        50.000  
  24516404.83649 128834574.31249    -13079.55549        49.000  
 16 04 02 14 32 10.2000000  0  4G20G05G21G04                                    
  21605115.20349 113535645.54349     11682.99649        49.000  
  22730721.87549 119450749.01649    -10358.93449        50.000  
  23235042.14849 122100969.32849     -5589.16049        50.000  
  24516653.75049 128835882.36349    -13081.50449        49.000  
 16 04 02 14 32 10.3000000  0  4G20G05G21G04                                    
  21604892.94549 113534477.57049     11676.57849        49.000  
  22730919.05549 119451785.18449    -10364.70749        50.000  
  23235148.53949 122101528.41049     -5592.90249        50.000  
  24516902.70349 128837190.60949    -13083.51649        49.000  
 16 04 02 14 32 10.4000000  0  4G20G05G21G04                                    
  21604670.81249 113533310.26649     11670.06649        49.000  
  22731116.33649 119452821.93449    -10370.27749        50.000  
  23235255.00849 122102087.89849     -5596.77049        50.000  
  24517151.70349 128838499.10249    -13085.74249        49.000  
 16 04 02 14 32 10.5000000  0  4G20G05G21G04                                    
  21604448.78949 113532143.55149     11664.10949        49.000  
  22731313.72749 119453859.20749    -10375.48049        50.000  
  23235361.53149 122102647.72749     -5600.24649        50.000  
  24517400.73449 128839807.75049    -13087.41849        49.000  
 16 04 02 14 32 10.6000000  0  4G20G05G21G04                                    
  21604226.89149 113530977.47349     11657.67249        49.000  
  22731511.21949 119454897.03149    -10381.07049        50.000  
  23235468.13349 122103207.91849     -5603.94549        50.000  
  24517649.79749 128841116.60249    -13089.43849        49.000  
 16 04 02 14 32 10.7000000  0  4G20G05G21G04                                    
  21604005.12549 113529812.07849     11650.86349        49.000  
  22731708.82049 119455935.45349    -10387.15249        50.000  
  23235574.82049 122103768.53949     -5608.26649        50.000  
  24517898.91449 128842425.69949    -13092.00049        49.000  
 16 04 02 14 32 10.8000000  0  4G20G05G21G04                                    
  21603783.47749 113528647.28949     11644.91049        49.000  
  22731906.53149 119456974.41449    -10392.41049        50.000  
  23235681.57049 122104329.49649     -5611.57049        50.000  
  24518148.06249 128843734.96549    -13093.53149        49.000  
 16 04 02 14 32 10.9000000  0  4G20G05G21G04                                    
  21603561.93849 113527483.10549     11638.82849        49.000  
  22732104.33649 119458013.89149    -10397.73049        50.000  
  23235788.38349 122104890.80549     -5615.05949        50.000  
  24518397.25049 128845044.41849    -13095.45349        49.000  
 16 04 02 14 32 11.0000000  0  4G20G05G21G04                                    
  21603340.51649 113526319.55549     11632.62549        49.000  
  22732302.25049 119459053.91449    -10403.03949        50.000  
  23235895.26649 122105452.47349     -5618.55549        50.000  
  24518646.46149 128846354.05549    -13097.16849        49.000  
 16 04 02 14 32 11.1000000  0  4G20G05G21G04                                    
  21603119.21949 113525156.63349     11626.25449        49.000  
  22732500.26649 119460094.50049    -10408.64149        50.000  
  23236002.21949 122106014.52049     -5622.35949        50.000  
  24518895.71949 128847663.90649    -13099.42649        49.000  
 16 04 02 14 32 11.2000000  0  4G20G05G21G04                                    
  21602898.03149 113523994.29749     11620.35549        49.000  
  22732698.37549 119461135.57849    -10413.65249        50.000  
  23236109.23449 122106576.88349     -5625.58649        50.000  
  24519145.00049 128848973.89149    -13100.76649        49.000  
 16 04 02 14 32 11.3000000  0  4G20G05G21G04                                    
  21602676.97749 113522832.61349     11613.92249        49.000  
  22732896.60249 119462177.24249    -10419.28149        50.000  
  23236216.32849 122107139.65249     -5629.45349        50.000  
  24519394.33649 128850284.11349    -13103.00049        49.000  
 16 04 02 14 32 11.4000000  0  4G20G05G21G04                                    
  21602456.03149 113521671.55949     11607.53549        49.000  
  22733094.92249 119463219.43849    -10424.88349        50.000  
  23236323.48449 122107702.77749     -5633.27749        50.000  
  24519643.69549 128851594.52749    -13105.12949        49.000  
 16 04 02 14 32 11.5000000  0  4G20G05G21G04                                    
  21602235.21149 113520511.12149     11601.38749        49.000  
  22733293.35249 119464262.18849    -10430.24249        50.000  
  23236430.71149 122108266.25449     -5636.74249        50.000  
  24519893.09449 128852905.11749    -13106.82449        49.000  
 16 04 02 14 32 11.6000000  0  4G20G05G21G04                                    
  21602014.50049 113519351.28949     11595.51249        49.000  
  22733491.87549 119465305.44549    -10435.19949        50.000  
  23236538.00849 122108830.07449     -5639.95349        50.000  
  24520142.52349 128854215.87949    -13108.39849        49.000  
 16 04 02 14 32 11.7000000  0  4G20G05G21G04                                    
  21601793.90649 113518192.07449     11589.30949        49.000  
  22733690.50849 119466349.24649    -10440.75049        50.000  
  23236645.36749 122109394.24649     -5643.46149        50.000  
  24520391.99249 128855526.82449    -13110.25449        49.000  
 16 04 02 14 32 11.8000000  0  4G20G05G21G04                                    
  21601573.44549 113517033.52749     11582.18849        49.000  
  22733889.25049 119467393.63749    -10447.00449        50.000  
  23236752.80549 122109958.84849     -5648.21949        50.000  
  24520641.50049 128856838.01649    -13113.05549        49.000  
 16 04 02 14 32 11.9000000  0  4G20G05G21G04                                    
  21601353.11749 113515875.69149     11575.17249        49.000  
  22734088.10949 119468438.64849    -10453.16049        50.000  
  23236860.32049 122110523.86749     -5652.40649        50.000  
  24520891.06249 128858149.46149    -13115.60949        49.000  
 16 04 02 14 32 12.0000000  0  4G20G05G21G04                                    
  21601132.89149 113514718.41849     11569.62149        49.000  
  22734287.06249 119469484.15249    -10457.89149        50.000  
  23236967.90649 122111089.20749     -5655.37549        50.000  
  24521140.64849 128859461.06649    -13117.07849        49.000  
 16 04 02 14 32 12.1000000  0  4G20G05G21G04                                    
  21600912.80549 113513561.82849     11562.80549        49.000  
  22734486.12549 119470530.25449    -10463.89849        50.000  
  23237075.56249 122111654.96149     -5659.47749        50.000  
  24521390.28149 128860772.89849    -13119.33249        49.000  
 16 04 02 14 32 12.2000000  0  4G20G05G21G04                                    
  21600692.82849 113512405.86349     11556.44149        49.000  
  22734685.29749 119471576.89849    -10469.46149        50.000  
  23237183.29749 122112221.08649     -5663.34449        50.000  
  24521639.95349 128862084.92649    -13121.34449        49.000  
 16 04 02 14 32 12.3000000  0  4G20G05G21G04                                    
  21600472.96949 113511250.46949     11550.97749        49.000  
  22734884.56249 119472624.04349    -10474.18049        50.000  
  23237291.07849 122112787.50849     -5666.19149        50.000  
  24521889.64849 128863397.10249    -13122.63749        49.000  
 16 04 02 14 32 12.4000000  0  4G20G05G21G04                                    
  21600253.23449 113510095.78149     11543.93049        49.000  
  22735083.94549 119473671.80549    -10480.36749        50.000  
  23237398.95349 122113354.38349     -5670.68449        50.000  
  24522139.39849 128864709.53949    -13125.27049        49.000  
 16 04 02 14 32 12.5000000  0  4G20G05G21G04                                    
  21600033.61749 113508941.69549     11537.71949        49.000  
  22735283.42249 119474720.09049    -10485.78549        50.000  
  23237506.89149 122113921.59049     -5674.04349        50.000  
  24522389.18849 128866022.15649    -13127.25849        49.000  
 16 04 02 14 32 12.6000000  0  4G20G05G21G04                                    
  21599814.11749 113507788.19149     11531.97349        49.000  
  22735483.00049 119475768.85949    -10490.72349        50.000  
  23237614.88349 122114489.11349     -5677.32849        50.000  
  24522638.99249 128867334.89849    -13128.49649        49.000  
 16 04 02 14 32 12.7000000  0  4G20G05G21G04                                    
  21599594.74249 113506635.36349     11525.34049        49.000  
  22735682.68849 119476818.24649    -10496.65249        50.000  
  23237722.96149 122115057.06249     -5681.39849        50.000  
  24522888.84449 128868647.90249    -13130.88349        49.000  
 16 04 02 14 32 12.8000000  0  4G20G05G21G04                                    
  21599375.47749 113505483.13749     11519.16849        49.000  
  22735882.47749 119477868.14149    -10501.83649        50.000  
  23237831.10249 122115625.34449     -5684.91449        50.000  
  24523138.73449 128869961.07849    -13132.77749        49.000  
 16 04 02 14 32 12.9000000  0  4G20G05G21G04                                    
  21599156.33649 113504331.55549     11512.87949        49.000  
  22736082.37549 119478918.60949    -10507.43049        50.000  
  23237939.32049 122116194.01249     -5688.47349        50.000  
  24523388.66449 128871274.44949    -13134.55949        49.000  
 16 04 02 14 32 13.0000000  0  4G20G05G21G04                                    
  21598937.32049 113503180.58649     11506.64149        49.000  
  22736282.37549 119479969.59049    -10512.83249        50.000  
  23238047.60249 122116763.02749     -5692.12549        50.000  
  24523638.62549 128872588.00849    -13136.62549        49.000  
 16 04 02 14 32 13.1000000  0  4G20G05G21G04                                    
  21598718.42249 113502030.27049     11500.02749        49.000  
  22736482.47749 119481021.15649    -10518.64849        50.000  
  23238155.95349 122117332.43849     -5696.19549        50.000  
  24523888.62549 128873901.78149    -13138.80549        49.000  
 16 04 02 14 32 13.2000000  0  4G20G05G21G04                                    
  21598499.63349 113500880.55149     11494.21949        49.000  
  22736682.68049 119482073.23449    -10523.64549        50.000  
  23238264.37549 122117902.17649     -5699.44149        50.000  
  24524138.65649 128875215.71949    -13140.37549        49.000  
 16 04 02 14 32 13.3000000  0  4G20G05G21G04                                    
  21598280.96949 113499731.48849     11487.74649        49.000  
  22736882.99249 119483125.89149    -10529.32049        50.000  
  23238372.86749 122118472.31649     -5703.23449        50.000  
  24524388.74249 128876529.87949    -13142.48449        49.000  
 16 04 02 14 32 13.4000000  0  4G20G05G21G04                                    
  21598062.41449 113498582.98849     11481.92649        49.000  
  22737083.39149 119484179.01649    -10534.30949        50.000  
  23238481.41449 122119042.75449     -5706.54349        50.000  
  24524638.83649 128877844.16849    -13143.92249        49.000  
 16 04 02 14 32 13.5000000  0  4G20G05G21G04                                    
  21597844.00049 113497435.20749     11474.85949        49.000  
  22737283.92249 119485232.77049    -10540.31249        50.000  
  23238590.04749 122119613.62549     -5710.66449        50.000  
  24524888.99249 128879158.72349    -13146.38349        49.000  
 16 04 02 14 32 13.6000000  0  4G20G05G21G04                                    
  21597625.69549 113496288.00849     11468.82849        49.000  
  22737484.53949 119486287.03949    -10545.62149        50.000  
  23238698.74249 122120184.83649     -5714.16049        50.000  
  24525139.17249 128880473.44549    -13148.22749        49.000  
 16 04 02 14 32 13.7000000  0  4G20G05G21G04                                    
  21597407.51649 113495141.47749     11462.07049        49.000  
  22737685.27349 119487341.89549    -10551.50449        50.000  
  23238807.52349 122120756.45749     -5718.22349        50.000  
  24525389.40649 128881788.41049    -13150.68449        49.000  
 16 04 02 14 32 13.8000000  0  4G20G05G21G04                                    
  21597189.45349 113493995.53549     11456.28949        49.000  
  22737886.10949 119488397.27349    -10556.67249        50.000  
  23238916.35949 122121328.40649     -5721.67649        50.000  
  24525639.66449 128883103.52749    -13152.22749        49.000  
 16 04 02 14 32 13.9000000  0  4G20G05G21G04                                    
  21596971.51649 113492850.25049     11450.00049        49.000  
  22738087.04749 119489453.21149    -10562.05549        50.000  
  23239025.27349 122121900.73849     -5725.10949        50.000  
  24525889.96149 128884418.84449    -13153.98849        49.000  
 16 04 02 14 32 14.0000000  0  4G20G05G21G04                                    
  21596753.68849 113491705.57049     11443.75849        49.000  
  22738288.07849 119490509.66849    -10567.51649        50.000  
  23239134.25049 122122473.41449     -5728.88749        50.000  
  24526140.29749 128885734.35249    -13156.03149        49.000  
 16 04 02 14 32 14.1000000  0  4G20G05G21G04                                    
  21596535.99249 113490561.54749     11437.22349        49.000  
  22738489.22749 119491566.68049    -10573.04349        50.000  
  23239243.30549 122123046.48449     -5732.66849        50.000  
  24526390.66449 128887050.05949    -13158.04349        49.000  
 16 04 02 14 32 14.2000000  0  4G20G05G21G04                                    
  21596318.41449 113489418.16849     11430.78149        49.000  
  22738690.47749 119492624.28549    -10578.75849        50.000  
  23239352.43049 122123619.94549     -5736.54749        50.000  
  24526641.08649 128888366.00449    -13160.32449        49.000  
 16 04 02 14 32 14.3000000  0  4G20G05G21G04                                    
  21596100.94549 113488275.34849     11425.21949        49.000  
  22738891.82049 119493682.35949    -10583.53949        50.000  
  23239461.60949 122124193.69549     -5739.39549        50.000  
  24526891.52349 128889682.05549    -13161.41449        49.000  
 16 04 02 14 32 14.4000000  0  4G20G05G21G04                                    
  21595883.60249 113487133.19549     11418.43849        49.000  
  22739093.28149 119494741.00449    -10589.41449        50.000  
  23239570.86749 122124767.83649     -5743.47349        50.000  
  24527142.00049 128890998.34049    -13163.83249        49.000  
 16 04 02 14 32 14.5000000  0  4G20G05G21G04                                    
  21595666.37549 113485991.68449     11412.01649        49.000  
  22739294.83649 119495800.21949    -10594.85949        50.000  
  23239680.19549 122125342.36749     -5747.20749        50.000  
  24527392.53149 128892314.83649    -13165.84849        49.000  
 16 04 02 14 32 14.6000000  0  4G20G05G21G04                                    
  21595449.26649 113484850.78149     11405.93049        49.000  
  22739496.50049 119496859.95749    -10600.21149        50.000  
  23239789.59449 122125917.24249     -5750.75049        50.000  
  24527643.07849 128893631.50049    -13167.64849        49.000  
 16 04 02 14 32 14.7000000  0  4G20G05G21G04                                    
  21595232.28149 113483710.52049     11399.55149        49.000  
  22739698.26649 119497920.25449    -10605.78949        50.000  
  23239899.06249 122126492.50049     -5754.59849        50.000  
  24527893.67249 128894948.37549    -13169.68849        49.000  
 16 04 02 14 32 14.8000000  0  4G20G05G21G04                                    
  21595015.41449 113482570.86349     11393.48849        49.000  
  22739900.13349 119498981.07449    -10611.06249        50.000  
  23240008.59449 122127068.09449     -5757.91449        50.000  
  24528144.29749 128896265.42249    -13171.34849        49.000  
 16 04 02 14 32 14.9000000  0  4G20G05G21G04                                    
  21594798.66449 113481431.85249     11387.19149        49.000  
  22740102.10949 119500042.45349    -10616.43049        50.000  
  23240118.19549 122127644.07449     -5761.60249        50.000  
  24528394.96149 128897582.66849    -13173.26249        49.000  
 16 04 02 14 32 15.0000000  0  4G20G05G21G04                                    
  21594582.03149 113480293.43049     11381.22349        49.000  
  22740304.18049 119501104.34449    -10621.67249        50.000  
  23240227.86749 122128220.38749     -5765.03149        50.000  
  24528645.65649 128898900.08249    -13174.99649        49.000  
 16 04 02 14 32 15.1000000  0  4G20G05G21G04                                    
  21594365.52349 113479155.66849     11374.54749        49.000  
  22740506.35949 119502166.81249    -10627.72349        50.000  
  23240337.60249 122128797.08249     -5769.12549        50.000  
  24528896.39849 128900217.71549    -13177.35549        49.000  
 16 04 02 14 32 15.2000000  0  4G20G05G21G04                                    
  21594149.12549 113478018.48449     11368.88749        49.000  
  22740708.63349 119503229.76649    -10632.30949        50.000  
  23240447.40649 122129374.10549     -5772.14149        50.000  
  24529147.16449 128901535.50049    -13178.73849        49.000  
 16 04 02 14 32 15.3000000  0  4G20G05G21G04                                    
  21593932.85949 113476881.98049     11362.01649        49.000  
  22740911.01649 119504293.32049    -10638.39549        50.000  
  23240557.28949 122129951.53549     -5776.37549        50.000  
  24529397.97749 128902853.51249    -13181.09449        49.000  
 16 04 02 14 32 15.4000000  0  4G20G05G21G04                                    
  21593716.71949 113475746.17249     11355.08249        49.000  
  22741113.52349 119505357.49649    -10644.59049        50.000  
  23240667.25849 122130529.40249     -5780.62149        50.000  
  24529648.83649 128904171.79749    -13183.76649        49.000  
 16 04 02 14 32 15.5000000  0  4G20G05G21G04                                    
  21593500.69549 113474610.95349     11349.20749        49.000  
  22741316.12549 119506422.16849    -10649.64549        50.000  
  23240777.28149 122131107.59449     -5783.89849        50.000  
  24529899.72749 128905490.23049    -13185.31649        49.000  
 16 04 02 14 32 15.6000000  0  4G20G05G21G04                                    
  21593284.78949 113473476.36349     11343.03949        49.000  
  22741518.82849 119507487.38349    -10654.81649        50.000  
  23240887.38349 122131686.14149     -5787.28549        50.000  
  24530150.64849 128906808.84849    -13186.94949        49.000  
 16 04 02 14 32 15.7000000  0  4G20G05G21G04                                    
  21593069.00049 113472342.37949     11336.83249        49.000  
  22741721.62549 119508553.10949    -10660.04349        50.000  
  23240997.53949 122132265.03949     -5790.96149        50.000  
  24530401.60949 128908127.64149    -13188.81649        49.000  
 16 04 02 14 32 15.8000000  0  4G20G05G21G04                                    
  21592853.33649 113471209.07449     11330.11349        49.000  
  22741924.54749 119509619.44549    -10666.26649        50.000  
  23241107.78149 122132844.34449     -5795.08649        50.000  
  24530652.61749 128909446.68049    -13191.29749        49.000  
 16 04 02 14 32 15.9000000  0  4G20G05G21G04                                    
  21592637.79749 113470076.37949     11323.97349        49.000  
  22742127.56249 119510686.31649    -10671.49649        50.000  
  23241218.08649 122133424.02049     -5798.66849        50.000  
  24530903.65649 128910765.90249    -13193.10249        49.000  
 16 04 02 14 32 16.0000000  0  4G20G05G21G04                                    
  21592422.36749 113468944.28949     11317.98849        49.000  
  22742330.68049 119511753.69149    -10676.40649        50.000  
  23241328.46149 122134004.01249     -5801.73849        50.000  
  24531154.72749 128912085.27749    -13194.57449        49.000  
 16 04 02 14 32 16.1000000  0  4G20G05G21G04                                    
  21592207.05549 113467812.80149     11312.05949        49.000  
  22742533.89849 119512821.59849    -10681.59849        50.000  
  23241438.89849 122134584.35249     -5805.10949        50.000  
  24531405.82849 128913404.82849    -13196.20749        49.000  
 16 04 02 14 32 16.2000000  0  4G20G05G21G04                                    
  21591991.85949 113466681.92649     11305.81649        49.000  
  22742737.21949 119513890.03149    -10687.14149        50.000  
  23241549.39849 122135165.05149     -5808.93449        50.000  
  24531656.96149 128914724.55949    -13198.16849        49.000  
 16 04 02 14 32 16.3000000  0  4G20G05G21G04                                    
  21591776.78149 113465551.71949     11299.09049        49.000  
  22742940.64149 119514959.04349    -10692.96549        50.000  
  23241659.97749 122135746.13749     -5812.89549        50.000  
  24531908.14149 128916044.51649    -13200.45349        49.000  
 16 04 02 14 32 16.4000000  0  4G20G05G21G04                                    
  21591561.83649 113464422.18049     11292.32449        49.000  
  22743144.18049 119516028.62549    -10698.69149        50.000  
  23241770.62549 122136327.61749     -5816.77049        50.000  
  24532159.36749 128917364.69149    -13202.75849        49.000  
 16 04 02 14 32 16.5000000  0  4G20G05G21G04                                    
  21591347.00849 113463293.21949     11286.55949        49.000  
  22743347.81249 119517098.73049    -10704.03149        50.000  
  23241881.34449 122136909.44949     -5820.20349        50.000  
  24532410.61749 128918685.03149    -13204.36749        49.000  
 16 04 02 14 32 16.6000000  0  4G20G05G21G04                                    
  21591132.28949 113462164.87149     11280.45749        49.000  
  22743551.54749 119518169.34049    -10708.98049        50.000  
  23241992.12549 122137491.60249     -5823.54349        50.000  
  24532661.90649 128920005.53949    -13205.98049        49.000  
 16 04 02 14 32 16.7000000  0  4G20G05G21G04                                    
  21590917.68849 113461037.15249     11274.33649        49.000  
  22743755.38349 119519240.48849    -10714.22749        50.000  
  23242102.97749 122138074.11749     -5826.91449        50.000  
  24532913.22749 128921326.22749    -13207.64849        49.000  
 16 04 02 14 32 16.8000000  0  4G20G05G21G04                                    
  21590703.21149 113459910.06649     11267.78549        49.000  
  22743959.32049 119520312.21149    -10720.01249        50.000  
  23242213.89849 122138657.02349     -5831.10949        50.000  
  24533164.58649 128922647.14149    -13210.07049        49.000  
 16 04 02 14 32 16.9000000  0  4G20G05G21G04                                    
  21590488.86749 113458783.66049     11260.96949        49.000  
  22744163.37549 119521384.52349    -10726.15249        50.000  
  23242324.89849 122139240.33249     -5835.27049        50.000  
  24533415.99249 128923968.27349    -13212.43049        49.000  
 16 04 02 14 32 17.0000000  0  4G20G05G21G04                                    
  21590274.64149 113457657.90649     11254.44149        49.000  
  22744367.53949 119522457.40249    -10731.72349        50.000  
  23242435.96949 122139824.03149     -5839.01249        50.000  
  24533667.43849 128925289.63349    -13214.56249        49.000  
 16 04 02 14 32 17.1000000  0  4G20G05G21G04                                    
  21590060.52349 113456532.73449     11248.58249        49.000  
  22744571.78949 119523530.76249    -10736.63349        50.000  
  23242547.10949 122140408.04349     -5842.30949        50.000  
  24533918.91449 128926611.12949    -13216.01249        49.000  
 16 04 02 14 32 17.2000000  0  4G20G05G21G04                                    
  21589846.53949 113455408.24249     11242.04349        49.000  
  22744776.16449 119524604.73449    -10742.29349        50.000  
  23242658.32049 122140992.47349     -5846.01249        50.000  
  24534170.43849 128927932.87549    -13218.19949        49.000  
 16 04 02 14 32 17.3000000  0  4G20G05G21G04                                    
  21589632.65649 113454284.28949     11236.41849        49.000  
  22744980.61749 119525679.16849    -10747.31649        50.000  
  23242769.58649 122141577.19549     -5849.24649        50.000  
  24534421.98449 128929254.73849    -13219.66049        49.000  
 16 04 02 14 32 17.4000000  0  4G20G05G21G04                                    
  21589418.91449 113453161.05149     11229.35549        49.000  
  22745185.18849 119526754.19949    -10753.28549        50.000  
  23242880.93849 122142162.33249     -5853.46549        50.000  
  24534673.57049 128930576.84849    -13222.08249        49.000  
 16 04 02 14 32 17.5000000  0  4G20G05G21G04                                    
  21589205.28949 113452038.42649     11223.32849        49.000  
  22745389.87549 119527829.78549    -10758.56249        50.000  
  23242992.35949 122142747.85249     -5857.04749        50.000  
  24534925.19549 128931899.15249    -13223.96949        49.000  
 16 04 02 14 32 17.6000000  0  4G20G05G21G04                                    
  21588991.77349 113450916.41849     11217.04749        49.000  
  22745594.64849 119528905.88349    -10763.89549        50.000  
  23243103.84449 122143333.69549     -5860.49249        50.000  
  24535176.85949 128933221.62549    -13225.70749        49.000  
 16 04 02 14 32 17.7000000  0  4G20G05G21G04                                    
  21588778.38349 113449795.06249     11210.59449        49.000  
  22745799.53149 119529982.57049    -10769.68849        50.000  
  23243215.40649 122143919.94549     -5864.44549        50.000  
  24535428.55549 128934544.32849    -13227.95349        49.000  
 16 04 02 14 32 17.8000000  0  4G20G05G21G04                                    
  21588565.13349 113448674.41049     11203.48449        49.000  
  22746004.53149 119531059.85249    -10775.71549        50.000  
  23243327.04749 122144506.62949     -5868.76249        50.000  
  24535680.30549 128935867.27749    -13230.46549        49.000  
 16 04 02 14 32 17.9000000  0  4G20G05G21G04                                    
  21588351.98449 113447554.29749     11198.20349        49.000  
  22746209.61749 119532137.60549    -10780.28149        50.000  
  23243438.74249 122145093.58649     -5871.47749        50.000  
  24535932.07849 128937190.34449    -13231.48849        49.000  
 16 04 02 14 32 18.0000000  0  4G20G05G21G04                                    
  21588138.94549 113446434.74649     11192.59049        49.000  
  22746414.79749 119533215.82449    -10784.79349        50.000  
  23243550.49249 122145680.84849     -5874.37949        50.000  
  24536183.87549 128938513.53549    -13232.62149        49.000  
 16 04 02 14 32 18.1000000  0  4G20G05G21G04                                    
  21587926.01649 113445315.79349     11186.69149        49.000  
  22746620.07849 119534294.56649    -10790.20349        50.000  
  23243662.30549 122146268.43849     -5877.85549        50.000  
  24536435.70349 128939836.89549    -13234.35249        49.000  
 16 04 02 14 32 18.2000000  0  4G20G05G21G04                                    
  21587713.22749 113444197.59449     11178.92649        49.000  
  22746825.47749 119535373.96949    -10797.00449        50.000  
  23243774.21949 122146856.51649     -5882.93449        50.000  
  24536687.58649 128941160.55149    -13237.58249        49.000  
 16 04 02 14 32 18.3000000  0  4G20G05G21G04                                    
  21587500.56249 113443080.02049     11172.56249        49.000  
  22747030.98449 119536453.91449    -10802.30149        50.000  
  23243886.19549 122147444.94949     -5886.41049        50.000  
  24536939.50849 128942484.40249    -13239.55949        49.000  
 16 04 02 14 32 18.4000000  0  4G20G05G21G04                                    
  21587288.00849 113441963.03549     11166.83249        49.000  
  22747236.58649 119537534.36349    -10807.27049        50.000  
  23243998.22749 122148033.72349     -5889.55549        50.000  
  24537191.46149 128943808.41849    -13241.02049        49.000  
 16 04 02 14 32 18.5000000  0  4G20G05G21G04                                    
  21587075.58649 113440846.75849     11159.64549        49.000  
  22747442.31249 119538615.43849    -10813.58649        50.000  
  23244110.35249 122148622.92649     -5894.01249        50.000  
  24537443.46149 128945132.69949    -13243.75849        49.000  
 16 04 02 14 32 18.6000000  0  4G20G05G21G04                                    
  21586863.27349 113439731.04349     11153.88749        49.000  
  22747648.12549 119539696.98449    -10818.54349        50.000  
  23244222.53149 122149212.43849     -5897.28949        50.000  
  24537695.48449 128946457.09849    -13245.11749        49.000  
 16 04 02 14 32 18.7000000  0  4G20G05G21G04                                    
  21586651.08649 113438616.03149     11147.17649        49.000  
  22747854.05549 119540779.13749    -10824.17249        50.000  
  23244334.79749 122149802.37549     -5901.25849        50.000  
  24537947.56249 128947781.75449    -13247.38749        49.000  
 16 04 02 14 32 18.8000000  0  4G20G05G21G04                                    
  21586439.01649 113437501.56649     11141.65249        49.000  
  22748060.07049 119541861.77349    -10829.04349        50.000  
  23244447.10949 122150392.60549     -5904.22349        50.000  
  24538199.66449 128949106.53949    -13248.72349        49.000  
 16 04 02 14 32 18.9000000  0  4G20G05G21G04                                    
  21586227.06249 113436387.73449     11135.46949        49.000  
  22748266.19549 119542944.94549    -10834.48449        50.000  
  23244559.50049 122150983.19949     -5907.73449        50.000  
  24538451.80549 128950431.51649    -13250.58649        49.000  
 16 04 02 14 32 19.0000000  0  4G20G05G21G04                                    
  21586015.24249 113435274.60549     11128.21949        49.000  
  22748472.43049 119544028.71949    -10840.61349        50.000  
  23244671.97749 122151574.23849     -5912.40249        50.000  
  24538703.98449 128951756.74249    -13253.22749        49.000  
 16 04 02 14 32 19.1000000  0  4G20G05G21G04                                    
  21585803.53949 113434162.11749     11121.78149        49.000  
  22748678.76649 119545113.06649    -10846.37549        50.000  
  23244784.51649 122152165.63749     -5916.13749        50.000  
  24538956.21149 128953082.18449    -13255.39849        49.000  
 16 04 02 14 32 19.2000000  0  4G20G05G21G04                                    
  21585591.96149 113433050.23849     11115.73849        49.000  
  22748885.21149 119546197.93049    -10851.46149        50.000  
  23244897.11749 122152757.38749     -5919.43849        50.000  
  24539208.46949 128954407.78949    -13256.94549        49.000  
 16 04 02 14 32 19.3000000  0  4G20G05G21G04                                    
  21585380.49249 113431938.97749     11109.72349        49.000  
  22749091.75849 119547283.32049    -10856.59849        50.000  
  23245009.79749 122153349.49249     -5922.92249        50.000  
  24539460.75849 128955733.58249    -13258.69549        49.000  
 16 04 02 14 32 19.4000000  0  4G20G05G21G04                                    
  21585169.14849 113430828.34449     11103.41449        49.000  
  22749298.40649 119548369.27349    -10862.23449        50.000  
  23245122.53949 122153941.96149     -5926.64849        50.000  
  24539713.08649 128957059.56649    -13260.72349        49.000  
 16 04 02 14 32 19.5000000  0  4G20G05G21G04                                    
  21584957.93049 113429718.37149     11096.49249        49.000  
  22749505.16449 119549455.77349    -10868.10249        50.000  
  23245235.35949 122154534.82049     -5930.80149        50.000  
  24539965.45349 128958385.77049    -13263.16049        49.000  
 16 04 02 14 32 19.6000000  0  4G20G05G21G04                                    
  21584746.82849 113428609.03949     11090.28949        49.000  
  22749712.02349 119550542.84049    -10873.46149        50.000  
  23245348.25049 122155128.05949     -5934.32849        50.000  
  24540217.85949 128959712.17649    -13265.02349        49.000  
 16 04 02 14 32 19.7000000  0  4G20G05G21G04                                    
  21584535.83649 113427500.28149     11084.39849        49.000  
  22749918.97749 119551630.38349    -10878.40649        50.000  
  23245461.19549 122155721.60549     -5937.62549        50.000  
  24540470.28949 128961038.71549    -13266.48049        49.000  
 16 04 02 14 32 19.8000000  0  4G20G05G21G04                                    
  21584324.97749 113426392.21149     11077.73849        49.000  
  22750126.04749 119552718.54349    -10884.26249        50.000  
  23245574.21949 122156315.57049     -5941.47749        50.000  
  24540722.77349 128962365.50049    -13268.61749        49.000  
 16 04 02 14 32 19.9000000  0  4G20G05G21G04                                    
  21584114.23449 113425284.76249     11071.41849        49.000  
  22750333.21949 119553807.23449    -10889.78149        50.000  
  23245687.32049 122156909.90649     -5945.29749        50.000  
  24540975.28949 128963692.48049    -13270.75849        49.000  
 16 04 02 14 32 20.0000000  0  4G20G05G21G04                                    
  21583903.61749 113424177.93849     11065.18849        49.000  
  22750540.49249 119554896.45749    -10895.08649        50.000  
  23245800.48449 122157504.57849     -5948.67649        50.000  
  24541227.84449 128965019.63749    -13272.51649        49.000  
 16 04 02 14 32 20.1000000  0  4G20G05G21G04                                    
  21583693.09449 113423071.67649     11059.64849        49.000  
  22750747.84449 119555986.15649    -10899.81249        50.000  
  23245913.70349 122158099.55949     -5951.71949        50.000  
  24541480.41449 128966346.91849    -13273.72749        49.000  
 16 04 02 14 32 20.2000000  0  4G20G05G21G04                                    
  21583482.71949 113421966.11349     11052.57049        49.000  
  22750955.32849 119557076.46149    -10905.79749        50.000  
  23246027.01649 122158694.98049     -5956.12149        50.000  
  24541733.03949 128967674.46549    -13276.36349        49.000  
 16 04 02 14 32 20.3000000  0  4G20G05G21G04                                    
  21583272.46149 113420861.19949     11045.98849        49.000  
  22751162.91449 119558167.34049    -10911.68849        50.000  
  23246140.39149 122159290.77749     -5960.12149        50.000  
  24541985.70349 128969002.21549    -13278.51649        49.000  
 16 04 02 14 32 20.4000000  0  4G20G05G21G04                                    
  21583062.31249 113419756.85249     11040.57449        49.000  
  22751370.59449 119559258.69949    -10916.19149        50.000  
  23246253.82849 122159886.88749     -5962.86749        50.000  
  24542238.39149 128970330.10549    -13279.68849        49.000  
 16 04 02 14 32 20.5000000  0  4G20G05G21G04                                    
  21582852.28149 113418653.13349     11034.14149        49.000  
  22751578.37549 119560350.58649    -10921.77749        50.000  
  23246367.32849 122160483.34049     -5966.57449        50.000  
  24542491.11749 128971658.16849    -13281.60549        49.000  
 16 04 02 14 32 20.6000000  0  4G20G05G21G04                                    
  21582642.38349 113417550.10549     11027.30949        49.000  
  22751786.26649 119561443.08249    -10927.71549        50.000  
  23246480.91449 122161080.22349     -5970.72749        50.000  
  24542743.89149 128972986.49249    -13284.09449        49.000  
 16 04 02 14 32 20.7000000  0  4G20G05G21G04                                    
  21582432.60249 113416447.70349     11020.94549        49.000  
  22751994.26649 119562536.12549    -10933.28549        50.000  
  23246594.56249 122161677.48849     -5974.68849        50.000  
  24542996.69549 128974315.01249    -13286.17249        49.000  
 16 04 02 14 32 20.8000000  0  4G20G05G21G04                                    
  21582222.94549 113415345.94549     11014.55949        49.000  
  22752202.36749 119563629.71949    -10938.76249        50.000  
  23246708.28949 122162275.10949     -5978.24249        50.000  
  24543249.54749 128975643.73449    -13288.17249        49.000  
 16 04 02 14 32 20.9000000  0  4G20G05G21G04                                    
  21582013.41449 113414244.81249     11008.38749        49.000  
  22752410.57849 119564723.84449    -10944.10249        50.000  
  23246822.07849 122162873.09049     -5981.81649        50.000  
  24543502.42249 128976972.62949    -13289.92249        49.000  
 16 04 02 14 32 21.0000000  0  4G20G05G21G04                                    
  21581803.99249 113413144.29749     11002.14549        49.000  
  22752618.88349 119565818.50449    -10949.43049        50.000  
  23246935.94549 122163471.43449     -5985.42649        50.000  
  24543755.33649 128978301.71149    -13291.74249        49.000  
 16 04 02 14 32 21.1000000  0  4G20G05G21G04                                    
  21581594.68849 113412044.41849     10995.70349        49.000  
  22752827.29749 119566913.71149    -10954.94549        50.000  
  23247049.87549 122164070.14149     -5989.03549        50.000  
  24544008.29749 128979630.99649    -13293.80549        49.000  
 16 04 02 14 32 21.2000000  0  4G20G05G21G04                                    
  21581385.52349 113410945.23449     10988.84449        49.000  
  22753035.82049 119568009.52349    -10960.88349        50.000  
  23247163.88349 122164669.28149     -5993.39849        50.000  
  24544261.29749 128980960.53149    -13296.32449        49.000  
 16 04 02 14 32 21.3000000  0  4G20G05G21G04                                    
  21581176.46149 113409846.59849     10983.16049        49.000  
  22753244.43849 119569105.79749    -10965.72349        50.000  
  23247277.95349 122165268.69149     -5996.26649        50.000  
  24544514.32049 128982290.16449    -13297.41049        49.000  
 16 04 02 14 32 21.4000000  0  4G20G05G21G04                                    
  21580967.52349 113408748.64149     10976.55949        49.000  
  22753453.16449 119570202.66849    -10971.55549        50.000  
  23247392.09449 122165868.53549     -6000.36749        50.000  
  24544767.39149 128983620.05549    -13299.70749        49.000  
 16 04 02 14 32 21.5000000  0  4G20G05G21G04                                    
  21580758.71949 113407651.34449     10969.95749        49.000  
  22753662.00049 119571300.10549    -10977.19949        50.000  
  23247506.31249 122166468.76249     -6004.24249        50.000  
  24545020.50049 128984950.15649    -13301.96149        49.000  
 16 04 02 14 32 21.6000000  0  4G20G05G21G04                                    
  21580550.02349 113406554.63749     10964.07049        49.000  
  22753870.93049 119572398.03949    -10982.12949        50.000  
  23247620.59449 122167069.29749     -6007.40249        50.000  
  24545273.64149 128986280.41049    -13303.37149        49.000  
 16 04 02 14 32 21.7000000  0  4G20G05G21G04                                    
  21580341.45349 113405458.57849     10957.64149        49.000  
  22754079.96949 119573496.53549    -10987.70749        50.000  
  23247734.95349 122167670.24249     -6011.23449        50.000  
  24545526.82049 128987610.87549    -13305.48449        49.000  
 16 04 02 14 32 21.8000000  0  4G20G05G21G04                                    
  21580132.98449 113404363.08649     10951.86749        49.000  
  22754289.09449 119574595.51649    -10992.71149        50.000  
  23247849.35949 122168271.47749     -6014.40249        50.000  
  24545780.02349 128988941.46549    -13306.90649        49.000  
 16 04 02 14 32 21.9000000  0  4G20G05G21G04                                    
  21579924.64149 113403268.23049     10945.61349        49.000  
  22754498.32849 119575695.03549    -10997.88349        50.000  
  23247963.84449 122168873.07449     -6017.83649        50.000  
  24546033.26649 128990272.25849    -13308.73049        49.000  
 16 04 02 14 32 22.0000000  0  4G20G05G21G04                                    
  21579716.42249 113402174.02749     10938.89149        49.000  
  22754707.67249 119576795.12949    -11003.74249        50.000  
  23248078.39849 122169475.06649     -6021.93849        50.000  
  24546286.54749 128991603.24649    -13310.83249        49.000  
 16 04 02 14 32 22.1000000  0  4G20G05G21G04                                    
  21579508.32849 113401080.46149     10932.61349        49.000  
  22754917.10949 119577895.77049    -11009.19549        50.000  
  23248193.02349 122170077.42649     -6025.53149        50.000  
  24546539.86749 128992934.44149    -13312.81649        49.000  
 16 04 02 14 32 22.2000000  0  4G20G05G21G04                                    
  21579300.33649 113399987.46149     10926.96149        49.000  
  22755126.64849 119578996.87949    -11014.01649        50.000  
  23248307.71149 122170680.09049     -6028.60949        50.000  
  24546793.21149 128994265.77349    -13314.24649        49.000  
 16 04 02 14 32 22.3000000  0  4G20G05G21G04                                    
  21579092.47749 113398895.14549     10920.21149        49.000  
  22755336.29749 119580098.59849    -11019.78949        50.000  
  23248422.46949 122171283.16849     -6032.55149        50.000  
  24547046.60249 128995597.34049    -13316.42249        49.000  
 16 04 02 14 32 22.4000000  0  4G20G05G21G04                                    
  21578884.72749 113397803.41049     10914.09449        49.000  
  22755546.03949 119581200.80149    -11025.14849        50.000  
  23248537.29749 122171886.55949     -6036.14849        50.000  
  24547300.01649 128996929.05949    -13318.25449        49.000  
 16 04 02 14 32 22.5000000  0  4G20G05G21G04                                    
  21578677.10249 113396712.34449     10907.77749        49.000  
  22755755.89149 119582303.58249    -11030.53949        50.000  
  23248652.19549 122172490.35949     -6039.86749        50.000  
  24547553.47749 128998260.99249    -13320.19149        49.000  
 16 04 02 14 32 22.6000000  0  4G20G05G21G04                                    
  21578469.60249 113395621.91849     10901.25449        49.000  
  22755965.85249 119583406.91449    -11036.09849        50.000  
  23248767.16449 122173094.52049     -6043.57849        50.000  
  24547806.96949 128999593.12949    -13322.25049        49.000  
 16 04 02 14 32 22.7000000  0  4G20G05G21G04                                    
  21578262.21149 113394532.07849     10895.47749        49.000  
  22756175.89849 119584510.75049    -11041.02749        50.000  
  23248882.19549 122173699.01249     -6046.64149        50.000  
  24548060.50049 129000925.41449    -13323.63749        49.000  
 16 04 02 14 32 22.8000000  0  4G20G05G21G04                                    
  21578054.94549 113393442.87549     10889.00049        49.000  
  22756386.05549 119585615.11749    -11046.51249        50.000  
  23248997.29749 122174303.88749     -6050.77049        50.000  
  24548314.06249 129002257.90249    -13325.79749        49.000  
 16 04 02 14 32 22.9000000  0  4G20G05G21G04                                    
  21577847.80549 113392354.34849     10882.19949        49.000  
  22756596.32049 119586720.09049    -11052.59849        50.000  
  23249112.47749 122174909.13749     -6054.54749        50.000  
  24548567.66449 129003590.61749    -13328.14149        49.000  
 16 04 02 14 32 23.0000000  0  4G20G05G21G04                                    
  21577640.78149 113391266.42649     10876.09849        49.000  
  22756806.69549 119587825.57849    -11057.77049        50.000  
  23249227.71949 122175514.75049     -6058.12949        50.000  
  24548821.30549 129004923.49649    -13329.80549        49.000  
 16 04 02 14 32 23.1000000  0  4G20G05G21G04                                    
  21577433.85949 113390179.09049     10870.41449        49.000  
  22757017.14849 119588931.55149    -11062.52049        50.000  
  23249343.02349 122176120.68049     -6061.21549        50.000  
  24549074.97749 129006256.52749    -13331.14149        49.000  
 16 04 02 14 32 23.2000000  0  4G20G05G21G04                                    
  21577227.07049 113389092.38749     10864.12149        49.000  
  22757227.71949 119590038.07049    -11067.90649        50.000  
  23249458.39849 122176726.97349     -6064.75049        50.000  
  24549328.68049 129007589.74649    -13332.97749        49.000  
 16 04 02 14 32 23.3000000  0  4G20G05G21G04                                    
  21577020.39849 113388006.33649     10857.56249        49.000  
  22757438.39149 119591145.16449    -11073.69549        50.000  
  23249573.84449 122177333.64849     -6068.60549        50.000  
  24549582.42249 129008923.18049    -13335.15649        49.000  
 16 04 02 14 32 23.4000000  0  4G20G05G21G04                                    
  21576813.83649 113386920.85549     10851.84849        49.000  
  22757649.14849 119592252.71149    -11078.29749        50.000  
  23249689.35249 122177940.64849     -6071.89549        50.000  
  24549836.19549 129010256.75049    -13336.62549        49.000  
 16 04 02 14 32 23.5000000  0  4G20G05G21G04                                    
  21576607.40649 113385836.04749     10845.12949        49.000  
  22757860.02349 119593360.86349    -11084.11349        50.000  
  23249804.93049 122178548.01649     -6075.78549        50.000  
  24550090.00849 129011590.53549    -13338.72749        49.000  
 16 04 02 14 32 23.6000000  0  4G20G05G21G04                                    
  21576401.10249 113384751.88749     10838.49249        49.000  
  22758071.00049 119594469.57449    -11089.94549        50.000  
  23249920.59449 122179155.78949     -6079.69149        50.000  
  24550343.85949 129012924.53949    -13340.96949        49.000  
 16 04 02 14 32 23.7000000  0  4G20G05G21G04                                    
  21576194.91449 113383668.38349     10831.85249        49.000  
  22758282.09449 119595578.84449    -11095.74249        50.000  
  23250036.32049 122179763.95749     -6083.85949        50.000  
  24550597.75849 129014258.75849    -13343.26649        49.000  
 16 04 02 14 32 23.8000000  0  4G20G05G21G04                                    
  21575988.84449 113382585.49649     10825.81249        49.000  
  22758493.27349 119596688.63749    -11100.79749        50.000  
  23250152.11749 122180372.46149     -6087.02049        50.000  
  24550851.68049 129015593.15249    -13344.91849        49.000  
 16 04 02 14 32 23.9000000  0  4G20G05G21G04                                    
  21575782.88349 113381503.18049     10820.17249        49.000  
  22758704.55549 119597798.91849    -11105.48449        50.000  
  23250267.96949 122180981.26649     -6089.91449        50.000  
  24551105.63349 129016927.67649    -13346.14849        49.000  
 16 04 02 14 32 24.0000000  0  4G20G05G21G04                                    
  21575577.04749 113380421.51649     10813.62949        49.000  
  22758915.93849 119598909.75449    -11111.28149        50.000  
  23250383.89849 122181590.46549     -6094.00849        50.000  
  24551359.62549 129018262.39849    -13348.10949        49.000  
 16 04 02 14 32 24.1000000  0  4G20G05G21G04                                    
  21575371.33649 113379340.49249     10807.12149        49.000  
  22759127.43049 119600021.14849    -11116.73849        50.000  
  23250499.89149 122182200.03949     -6097.67249        50.000  
  24551613.65649 129019597.34449    -13350.34049        49.000  
 16 04 02 14 32 24.2000000  0  4G20G05G21G04                                    
  21575165.74249 113378260.10249     10800.93849        49.000  
  22759339.03149 119601133.09449    -11122.21549        50.000  
  23250615.96949 122182809.98849     -6101.34049        50.000  
  24551867.71949 129020932.47349    -13352.16449        49.000  
 16 04 02 14 32 24.3000000  0  4G20G05G21G04                                    
  21574960.28949 113377180.39849     10794.13749        49.000  
  22759550.73449 119602245.61749    -11127.98049        50.000  
  23250732.10949 122183420.32849     -6105.19149        50.000  
  24552121.83649 129022267.83649    -13354.46149        49.000  
 16 04 02 14 32 24.4000000  0  4G20G05G21G04                                    
  21574754.94549 113376101.29749     10787.83649        49.000  
  22759762.53949 119603358.66449    -11133.39549        50.000  
  23250848.32049 122184031.02349     -6109.05549        50.000  
  24552375.97749 129023603.37549    -13356.37949        49.000  
 16 04 02 14 32 24.5000000  0  4G20G05G21G04                                    
  21574549.70349 113375022.77049     10782.32449        49.000  
  22759974.43849 119604472.19149    -11137.99649        50.000  
  23250964.59449 122184642.03149     -6111.87549        50.000  
  24552630.14849 129024939.04749    -13357.52349        49.000  
 16 04 02 14 32 24.6000000  0  4G20G05G21G04                                    
  21574344.58649 113373944.86349     10776.18449        49.000  
  22760186.43049 119605586.24249    -11143.14149        50.000  
  23251080.93049 122185253.37949     -6115.26249        50.000  
  24552884.35249 129026274.89149    -13359.22749        49.000  
 16 04 02 14 32 24.7000000  0  4G20G05G21G04                                    
  21574139.60949 113372867.66849     10768.86349        49.000  
  22760398.55549 119606700.92649    -11149.61349        50.000  
  23251197.35249 122185865.17249     -6119.95749        50.000  
  24553138.60949 129027611.00849    -13362.16449        49.000  
 16 04 02 14 32 24.8000000  0  4G20G05G21G04                                    
  21573934.73449 113371791.07049     10762.78149        49.000  
  22760610.76649 119607816.11749    -11154.84449        50.000  
  23251313.83649 122186477.31249     -6123.46549        50.000  
  24553392.89149 129028947.28149    -13363.72749        49.000  
 16 04 02 14 32 24.9000000  0  4G20G05G21G04                                    
  21573729.97749 113370715.05949     10757.26249        49.000  
  22760823.07849 119608931.79349    -11159.29749        50.000  
  23251430.37549 122187089.75449     -6126.18849        50.000  
  24553647.21149 129030283.69549    -13364.78949        49.000  
 16 04 02 14 32 25.0000000  0  4G20G05G21G04                                    
  21573525.33649 113369639.66849     10750.88749        49.000  
  22761035.48449 119610048.00849    -11165.03949        50.000  
  23251546.99249 122187702.55549     -6130.01249        50.000  
  24553901.55549 129031620.30949    -13366.99649        49.000  
 16 04 02 14 32 25.1000000  0  4G20G05G21G04                                    
  21573320.82049 113368564.91849     10744.38749        49.000  
  22761247.99249 119611164.76649    -11170.53949        50.000  
  23251663.67249 122188315.72749     -6133.88349        50.000  
  24554155.93849 129032957.09849    -13368.96549        49.000  
 16 04 02 14 32 25.2000000  0  4G20G05G21G04                                    
  21573116.43049 113367490.83249     10737.87949        49.000  
  22761460.61749 119612282.10249    -11176.14149        50.000  
  23251780.43049 122188929.29349     -6137.67649        50.000  
  24554410.36749 129034294.11749    -13371.04749        49.000  
 16 04 02 14 32 25.3000000  0  4G20G05G21G04                                    
  21572912.16449 113366417.38349     10731.51649        49.000  
  22761673.34449 119613399.97749    -11181.45749        50.000  
  23251897.25849 122189543.23449     -6141.22749        50.000  
  24554664.82849 129035631.33249    -13373.01649        49.000  
 16 04 02 14 32 25.4000000  0  4G20G05G21G04                                    
  21572708.00049 113365344.50449     10725.83249        49.000  
  22761886.15649 119614518.33649    -11186.40249        50.000  
  23252014.14849 122190157.47749     -6144.48449        50.000  
  24554919.32049 129036968.67649    -13374.36749        49.000  
 16 04 02 14 32 25.5000000  0  4G20G05G21G04                                    
  21572503.96149 113364272.28149     10719.28149        49.000  
  22762099.08649 119615637.26249    -11191.97349        50.000  
  23252131.10949 122190772.11349     -6148.23449        50.000  
  24555173.84449 129038306.23449    -13376.37949        49.000  
 16 04 02 14 32 25.6000000  0  4G20G05G21G04                                    
  21572300.03949 113363200.67649     10713.25049        49.000  
  22762312.10249 119616756.69949    -11197.03549        50.000  
  23252248.12549 122191387.07049     -6151.32449        50.000  
  24555428.40649 129039643.96549    -13378.07849        49.000  
 16 04 02 14 32 25.7000000  0  4G20G05G21G04                                    
  21572096.24249 113362129.68049     10706.75449        49.000  
  22762525.22749 119617876.68049    -11202.75049        50.000  
  23252365.22749 122192002.41049     -6155.45749        50.000  
  24555683.00049 129040981.85949    -13379.93449        49.000  
 16 04 02 14 32 25.8000000  0  4G20G05G21G04                                    
  21571892.57049 113361059.38349     10699.85549        49.000  
  22762738.46949 119618997.24649    -11208.57449        50.000  
  23252482.39849 122192618.15649     -6159.47749        50.000  
  24555937.64149 129042320.02049    -13382.52749        49.000  
 16 04 02 14 32 25.9000000  0  4G20G05G21G04                                    
  21571689.01649 113359989.68049     10693.98849        49.000  
  22762951.80549 119620118.32449    -11213.45749        50.000  
  23252599.63349 122193234.24249     -6162.74249        50.000  
  24556192.31249 129043658.33249    -13384.07049        49.000  
 16 04 02 14 32 26.0000000  0  4G20G05G21G04                                    
  21571485.57849 113358920.58649     10687.66049        49.000  
  22763165.23449 119621239.92249    -11219.13349        50.000  
  23252716.93849 122193850.66049     -6166.53149        50.000  
  24556447.01649 129044996.80949    -13385.96949        49.000  
 16 04 02 14 32 26.1000000  0  4G20G05G21G04                                    
  21571282.26649 113357852.16849     10681.12549        49.000  
  22763378.78149 119622362.09849    -11224.55149        50.000  
  23252834.31249 122194467.48449     -6170.21949        50.000  
  24556701.76649 129046335.51249    -13387.96949        49.000  
 16 04 02 14 32 26.2000000  0  4G20G05G21G04                                    
  21571079.07849 113356784.39849     10674.71149        49.000  
  22763592.43049 119623484.84849    -11230.25049        50.000  
  23252951.76649 122195084.70349     -6173.97749        50.000  
  24556956.55549 129047674.44549    -13390.15649        49.000  
 16 04 02 14 32 26.3000000  0  4G20G05G21G04                                    
  21570875.99249 113355717.21149     10668.81249        49.000  
  22763806.17249 119624608.06649    -11235.00849        50.000  
  23253069.28149 122195702.22349     -6177.21549        50.000  
  24557211.37549 129049013.49649    -13391.43049        49.000  
 16 04 02 14 32 26.4000000  0  4G20G05G21G04                                    
  21570673.04749 113354650.72349     10661.98449        49.000  
  22764020.03149 119625731.89849    -11240.98049        50.000  
  23253186.86749 122196320.17649     -6181.32849        50.000  
  24557466.23449 129050352.80149    -13393.81649        49.000  
 16 04 02 14 32 26.5000000  0  4G20G05G21G04                                    
  21570470.21149 113353584.80949     10656.00449        49.000  
  22764233.98449 119626856.21949    -11246.19949        50.000  
  23253304.52349 122196938.43849     -6184.76249        50.000  
  24557721.12549 129051692.24649    -13395.37949        49.000  
 16 04 02 14 32 26.6000000  0  4G20G05G21G04                                    
  21570267.50849 113352519.59049     10649.19549        49.000  
  22764448.04749 119627981.13349    -11251.89549        50.000  
  23253422.25049 122197557.12149     -6188.78149        50.000  
  24557976.06249 129053031.95349    -13397.83649        49.000  
 16 04 02 14 32 26.7000000  0  4G20G05G21G04                                    
  21570064.92249 113351454.96949     10643.21949        49.000  
  22764662.21149 119629106.56249    -11257.03149        50.000  
  23253540.04749 122198176.14849     -6192.09049        50.000  
  24558231.03149 129054371.80949    -13399.40649        49.000  
 16 04 02 14 32 26.8000000  0  4G20G05G21G04                                    
  21569862.43849 113350390.94549     10637.19549        49.000  
  22764876.46149 119630232.48449    -11262.03149        50.000  
  23253657.90649 122198795.48449     -6195.33249        50.000  
  24558486.02349 129055711.81649    -13400.97749        49.000  
 16 04 02 14 32 26.9000000  0  4G20G05G21G04                                    
  21569660.08649 113349327.55549     10630.80949        49.000  
  22765090.82049 119631358.95749    -11267.55549        50.000  
  23253775.83649 122199415.20349     -6199.22749        50.000  
  24558741.05549 129057052.01249    -13402.84849        49.000  
 16 04 02 14 32 27.0000000  0  4G20G05G21G04                                    
  21569457.85949 113348264.85249     10624.04749        49.000  
  22765305.29749 119632486.03949    -11273.61749        50.000  
  23253893.84449 122200035.34449     -6203.28949        50.000  
  24558996.14149 129058392.47349    -13405.41849        49.000  
 16 04 02 14 32 27.1000000  0  4G20G05G21G04                                    
  21569255.75049 113347202.75449     10617.88349        49.000  
  22765519.87549 119633613.60949    -11278.60949        50.000  
  23254011.91449 122200655.80549     -6206.68049        50.000  
  24559251.25049 129059733.07449    -13407.05949        49.000  
 16 04 02 14 32 27.2000000  0  4G20G05G21G04                                    
  21569053.75049 113346141.25049     10612.08649        49.000  
  22765734.53949 119634741.69149    -11283.52749        50.000  
  23254130.04749 122201276.60249     -6209.80549        50.000  
  24559506.39149 129061073.83649    -13408.42249        49.000  
 16 04 02 14 32 27.3000000  0  4G20G05G21G04                                    
  21568851.87549 113345080.38749     10605.68849        49.000  
  22765949.31249 119635870.32049    -11288.95749        50.000  
  23254248.25049 122201897.77049     -6213.55949        50.000  
  24559761.56249 129062414.79349    -13410.38749        49.000  
 16 04 02 14 32 27.4000000  0  4G20G05G21G04                                    
  21568650.12549 113344020.17249     10599.11349        49.000  
  22766164.18849 119636999.49649    -11294.53949        50.000  
  23254366.53149 122202519.30949     -6217.36349        50.000  
  24560016.77349 129063755.94549    -13412.37949        49.000  
 16 04 02 14 32 27.5000000  0  4G20G05G21G04                                    
  21568448.49249 113342960.57849     10592.96549        49.000  
  22766379.16449 119638129.21149    -11299.82849        50.000  
  23254484.87549 122203141.19949     -6220.69149        50.000  
  24560272.03149 129065097.29749    -13414.34849        49.000  
 16 04 02 14 32 27.6000000  0  4G20G05G21G04                                    
  21568246.97749 113341901.60949     10586.41049        49.000  
  22766594.25049 119639259.46149    -11305.56649        50.000  
  23254603.28949 122203763.47349     -6224.96149        50.000  
  24560527.31249 129066438.80949    -13416.29749        49.000  
 16 04 02 14 32 27.7000000  0  4G20G05G21G04                                    
  21568045.58649 113340843.28549     10580.16049        49.000  
  22766809.43049 119640390.25849    -11310.70349        50.000  
  23254721.77349 122204386.10249     -6228.34449        50.000  
  24560782.64149 129067780.55549    -13418.44549        49.000  
 16 04 02 14 32 27.8000000  0  4G20G05G21G04                                    
  21567844.30549 113339785.55949     10574.31249        49.000  
  22767024.71149 119641521.56649    -11315.80549        50.000  
  23254840.31249 122205009.06649     -6231.53149        50.000  
  24561037.98449 129069122.42249    -13419.70349        49.000  
 16 04 02 14 32 27.9000000  0  4G20G05G21G04                                    
  21567643.15649 113338728.50449     10567.65649        49.000  
  22767240.09449 119642653.43449    -11321.44549        50.000  
  23254958.93849 122205632.42649     -6235.39549        50.000  
  24561293.38349 129070464.52049    -13421.75449        49.000  
 16 04 02 14 32 28.0000000  0  4G20G05G21G04                                    
  21567442.11749 113337672.04749     10561.54349        49.000  
  22767455.58649 119643785.82849    -11326.60549        50.000  
  23255077.62549 122206256.12149     -6238.86749        50.000  
  24561548.80549 129071806.78549    -13423.46549        49.000  
 16 04 02 14 32 28.1000000  0  4G20G05G21G04                                    
  21567241.21149 113336616.25449     10554.77349        49.000  
  22767671.18049 119644918.77749    -11332.50049        50.000  
  23255196.38349 122206880.21149     -6242.93049        50.000  
  24561804.27349 129073149.27349    -13425.84049        49.000  
 16 04 02 14 32 28.2000000  0  4G20G05G21G04                                    
  21567040.40649 113335561.04749     10548.93849        49.000  
  22767886.86749 119646052.23849    -11337.38749        50.000  
  23255315.20349 122207504.62549     -6246.16049        50.000  
  24562059.76649 129074491.89549    -13427.15249        49.000  
 16 04 02 14 32 28.3000000  0  4G20G05G21G04                                    
  21566839.72749 113334506.47749     10542.65649        49.000  
  22768102.65649 119647186.22349    -11342.68449        50.000  
  23255434.09449 122208129.39549     -6249.68449        50.000  
  24562315.29749 129075834.72749    -13429.23849        49.000  
 16 04 02 14 32 28.4000000  0  4G20G05G21G04                                    
  21566639.17249 113333452.55149     10536.11349        49.000  
  22768318.55549 119648320.76649    -11348.32049        50.000  
  23255553.05549 122208754.53949     -6253.45349        50.000  
  24562570.86749 129077177.73049    -13431.00049        49.000  
 16 04 02 14 32 28.5000000  0  4G20G05G21G04                                    
  21566438.72749 113332399.21149     10530.51649        49.000  
  22768534.54749 119649455.81249    -11353.13749        50.000  
  23255672.07849 122209380.01649     -6256.48049        50.000  
  24562826.46149 129078520.90249    -13432.53549        49.000  
 16 04 02 14 32 28.6000000  0  4G20G05G21G04                                    
  21566238.39849 113331346.46149     10524.37949        49.000  
  22768750.63349 119650591.34049    -11358.31249        50.000  
  23255791.16449 122210005.80549     -6260.04349        50.000  
  24563082.08649 129079864.21149    -13434.12949        49.000  
 16 04 02 14 32 28.7000000  0  4G20G05G21G04                                    
  21566038.20349 113330294.45749     10517.10249        49.000  
  22768966.84449 119651727.51649    -11364.57449        50.000  
  23255910.33649 122210632.06649     -6264.49249        50.000  
  24563337.75849 129081207.82049    -13436.87949        49.000  
 16 04 02 14 32 28.8000000  0  4G20G05G21G04                                    
  21565838.11749 113329242.99649     10511.56249        49.000  
  22769183.13349 119652864.16049    -11369.08649        50.000  
  23256029.56249 122211258.61349     -6267.28549        50.000  
  24563593.46149 129082551.53549    -13437.91449        49.000  
 16 04 02 14 32 28.9000000  0  4G20G05G21G04                                    
  21565638.16449 113328192.20749     10504.91849        49.000  
  22769399.53949 119654001.37149    -11374.93449        50.000  
  23256148.86749 122211885.55149     -6271.30549        50.000  
  24563849.20349 129083895.46549    -13440.19549        49.000  
 16 04 02 14 32 29.0000000  0  4G20G05G21G04                                    
  21565438.32049 113327142.00849     10498.81649        49.000  
  22769616.03949 119655139.07449    -11379.92249        50.000  
  23256268.23449 122212512.81649     -6274.66049        50.000  
  24564104.97749 129085239.55949    -13441.94149        49.000  
 16 04 02 14 32 29.1000000  0  4G20G05G21G04                                    
  21565238.60249 113326092.44949     10492.75849        49.000  
  22769832.64149 119656277.32849    -11385.11349        50.000  
  23256387.66449 122213140.44549     -6278.13349        50.000  
  24564360.78149 129086583.83649    -13443.53149        49.000  
 16 04 02 14 32 29.2000000  0  4G20G05G21G04                                    
  21565038.99249 113325043.51649     10486.37149        49.000  
  22770049.35249 119657416.12549    -11390.71549        50.000  
  23256507.17249 122213768.44949     -6281.94549        50.000  
  24564616.63349 129087928.30549    -13445.56249        49.000  
 16 04 02 14 32 29.3000000  0  4G20G05G21G04                                    
  21564839.50849 113323995.24249     10479.78149        49.000  
  22770266.15649 119658555.47749    -11396.32049        50.000  
  23256626.75049 122214396.82849     -6285.68449        50.000  
  24564872.51649 129089272.97749    -13447.63749        49.000  
 16 04 02 14 32 29.4000000  0  4G20G05G21G04                                    
  21564640.14849 113322947.57849     10473.68449        49.000  
  22770483.07049 119659695.34049    -11401.35249        50.000  
  23256746.39149 122215025.54749     -6288.99249        50.000  
  24565128.43049 129090617.82049    -13449.20749        49.000  
 16 04 02 14 32 29.5000000  0  4G20G05G21G04                                    
  21564440.89149 113321900.50449     10467.66449        49.000  
  22770700.07049 119660835.70349    -11406.52749        50.000  
  23256866.09449 122215654.59449     -6292.48049        50.000  
  24565384.37549 129091962.80549    -13450.72749        49.000  
 16 04 02 14 32 29.6000000  0  4G20G05G21G04                                    
  21564241.78949 113320854.19549     10459.89849        49.000  
  22770917.20349 119661976.73049    -11413.19149        50.000  
  23256985.89149 122216284.12549     -6297.40649        50.000  
  24565640.37549 129093308.11749    -13454.02749        49.000  
 16 04 02 14 32 29.7000000  0  4G20G05G21G04                                    
  21564042.78949 113319808.43849     10454.34449        49.000  
  22771134.42249 119663118.24249    -11418.01649        50.000  
  23257105.75049 122216913.96549     -6300.39849        50.000  
  24565896.40649 129094653.55149    -13455.32449        49.000  
 16 04 02 14 32 29.8000000  0  4G20G05G21G04                                    
  21563843.90649 113318763.30149     10448.43049        49.000  
  22771351.74249 119664260.24649    -11422.82449        50.000  
  23257225.66449 122217544.13349     -6303.51249        50.000  
  24566152.46149 129095999.14149    -13456.72349        49.000  
 16 04 02 14 32 29.9000000  0  4G20G05G21G04                                    
  21563645.14849 113317718.84449     10441.53149        49.000  
  22771569.17249 119665402.85549    -11428.79349        50.000  
  23257345.65649 122218174.71949     -6307.81249        50.000  
  24566408.57049 129097344.97749    -13459.23849        49.000  
 16 04 02 14 32 30.0000000  0  4G20G05G21G04                                    
  21563446.51649 113316674.99649     10435.23049        49.000  
  22771786.69549 119666545.96949    -11434.09449        50.000  
  23257465.71949 122218805.63749     -6311.40249        50.000  
  24566664.70349 129098690.97349    -13461.07449        49.000  
 16 04 02 14 32 30.1000000  0  4G20G05G21G04                                    
  21563247.98449 113315631.76249     10429.32049        49.000  
  22772004.32849 119667689.60249    -11439.24249        50.000  
  23257585.84449 122219436.90249     -6314.62949        50.000  
  24566920.86749 129100037.13349    -13462.54749        49.000  
 16 04 02 14 32 30.2000000  0  4G20G05G21G04                                    
  21563049.58649 113314589.16049     10423.10949        49.000  
  22772222.05549 119668833.77349    -11444.32849        50.000  
  23257706.03949 122220068.53549     -6318.12949        50.000  
  24567177.07049 129101383.48849    -13464.35249        49.000  
 16 04 02 14 32 30.3000000  0  4G20G05G21G04                                    
  21562851.30549 113313547.15649     10416.98449        49.000  
  22772439.88349 119669978.45749    -11449.63749        50.000  
  23257826.29749 122220700.49649     -6321.55149        50.000  
  24567433.30549 129102730.00849    -13466.16849        49.000  
 16 04 02 14 32 30.4000000  0  4G20G05G21G04                                    
  21562653.14149 113312505.81249     10410.46149        49.000  
  22772657.82049 119671123.70749    -11455.24249        50.000  
  23257946.63349 122221332.85549     -6325.51249        50.000  
  24567689.57849 129104076.71949    -13468.03149        49.000  
 16 04 02 14 32 30.5000000  0  4G20G05G21G04                                    
  21562455.09449 113311465.09449     10404.11749        49.000  
  22772875.84449 119672269.46949    -11460.36349        50.000  
  23258067.03149 122221965.55949     -6329.09049        50.000  
  24567945.88349 129105423.62149    -13469.87149        49.000  
 16 04 02 14 32 30.6000000  0  4G20G05G21G04                                    
  21562257.16449 113310424.96949     10398.41049        49.000  
  22773093.97749 119673415.74249    -11465.30949        50.000  
  23258187.49249 122222598.58649     -6332.03949        50.000  
  24568202.21949 129106770.68049    -13471.39549        49.000  
 16 04 02 14 32 30.7000000  0  4G20G05G21G04                                    
  21562059.35249 113309385.44949     10392.10949        49.000  
  22773312.20349 119674562.53549    -11470.93049        50.000  
  23258308.01649 122223231.94949     -6335.64849        50.000  
  24568458.58649 129108117.87549    -13472.92249        49.000  
 16 04 02 14 32 30.8000000  0  4G20G05G21G04                                    
  21561861.65649 113308346.59449     10385.75049        49.000  
  22773530.53149 119675709.87949    -11476.12549        50.000  
  23258428.62549 122223865.71949     -6339.37549        50.000  
  24568715.00049 129109465.32449    -13475.09049        49.000  
 16 04 02 14 32 30.9000000  0  4G20G05G21G04                                    
  21561664.10249 113307308.40649     10378.75049        49.000  
  22773748.97749 119676857.80549    -11482.03549        50.000  
  23258549.29749 122224499.86749     -6343.59049        50.000  
  24568971.44549 129110812.97349    -13477.56649        49.000  
 16 04 02 14 32 31.0000000  0  4G20G05G21G04                                    
  21561466.64849 113306270.80949     10372.98049        49.000  
  22773967.51649 119678006.21949    -11486.82449        50.000  
  23258670.03949 122225134.35249     -6346.74649        50.000  
  24569227.93049 129112160.78949    -13479.13749        49.000  
 16 04 02 14 32 31.1000000  0  4G20G05G21G04                                    
  21561269.32049 113305233.83249     10366.73849        49.000  
  22774186.14849 119679155.16849    -11492.18049        50.000  
  23258790.83649 122225769.18049     -6350.27349        50.000  
  24569484.43849 129113508.75449    -13480.58249        49.000  
 16 04 02 14 32 31.2000000  0  4G20G05G21G04                                    
  21561072.10949 113304197.48049     10360.67649        49.000  
  22774404.88349 119680304.62949    -11497.29749        50.000  
  23258911.71149 122226404.35949     -6353.49249        50.000  
  24569740.98449 129114856.90649    -13482.27349        49.000  
 16 04 02 14 32 31.3000000  0  4G20G05G21G04                                    
  21560875.02349 113303161.80549     10353.71149        49.000  
  22774623.73449 119681454.69949    -11503.34049        50.000  
  23259032.66449 122227039.96149     -6357.95749        50.000  
  24569997.57849 129116205.31249    -13485.02349        49.000  
 16 04 02 14 32 31.4000000  0  4G20G05G21G04                                    
  21560678.06249 113302126.75849     10347.48849        49.000  
  22774842.68849 119682605.28549    -11508.62549        50.000  
  23259153.68049 122227675.90649     -6361.47749        50.000  
  24570254.19549 129117553.85949    -13486.54749        49.000  
 16 04 02 14 32 31.5000000  0  4G20G05G21G04                                    
  21560481.22749 113301092.37549     10340.68849        49.000  
  22775061.74249 119683756.43449    -11514.42649        50.000  
  23259274.77349 122228312.25049     -6365.61749        50.000  
  24570510.86749 129118902.65249    -13488.99249        49.000  
 16 04 02 14 32 31.6000000  0  4G20G05G21G04                                    
  21560284.52349 113300058.69949     10333.75449        49.000  
  22775280.91449 119684908.19949    -11520.43449        50.000  
  23259395.95349 122228949.03149     -6369.75849        50.000  
  24570767.58649 129120251.71149    -13491.57449        49.000  
 16 04 02 14 32 31.7000000  0  4G20G05G21G04                                    
  21560087.93049 113299025.59849     10327.92649        49.000  
  22775500.18049 119686060.44949    -11525.35549        50.000  
  23259517.18849 122229586.11749     -6372.73849        50.000  
  24571024.32049 129121600.88349    -13492.64549        49.000  
 16 04 02 14 32 31.8000000  0  4G20G05G21G04                                    
  21559891.44549 113297993.05949     10322.35249        49.000  
  22775719.53149 119687213.15649    -11529.87149        50.000  
  23259638.47749 122230223.49249     -6375.69949        50.000  
  24571281.08649 129122950.18449    -13493.97749        49.000  
 16 04 02 14 32 31.9000000  0  4G20G05G21G04                                    
  21559695.08649 113296961.20349     10315.64849        49.000  
  22775939.00049 119688366.45749    -11535.77349        50.000  
  23259759.84449 122230861.28549     -6379.78149        50.000  
  24571537.89149 129124299.71149    -13496.09449        49.000  
 16 04 02 14 32 32.0000000  0  4G20G05G21G04                                    
  21559498.85249 113295929.98849     10309.24249        49.000  
  22776158.57049 119689520.30549    -11541.16449        50.000  
  23259881.28149 122231499.44949     -6383.50449        50.000  
  24571794.74249 129125649.44149    -13498.00849        49.000  
 16 04 02 14 32 32.1000000  0  4G20G05G21G04                                    
  21559302.73449 113294899.41049     10302.75049        49.000  
  22776378.24249 119690674.68449    -11546.41449        50.000  
  23260002.78949 122232137.98049     -6387.24249        50.000  
  24572051.62549 129126999.37549    -13500.22349        49.000  
 16 04 02 14 32 32.2000000  0  4G20G05G21G04                                    
  21559106.75049 113293869.47749     10296.21149        49.000  
  22776598.01649 119691829.61749    -11552.26249        50.000  
  23260124.36749 122232776.87949     -6391.02049        50.000  
  24572308.53949 129128349.48449    -13502.05949        49.000  
 16 04 02 14 32 32.3000000  0  4G20G05G21G04                                    
  21558910.87549 113292840.12949     10290.46949        49.000  
  22776817.88349 119692985.03949    -11556.88349        50.000  
  23260246.00849 122233416.09849     -6394.12549        50.000  
  24572565.49249 129129699.74649    -13503.44549        49.000  
 16 04 02 14 32 32.4000000  0  4G20G05G21G04                                    
  21558715.11749 113291811.43049     10283.90249        49.000  
  22777037.85949 119694141.01649    -11562.58649        50.000  
  23260367.71949 122234055.69149     -6397.88749        50.000  
  24572822.47749 129131050.21949    -13505.62149        49.000  
 16 04 02 14 32 32.5000000  0  4G20G05G21G04                                    
  21558519.48449 113290783.35249     10277.78949        49.000  
  22777257.93849 119695297.51249    -11567.65649        50.000  
  23260489.50049 122234695.64149     -6401.31649        50.000  
  24573079.49249 129132400.85549    -13507.29749        49.000  
 16 04 02 14 32 32.6000000  0  4G20G05G21G04                                    
  21558323.96149 113289755.89149     10271.48849        49.000  
  22777478.10949 119696454.54349    -11573.07449        50.000  
  23260611.34449 122235335.94149     -6405.03949        50.000  
  24573336.54749 129133751.66049    -13509.06649        49.000  
 16 04 02 14 32 32.7000000  0  4G20G05G21G04                                    
  21558128.56249 113288729.09849     10264.91049        49.000  
  22777698.39849 119697612.13349    -11578.70349        50.000  
  23260733.25849 122235976.62949     -6408.85249        50.000  
  24573593.64149 129135102.69149    -13511.20349        49.000  
 16 04 02 14 32 32.8000000  0  4G20G05G21G04                                    
  21557933.28149 113287702.90249     10259.03149        49.000  
  22777918.77349 119698770.22349    -11583.57849        50.000  
  23260855.24249 122236617.64849     -6412.02049        50.000  
  24573850.75849 129136453.87949    -13512.59449        49.000  
 16 04 02 14 32 32.9000000  0  4G20G05G21G04                                    
  21557738.12549 113286677.34049     10252.64549        49.000  
  22778139.25849 119699928.85949    -11589.15249        50.000  
  23260977.29749 122237259.03549     -6415.82449        50.000  
  24574107.92249 129137805.25049    -13514.58249        49.000  
 16 04 02 14 32 33.0000000  0  4G20G05G21G04                                    
  21557543.10249 113285652.48449     10245.57049        49.000  
  22778359.85249 119701088.08649    -11594.98849        50.000  
  23261099.43049 122237900.84849     -6419.92249        50.000  
  24574365.12549 129139156.87949    -13517.11349        49.000  
 16 04 02 14 32 33.1000000  0  4G20G05G21G04                                    
  21557348.17249 113284628.11349     10240.73849        49.000  
  22778580.52349 119702247.71549    -11598.96149        50.000  
  23261221.60249 122238542.87949     -6422.21949        50.000  
  24574622.34449 129140508.55149    -13517.57049        49.000  
 16 04 02 14 32 33.2000000  0  4G20G05G21G04                                    
  21557153.35949 113283604.39149     10234.38749        49.000  
  22778801.29749 119703407.89549    -11604.49249        50.000  
  23261343.84449 122239185.29349     -6426.05149        50.000  
  24574879.59449 129141860.42649    -13519.46949        49.000  
 16 04 02 14 32 33.3000000  0  4G20G05G21G04                                    
  21556958.68049 113282581.36349     10227.24249        49.000  
  22779022.18849 119704568.68449    -11610.65649        50.000  
  23261466.17249 122239828.13349     -6430.33249        50.000  
  24575136.89849 129143212.55549    -13522.23449        49.000  
 16 04 02 14 32 33.4000000  0  4G20G05G21G04                                    
  21556764.13349 113281558.99649     10220.66449        49.000  
  22779243.18049 119705730.00849    -11616.08249        50.000  
  23261588.57049 122240471.34049     -6434.03149        50.000  
  24575394.23449 129144564.87549    -13524.19149        49.000  
 16 04 02 14 32 33.5000000  0  4G20G05G21G04                                    
  21556569.69549 113280537.20349     10214.75849        49.000  
  22779464.26649 119706891.82449    -11621.07849        50.000  
  23261711.03149 122241114.87949     -6437.37149        50.000  
  24575651.60249 129145917.34449    -13525.76249        49.000  
 16 04 02 14 32 33.6000000  0  4G20G05G21G04                                    
  21556375.38349 113279516.06649     10208.23849        49.000  
  22779685.46149 119708054.20749    -11626.69549        50.000  
  23261833.57049 122241758.79749     -6441.23849        50.000  
  24575909.00849 129147270.02049    -13527.71549        49.000  
 16 04 02 14 32 33.7000000  0  4G20G05G21G04                                    
  21556181.18049 113278495.55149     10202.26249        49.000  
  22779906.75049 119709217.10549    -11631.66449        50.000  
  23261956.17249 122242403.05949     -6444.49649        50.000  
  24576166.43849 129148622.85549    -13529.19549        49.000  
 16 04 02 14 32 33.8000000  0  4G20G05G21G04                                    
  21555987.10249 113277475.64549     10196.15249        49.000  
  22780128.14149 119710380.51249    -11636.74249        50.000  
  23262078.83649 122243047.66449     -6447.88349        50.000  
  24576423.91449 129149975.87949    -13530.96949        49.000  
 16 04 02 14 32 33.9000000  0  4G20G05G21G04                                    
  21555793.14149 113276456.37149     10189.78149        49.000  
  22780349.63349 119711544.46549    -11642.19949        50.000  
  23262201.56249 122243692.60949     -6451.35249        50.000  
  24576681.42249 129151329.06649    -13532.70749        49.000  
 16 04 02 14 32 34.0000000  0  4G20G05G21G04                                    
  21555599.29749 113275437.72749     10183.54349        49.000  
  22780571.22749 119712708.93849    -11647.41049        50.000  
  23262324.36749 122244337.94149     -6455.07049        50.000  
  24576938.96149 129152682.44149    -13534.49249        49.000  
 16 04 02 14 32 34.1000000  0  4G20G05G21G04                                    
  21555405.57049 113274419.69949     10177.23849        49.000  
  22780792.92249 119713873.94149    -11652.73449        50.000  
  23262447.23449 122244983.61349     -6458.60949        50.000  
  24577196.53149 129154035.99249    -13536.30549        49.000  
 16 04 02 14 32 34.2000000  0  4G20G05G21G04                                    
  21555211.96149 113273402.26649     10171.29349        49.000  
  22781014.70349 119715039.43849    -11657.82449        50.000  
  23262570.16449 122245629.60549     -6461.87949        50.000  
  24577454.13349 129155389.69149    -13537.84849        49.000  
 16 04 02 14 32 34.3000000  0  4G20G05G21G04                                    
  21555018.46949 113272385.46549     10165.12549        49.000  
  22781236.59449 119716205.45749    -11662.84849        50.000  
  23262693.15649 122246275.95349     -6465.27049        50.000  
  24577711.77349 129156743.57449    -13539.49649        49.000  
 16 04 02 14 32 34.4000000  0  4G20G05G21G04                                    
  21554825.10249 113271369.28949     10158.74249        49.000  
  22781458.57849 119717372.01249    -11668.28149        50.000  
  23262816.21949 122246922.66049     -6468.97349        50.000  
  24577969.43849 129158097.63349    -13541.39849        49.000  
 16 04 02 14 32 34.5000000  0  4G20G05G21G04                                    
  21554631.84449 113270353.73849     10152.57849        49.000  
  22781680.67249 119718539.10249    -11673.51249        50.000  
  23262939.35249 122247569.72349     -6472.44549        50.000  
  24578227.14149 129159451.87149    -13543.12149        49.000  
 16 04 02 14 32 34.6000000  0  4G20G05G21G04                                    
  21554438.71949 113269338.83649     10145.90249        49.000  
  22781902.85949 119719706.72749    -11679.12149        50.000  
  23263062.55549 122248217.15249     -6476.35949        50.000  
  24578484.88349 129160806.31249    -13545.36749        49.000  
 16 04 02 14 32 34.7000000  0  4G20G05G21G04                                    
  21554245.71949 113268324.60549     10139.11349        49.000  
  22782125.16449 119720874.94549    -11685.08249        50.000  
  23263185.83649 122248865.00449     -6480.54349        50.000  
  24578742.67249 129162160.98049    -13547.68849        49.000  
 16 04 02 14 32 34.8000000  0  4G20G05G21G04                                    
  21554052.84449 113267311.04349     10132.46949        49.000  
  22782347.57049 119722043.70349    -11690.53549        50.000  
  23263309.19549 122249513.23049     -6484.39549        50.000  
  24579000.50049 129163515.85249    -13549.69949        49.000  
 16 04 02 14 32 34.9000000  0  4G20G05G21G04                                    
  21553860.08649 113266298.05949     10126.71949        49.000  
  22782570.07849 119723212.97749    -11695.51249        50.000  
  23263432.60949 122250161.77049     -6487.46949        50.000  
  24579258.35249 129164870.87949    -13551.23049        49.000  
 16 04 02 14 32 35.0000000  0  4G20G05G21G04                                    
  21553667.43849 113265285.71149     10120.47749        49.000  
  22782792.68049 119724382.77749    -11700.84049        50.000  
  23263556.09449 122250810.69549     -6491.15649        50.000  
  24579516.24249 129166226.09849    -13553.14849        49.000  
 16 04 02 14 32 35.1000000  0  4G20G05G21G04                                    
  21553474.91449 113264273.98849     10114.25049        49.000  
  22783015.38349 119725553.09049    -11705.93449        50.000  
  23263679.64149 122251459.94149     -6494.48049        50.000  
  24579774.16449 129167581.46549    -13554.57449        49.000  
 16 04 02 14 32 35.2000000  0  4G20G05G21G04                                    
  21553282.50849 113263262.86749     10108.28549        49.000  
  22783238.18849 119726723.90649    -11710.76249        50.000  
  23263803.25849 122252109.53549     -6497.72349        50.000  
  24580032.10949 129168937.00449    -13556.14549        49.000  
 16 04 02 14 32 35.3000000  0  4G20G05G21G04                                    
  21553090.21949 113262252.39549     10101.75449        49.000  
  22783461.08649 119727895.29349    -11716.51649        50.000  
  23263926.94549 122252759.50449     -6501.65649        50.000  
  24580290.10249 129170292.75449    -13558.33249        49.000  
 16 04 02 14 32 35.4000000  0  4G20G05G21G04                                    
  21552898.05549 113261242.56649     10095.26249        49.000  
  22783684.10249 119729067.21549    -11721.94949        50.000  
  23264050.70349 122253409.84449     -6505.28149        50.000  
  24580548.13349 129171648.68449    -13560.27749        49.000  
 16 04 02 14 32 35.5000000  0  4G20G05G21G04                                    
  21552706.00849 113260233.37549     10088.70349        49.000  
  22783907.21149 119730239.67249    -11727.50849        50.000  
  23264174.52349 122254060.55149     -6509.14549        50.000  
  24580806.19549 129173004.80149    -13562.18849        49.000  
 16 04 02 14 32 35.6000000  0  4G20G05G21G04                                    
  21552514.09449 113259224.86349     10081.88349        49.000  
  22784130.43049 119731412.70349    -11733.35549        50.000  
  23264298.43049 122254711.65649     -6513.26649        50.000  
  24581064.30549 129174361.16049    -13564.64149        49.000  
