     2.10           OBSERVATION DATA    G (GPS)             RINEX VERSION / TYPE
Convert v1.8.0                          09-Jun-2016 15:03   PGM / RUN BY / DATE 
Signal Strength values S1,S2 are in dBHz                    COMMENT             
                                                            MARKER NAME         
                                                            MARKER NUMBER       
                                                            OBSERVER / AGENCY   
                    NovAtel GPSCard                         REC # / TYPE / VERS 
                                                            ANT # / TYPE        
0.0000        0.0000        0.0000                          APPROX POSITION XYZ 
        0.0000        0.0000        0.0000                  ANTENNA: DELTA H/E/N
     1     0                                                WAVELENGTH FACT L1/2
     1     0     5   G04   G07   G21   G26   G30            WAVELENGTH FACT L1/2
                                                            COMMENT             
                                                            COMMENT             
                                                            COMMENT             
                                                            COMMENT             
                                                            COMMENT             
                                                            COMMENT             
     4    C1    L1    D1    S1                              # / TYPES OF OBSERV 
     0.100                                                  INTERVAL            
  2016    04    02    14    21     6.5000000    GPS         TIME OF FIRST OBS   
  2016    04    02    14    21    28.8000000    GPS         TIME OF LAST OBS    
Leap Seconds Unknown                                        COMMENT             
                                                            END OF HEADER       
 16 04 02 14 21  6.5000000  0  1G26                                             
  19150710.15649 100637660.20759     -3249.78949        50.000  
 16 04 02 14 21  6.6000000  0  1G26                                             
  19150772.03149 100637985.35949     -3253.21549        50.000  
 16 04 02 14 21  6.7000000  0  2G04G26                                          
  19754064.32049 103808308.57459      3735.23449        50.000  
  19150833.96149 100638310.81649     -3256.18049        50.000  
 16 04 02 14 21  6.8000000  0  3G04G30G26                                       
  19753993.26649 103807935.20749      3732.20349        50.000  
  22504770.40649 118263365.93059      1200.48049        48.000  
  19150895.96149 100638636.63349     -3259.81249        50.000  
 16 04 02 14 21  6.9000000  0  3G04G30G26                                       
  19753922.28149 103807562.12149      3729.46949        50.000  
  22504747.58649 118263246.00849      1198.01649        48.000  
  19150958.01649 100638962.74249     -3262.85249        50.000  
 16 04 02 14 21  7.0000000  0  3G04G30G26                                       
  19753851.34449 103807189.35549      3726.05149        50.000  
  22504724.82849 118263126.35549      1195.27049        48.000  
  19151020.14849 100639289.24649     -3266.66049        50.000  
 16 04 02 14 21  7.1000000  0  3G04G30G26                                       
  19753780.46949 103806816.87149      3723.34449        50.000  
  22504702.10249 118263006.93049      1192.87949        48.000  
  19151082.35249 100639616.06649     -3269.96949        50.000  
 16 04 02 14 21  7.2000000  0  3G04G30G26                                       
  19753709.64149 103806444.69149      3720.22349        50.000  
  22504679.44549 118262887.75049      1190.37949        48.000  
  19151144.60949 100639943.22349     -3273.24649        50.000  
 16 04 02 14 21  7.3000000  0  3G04G30G26                                       
  19753638.85249 103806072.76649      3717.63749        50.000  
  22504656.81249 118262768.78949      1188.33249        48.000  
  19151206.91449 100640270.71149     -3276.58649        50.000  
 16 04 02 14 21  7.4000000  0  3G04G30G26                                       
  19753568.14149 103805701.15249      3714.58249        50.000  
  22504634.22749 118262650.05949      1185.93449        48.000  
  19151269.28949 100640598.49649     -3279.70349        50.000  
 16 04 02 14 21  7.5000000  0  3G04G30G26                                       
  19753497.50049 103805329.86349      3711.32449        50.000  
  22504611.68849 118262531.62949      1183.08649        48.000  
  19151331.76649 100640926.69949     -3283.61349        50.000  
 16 04 02 14 21  7.6000000  0  3G04G30G26                                       
  19753426.90649 103804958.90649      3707.86749        50.000  
  22504589.21149 118262413.47749      1180.06649        48.000  
  19151394.28149 100641255.25449     -3287.51249        50.000  
 16 04 02 14 21  7.7000000  0  4G04G30G26G07                                    
  19753356.37549 103804588.27049      3704.89549        50.000  
  22504566.77349 118262295.58249      1177.72349        48.000  
  19151456.88349 100641584.18449     -3290.97749        50.000  
  19725273.96949 103657013.51659     -9983.32849        50.000  
 16 04 02 14 21  7.8000000  0  4G04G30G26G07                                    
  19753285.88349 103804217.84849      3702.69149        50.000  
  22504544.38349 118262177.85949      1175.95749        48.000  
  19151519.52349 100641913.35949     -3293.55149        50.000  
  19725463.96949 103658011.97749     -9986.87549        50.000  
 16 04 02 14 21  7.9000000  0  4G04G30G26G07                                    
  19753215.45349 103803847.74249      3699.68849        50.000  
  22504522.03149 118262060.40649      1173.41449        48.000  
  19151582.23449 100642242.90249     -3296.96549        50.000  
  19725654.06249 103659010.87949     -9991.09449        50.000  
 16 04 02 14 21  8.0000000  0  4G04G30G26G07                                    
  19753145.07849 103803477.92649      3696.64849        50.000  
  22504499.72749 118261943.18449      1170.93049        48.000  
  19151645.00849 100642572.77749     -3300.50849        50.000  
  19725844.23449 103660010.20749     -9995.51249        50.000  
 16 04 02 14 21  8.1000000  0  4G04G30G26G07                                    
  19753074.77349 103803108.45349      3693.18449        50.000  
  22504477.47749 118261826.25849      1167.97749        48.000  
  19151707.84449 100642903.03949     -3304.38349        50.000  
  19726034.46149 103661009.99249    -10000.11349        50.000  
 16 04 02 14 21  8.2000000  0  4G04G30G26G07                                    
  19753004.52349 103802739.28549      3689.89849        50.000  
  22504455.25849 118261709.57849      1165.27349        48.000  
  19151770.75849 100643233.64549     -3307.88349        50.000  
  19726224.79749 103662010.23449    -10004.80949        50.000  
 16 04 02 14 21  8.3000000  0  4G04G30G26G07                                    
  19752934.32849 103802370.35949      3687.80949        50.000  
  22504433.09449 118261593.09849      1163.57849        48.000  
  19151833.71949 100643564.53149     -3310.51649        50.000  
  19726415.19549 103663010.84049    -10008.21149        50.000  
 16 04 02 14 21  8.4000000  0  4G04G30G26G07                                    
  19752864.18049 103802001.73049      3684.80949        50.000  
  22504410.96149 118261476.85949      1161.32449        48.000  
  19151896.75049 100643895.77049     -3313.96149        50.000  
  19726605.68849 103664011.86349    -10012.44549        50.000  
 16 04 02 14 21  8.5000000  0  4G04G30G26G07                                    
  19752794.10249 103801633.45349      3681.13749        50.000  
  22504388.89849 118261360.92249      1158.07049        48.000  
  19151959.84449 100644227.40249     -3318.09049        50.000  
  19726796.25849 103665013.37549    -10017.40249        50.000  
 16 04 02 14 21  8.6000000  0  4G04G30G26G07                                    
  19752724.06249 103801265.38349      3679.00849        50.000  
  22504366.87549 118261245.16049      1156.19149        48.000  
  19152023.00049 100644559.28949     -3320.68849        50.000  
  19726986.90649 103666015.23449    -10020.92249        50.000  
 16 04 02 14 21  8.7000000  0  4G04G30G26G07                                    
  19752654.10249 103800897.71149      3675.43049        50.000  
  22504344.90649 118261129.71149      1153.40649        48.000  
  19152086.24249 100644891.60249     -3324.64849        50.000  
  19727177.65649 103667017.60549    -10025.74649        50.000  
 16 04 02 14 21  8.8000000  0  4G04G30G26G07                                    
  19752584.18049 103800530.27749      3672.82449        50.000  
  22504322.97749 118261014.45749      1151.24649        48.000  
  19152149.53149 100645224.20349     -3327.63749        50.000  
  19727368.46949 103668020.34449    -10029.59849        50.000  
 16 04 02 14 21  8.9000000  0  4G04G30G26G07                                    
  19752514.30549 103800163.10549      3670.24649        50.000  
  22504301.08649 118260899.42649      1149.18849        48.000  
  19152212.89149 100645557.10249     -3330.68449        50.000  
  19727559.38349 103669023.47349    -10033.39149        50.000  
 16 04 02 14 21  9.0000000  0  4G04G30G26G07                                    
  19752444.50049 103799796.25449      3667.02749        50.000  
  22504279.25049 118260784.66449      1146.50449        48.000  
  19152276.31249 100645890.37549     -3334.44549        50.000  
  19727750.35949 103670027.06649    -10038.06649        50.000  
 16 04 02 14 21  9.1000000  0  4G04G30G26G07                                    
  19752374.75049 103799429.75049      3663.55549        50.000  
  22504257.46949 118260670.19949      1143.38349        48.000  
  19152339.79749 100646224.04749     -3338.43849        50.000  
  19727941.44549 103671031.14149    -10042.91049        50.000  
 16 04 02 14 21  9.2000000  0  4G04G30G26G07                                    
  19752305.06249 103799063.55549      3660.22349        50.000  
  22504235.71949 118260555.97349      1140.77049        48.000  
  19152403.35249 100646558.03949     -3341.80149        50.000  
  19728132.59449 103672035.62549    -10047.23449        50.000  
 16 04 02 14 21  9.3000000  0  4G04G30G26G07                                    
  19752235.42249 103798697.59449      3658.03949        50.000  
  22504214.02349 118260441.94549      1139.04349        48.000  
  19152466.97749 100646892.33249     -3344.57049        50.000  
  19728323.79749 103673040.49649    -10050.89849        50.000  
 16 04 02 14 21  9.4000000  0  4G04G30G26G07                                    
  19752165.85249 103798332.00449      3654.37949        50.000  
  22504192.36749 118260328.23449      1135.96949        48.000  
  19152530.67249 100647227.03549     -3348.62549        50.000  
  19728515.10949 103674045.85549    -10055.75049        50.000  
 16 04 02 14 21  9.5000000  0  4G04G30G26G07                                    
  19752096.32849 103797966.66849      3651.71949        50.000  
  22504170.77349 118260214.72749      1133.77049        48.000  
  19152594.41449 100647562.03149     -3351.84849        50.000  
  19728706.49249 103675051.61349    -10059.87149        50.000  
 16 04 02 14 21  9.6000000  0  4G04G30G26G07                                    
  19752026.86749 103797601.63349      3648.73049        50.000  
  22504149.21949 118260101.48849      1131.07449        48.000  
  19152658.22749 100647897.38349     -3355.31249        50.000  
  19728897.96149 103676057.79749    -10064.19549        50.000  
 16 04 02 14 21  9.7000000  0  4G04G30G26G07                                    
  19751957.45349 103797236.88749      3645.97749        50.000  
  22504127.71149 118259988.46549      1128.91449        48.000  
  19152722.10249 100648233.05949     -3358.39549        50.000  
  19729089.49249 103677064.39149    -10068.13349        50.000  
 16 04 02 14 21  9.8000000  0  4G04G30G26G07                                    
  19751888.08649 103796872.36349      3643.89849        50.000  
  22504106.24249 118259875.62149      1127.37149        48.000  
  19152786.02349 100648568.99249     -3360.85249        50.000  
  19729281.10949 103678071.34449    -10071.57049        50.000  
 16 04 02 14 21  9.9000000  0  4G04G30G26G07                                    
  19751818.77349 103796508.14849      3640.66049        50.000  
  22504084.81249 118259763.03149      1124.69549        48.000  
  19152850.02349 100648905.28949     -3364.52349        50.000  
  19729472.82849 103679078.73049    -10075.94949        50.000  
 16 04 02 14 21 10.0000000  0  4G04G30G26G07                                    
  19751749.50849 103796144.15649      3638.74249        50.000  
  22504063.42249 118259650.61349      1123.13749        48.000  
  19152914.07049 100649241.84849     -3367.05149        50.000  
  19729664.60249 103680086.47349    -10079.40649        50.000  
 16 04 02 14 21 10.1000000  0  4G04G30G26G07                                    
  19751680.32049 103795780.53149      3634.73449        50.000  
  22504042.08649 118259538.50449      1119.80949        48.000  
  19152978.18849 100649578.80949     -3371.30949        50.000  
  19729856.44549 103681094.70749    -10084.56649        50.000  
 16 04 02 14 21 10.2000000  0  4G04G30G26G07                                    
  19751611.18049 103795417.19149      3631.89549        50.000  
  22504020.79749 118259426.64849      1117.29349        48.000  
  19153042.37549 100649916.12149     -3374.85949        50.000  
  19730048.38349 103682103.36349    -10088.80949        50.000  
 16 04 02 14 21 10.3000000  0  4G04G30G26G07                                    
  19751542.09449 103795054.20349      3628.17249        50.000  
  22503999.56249 118259315.07449      1114.24649        48.000  
  19153106.63349 100650253.78949     -3378.60549        50.000  
  19730240.43849 103683112.48449    -10093.58649        50.000  
 16 04 02 14 21 10.4000000  0  4G04G30G26G07                                    
  19751473.07849 103794691.52049      3625.40249        50.000  
  22503978.36749 118259203.76249      1112.00849        48.000  
  19153170.96149 100650591.83249     -3381.89849        50.000  
  19730432.55549 103684122.05149    -10097.75849        50.000  
 16 04 02 14 21 10.5000000  0  4G04G30G26G07                                    
  19751404.11749 103794329.09449      3622.72749        50.000  
  22503957.22749 118259092.66449      1109.67649        48.000  
  19153235.35249 100650930.17249     -3385.10249        50.000  
  19730624.72749 103685132.01249    -10101.89849        50.000  
 16 04 02 14 21 10.6000000  0  4G04G30G26G07                                    
  19751335.21149 103793966.99249      3619.49249        50.000  
  22503936.14149 118258981.83249      1106.98849        48.000  
  19153299.80549 100651268.88349     -3388.75849        50.000  
  19730817.00049 103686142.42649    -10106.29349        50.000  
 16 04 02 14 21 10.7000000  0  4G04G30G26G07                                    
  19751266.37549 103793605.26649      3615.56249        50.000  
  22503915.10949 118258871.31649      1103.80949        48.000  
  19153364.33649 100651607.98049     -3392.78549        50.000  
  19731009.37549 103687153.31249    -10111.28549        50.000  
 16 04 02 14 21 10.8000000  0  4G04G30G26G07                                    
  19751197.58649 103793243.74649      3613.40649        50.000  
  22503894.11749 118258760.96549      1102.11749        48.000  
  19153428.92249 100651947.37149     -3395.53549        50.000  
  19731201.81249 103688164.57449    -10114.86749        50.000  
 16 04 02 14 21 10.9000000  0  4G04G30G26G07                                    
  19751128.85949 103792882.56249      3610.40649        50.000  
  22503873.17249 118258650.91049      1099.45749        48.000  
  19153493.57849 100652287.13349     -3399.14849        50.000  
  19731394.34449 103689176.29349    -10119.27749        50.000  
 16 04 02 14 21 11.0000000  0  4G04G30G26G07                                    
  19751060.18849 103792521.68049      3607.06249        50.000  
  22503852.26649 118258541.08249      1096.82449        48.000  
  19153558.28949 100652627.21549     -3402.78949        50.000  
  19731586.95349 103690188.43849    -10123.93849        50.000  
 16 04 02 14 21 11.1000000  0  4G04G30G26G07                                    
  19750991.56249 103792161.09849      3604.29749        50.000  
  22503831.42249 118258431.53149      1094.37149        48.000  
  19153623.07849 100652967.66849     -3406.10549        50.000  
  19731779.64149 103691201.01249    -10127.92649        50.000  
 16 04 02 14 21 11.2000000  0  4G04G30G26G07                                    
  19750922.99249 103791800.74649      3602.07449        50.000  
  22503810.60949 118258322.13749      1092.73849        48.000  
  19153687.91449 100653308.38349     -3408.80549        50.000  
  19731972.39849 103692213.94949    -10131.49249        50.000  
 16 04 02 14 21 11.3000000  0  4G04G30G26G07                                    
  19750854.50049 103791440.76249      3598.44149        50.000  
  22503789.85249 118258213.07449      1089.56649        48.000  
  19153752.82849 100653649.50449     -3412.68049        50.000  
  19732165.27349 103693227.37549    -10136.28149        50.000  
 16 04 02 14 21 11.4000000  0  4G04G30G26G07                                    
  19750786.03149 103791080.98049      3596.21149        50.000  
  22503769.11749 118258104.15249      1087.77349        48.000  
  19153817.78949 100653990.86749     -3415.47749        50.000  
  19732358.18849 103694241.13349    -10139.95349        50.000  
 16 04 02 14 21 11.5000000  0  4G04G30G26G07                                    
  19750717.62549 103790721.54749      3592.84449        50.000  
  22503748.45349 118257995.53549      1084.99649        48.000  
  19153882.82849 100654332.63349     -3419.17649        50.000  
  19732551.20349 103695255.38749    -10144.64849        50.000  
 16 04 02 14 21 11.6000000  0  4G04G30G26G07                                    
  19750649.28149 103790362.43049      3589.56249        50.000  
  22503727.83649 118257887.18849      1082.16449        48.000  
  19153947.93049 100654674.74649     -3422.98849        50.000  
  19732744.28949 103696270.06649    -10149.11349        50.000  
 16 04 02 14 21 11.7000000  0  4G04G30G26G07                                    
  19750581.00849 103790003.63349      3586.59049        50.000  
  22503707.26649 118257779.10249      1079.59849        48.000  
  19154013.10249 100655017.21949     -3426.35249        50.000  
  19732937.45349 103697285.19949    -10153.50049        50.000  
 16 04 02 14 21 11.8000000  0  4G04G30G26G07                                    
  19750512.77349 103789645.05949      3584.08249        50.000  
  22503686.73449 118257671.18049      1077.85549        48.000  
  19154078.32849 100655359.97349     -3429.34849        50.000  
  19733130.69549 103698300.68049    -10157.10249        50.000  
 16 04 02 14 21 11.9000000  0  4G04G30G26G07                                    
  19750444.58649 103789286.79349      3581.32049        50.000  
  22503666.24249 118257563.50849      1075.66449        48.000  
  19154143.60949 100655703.05549     -3432.30949        50.000  
  19733324.02349 103699316.60249    -10161.25449        50.000  
 16 04 02 14 21 12.0000000  0  4G04G30G26G07                                    
  19750376.48449 103788928.90249      3577.24249        50.000  
  22503645.81249 118257456.18849      1071.93049        48.000  
  19154208.97749 100656046.57849     -3436.92249        50.000  
  19733517.44549 103700333.03549    -10166.61349        50.000  
 16 04 02 14 21 12.1000000  0  4G04G30G26G07                                    
  19750308.42249 103788571.26649      3574.68049        50.000  
  22503625.43049 118257349.07049      1069.79349        48.000  
  19154274.40649 100656390.39549     -3440.09449        50.000  
  19733710.93049 103701349.84849    -10170.47349        50.000  
 16 04 02 14 21 12.2000000  0  4G04G30G26G07                                    
  19750240.42249 103788213.93449      3571.87549        50.000  
  22503605.08649 118257242.18849      1067.56649        48.000  
  19154339.89849 100656734.54349     -3443.12949        50.000  
  19733904.50049 103702367.08649    -10174.50049        50.000  
 16 04 02 14 21 12.3000000  0  4G04G30G26G07                                    
  19750172.48449 103787856.82049      3569.67249        50.000  
  22503584.78149 118257135.48849      1065.80149        48.000  
  19154405.44549 100657078.95749     -3445.65249        50.000  
  19734098.13349 103703384.68049    -10177.98449        50.000  
 16 04 02 14 21 12.4000000  0  4G04G30G26G07                                    
  19750104.57049 103787499.94949      3567.11349        50.000  
  22503564.51649 118257028.98449      1063.85549        48.000  
  19154471.04749 100657423.68849     -3449.00849        50.000  
  19734291.85249 103704402.65649    -10182.00049        50.000  
 16 04 02 14 21 12.5000000  0  4G04G30G26G07                                    
  19750036.73449 103787143.49649      3563.07849        50.000  
  22503544.31249 118256922.82849      1060.32449        48.000  
  19154536.71149 100657768.82449     -3453.01249        50.000  
  19734485.68049 103705421.16049    -10187.18849        50.000  
 16 04 02 14 21 12.6000000  0  4G04G30G26G07                                    
  19749968.96149 103786787.33249      3560.05149        50.000  
  22503524.16449 118256816.93049      1057.62549        48.000  
  19154602.46149 100658114.33649     -3456.72749        50.000  
  19734679.57049 103706440.09449    -10191.54349        50.000  
 16 04 02 14 21 12.7000000  0  4G04G30G26G07                                    
  19749901.23449 103786431.39549      3557.86349        50.000  
  22503504.03949 118256711.18049      1056.27349        48.000  
  19154668.25049 100658460.09449     -3459.31649        50.000  
  19734873.53149 103707459.37949    -10195.08649        50.000  
 16 04 02 14 21 12.8000000  0  4G04G30G26G07                                    
  19749833.57049 103786075.82049      3554.13349        50.000  
  22503483.98449 118256605.77349      1052.62949        48.000  
  19154734.13349 100658806.27749     -3463.65649        50.000  
  19735067.59449 103708479.15249    -10200.06649        50.000  
 16 04 02 14 21 12.9000000  0  4G04G30G26G07                                    
  19749765.96149 103785720.51249      3551.59849        50.000  
  22503463.96949 118256500.57049      1050.78949        48.000  
  19154800.06249 100659152.75049     -3466.47349        50.000  
  19735261.73449 103709499.32849    -10203.89849        50.000  
 16 04 02 14 21 13.0000000  0  4G04G30G26G07                                    
  19749698.39149 103785365.43049      3549.26249        50.000  
  22503443.96949 118256395.53949      1049.02749        48.000  
  19154866.04749 100659499.50449     -3469.21949        50.000  
  19735455.93049 103710519.85949    -10207.60949        50.000  
 16 04 02 14 21 13.1000000  0  4G04G30G26G07                                    
  19749630.88349 103785010.64849      3546.21549        50.000  
  22503424.03149 118256290.77049      1046.51249        48.000  
  19154932.09449 100659846.59849     -3472.64149        50.000  
  19735650.20349 103711540.81249    -10211.73049        50.000  
 16 04 02 14 21 13.2000000  0  4G04G30G26G07                                    
  19749563.43849 103784656.21149      3542.80949        50.000  
  22503404.15649 118256186.28949      1043.57049        48.000  
  19154998.21949 100660194.07049     -3476.33649        50.000  
  19735844.57049 103712562.25049    -10216.58249        50.000  
 16 04 02 14 21 13.3000000  0  4G04G30G26G07                                    
  19749496.05549 103784302.08649      3539.42649        50.000  
  22503384.32049 118256082.05549      1040.78149        48.000  
  19155064.40649 100660541.90249     -3480.21149        50.000  
  19736039.02349 103713584.11349    -10221.16849        50.000  
 16 04 02 14 21 13.4000000  0  4G04G30G26G07                                    
  19749428.72749 103783948.27749      3536.37149        50.000  
  22503364.53149 118255978.10549      1038.23049        48.000  
  19155130.66449 100660890.09449     -3483.69549        50.000  
  19736233.56249 103714606.43449    -10225.50849        50.000  
 16 04 02 14 21 13.5000000  0  4G04G30G26G07                                    
  19749361.45349 103783594.73849      3533.89149        50.000  
  22503344.78949 118255874.35949      1036.31249        48.000  
  19155196.96949 100661238.59449     -3486.67249        50.000  
  19736428.18849 103715629.14549    -10229.28949        50.000  
 16 04 02 14 21 13.6000000  0  4G04G30G26G07                                    
  19749294.23449 103783241.50049      3530.73849        50.000  
  22503325.09449 118255770.88749      1033.46149        48.000  
  19155263.35949 100661587.45349     -3490.23849        50.000  
  19736622.89149 103716652.29749    -10233.73449        50.000  
 16 04 02 14 21 13.7000000  0  4G04G30G26G07                                    
  19749227.07049 103782888.53149      3528.24649        50.000  
  22503305.43849 118255667.62549      1031.30949        48.000  
  19155329.80549 100661936.61349     -3493.28149        50.000  
  19736817.66449 103717675.84449    -10237.61749        50.000  
 16 04 02 14 21 13.8000000  0  4G04G30G26G07                                    
  19749159.95349 103782535.83649      3525.38349        50.000  
  22503285.84449 118255564.57849      1029.13349        48.000  
  19155396.31249 100662286.08649     -3496.42649        50.000  
  19737012.51649 103718699.78549    -10241.62549        50.000  
 16 04 02 14 21 13.9000000  0  4G04G30G26G07                                    
  19749092.89149 103782183.43849      3522.75049        50.000  
  22503266.28149 118255461.79749      1026.70749        48.000  
  19155462.87549 100662635.90649     -3499.57449        50.000  
  19737207.43849 103719724.17249    -10245.75049        50.000  
 16 04 02 14 21 14.0000000  0  4G04G30G26G07                                    
  19749025.88349 103781831.30149      3520.00049        50.000  
  22503246.77349 118255359.19949      1024.70749        48.000  
  19155529.50049 100662986.02749     -3502.71949        50.000  
  19737402.44549 103720748.93049    -10249.73049        50.000  
 16 04 02 14 21 14.1000000  0  4G04G30G26G07                                    
  19748958.93849 103781479.52749      3516.51249        50.000  
  22503227.30549 118255256.91049      1021.69549        48.000  
  19155596.20349 100663336.53549     -3506.84049        50.000  
  19737597.53149 103721774.17249    -10254.55549        50.000  
 16 04 02 14 21 14.2000000  0  4G04G30G26G07                                    
  19748892.04749 103781127.99649      3513.64149        50.000  
  22503207.88349 118255154.83649      1019.51249        48.000  
  19155662.96149 100663687.34849     -3509.84849        50.000  
  19737792.69549 103722799.79749    -10258.47749        50.000  
 16 04 02 14 21 14.3000000  0  4G04G30G26G07                                    
  19748825.21149 103780776.80949      3510.28549        50.000  
  22503188.50849 118255053.04349      1016.75849        48.000  
  19155729.79749 100664038.54349     -3513.57849        50.000  
  19737987.96949 103723825.90249    -10263.20349        50.000  
 16 04 02 14 21 14.4000000  0  4G04G30G26G07                                    
  19748758.44549 103780425.93049      3507.25449        50.000  
  22503169.18849 118254951.52049      1014.00049        48.000  
  19155796.69549 100664390.08649     -3517.11349        50.000  
  19738183.30549 103724852.43849    -10267.50449        50.000  
 16 04 02 14 21 14.5000000  0  4G04G30G26G07                                    
  19748691.71149 103780075.25849      3505.12149        50.000  
  22503149.89849 118254850.15249      1012.26249        48.000  
  19155863.64849 100664741.89149     -3519.82849        50.000  
  19738378.71949 103725879.31649    -10271.10249        50.000  
 16 04 02 14 21 14.6000000  0  4G04G30G26G07                                    
  19748625.05549 103779724.99249      3501.14549        50.000  
  22503130.67249 118254749.12949      1009.07049        48.000  
  19155930.68049 100665094.12949     -3523.98449        50.000  
  19738574.22749 103726906.71549    -10276.13749        50.000  
 16 04 02 14 21 14.7000000  0  4G04G30G26G07                                    
  19748558.46149 103779375.03549      3498.03949        50.000  
  22503111.50049 118254648.37549      1006.20749        48.000  
  19155997.78149 100665446.73849     -3527.81649        50.000  
  19738769.83649 103727934.57049    -10280.81249        50.000  
 16 04 02 14 21 14.8000000  0  4G04G30G26G07                                    
  19748491.92249 103779025.35249      3495.10549        50.000  
  22503092.36749 118254547.83649      1003.77349        48.000  
  19156064.93849 100665799.62949     -3530.91049        50.000  
  19738965.50849 103728962.81249    -10284.87949        50.000  
 16 04 02 14 21 14.9000000  0  4G04G30G26G07                                    
  19748425.44549 103778675.99249      3492.16849        50.000  
  22503073.28949 118254447.57049      1001.51249        48.000  
  19156132.15649 100666152.91449     -3534.36749        50.000  
  19739161.23449 103729991.51249    -10289.05149        50.000  
 16 04 02 14 21 15.0000000  0  4G04G30G26G07                                    
  19748359.02349 103778326.91849      3489.21549        50.000  
  22503054.25849 118254347.55949       998.86749        48.000  
  19156199.44549 100666506.52349     -3537.86349        50.000  
  19739357.07049 103731020.63749    -10293.49249        50.000  
 16 04 02 14 21 15.1000000  0  4G04G30G26G07                                    
  19748292.66449 103777978.15649      3486.26249        50.000  
  22503035.27349 118254247.78549       996.59049        48.000  
  19156266.79749 100666860.48449     -3541.21949        50.000  
  19739553.00849 103732050.18449    -10297.62949        50.000  
 16 04 02 14 21 15.2000000  0  4G04G30G26G07                                    
  19748226.34449 103777629.64849      3483.60249        50.000  
  22503016.32849 118254148.22749       994.47349        48.000  
  19156334.20349 100667214.73449     -3544.13349        50.000  
  19739749.00049 103733080.12149    -10301.42649        50.000  
 16 04 02 14 21 15.3000000  0  4G04G30G26G07                                    
  19748160.07049 103777281.39149      3481.19549        50.000  
  22502997.42249 118254048.85949       992.50849        48.000  
  19156401.67249 100667569.28149     -3547.00449        50.000  
  19739945.07049 103734110.43849    -10305.30549        50.000  
 16 04 02 14 21 15.4000000  0  4G04G30G26G07                                    
  19748093.86749 103776933.48449      3477.48449        50.000  
  22502978.56249 118253949.79749       989.37549        48.000  
  19156469.21149 100667924.21549     -3550.99249        50.000  
  19740141.21949 103735141.22349    -10310.00849        50.000  
 16 04 02 14 21 15.5000000  0  4G04G30G26G07                                    
  19748027.71949 103776585.83649      3474.87549        50.000  
  22502959.75049 118253850.94949       987.24249        48.000  
  19156536.80549 100668279.46149     -3554.08649        50.000  
  19740337.48449 103736172.41449    -10314.03549        50.000  
 16 04 02 14 21 15.6000000  0  4G04G30G26G07                                    
  19747961.62549 103776238.50849      3471.69949        50.000  
  22502940.98449 118253752.35949       984.62549        48.000  
  19156604.47749 100668635.05549     -3557.58649        50.000  
  19740533.79749 103737204.04349    -10318.53549        50.000  
 16 04 02 14 21 15.7000000  0  4G04G30G26G07                                    
  19747895.57849 103775891.44549      3468.96149        50.000  
  22502922.27349 118253654.01649       982.02049        48.000  
  19156672.21149 100668990.98849     -3561.15249        50.000  
  19740730.18849 103738236.07849    -10322.68049        50.000  
 16 04 02 14 21 15.8000000  0  4G04G30G26G07                                    
  19747829.59449 103775544.69949      3466.10249        50.000  
  22502903.60949 118253555.90649       979.89849        48.000  
  19156740.00849 100669347.24649     -3564.19149        50.000  
  19740926.66449 103739268.54749    -10326.79349        50.000  
 16 04 02 14 21 15.9000000  0  4G04G30G26G07                                    
  19747763.66449 103775198.25849      3462.84049        50.000  
  22502884.98449 118253458.05149       977.28949        48.000  
  19156807.85949 100669703.85949     -3567.81249        50.000  
  19741123.21949 103740301.44949    -10331.22749        50.000  
 16 04 02 14 21 16.0000000  0  4G04G30G26G07                                    
  19747697.78949 103774852.05949      3460.47349        50.000  
  22502866.41449 118253360.41049       975.21949        48.000  
  19156875.78149 100670060.77749     -3570.75849        50.000  
  19741319.85249 103741334.73049    -10335.04749        50.000  
 16 04 02 14 21 16.1000000  0  4G04G30G26G07                                    
  19747631.96149 103774506.16449      3457.37149        50.000  
  22502847.88349 118253263.01249       972.52349        48.000  
  19156943.75849 100670418.02349     -3574.39549        50.000  
  19741516.55549 103742368.43449    -10339.42249        50.000  
 16 04 02 14 21 16.2000000  0  4G04G30G26G07                                    
  19747566.20349 103774160.60549      3454.15649        50.000  
  22502829.39849 118253165.90649       969.79349        48.000  
  19157011.81249 100670775.63749     -3577.79349        50.000  
  19741713.35949 103743402.61349    -10343.87549        50.000  
 16 04 02 14 21 16.3000000  0  4G04G30G26G07                                    
  19747500.49249 103773815.30949      3451.59049        50.000  
  22502810.95349 118253069.00049       967.86749        48.000  
  19157079.92249 100671133.57049     -3580.77349        50.000  
  19741910.22749 103744437.17649    -10347.68449        50.000  
 16 04 02 14 21 16.4000000  0  4G04G30G26G07                                    
  19747434.84449 103773470.29749      3448.76649        50.000  
  22502792.57049 118252972.33649       965.48849        48.000  
  19157148.09449 100671491.83249     -3584.09449        50.000  
  19742107.17249 103745472.15249    -10351.84849        50.000  
 16 04 02 14 21 16.5000000  0  4G04G30G26G07                                    
  19747369.24249 103773125.59449      3445.34449        50.000  
  22502774.22749 118252875.92249       962.65649        48.000  
  19157216.33649 100671850.43849     -3587.85249        50.000  
  19742304.21149 103746507.55949    -10356.43849        50.000  
 16 04 02 14 21 16.6000000  0  4G04G30G26G07                                    
  19747303.70349 103772781.16449      3442.96149        50.000  
  22502755.93849 118252779.75449       960.66049        48.000  
  19157284.63349 100672209.37149     -3590.82049        50.000  
  19742501.32849 103747543.39549    -10360.34849        50.000  
 16 04 02 14 21 16.7000000  0  4G04G30G26G07                                    
  19747238.21949 103772437.05549      3439.68849        50.000  
  22502737.68049 118252683.82849       957.87949        48.000  
  19157353.00849 100672568.64549     -3594.42249        50.000  
  19742698.51649 103748579.64149    -10364.74649        50.000  
 16 04 02 14 21 16.8000000  0  4G04G30G26G07                                    
  19747172.78949 103772093.23849      3436.59849        50.000  
  22502719.46149 118252588.15649       955.37549        48.000  
  19157421.43849 100672928.27749     -3598.09849        50.000  
  19742895.78949 103749616.33249    -10369.17649        50.000  
 16 04 02 14 21 16.9000000  0  4G04G30G26G07                                    
  19747107.41449 103771749.69549      3433.82449        50.000  
  22502701.30549 118252492.71149       953.24249        48.000  
  19157489.94549 100673288.21549     -3601.05549        50.000  
  19743093.13349 103750653.41849    -10373.10949        50.000  
 16 04 02 14 21 17.0000000  0  4G04G30G26G07                                    
  19747042.10949 103771406.52049      3430.33249        50.000  
  22502683.19549 118252397.58249       950.16049        48.000  
  19157558.50849 100673648.55149     -3605.06649        50.000  
  19743290.57849 103751691.00449    -10377.91049        50.000  
 16 04 02 14 21 17.1000000  0  4G04G30G26G07                                    
  19746976.85249 103771063.60549      3427.69149        50.000  
  22502665.13349 118252302.66049       948.00049        48.000  
  19157627.14149 100674009.20349     -3608.16849        50.000  
  19743488.09449 103752728.97349    -10381.84449        50.000  
 16 04 02 14 21 17.2000000  0  4G04G30G26G07                                    
  19746911.64849 103770720.99649      3424.49249        50.000  
  22502647.11749 118252207.99649       945.31249        48.000  
  19157695.83649 100674370.19549     -3611.69549        50.000  
  19743685.69549 103753767.38349    -10386.33249        50.000  
 16 04 02 14 21 17.3000000  0  4G04G30G26G07                                    
  19746846.52349 103770378.71949      3421.15249        50.000  
  22502629.15649 118252113.61749       942.43049        48.000  
  19157764.59449 100674731.56249     -3615.40249        50.000  
  19743883.39149 103754806.25049    -10390.88749        50.000  
 16 04 02 14 21 17.4000000  0  4G04G30G26G07                                    
  19746781.43849 103770036.68049      3418.94549        50.000  
  22502611.22749 118252019.42249       940.70749        48.000  
  19157833.41449 100675093.22349     -3618.30549        50.000  
  19744081.14849 103755845.48849    -10394.51249        50.000  
 16 04 02 14 21 17.5000000  0  4G04G30G26G07                                    
  19746716.40649 103769694.96149      3415.85249        50.000  
  22502593.35949 118251925.50049       938.19549        48.000  
  19157902.30549 100675455.23449     -3621.66049        50.000  
  19744278.99249 103756885.16849    -10398.81649        50.000  
 16 04 02 14 21 17.6000000  0  4G04G30G26G07                                    
  19746651.43049 103769353.48849      3413.25849        50.000  
  22502575.53149 118251831.77049       936.03949        48.000  
  19157971.25049 100675817.52749     -3624.63349        50.000  
  19744476.91449 103757925.22749    -10402.77749        50.000  
 16 04 02 14 21 17.7000000  0  4G04G30G26G07                                    
  19746586.50049 103769012.31249      3410.26649        50.000  
  22502557.74249 118251738.28549       933.62949        48.000  
  19158040.25849 100676180.16449     -3628.03549        50.000  
  19744674.91449 103758965.71149    -10407.00449        50.000  
 16 04 02 14 21 17.8000000  0  4G04G30G26G07                                    
  19746521.64149 103768671.46149      3406.86349        50.000  
  22502540.00849 118251645.08649       930.68049        48.000  
  19158109.33649 100676543.17249     -3631.82849        50.000  
  19744872.99249 103760006.64549    -10411.64149        50.000  
 16 04 02 14 21 17.9000000  0  4G04G30G26G07                                    
  19746456.82849 103768330.89149      3404.16049        50.000  
  22502522.31249 118251552.12149       928.48449        48.000  
  19158178.46949 100676906.50049     -3634.92649        50.000  
  19745071.14849 103761047.99249    -10415.68849        50.000  
 16 04 02 14 21 18.0000000  0  4G04G30G26G07                                    
  19746392.07049 103767990.56649      3401.78549        50.000  
  22502504.66449 118251459.34849       926.43849        48.000  
  19158247.65649 100677270.11749     -3637.78149        50.000  
  19745269.38349 103762089.71549    -10419.43049        50.000  
 16 04 02 14 21 18.1000000  0  4G04G30G26G07                                    
  19746327.36749 103767650.55549      3398.65649        50.000  
  22502487.05549 118251366.81649       924.05949        48.000  
  19158316.93049 100677634.08649     -3641.31249        50.000  
  19745467.68849 103763131.87149    -10423.67649        50.000  
 16 04 02 14 21 18.2000000  0  4G04G30G26G07                                    
  19746262.72749 103767310.84449      3395.42649        50.000  
  22502469.49249 118251274.56249       921.22749        48.000  
  19158386.25849 100677998.40249     -3644.92249        50.000  
  19745666.08649 103764174.46149    -10428.18849        50.000  
 16 04 02 14 21 18.3000000  0  4G04G30G26G07                                    
  19746198.13349 103766971.41049      3392.90649        50.000  
  22502451.97749 118251182.52349       919.17649        48.000  
  19158455.63349 100678363.03549     -3647.90249        50.000  
  19745864.56249 103765217.45749    -10432.05949        50.000  
 16 04 02 14 21 18.4000000  0  4G04G30G26G07                                    
  19746133.60249 103766632.28549      3389.76649        50.000  
  22502434.50849 118251090.75049       916.62549        48.000  
  19158525.09449 100678728.02749     -3651.51649        50.000  
  19746063.11749 103766260.89149    -10436.48849        50.000  
 16 04 02 14 21 18.5000000  0  4G04G30G26G07                                    
  19746069.12549 103766293.47349      3386.59849        50.000  
  22502417.09449 118250999.22349       914.17649        48.000  
  19158594.60249 100679093.35949     -3654.95749        50.000  
  19746261.77349 103767304.75849    -10440.85249        50.000  
 16 04 02 14 21 18.6000000  0  4G04G30G26G07                                    
  19746004.70349 103765954.95349      3383.69549        50.000  
  22502399.72749 118250907.96949       911.39849        48.000  
  19158664.19549 100679459.04349     -3658.51249        50.000  
  19746460.50049 103768349.06249    -10445.20349        50.000  
 16 04 02 14 21 18.7000000  0  4G04G30G26G07                                    
  19745940.33649 103765616.71149      3380.89849        50.000  
  22502382.39849 118250816.91849       909.22349        48.000  
  19158733.83649 100679825.02349     -3661.62149        50.000  
  19746659.31249 103769393.75449    -10449.13749        50.000  
 16 04 02 14 21 18.8000000  0  4G04G30G26G07                                    
  19745876.02349 103765278.76249      3377.80149        50.000  
  22502365.11749 118250726.11349       906.71549        48.000  
  19158803.54749 100680191.35249     -3665.03949        50.000  
  19746858.19549 103770438.86349    -10453.44949        50.000  
 16 04 02 14 21 18.9000000  0  4G04G30G26G07                                    
  19745811.78149 103764941.14849      3374.71149        50.000  
  22502347.89849 118250635.60549       903.86749        48.000  
  19158873.32849 100680558.05549     -3668.76249        50.000  
  19747057.14849 103771484.45749    -10458.01249        50.000  
 16 04 02 14 21 19.0000000  0  4G04G30G26G07                                    
  19745747.59449 103764603.82049      3371.75049        50.000  
  22502330.73449 118250545.32449       901.60549        48.000  
  19158943.16449 100680925.07849     -3671.86749        50.000  
  19747256.19549 103772530.44949    -10462.07849        50.000  
 16 04 02 14 21 19.1000000  0  4G04G30G26G07                                    
  19745683.44549 103764266.74249      3369.14549        50.000  
  22502313.59449 118250455.25049       899.39149        48.000  
  19159013.07849 100681292.41449     -3675.04349        50.000  
  19747455.32049 103773576.83649    -10466.09849        50.000  
 16 04 02 14 21 19.2000000  0  4G04G30G26G07                                    
  19745619.35949 103763929.97749      3366.33649        50.000  
  22502296.48449 118250365.43049       897.12149        48.000  
  19159083.03949 100681660.08249     -3678.15649        50.000  
  19747654.51649 103774623.64549    -10470.11749        50.000  
 16 04 02 14 21 19.3000000  0  4G04G30G26G07                                    
  19745555.32849 103763593.50849      3363.14849        50.000  
  22502279.44549 118250275.86749       894.37149        48.000  
  19159153.07849 100682028.09849     -3681.85549        50.000  
  19747853.78949 103775670.88349    -10474.59049        50.000  
 16 04 02 14 21 19.4000000  0  4G04G30G26G07                                    
  19745491.35249 103763257.32849      3360.17649        50.000  
  22502262.46149 118250186.54349       891.88349        48.000  
  19159223.18049 100682396.45749     -3685.30149        50.000  
  19748053.15649 103776718.55549    -10478.95749        50.000  
 16 04 02 14 21 19.5000000  0  4G04G30G26G07                                    
  19745427.43849 103762921.43849      3357.43849        50.000  
  22502245.50849 118250097.44149       889.77349        48.000  
  19159293.33649 100682765.12549     -3688.42649        50.000  
  19748252.60249 103777766.61749    -10482.90649        50.000  
 16 04 02 14 21 19.6000000  0  4G04G30G26G07                                    
  19745363.58649 103762585.86349      3354.31649        50.000  
  22502228.61749 118250008.61749       886.99649        48.000  
  19159363.55549 100683134.15649     -3692.03949        50.000  
  19748452.12549 103778815.13749    -10487.32449        50.000  
 16 04 02 14 21 19.7000000  0  4G04G30G26G07                                    
  19745299.78149 103762250.58249      3351.19949        50.000  
  22502211.75849 118249920.04349       884.34449        48.000  
  19159433.84449 100683503.52749     -3695.44549        50.000  
  19748651.73449 103779864.07849    -10491.69149        50.000  
 16 04 02 14 21 19.8000000  0  4G04G30G26G07                                    
  19745236.03949 103761915.58649      3348.34449        50.000  
  22502194.94549 118249831.70349       881.94549        48.000  
  19159504.19549 100683873.23049     -3698.79349        50.000  
  19748851.42249 103780913.44149    -10495.89849        50.000  
 16 04 02 14 21 19.9000000  0  4G04G30G26G07                                    
  19745172.35249 103761580.91849      3345.18449        50.000  
  22502178.18849 118249743.63749       879.43849        48.000  
  19159574.61749 100684243.29349     -3702.24649        50.000  
  19749051.20349 103781963.24249    -10500.19149        50.000  
 16 04 02 14 21 20.0000000  0  4G04G30G26G07                                    
  19745108.70349 103761246.46549      3343.10549        50.000  
  22502161.46149 118249655.73449       877.93049        48.000  
  19159645.08649 100684613.61749     -3704.82849        50.000  
  19749251.03949 103783013.39549    -10503.59049        50.000  
 16 04 02 14 21 20.1000000  0  4G04G30G26G07                                    
  19745045.10949 103760912.26649      3340.75849        50.000  
  22502144.77349 118249568.03149       876.00049        48.000  
  19159715.60249 100684984.23449     -3707.56249        50.000  
  19749450.94549 103784063.93049    -10507.27749        50.000  
 16 04 02 14 21 20.2000000  0  4G04G30G26G07                                    
  19744981.58649 103760578.41449      3336.91049        50.000  
  22502128.14849 118249480.64549       872.66849        48.000  
  19159786.20349 100685355.23849     -3711.64549        50.000  
  19749650.95349 103785114.94549    -10512.37149        50.000  
 16 04 02 14 21 20.3000000  0  4G04G30G26G07                                    
  19744918.10949 103760244.85949      3334.03949        50.000  
  22502111.56249 118249393.49249       870.20349        48.000  
  19159856.87549 100685726.59049     -3715.15649        50.000  
  19749851.03149 103786166.38349    -10516.48449        50.000  
 16 04 02 14 21 20.4000000  0  4G04G30G26G07                                    
  19744854.68849 103759911.57049      3331.19549        50.000  
  22502095.03149 118249306.56649       867.87549        48.000  
  19159927.59449 100686098.24649     -3718.34049        50.000  
  19750051.18849 103787218.21149    -10520.63749        50.000  
 16 04 02 14 21 20.5000000  0  4G04G30G26G07                                    
  19744791.33649 103759578.62549      3327.80149        50.000  
  22502078.53949 118249219.92249       864.96149        48.000  
  19159998.39149 100686470.28149     -3722.07849        50.000  
  19750251.43049 103788270.50849    -10525.28149        50.000  
 16 04 02 14 21 20.6000000  0  4G04G30G26G07                                    
  19744728.03149 103759245.94949      3325.10249        50.000  
  22502062.08649 118249133.49249       862.93849        48.000  
  19160069.25049 100686842.63749     -3725.30149        50.000  
  19750451.75849 103789323.21149    -10529.30949        50.000  
 16 04 02 14 21 20.7000000  0  4G04G30G26G07                                    
  19744664.78149 103758913.59849      3322.21149        50.000  
  22502045.68849 118249047.34849       860.35249        48.000  
  19160140.16449 100687215.34449     -3728.57049        50.000  
  19750652.15649 103790376.35549    -10533.41449        50.000  
 16 04 02 14 21 20.8000000  0  4G04G30G26G07                                    
  19744601.58649 103758581.50449      3319.25849        50.000  
  22502029.34449 118248961.41449       857.97349        48.000  
  19160211.14849 100687588.36349     -3731.97349        50.000  
  19750852.63349 103791429.89849    -10537.75849        50.000  
 16 04 02 14 21 20.9000000  0  4G04G30G26G07                                    
  19744538.46149 103758249.73849      3316.12949        50.000  
  22502013.04749 118248875.75049       855.48849        48.000  
  19160282.20349 100687961.74649     -3735.47349        50.000  
  19751053.20349 103792483.88749    -10542.09449        50.000  
 16 04 02 14 21 21.0000000  0  4G04G30G26G07                                    
  19744475.39849 103757918.33649      3312.46549        50.000  
  22501996.80549 118248790.41049       852.18049        48.000  
  19160353.33649 100688335.53949     -3739.65249        50.000  
  19751253.86749 103793538.37549    -10547.13349        50.000  
 16 04 02 14 21 21.1000000  0  4G04G30G26G07                                    
  19744412.38349 103757587.17649      3310.07449        50.000  
  22501980.60249 118248705.25849       850.26249        48.000  
  19160424.52349 100688709.61749     -3742.53549        50.000  
  19751454.58649 103794593.22749    -10550.80549        50.000  
 16 04 02 14 21 21.2000000  0  4G04G30G26G07                                    
  19744349.41449 103757256.30149      3307.18849        50.000  
  22501964.45349 118248620.35249       847.72749        48.000  
  19160495.76649 100689084.00849     -3745.62549        50.000  
  19751655.39849 103795648.48849    -10554.96549        50.000  
 16 04 02 14 21 21.3000000  0  4G04G30G26G07                                    
  19744286.51649 103756925.77049      3303.88749        50.000  
  22501948.35249 118248535.71949       845.01649        48.000  
  19160567.07849 100689458.79749     -3749.55549        50.000  
  19751856.28949 103796704.22349    -10559.48449        50.000  
 16 04 02 14 21 21.4000000  0  4G04G30G26G07                                    
  19744223.68049 103756595.53949      3300.64549        50.000  
  22501932.30549 118248451.35949       842.30149        48.000  
  19160638.46149 100689833.92649     -3753.09049        50.000  
  19752057.27349 103797760.39549    -10563.95749        50.000  
 16 04 02 14 21 21.5000000  0  4G04G30G26G07                                    
  19744160.86749 103756265.50449      3298.70349        50.000  
  22501916.27349 118248367.12949       840.93049        48.000  
  19160709.88349 100690209.28949     -3755.35549        50.000  
  19752258.32049 103798816.89149    -10567.18449        50.000  
 16 04 02 14 21 21.6000000  0  4G04G30G26G07                                    
  19744098.13349 103755935.84849      3295.10949        50.000  
  22501900.30549 118248283.23449       837.80549        48.000  
  19160781.39149 100690585.07449     -3759.47349        50.000  
  19752459.46149 103799873.87549    -10572.07449        50.000  
 16 04 02 14 21 21.7000000  0  4G04G30G26G07                                    
  19744035.46149 103755606.46949      3292.19149        50.000  
  22501884.38349 118248199.55949       835.43449        48.000  
  19160852.96149 100690961.18049     -3762.82049        50.000  
  19752660.68049 103800931.28149    -10576.13349        50.000  
 16 04 02 14 21 21.8000000  0  4G04G30G26G07                                    
  19743972.82849 103755277.33249      3289.65649        50.000  
  22501868.50049 118248116.09449       833.31649        48.000  
  19160924.58649 100691337.55949     -3765.62149        50.000  
  19752861.96949 103801989.05149    -10580.04749        50.000  
 16 04 02 14 21 21.9000000  0  4G04G30G26G07                                    
  19743910.26649 103754948.56649      3286.20749        50.000  
  22501852.68049 118248032.94549       830.32049        48.000  
  19160996.28949 100691714.36349     -3769.55149        50.000  
  19753063.34449 103803047.32449    -10584.89149        50.000  
 16 04 02 14 21 22.0000000  0  4G04G30G26G07                                    
  19743847.75049 103754620.04749      3283.60949        50.000  
  22501836.89149 118247949.99649       828.25049        48.000  
  19161068.04749 100692091.45349     -3772.59049        50.000  
  19753264.79749 103804105.96549    -10588.62549        50.000  
 16 04 02 14 21 22.1000000  0  4G04G30G26G07                                    
  19743785.29749 103754291.84449      3280.45349        50.000  
  22501821.15649 118247867.30949       825.32049        48.000  
  19161139.88349 100692468.89849     -3776.30149        50.000  
  19753466.32849 103805165.05149    -10593.20349        50.000  
 16 04 02 14 21 22.2000000  0  4G04G30G26G07                                    
  19743722.89149 103753963.88749      3278.13349        50.000  
  22501805.45349 118247784.80549       824.00049        48.000  
  19161211.75849 100692846.62949     -3778.80149        50.000  
  19753667.93849 103806224.51249    -10596.62949        50.000  
 16 04 02 14 21 22.3000000  0  4G04G30G26G07                                    
  19743660.53949 103753636.26249      3274.55949        50.000  
  22501789.81249 118247702.59849       820.63749        48.000  
  19161283.71149 100693224.72749     -3782.82849        50.000  
  19753869.62549 103807284.43449    -10601.55949        50.000  
 16 04 02 14 21 22.4000000  0  4G04G30G26G07                                    
  19743598.25049 103753308.92249      3271.81649        50.000  
  22501774.21149 118247620.62949       818.43849        48.000  
  19161355.72749 100693603.17249     -3786.13349        50.000  
  19754071.40649 103808344.77349    -10605.56649        50.000  
 16 04 02 14 21 22.5000000  0  4G04G30G26G07                                    
  19743536.02349 103752981.93849      3268.17249        50.000  
  22501758.67249 118247538.96549       815.24249        48.000  
  19161427.81249 100693981.99249     -3790.06649        50.000  
  19754273.28149 103809405.58649    -10610.52349        50.000  
 16 04 02 14 21 22.6000000  0  4G04G30G26G07                                    
  19743473.85249 103752655.23449      3265.52349        50.000  
  22501743.17249 118247457.52349       813.07049        48.000  
  19161499.96149 100694361.14849     -3793.23449        50.000  
  19754475.21949 103810466.80949    -10614.41849        50.000  
 16 04 02 14 21 22.7000000  0  4G04G30G26G07                                    
  19743411.73449 103752328.79749      3262.82049        50.000  
  22501727.71949 118247376.31249       810.89149        48.000  
  19161572.17249 100694740.60249     -3796.11349        50.000  
  19754677.23449 103811528.43049    -10618.34049        50.000  
 16 04 02 14 21 22.8000000  0  4G04G30G26G07                                    
  19743349.67249 103752002.64849      3260.04749        50.000  
  22501712.30549 118247295.33649       808.50049        48.000  
  19161644.44549 100695120.39549     -3799.55549        50.000  
  19754879.32849 103812590.46949    -10622.51649        50.000  
 16 04 02 14 21 22.9000000  0  4G04G30G26G07                                    
  19743287.66449 103751676.77749      3257.17649        50.000  
  22501696.93849 118247214.58249       806.29349        48.000  
  19161716.77349 100695500.50849     -3802.77749        50.000  
  19755081.51649 103813652.91449    -10626.60249        50.000  
 16 04 02 14 21 23.0000000  0  4G04G30G26G07                                    
  19743225.71949 103751351.24649      3253.65649        50.000  
  22501681.64149 118247134.12149       803.32849        48.000  
  19161789.18049 100695880.98049     -3806.50049        50.000  
  19755283.77349 103814715.80949    -10631.23449        50.000  
 16 04 02 14 21 23.1000000  0  4G04G30G26G07                                    
  19743163.82849 103751025.97349      3251.13749        50.000  
  22501666.36749 118247053.87149       801.11349        48.000  
  19161861.64149 100696261.78149     -3809.68849        50.000  
  19755486.10949 103815779.10949    -10635.26249        50.000  
 16 04 02 14 21 23.2000000  0  4G04G30G26G07                                    
  19743101.99249 103750701.03949      3247.98849        50.000  
  22501651.14849 118246973.90649       798.57449        48.000  
  19161934.17249 100696642.94549     -3813.12949        50.000  
  19755688.53949 103816842.87149    -10639.57049        50.000  
 16 04 02 14 21 23.3000000  0  4G04G30G26G07                                    
  19743040.21149 103750376.34849      3245.10549        50.000  
  22501635.96949 118246894.14549       796.16449        48.000  
  19162006.76649 100697024.39849     -3816.36749        50.000  
  19755891.03149 103817907.00049    -10643.64849        50.000  
 16 04 02 14 21 23.4000000  0  4G04G30G26G07                                    
  19742978.48449 103750051.96549      3242.54749        50.000  
  22501620.83649 118246814.63749       794.02749        48.000  
  19162079.42249 100697406.19949     -3819.42649        50.000  
  19756093.60949 103818971.55949    -10647.48049        50.000  
 16 04 02 14 21 23.5000000  0  4G04G30G26G07                                    
  19742916.79749 103749727.80149      3240.04349        50.000  
  22501605.73449 118246735.29749       792.12549        48.000  
  19162152.11749 100697788.25449     -3822.16449        50.000  
  19756296.25849 103820036.47749    -10651.30949        50.000  
 16 04 02 14 21 23.6000000  0  4G04G30G26G07                                    
  19742855.18049 103749403.98849      3236.67249        50.000  
  22501590.68849 118246656.26649       789.06649        48.000  
  19162224.89849 100698170.72349     -3826.26649        50.000  
  19756498.99249 103821101.87949    -10656.20349        50.000  
 16 04 02 14 21 23.7000000  0  4G04G30G26G07                                    
  19742793.61749 103749080.47749      3233.66449        50.000  
  22501575.69549 118246577.48049       786.65249        48.000  
  19162297.74249 100698553.51249     -3829.48449        50.000  
  19756701.80549 103822167.68849    -10660.20349        50.000  
 16 04 02 14 21 23.8000000  0  4G04G30G26G07                                    
  19742732.10949 103748757.24249      3230.66849        50.000  
  22501560.75849 118246498.92649       784.18449        48.000  
  19162370.64849 100698936.63349     -3832.97749        50.000  
  19756904.70349 103823233.91849    -10664.54749        50.000  
 16 04 02 14 21 23.9000000  0  4G04G30G26G07                                    
  19742670.64849 103748434.25849      3228.26649        50.000  
  22501545.85249 118246420.57449       782.16849        48.000  
  19162443.60249 100699320.04749     -3835.86749        50.000  
  19757107.67249 103824300.51649    -10668.21549        50.000  
 16 04 02 14 21 24.0000000  0  4G04G30G26G07                                    
  19742609.25049 103748111.60949      3225.14549        50.000  
  22501530.98449 118246342.50849       779.60949        48.000  
  19162516.63349 100699703.81649     -3839.24249        50.000  
  19757310.72749 103825367.58649    -10672.62949        50.000  
 16 04 02 14 21 24.1000000  0  4G04G30G26G07                                    
  19742547.89149 103747789.19949      3222.73449        50.000  
  22501516.16449 118246264.62549       777.61349        48.000  
  19162589.71149 100700087.88349     -3842.20349        50.000  
  19757513.84449 103826435.01649    -10676.39149        50.000  
 16 04 02 14 21 24.2000000  0  4G04G30G26G07                                    
  19742486.59449 103747467.08649      3219.58649        50.000  
  22501501.38349 118246187.00449       774.99249        48.000  
  19162662.86749 100700472.28949     -3845.78949        50.000  
  19757717.05549 103827502.87549    -10680.84449        50.000  
 16 04 02 14 21 24.3000000  0  4G04G30G26G07                                    
  19742425.35949 103747145.30549      3216.14149        50.000  
  22501486.66449 118246109.64549       772.16049        48.000  
  19162736.07849 100700857.05549     -3849.41849        50.000  
  19757920.35249 103828571.18049    -10685.43449        50.000  
 16 04 02 14 21 24.4000000  0  4G04G30G26G07                                    
  19742364.17249 103746823.78149      3213.78549        50.000  
  22501471.98449 118246032.51249       770.20349        48.000  
  19162809.35949 100701242.12949     -3852.27049        50.000  
  19758123.71949 103829639.89149    -10689.15649        50.000  
 16 04 02 14 21 24.5000000  0  4G04G30G26G07                                    
  19742303.04749 103746502.55549      3210.84049        50.000  
  22501457.35249 118245955.61749       767.79349        48.000  
  19162882.70349 100701627.54349     -3855.59849        50.000  
  19758327.18049 103830709.00449    -10693.20749        50.000  
 16 04 02 14 21 24.6000000  0  4G04G30G26G07                                    
  19742241.97749 103746181.63749      3207.36749        50.000  
  22501442.78149 118245878.99249       764.71949        48.000  
  19162956.10949 100702013.30549     -3859.56649        50.000  
  19758530.71149 103831778.57449    -10698.11749        50.000  
 16 04 02 14 21 24.7000000  0  4G04G30G26G07                                    
  19742180.96949 103745861.08249      3204.30549        50.000  
  22501428.25849 118245802.67249       762.12949        48.000  
  19163029.60249 100702399.47749     -3863.20749        50.000  
  19758734.32049 103832848.62549    -10702.47749        50.000  
 16 04 02 14 21 24.8000000  0  4G04G30G26G07                                    
  19742120.01649 103745540.75449      3201.78549        50.000  
  22501413.76649 118245726.53549       760.16849        48.000  
  19163103.14149 100702785.90649     -3866.02749        50.000  
  19758938.01649 103833919.03149    -10706.28549        50.000  
 16 04 02 14 21 24.9000000  0  4G04G30G26G07                                    
  19742059.11749 103745220.71549      3198.93049        50.000  
  22501399.32049 118245650.63749       757.71549        48.000  
  19163176.73449 100703172.66849     -3869.23849        50.000  
  19759141.78949 103834989.84849    -10710.35549        50.000  
 16 04 02 14 21 25.0000000  0  4G04G30G26G07                                    
  19741998.28149 103744901.01249      3195.53149        50.000  
  22501384.93849 118245575.02049       755.02049        48.000  
  19163250.39849 100703559.79749     -3872.91049        50.000  
  19759345.64849 103836061.12149    -10714.90249        50.000  
 16 04 02 14 21 25.1000000  0  4G04G30G26G07                                    
  19741937.50049 103744581.58649      3192.59849        50.000  
  22501370.59449 118245499.63749       752.41849        48.000  
  19163324.14149 100703947.26649     -3876.53149        50.000  
  19759549.58649 103837132.80949    -10719.19549        50.000  
 16 04 02 14 21 25.2000000  0  4G04G30G26G07                                    
  19741876.78149 103744262.51249      3189.17249        50.000  
  22501356.30549 118245424.55949       749.49249        48.000  
  19163397.94549 100704335.11349     -3880.17249        50.000  
  19759753.60949 103838204.98849    -10723.94549        50.000  
 16 04 02 14 21 25.3000000  0  4G04G30G26G07                                    
  19741816.10949 103743943.67649      3186.82049        50.000  
  22501342.05549 118245349.67249       747.52049        48.000  
  19163471.80549 100704723.24249     -3883.03949        50.000  
  19759957.71149 103839277.52349    -10727.59849        50.000  
 16 04 02 14 21 25.4000000  0  5G04G30G21G26G07                                 
  19741755.50849 103743625.19549      3183.15249        50.000  
  22501327.85949 118245275.08649       744.39149        48.000  
  19808435.00849 104094027.71559     15245.03549        49.000  
  19163545.73449 100705111.77049     -3887.05949        50.000  
  19760161.89849 103840350.52749    -10732.35249        50.000  
 16 04 02 14 21 25.5000000  0  5G04G30G21G26G07                                 
  19741694.96149 103743307.01249      3180.35549        50.000  
  22501313.71149 118245200.73849       742.25049        48.000  
  19808144.93049 104092503.34049     15242.57449        49.000  
  19163619.73449 100705500.63749     -3890.31649        50.000  
  19760366.16449 103841423.97349    -10736.48449        50.000  
 16 04 02 14 21 25.6000000  0  5G04G30G21G26G07                                 
  19741634.45349 103742989.06249      3177.95749        50.000  
  22501299.60949 118245126.59449       740.25049        48.000  
  19807854.84449 104090979.14549     15240.63349        49.000  
  19163693.78149 100705889.77349     -3893.03149        50.000  
  19760570.50049 103842497.77049    -10740.06649        50.000  
 16 04 02 14 21 25.7000000  0  5G04G30G21G26G07                                 
  19741574.00849 103742671.37549      3175.38749        50.000  
  22501285.53949 118245052.66049       738.16849        48.000  
  19807564.84449 104089455.16849     15238.59849        49.000  
  19163767.89149 100706279.21549     -3896.00849        50.000  
  19760774.91449 103843571.95749    -10743.98849        50.000  
 16 04 02 14 21 25.8000000  0  5G04G30G21G26G07                                 
  19741513.61749 103742354.04749      3171.89149        50.000  
  22501271.52349 118244979.03549       735.03949        48.000  
  19807274.89149 104087931.50049     15235.38749        49.000  
  19163842.07849 100706669.06249     -3899.99649        50.000  
  19760979.42249 103844646.64549    -10748.87149        50.000  
 16 04 02 14 21 25.9000000  0  5G04G30G21G26G07                                 
  19741453.28949 103742037.01249      3168.80949        50.000  
  22501257.56249 118244905.64849       732.64549        48.000  
  19806984.98449 104086408.07449     15232.96549        49.000  
  19163916.32049 100707059.23449     -3903.41449        50.000  
  19761184.00049 103845721.73449    -10753.04749        50.000  
 16 04 02 14 21 26.0000000  0  5G04G30G21G26G07                                 
  19741393.00849 103741720.19949      3166.67649        50.000  
  22501243.62549 118244832.43849       730.88749        48.000  
  19806695.10249 104084884.82849     15231.27349        49.000  
  19163990.61749 100707449.67249     -3905.95749        50.000  
  19761388.64849 103846797.17249    -10756.52049        50.000  
 16 04 02 14 21 26.1000000  0  5G04G30G21G26G07                                 
  19741332.77349 103741403.72749      3163.15249        50.000  
  22501229.75049 118244759.52349       727.85549        48.000  
  19806405.29749 104083361.87549     15228.21549        49.000  
  19164064.99249 100707840.50049     -3909.98049        50.000  
  19761593.37549 103847873.09849    -10761.44949        50.000  
 16 04 02 14 21 26.2000000  0  5G04G30G21G26G07                                 
  19741272.61749 103741087.59449      3159.85549        50.000  
  22501215.92249 118244686.88349       725.09449        48.000  
  19806115.57049 104081839.19949     15225.51649        49.000  
  19164139.43049 100708231.69549     -3913.67249        50.000  
  19761798.20349 103848949.46949    -10765.91449        50.000  
 16 04 02 14 21 26.3000000  0  5G04G30G21G26G07                                 
  19741212.50049 103740771.71949      3157.22749        50.000  
  22501202.14149 118244614.46949       722.88749        48.000  
  19805825.85949 104080316.74649     15223.32049        49.000  
  19164213.93049 100708623.18849     -3916.67649        50.000  
  19762003.10249 103850026.23849    -10769.93849        50.000  
 16 04 02 14 21 26.4000000  0  5G04G30G21G26G07                                 
  19741152.43849 103740456.08649      3154.69149        50.000  
  22501188.39849 118244542.24249       720.98049        48.000  
  19805536.17249 104078794.50449     15221.16849        49.000  
  19164288.48449 100709014.98049     -3919.59049        50.000  
  19762208.07049 103851103.37549    -10773.75449        50.000  
 16 04 02 14 21 26.5000000  0  5G04G30G21G26G07                                 
  19741092.45349 103740140.81649      3151.21949        50.000  
  22501174.71149 118244470.34049       717.88749        48.000  
  19805246.55549 104077272.56249     15218.12949        49.000  
  19164363.10949 100709407.16449     -3923.47349        50.000  
  19762413.14149 103852180.99249    -10778.29349        50.000  
 16 04 02 14 21 26.6000000  0  5G04G30G21G26G07                                 
  19741032.50849 103739825.80549      3148.78549        50.000  
  22501161.05549 118244398.63349       716.05149        48.000  
  19804956.99249 104075750.84049     15216.14149        49.000  
  19164437.79749 100709799.65249     -3926.36749        50.000  
  19762618.27349 103853259.00049    -10782.02349        50.000  
 16 04 02 14 21 26.7000000  0  5G04G30G21G26G07                                 
  19740972.60949 103739511.03949      3146.00849        50.000  
  22501147.44549 118244327.13349       713.68049        48.000  
  19804667.45349 104074229.30949     15213.77349        49.000  
  19164512.54749 100710192.43049     -3929.55549        50.000  
  19762823.50049 103854337.39149    -10786.16449        50.000  
 16 04 02 14 21 26.8000000  0  5G04G30G21G26G07                                 
  19740912.78149 103739196.63349      3142.68449        50.000  
  22501133.89149 118244255.93849       710.80549        48.000  
  19804378.01649 104072708.09449     15210.94949        50.000  
  19164587.35949 100710585.60549     -3933.37149        50.000  
  19763028.80549 103855416.25849    -10790.68049        50.000  
 16 04 02 14 21 26.9000000  0  5G04G30G21G26G07                                 
  19740852.99249 103738882.47349      3140.11349        50.000  
  22501120.37549 118244184.94549       708.75449        48.000  
  19804088.57849 104071187.07049     15209.06649        49.000  
  19164662.24249 100710979.05149     -3936.17649        50.000  
  19763234.17249 103856495.49249    -10794.53949        50.000  
 16 04 02 14 21 27.0000000  0  5G04G30G21G26G07                                 
  19740793.26649 103738568.59449      3137.21949        50.000  
  22501106.89849 118244114.18049       706.36749        48.000  
  19803799.18049 104069666.29749     15206.54349        49.000  
  19164737.18049 100711372.84049     -3939.53949        50.000  
  19763439.62549 103857575.15649    -10798.77349        50.000  
 16 04 02 14 21 27.1000000  0  5G04G30G21G26G07                                 
  19740733.58649 103738255.00849      3134.36749        50.000  
  22501093.48449 118244043.66849       703.94149        48.000  
  19803509.82849 104068145.76649     15204.00849        49.000  
  19164812.18049 100711766.96149     -3942.81649        50.000  
  19763645.16449 103858655.21549    -10802.80149        50.000  
 16 04 02 14 21 27.2000000  0  5G04G30G21G26G07                                 
  19740673.98449 103737941.78549      3130.73049        50.000  
  22501080.13349 118243973.45749       700.81249        48.000  
  19803220.53949 104066625.53549     15200.95349        49.000  
  19164887.25049 100712161.47349     -3946.82849        50.000  
  19763850.78949 103859735.77749    -10807.75849        50.000  
 16 04 02 14 21 27.3000000  0  5G04G30G21G26G07                                 
  19740614.43849 103737628.86349      3127.70749        50.000  
  22501066.82049 118243903.50449       698.23849        48.000  
  19802931.29749 104065105.57049     15198.41849        49.000  
  19164962.38349 100712556.32849     -3950.25849        50.000  
  19764056.49249 103860816.75449    -10811.99249        50.000  
 16 04 02 14 21 27.4000000  0  5G04G30G21G26G07                                 
  19740554.93049 103737316.15249      3125.55549        50.000  
  22501053.53949 118243833.71949       696.58249        48.000  
  19802642.09449 104063585.77349     15196.63349        49.000  
  19165037.57049 100712951.45749     -3952.93049        50.000  
  19764262.26649 103861898.09049    -10815.48849        50.000  
 16 04 02 14 21 27.5000000  0  5G04G30G21G26G07                                 
  19740495.50049 103737003.83649      3121.64849        50.000  
  22501040.32849 118243764.27749       693.12149        48.000  
  19802352.95349 104062066.33249     15193.15249        49.000  
  19165112.82849 100713347.00049     -3957.10949        50.000  
  19764468.13349 103862979.93449    -10820.61349        50.000  
 16 04 02 14 21 27.6000000  0  5G04G30G21G26G07                                 
  19740436.11749 103736691.75849      3119.22749        50.000  
  22501027.14849 118243695.01649       691.28149        48.000  
  19802063.83649 104060547.05949     15191.35549        49.000  
  19165188.14849 100713742.82049     -3959.94149        50.000  
  19764674.07849 103864062.14549    -10824.37949        50.000  
 16 04 02 14 21 27.7000000  0  5G04G30G21G26G07                                 
  19740376.78949 103736379.97749      3116.17649        50.000  
  22501014.01649 118243626.02049       688.55549        48.000  
  19801774.78149 104059028.05549     15188.58649        49.000  
  19165263.53949 100714138.98849     -3963.50449        50.000  
  19764880.10249 103865144.77749    -10828.61749        50.000  
 16 04 02 14 21 27.8000000  0  5G04G30G21G26G07                                 
  19740317.51649 103736068.46949      3113.66849        50.000  
  22501000.93849 118243557.23049       686.63749        48.000  
  19801485.80549 104057509.26249     15186.69149        49.000  
  19165338.98449 100714535.46149     -3966.30949        50.000  
  19765086.19549 103866227.80949    -10832.46149        50.000  
 16 04 02 14 21 27.9000000  0  5G04G30G21G26G07                                 
  19740258.28949 103735757.26649      3110.69149        50.000  
  22500987.89849 118243488.70349       684.11749        48.000  
  19801196.83649 104055990.75049     15184.01249        49.000  
  19165414.50049 100714932.28949     -3969.80549        50.000  
  19765292.37549 103867311.28549    -10836.77349        50.000  
 16 04 02 14 21 28.0000000  0  5G04G30G21G26G07                                 
  19740199.13349 103735446.37949      3107.32849        50.000  
  22500974.90649 118243420.44549       681.28949        48.000  
  19800907.92249 104054472.48849     15181.19149        49.000  
  19165490.07849 100715329.46949     -3973.48049        50.000  
  19765498.64149 103868395.19149    -10841.23849        50.000  
 16 04 02 14 21 28.1000000  0  5G04G30G21G26G07                                 
  19740140.02349 103735135.78949      3104.42649        50.000  
  22500961.96149 118243352.44149       678.88749        48.000  
  19800619.05549 104052954.48849     15178.77349        49.000  
  19165565.72749 100715726.99649     -3976.95749        50.000  
  19765704.98449 103869479.53149    -10845.60249        50.000  
 16 04 02 14 21 28.2000000  0  5G04G30G21G26G07                                 
  19740080.96949 103734825.44549      3102.02049        50.000  
  22500949.05549 118243284.63749       676.88749        48.000  
  19800330.22749 104051436.68849     15176.80949        49.000  
  19165641.43049 100716124.79749     -3979.60549        50.000  
  19765911.39149 103870564.22749    -10849.10949        50.000  
 16 04 02 14 21 28.3000000  0  5G04G30G21G26G07                                 
  19740021.96149 103734515.39549      3098.96149        50.000  
  22500936.18849 118243217.05949       674.55149        48.000  
  19800041.44549 104049919.12149     15174.40249        49.000  
  19165717.18049 100716522.92649     -3982.97749        50.000  
  19766117.89149 103871649.36349    -10853.53549        50.000  
 16 04 02 14 21 28.4000000  0  5G04G30G21G26G07                                 
  19739963.00849 103734205.62149      3096.05949        50.000  
  22500923.37549 118243149.72349       671.93449        48.000  
  19799752.70349 104048401.79749     15171.86349        49.000  
  19165793.00849 100716921.39849     -3986.54349        50.000  
  19766324.46149 103872734.88749    -10857.60549        50.000  
 16 04 02 14 21 28.5000000  0  5G04G30G21G26G07                                 
  19739904.14149 103733896.23849      3092.28949        50.000  
  22500910.62549 118243082.73449       668.60549        48.000  
  19799464.03149 104046884.81649     15168.47749        49.000  
  19165868.92249 100717320.27349     -3990.48449        50.000  
  19766531.14149 103873820.93049    -10862.50049        50.000  
 16 04 02 14 21 28.6000000  0  5G04G30G21G26G07                                 
  19739845.32049 103733587.12949      3089.29749        50.000  
  22500897.92249 118243015.97349       666.11349        48.000  
  19799175.40649 104045368.07049     15165.94149        49.000  
  19165944.88349 100717719.48049     -3993.96949        50.000  
  19766737.88349 103874907.38749    -10866.96549        50.000  
 16 04 02 14 21 28.7000000  0  5G04G30G21G26G07                                 
  19739786.56249 103733278.32049      3086.52349        50.000  
  22500885.25849 118242949.44149       663.96949        48.000  
  19798886.82049 104043851.56249     15163.69949        49.000  
  19166020.92249 100718119.03149     -3997.21949        50.000  
  19766944.71149 103875994.26249    -10870.94949        50.000  
 16 04 02 14 21 28.8000000  0  5G04G30G21G26G07                                 
  19739727.86749 103732969.84449      3083.37949        50.000  
  22500872.66449 118242883.21949       661.12149        48.000  
  19798598.28949 104042335.35949     15160.93849        49.000  
  19166097.02349 100718518.94149     -4000.68449        50.000  
  19767151.62549 103877081.59849    -10875.37549        50.000  
