     2.10           OBSERVATION DATA    G (GPS)             RINEX VERSION / TYPE
Convert v1.8.0                          09-Jun-2016 15:01   PGM / RUN BY / DATE 
Signal Strength values S1,S2 are in dBHz                    COMMENT             
                                                            MARKER NAME         
                                                            MARKER NUMBER       
                                                            OBSERVER / AGENCY   
                    NovAtel GPSCard                         REC # / TYPE / VERS 
                                                            ANT # / TYPE        
0.0000        0.0000        0.0000                          APPROX POSITION XYZ 
        0.0000        0.0000        0.0000                  ANTENNA: DELTA H/E/N
     1     0                                                WAVELENGTH FACT L1/2
     1     0     2   G09   G29                              WAVELENGTH FACT L1/2
                                                            COMMENT             
                                                            COMMENT             
                                                            COMMENT             
                                                            COMMENT             
                                                            COMMENT             
                                                            COMMENT             
     4    C1    L1    D1    S1                              # / TYPES OF OBSERV 
     0.100                                                  INTERVAL            
  2016    04    02    12    51     6.8000000    GPS         TIME OF FIRST OBS   
  2016    04    02    12    53    23.5000000    GPS         TIME OF LAST OBS    
Leap Seconds Unknown                                        COMMENT             
                                                            END OF HEADER       
 16 04 02 12 51  6.8000000  0  1G29                                             
  22418456.35249 117809782.88359     -4175.84849        50.000  
 16 04 02 12 51  6.9000000  0  2G09G29                                          
  23731068.16449 124707603.58659     -6181.10249        50.000  
  22418535.85249 117810200.62549     -4179.22349        50.000  
 16 04 02 12 51  7.0000000  0  2G09G29                                          
  23731185.83649 124708221.98449     -6187.16049        50.000  
  22418615.43049 117810618.78149     -4183.56649        50.000  
 16 04 02 12 51  7.1000000  0  2G09G29                                          
  23731303.64149 124708841.00849     -6193.35549        50.000  
  22418695.07849 117811037.35249     -4187.53549        50.000  
 16 04 02 12 51  7.2000000  0  2G09G29                                          
  23731421.53949 124709460.55149     -6198.43049        50.000  
  22418774.78949 117811456.28149     -4191.23449        50.000  
 16 04 02 12 51  7.3000000  0  2G09G29                                          
  23731539.53149 124710080.61749     -6203.59049        50.000  
  22418854.57049 117811875.54749     -4194.52049        50.000  
 16 04 02 12 51  7.4000000  0  2G09G29                                          
  23731657.62549 124710701.21549     -6208.87549        50.000  
  22418934.42249 117812295.16849     -4197.83249        50.000  
 16 04 02 12 51  7.5000000  0  2G09G29                                          
  23731775.81249 124711322.29349     -6213.84049        50.000  
  22419014.32849 117812715.11349     -4201.19149        50.000  
 16 04 02 12 51  7.6000000  0  2G09G29                                          
  23731894.10949 124711943.97349     -6219.82449        50.000  
  22419094.31249 117813135.44949     -4205.19949        50.000  
 16 04 02 12 51  7.7000000  0  2G09G29                                          
  23732012.51649 124712566.20749     -6225.28549        50.000  
  22419174.36749 117813556.15649     -4208.80549        50.000  
 16 04 02 12 51  7.8000000  0  2G09G29                                          
  23732131.02349 124713188.94949     -6230.56249        50.000  
  22419254.48449 117813977.19549     -4212.41049        50.000  
 16 04 02 12 51  7.9000000  0  2G09G29                                          
  23732249.64149 124713812.26649     -6236.15249        50.000  
  22419334.68849 117814398.63749     -4216.25049        50.000  
 16 04 02 12 51  8.0000000  0  2G09G29                                          
  23732368.35249 124714436.09049     -6241.49649        50.000  
  22419414.94549 117814820.41449     -4219.71549        50.000  
 16 04 02 12 51  8.1000000  0  2G09G29                                          
  23732487.17249 124715060.51649     -6247.16449        50.000  
  22419495.28149 117815242.59049     -4223.59849        50.000  
 16 04 02 12 51  8.2000000  0  2G09G29                                          
  23732606.08649 124715685.42249     -6252.25449        50.000  
  22419575.68849 117815665.08649     -4226.86349        50.000  
 16 04 02 12 51  8.3000000  0  2G09G29                                          
  23732725.12549 124716310.97749     -6258.54349        50.000  
  22419656.17249 117816088.03149     -4231.35549        50.000  
 16 04 02 12 51  8.4000000  0  2G09G29                                          
  23732844.25849 124716937.00849     -6263.21549        50.000  
  22419736.71149 117816511.28149     -4234.16849        50.000  
 16 04 02 12 51  8.5000000  0  2G09G29                                          
  23732963.50049 124717563.59449     -6268.96949        50.000  
  22419817.32049 117816934.91449     -4238.22749        50.000  
 16 04 02 12 51  8.6000000  0  2G09G29                                          
  23733082.84449 124718190.76649     -6274.94149        50.000  
  22419898.00849 117817358.94949     -4242.41849        50.000  
 16 04 02 12 51  8.7000000  0  2G09G29                                          
  23733202.29749 124718818.52749     -6280.56249        50.000  
  22419978.77349 117817783.39149     -4246.35249        50.000  
 16 04 02 12 51  8.8000000  0  2G09G29                                          
  23733321.85949 124719446.79749     -6285.83249        50.000  
  22420059.60249 117818208.15249     -4249.50449        50.000  
 16 04 02 12 51  8.9000000  0  2G09G29                                          
  23733441.51649 124720075.62549     -6291.19949        50.000  
  22420140.50849 117818633.30549     -4253.20749        50.000  
 16 04 02 12 51  9.0000000  0  2G09G29                                          
  23733561.27349 124720704.94149     -6296.19949        50.000  
  22420221.46949 117819058.75449     -4256.27749        50.000  
 16 04 02 12 51  9.1000000  0  2G09G29                                          
  23733681.14849 124721334.81249     -6301.63349        50.000  
  22420302.50049 117819484.58649     -4260.07849        50.000  
 16 04 02 12 51  9.2000000  0  2G09G29                                          
  23733801.11749 124721965.24649     -6307.48849        50.000  
  22420383.60249 117819910.80549     -4264.09049        50.000  
 16 04 02 12 51  9.3000000  0  2G09G29                                          
  23733921.20349 124722596.25849     -6313.12949        50.000  
  22420464.78149 117820337.40649     -4267.92649        50.000  
 16 04 02 12 51  9.4000000  0  2G09G29                                          
  23734041.37549 124723227.79349     -6318.52049        50.000  
  22420546.03149 117820764.35949     -4271.48849        50.000  
 16 04 02 12 51  9.5000000  0  2G09G29                                          
  23734161.66449 124723859.96149     -6324.64549        50.000  
  22420627.36749 117821191.75849     -4275.77749        50.000  
 16 04 02 12 51  9.6000000  0  2G09G29                                          
  23734282.04749 124724492.57849     -6329.18049        50.000  
  22420708.75049 117821619.44149     -4278.71149        50.000  
 16 04 02 12 51  9.7000000  0  2G09G29                                          
  23734402.54749 124725125.80549     -6335.42249        50.000  
  22420790.21149 117822047.54349     -4283.00049        50.000  
 16 04 02 12 51  9.8000000  0  2G09G29                                          
  23734523.14849 124725759.58249     -6340.77049        50.000  
  22420871.75049 117822476.02349     -4286.62949        50.000  
 16 04 02 12 51  9.9000000  0  2G09G29                                          
  23734643.85949 124726393.87949     -6345.90649        50.000  
  22420953.35249 117822904.83249     -4289.83249        50.000  
 16 04 02 12 51 10.0000000  0  2G09G29                                          
  23734764.65649 124727028.69149     -6351.24649        50.000  
  22421035.00849 117823333.97749     -4293.37149        50.000  
 16 04 02 12 51 10.1000000  0  2G09G29                                          
  23734885.57049 124727664.04749     -6356.30149        50.000  
  22421116.74249 117823763.50049     -4296.80949        50.000  
 16 04 02 12 51 10.2000000  0  2G09G29                                          
  23735006.57049 124728299.91049     -6361.75849        50.000  
  22421198.53949 117824193.34049     -4300.31249        50.000  
 16 04 02 12 51 10.3000000  0  2G09G29                                          
  23735127.68049 124728936.36349     -6367.46949        50.000  
  22421280.41449 117824623.59849     -4304.37949        50.000  
 16 04 02 12 51 10.4000000  0  2G09G29                                          
  23735248.89849 124729573.37949     -6373.15249        50.000  
  22421362.36749 117825054.22749     -4308.17649        50.000  
 16 04 02 12 51 10.5000000  0  2G09G29                                          
  23735370.22749 124730210.94149     -6378.82449        50.000  
  22421444.38349 117825485.22749     -4312.07449        50.000  
 16 04 02 12 51 10.6000000  0  2G09G29                                          
  23735491.64849 124730849.03549     -6383.85249        50.000  
  22421526.46149 117825916.57449     -4315.32049        50.000  
 16 04 02 12 51 10.7000000  0  2G09G29                                          
  23735613.18849 124731487.68049     -6389.53549        50.000  
  22421608.61749 117826348.29749     -4319.14549        50.000  
 16 04 02 12 51 10.8000000  0  2G09G29                                          
  23735734.82049 124732126.86749     -6394.70749        50.000  
  22421690.85249 117826780.37949     -4322.55949        50.000  
 16 04 02 12 51 10.9000000  0  2G09G29                                          
  23735856.55549 124732766.59849     -6400.39549        50.000  
  22421773.14149 117827212.81249     -4326.21549        50.000  
 16 04 02 12 51 11.0000000  0  2G09G29                                          
  23735978.39149 124733406.85949     -6405.60549        50.000  
  22421855.50049 117827645.63349     -4329.85249        50.000  
 16 04 02 12 51 11.1000000  0  2G09G29                                          
  23736100.33649 124734047.68849     -6411.02349        50.000  
  22421937.93049 117828078.80149     -4333.40649        50.000  
 16 04 02 12 51 11.2000000  0  2G09G29                                          
  23736222.38349 124734689.03149     -6416.63749        50.000  
  22422020.43049 117828512.33249     -4337.19149        50.000  
 16 04 02 12 51 11.3000000  0  2G09G29                                          
  23736344.53149 124735330.93849     -6421.87949        50.000  
  22422103.00049 117828946.23449     -4340.67649        50.000  
 16 04 02 12 51 11.4000000  0  2G09G29                                          
  23736466.78149 124735973.34449     -6427.12549        50.000  
  22422185.62549 117829380.46549     -4344.21949        50.000  
 16 04 02 12 51 11.5000000  0  2G09G29                                          
  23736589.14149 124736616.36349     -6432.92249        50.000  
  22422268.33649 117829815.11349     -4348.16049        50.000  
 16 04 02 12 51 11.6000000  0  2G09G29                                          
  23736711.60249 124737259.89149     -6438.36349        50.000  
  22422351.11749 117830250.09449     -4351.77749        50.000  
 16 04 02 12 51 11.7000000  0  2G09G29                                          
  23736834.17249 124737903.99249     -6444.22349        50.000  
  22422433.96949 117830685.49249     -4355.93449        50.000  
 16 04 02 12 51 11.8000000  0  2G09G29                                          
  23736956.85249 124738548.66049     -6449.65249        50.000  
  22422516.89149 117831121.23849     -4359.46949        50.000  
 16 04 02 12 51 11.9000000  0  2G09G29                                          
  23737079.62549 124739193.85249     -6455.10949        50.000  
  22422599.88349 117831557.35949     -4363.13349        50.000  
 16 04 02 12 51 12.0000000  0  2G09G29                                          
  23737202.50849 124739839.60949     -6460.34049        50.000  
  22422682.93849 117831993.85949     -4366.73049        50.000  
 16 04 02 12 51 12.1000000  0  2G09G29                                          
  23737325.50849 124740485.89149     -6465.97749        50.000  
  22422766.06249 117832430.68849     -4370.25449        50.000  
 16 04 02 12 51 12.2000000  0  2G09G29                                          
  23737448.59449 124741132.71149     -6471.26249        50.000  
  22422849.26649 117832867.89149     -4373.91049        50.000  
 16 04 02 12 51 12.3000000  0  2G09G29                                          
  23737571.76649 124741780.05549     -6476.26649        50.000  
  22422932.52349 117833305.43449     -4377.06249        50.000  
 16 04 02 12 51 12.4000000  0  2G09G29                                          
  23737695.04749 124742427.92249     -6481.55949        50.000  
  22423015.84449 117833743.31649     -4380.54749        50.000  
 16 04 02 12 51 12.5000000  0  2G09G29                                          
  23737818.43849 124743076.35949     -6487.62549        50.000  
  22423099.24249 117834181.59849     -4384.80549        50.000  
 16 04 02 12 51 12.6000000  0  2G09G29                                          
  23737941.94549 124743725.41049     -6493.37549        50.000  
  22423182.72749 117834620.30549     -4388.84849        50.000  
 16 04 02 12 51 12.7000000  0  2G09G29                                          
  23738065.54749 124744374.98049     -6499.16449        50.000  
  22423266.27349 117835059.35549     -4392.63349        50.000  
 16 04 02 12 51 12.8000000  0  2G09G29                                          
  23738189.27349 124745025.15649     -6504.52349        50.000  
  22423349.91449 117835498.84049     -4396.47349        50.000  
 16 04 02 12 51 12.9000000  0  2G09G29                                          
  23738313.08649 124745675.80149     -6509.36349        50.000  
  22423433.60249 117835938.60249     -4399.50449        50.000  
 16 04 02 12 51 13.0000000  0  2G09G29                                          
  23738437.00849 124746327.01649     -6515.07849        50.000  
  22423517.35949 117836378.75449     -4403.40649        50.000  
 16 04 02 12 51 13.1000000  0  2G09G29                                          
  23738561.02349 124746978.71949     -6520.16849        50.000  
  22423601.18049 117836819.21949     -4406.53149        50.000  
 16 04 02 12 51 13.2000000  0  2G09G29                                          
  23738685.15649 124747631.03549     -6526.20749        50.000  
  22423685.08649 117837260.11349     -4410.70749        50.000  
 16 04 02 12 51 13.3000000  0  2G09G29                                          
  23738809.39149 124748283.89849     -6531.71949        50.000  
  22423769.05549 117837701.38749     -4414.68049        50.000  
 16 04 02 12 51 13.4000000  0  2G09G29                                          
  23738933.71949 124748937.28549     -6536.90649        50.000  
  22423853.09449 117838142.99649     -4418.03149        50.000  
 16 04 02 12 51 13.5000000  0  2G09G29                                          
  23739058.18049 124749591.28149     -6543.02749        50.000  
  22423937.21149 117838585.02749     -4422.23449        50.000  
 16 04 02 12 51 13.6000000  0  2G09G29                                          
  23739182.72749 124750245.79349     -6548.21149        50.000  
  22424021.39849 117839027.40649     -4425.75849        50.000  
 16 04 02 12 51 13.7000000  0  2G09G29                                          
  23739307.37549 124750900.79749     -6553.07449        50.000  
  22424105.64149 117839470.09049     -4428.71949        50.000  
 16 04 02 12 51 13.8000000  0  2G09G29                                          
  23739432.13349 124751556.38349     -6558.91849        50.000  
  22424189.95349 117839913.17649     -4432.71949        50.000  
 16 04 02 12 51 13.9000000  0  2G09G29                                          
  23739556.99249 124752212.52749     -6564.58249        50.000  
  22424274.34449 117840356.64849     -4436.71549        50.000  
 16 04 02 12 51 14.0000000  0  2G09G29                                          
  23739681.96149 124752869.23049     -6569.91049        50.000  
  22424358.80549 117840800.49249     -4440.19949        50.000  
 16 04 02 12 51 14.1000000  0  2G09G29                                          
  23739807.01649 124753526.41449     -6575.11749        50.000  
  22424443.32049 117841244.64549     -4443.50049        50.000  
 16 04 02 12 51 14.2000000  0  2G09G29                                          
  23739932.18049 124754184.18449     -6580.62549        50.000  
  22424527.90649 117841689.19549     -4447.19149        50.000  
 16 04 02 12 51 14.3000000  0  2G09G29                                          
  23740057.45349 124754842.48849     -6586.00049        50.000  
  22424612.57049 117842134.10249     -4450.91449        50.000  
 16 04 02 12 51 14.4000000  0  2G09G29                                          
  23740182.82049 124755501.30549     -6591.17649        50.000  
  22424697.29749 117842579.35249     -4454.25449        50.000  
 16 04 02 12 51 14.5000000  0  2G09G29                                          
  23740308.29749 124756160.69549     -6596.94949        50.000  
  22424782.10249 117843024.98849     -4458.26249        50.000  
 16 04 02 12 51 14.6000000  0  2G09G29                                          
  23740433.87549 124756820.64849     -6602.61749        50.000  
  22424866.97749 117843471.00849     -4462.11749        50.000  
 16 04 02 12 51 14.7000000  0  2G09G29                                          
  23740559.57049 124757481.14549     -6607.88349        50.000  
  22424951.92249 117843917.39149     -4465.68849        50.000  
 16 04 02 12 51 14.8000000  0  2G09G29                                          
  23740685.35949 124758142.15249     -6613.07049        50.000  
  22425036.92249 117844364.10249     -4468.86749        50.000  
 16 04 02 12 51 14.9000000  0  2G09G29                                          
  23740811.23449 124758803.65649     -6618.01249        50.000  
  22425121.99249 117844811.14849     -4472.17249        50.000  
 16 04 02 12 51 15.0000000  0  2G09G29                                          
  23740937.23449 124759465.78149     -6624.32849        50.000  
  22425207.14849 117845258.61349     -4476.58249        50.000  
 16 04 02 12 51 15.1000000  0  2G09G29                                          
  23741063.33649 124760128.43849     -6629.55949        50.000  
  22425292.36749 117845706.44949     -4480.21149        50.000  
 16 04 02 12 51 15.2000000  0  2G09G29                                          
  23741189.54749 124760791.67649     -6635.49649        50.000  
  22425377.66449 117846154.66849     -4484.16449        50.000  
 16 04 02 12 51 15.3000000  0  2G09G29                                          
  23741315.84449 124761455.39549     -6640.29349        50.000  
  22425463.01649 117846603.21149     -4487.23849        50.000  
 16 04 02 12 51 15.4000000  0  2G09G29                                          
  23741442.25049 124762119.66449     -6645.52749        50.000  
  22425548.43849 117847052.10549     -4490.71549        50.000  
 16 04 02 12 51 15.5000000  0  2G09G29                                          
  23741568.75049 124762784.47749     -6651.05949        50.000  
  22425633.93049 117847501.37149     -4494.39149        50.000  
 16 04 02 12 51 15.6000000  0  2G09G29                                          
  23741695.36749 124763449.85949     -6656.91849        50.000  
  22425719.49249 117847951.02349     -4498.46949        50.000  
 16 04 02 12 51 15.7000000  0  2G09G29                                          
  23741822.10249 124764115.78949     -6662.38749        50.000  
  22425805.12549 117848401.04349     -4502.09049        50.000  
 16 04 02 12 51 15.8000000  0  2G09G29                                          
  23741948.93049 124764782.28949     -6668.11349        50.000  
  22425890.84449 117848851.46949     -4506.14849        50.000  
 16 04 02 12 51 15.9000000  0  2G09G29                                          
  23742075.87549 124765449.34849     -6673.39549        50.000  
  22425976.62549 117849302.25849     -4509.71949        50.000  
 16 04 02 12 51 16.0000000  0  2G09G29                                          
  23742202.90649 124766116.93449     -6679.10949        50.000  
  22426062.47749 117849753.39849     -4513.44949        50.000  
 16 04 02 12 51 16.1000000  0  2G09G29                                          
  23742330.03949 124766785.02349     -6683.71549        50.000  
  22426148.38349 117850204.86749     -4516.34049        50.000  
 16 04 02 12 51 16.2000000  0  2G09G29                                          
  23742457.27349 124767453.66049     -6689.28949        50.000  
  22426234.35949 117850656.69549     -4520.11349        50.000  
 16 04 02 12 51 16.3000000  0  2G09G29                                          
  23742584.61749 124768122.82049     -6694.47749        50.000  
  22426320.40649 117851108.87549     -4523.64849        50.000  
 16 04 02 12 51 16.4000000  0  2G09G29                                          
  23742712.05549 124768792.51249     -6699.96949        50.000  
  22426406.52349 117851561.40649     -4527.20749        50.000  
 16 04 02 12 51 16.5000000  0  2G09G29                                          
  23742839.60949 124769462.79349     -6705.68449        50.000  
  22426492.71949 117852014.33649     -4531.09849        50.000  
 16 04 02 12 51 16.6000000  0  2G09G29                                          
  23742967.25049 124770133.57049     -6710.82849        50.000  
  22426578.96949 117852467.60249     -4534.52349        50.000  
 16 04 02 12 51 16.7000000  0  2G09G29                                          
  23743095.00849 124770804.91849     -6716.53549        50.000  
  22426665.29749 117852921.25449     -4538.41049        50.000  
 16 04 02 12 51 16.8000000  0  2G09G29                                          
  23743222.86749 124771476.82049     -6722.02749        50.000  
  22426751.69549 117853375.27349     -4542.01649        50.000  
 16 04 02 12 51 16.9000000  0  2G09G29                                          
  23743350.82049 124772149.22749     -6727.02749        50.000  
  22426838.15649 117853829.63349     -4545.48049        50.000  
 16 04 02 12 51 17.0000000  0  2G09G29                                          
  23743478.88349 124772822.19949     -6732.64549        50.000  
  22426924.68849 117854284.35949     -4549.07049        50.000  
 16 04 02 12 51 17.1000000  0  2G09G29                                          
  23743607.06249 124773495.71549     -6738.04749        50.000  
  22427011.28949 117854739.46549     -4552.83249        50.000  
 16 04 02 12 51 17.2000000  0  2G09G29                                          
  23743735.32849 124774169.77049     -6743.71549        50.000  
  22427097.95349 117855194.91049     -4556.37949        50.000  
 16 04 02 12 51 17.3000000  0  2G09G29                                          
  23743863.68849 124774844.29749     -6748.14849        50.000  
  22427184.68849 117855650.67649     -4559.34449        50.000  
 16 04 02 12 51 17.4000000  0  2G09G29                                          
  23743992.16449 124775519.42249     -6754.22749        50.000  
  22427271.48449 117856106.84849     -4563.51249        50.000  
 16 04 02 12 51 17.5000000  0  2G09G29                                          
  23744120.72749 124776195.08649     -6759.52349        50.000  
  22427358.35949 117856563.37149     -4567.11749        50.000  
 16 04 02 12 51 17.6000000  0  2G09G29                                          
  23744249.40649 124776871.27349     -6764.96149        50.000  
  22427445.30549 117857020.25049     -4570.66049        50.000  
 16 04 02 12 51 17.7000000  0  2G09G29                                          
  23744378.19549 124777548.05149     -6770.80949        50.000  
  22427532.32049 117857477.54349     -4574.71549        50.000  
 16 04 02 12 51 17.8000000  0  2G09G29                                          
  23744507.07849 124778225.34049     -6775.94949        50.000  
  22427619.39849 117857935.16049     -4578.10249        50.000  
 16 04 02 12 51 17.9000000  0  2G09G29                                          
  23744636.07049 124778903.21149     -6781.78549        50.000  
  22427706.56249 117858393.17649     -4582.16849        50.000  
 16 04 02 12 51 18.0000000  0  2G09G29                                          
  23744765.17249 124779581.63749     -6787.19949        50.000  
  22427793.78949 117858851.58249     -4585.83649        50.000  
 16 04 02 12 51 18.1000000  0  2G09G29                                          
  23744894.35949 124780260.57049     -6792.44549        50.000  
  22427881.07849 117859310.30149     -4589.10549        50.000  
 16 04 02 12 51 18.2000000  0  2G09G29                                          
  23745023.66449 124780940.06249     -6797.94949        50.000  
  22427968.44549 117859769.41849     -4593.08649        50.000  
 16 04 02 12 51 18.3000000  0  2G09G29                                          
  23745153.07049 124781620.10949     -6803.34849        50.000  
  22428055.88349 117860228.89149     -4596.46149        50.000  
 16 04 02 12 51 18.4000000  0  2G09G29                                          
  23745282.57049 124782300.66849     -6808.50449        50.000  
  22428143.38349 117860688.69549     -4599.88349        50.000  
 16 04 02 12 51 18.5000000  0  2G09G29                                          
  23745412.19549 124782981.81649     -6814.87549        50.000  
  22428230.96149 117861148.93449     -4604.54349        50.000  
 16 04 02 12 51 18.6000000  0  2G09G29                                          
  23745541.92249 124783663.52349     -6820.02749        50.000  
  22428318.62549 117861609.54349     -4608.07849        50.000  
 16 04 02 12 51 18.7000000  0  2G09G29                                          
  23745671.73449 124784345.73849     -6825.06249        50.000  
  22428406.33649 117862070.46949     -4611.19149        50.000  
 16 04 02 12 51 18.8000000  0  2G09G29                                          
  23745801.64849 124785028.44149     -6829.89149        50.000  
  22428494.10249 117862531.71949     -4614.23449        50.000  
 16 04 02 12 51 18.9000000  0  2G09G29                                          
  23745931.67249 124785711.69549     -6835.58249        50.000  
  22428581.94549 117862993.32049     -4617.89149        50.000  
 16 04 02 12 51 19.0000000  0  2G09G29                                          
  23746061.79749 124786395.53149     -6841.61349        50.000  
  22428669.85949 117863455.35249     -4622.30549        50.000  
 16 04 02 12 51 19.1000000  0  2G09G29                                          
  23746192.03149 124787079.91449     -6846.75449        50.000  
  22428757.84449 117863917.72749     -4625.59449        50.000  
 16 04 02 12 51 19.2000000  0  2G09G29                                          
  23746322.36749 124787764.81649     -6852.18449        50.000  
  22428845.91449 117864380.46149     -4629.33649        50.000  
 16 04 02 12 51 19.3000000  0  2G09G29                                          
  23746452.80549 124788450.28549     -6857.69149        50.000  
  22428934.03949 117864843.56649     -4632.90249        50.000  
 16 04 02 12 51 19.4000000  0  2G09G29                                          
  23746583.34449 124789136.27049     -6862.65249        50.000  
  22429022.24249 117865307.02049     -4636.19149        50.000  
 16 04 02 12 51 19.5000000  0  2G09G29                                          
  23746713.99249 124789822.81249     -6868.53949        50.000  
  22429110.50849 117865770.86349     -4640.28949        50.000  
 16 04 02 12 51 19.6000000  0  2G09G29                                          
  23746844.73449 124790509.88749     -6873.58649        50.000  
  22429198.84449 117866235.04349     -4643.60249        50.000  
 16 04 02 12 51 19.7000000  0  2G09G29                                          
  23746975.58649 124791197.50449     -6879.18449        50.000  
  22429287.24249 117866699.59449     -4647.45749        50.000  
 16 04 02 12 51 19.8000000  0  2G09G29                                          
  23747106.52349 124791885.58649     -6883.90249        50.000  
  22429375.69549 117867164.42649     -4650.26649        50.000  
 16 04 02 12 51 19.9000000  0  2G09G29                                          
  23747237.57049 124792574.22349     -6889.23449        50.000  
  22429464.22749 117867629.63349     -4653.73849        50.000  
 16 04 02 12 51 20.0000000  0  2G09G29                                          
  23747368.71949 124793263.41449     -6894.94149        50.000  
  22429552.82049 117868095.21149     -4657.61749        50.000  
 16 04 02 12 51 20.1000000  0  2G09G29                                          
  23747499.97749 124793953.16449     -6900.62149        50.000  
  22429641.49249 117868561.18849     -4661.69949        50.000  
 16 04 02 12 51 20.2000000  0  2G09G29                                          
  23747631.33649 124794643.47749     -6906.03949        50.000  
  22429730.24249 117869027.52749     -4665.29749        50.000  
 16 04 02 12 51 20.3000000  0  2G09G29                                          
  23747762.79749 124795334.34049     -6911.83649        50.000  
  22429819.05549 117869494.25449     -4669.27349        50.000  
 16 04 02 12 51 20.4000000  0  2G09G29                                          
  23747894.37549 124796025.77749     -6917.54749        50.000  
  22429907.93049 117869961.36749     -4673.12949        50.000  
 16 04 02 12 51 20.5000000  0  2G09G29                                          
  23748026.06249 124796717.75449     -6922.63349        50.000  
  22429996.88349 117870428.84449     -4676.50849        50.000  
 16 04 02 12 51 20.6000000  0  2G09G29                                          
  23748157.83649 124797410.25049     -6928.09049        50.000  
  22430085.91449 117870896.66449     -4680.09049        50.000  
 16 04 02 12 51 20.7000000  0  2G09G29                                          
  23748289.72749 124798103.34049     -6933.83649        50.000  
  22430175.01649 117871364.89849     -4684.15249        50.000  
 16 04 02 12 51 20.8000000  0  2G09G29                                          
  23748421.71149 124798796.93449     -6938.93449        50.000  
  22430264.17249 117871833.45349     -4687.37949        50.000  
 16 04 02 12 51 20.9000000  0  2G09G29                                          
  23748553.79749 124799491.04349     -6943.94949        50.000  
  22430353.39849 117872302.34849     -4690.73449        50.000  
 16 04 02 12 51 21.0000000  0  2G09G29                                          
  23748685.98449 124800185.68849     -6949.20349        50.000  
  22430442.68849 117872771.60249     -4694.20749        50.000  
 16 04 02 12 51 21.1000000  0  2G09G29                                          
  23748818.25849 124800880.81649     -6954.10249        50.000  
  22430532.04749 117873241.15249     -4697.26649        50.000  
 16 04 02 12 51 21.2000000  0  2G09G29                                          
  23748950.64149 124801576.47749     -6959.56249        50.000  
  22430621.46949 117873711.07049     -4700.92249        50.000  
 16 04 02 12 51 21.3000000  0  2G09G29                                          
  23749083.12549 124802272.71549     -6965.42249        50.000  
  22430710.96949 117874181.37949     -4705.02049        50.000  
 16 04 02 12 51 21.4000000  0  2G09G29                                          
  23749215.72749 124802969.52049     -6971.06649        50.000  
  22430800.54749 117874652.07849     -4708.90249        50.000  
 16 04 02 12 51 21.5000000  0  2G09G29                                          
  23749348.42249 124803666.82849     -6976.16449        50.000  
  22430890.18049 117875123.09449     -4712.09849        50.000  
 16 04 02 12 51 21.6000000  0  2G09G29                                          
  23749481.21949 124804364.69549     -6981.60949        50.000  
  22430979.89149 117875594.50449     -4715.85949        50.000  
 16 04 02 12 51 21.7000000  0  2G09G29                                          
  23749614.13349 124805063.12949     -6987.45749        50.000  
  22431069.67249 117876066.28149     -4719.81249        50.000  
 16 04 02 12 51 21.8000000  0  2G09G29                                          
  23749747.15649 124805762.16049     -6993.30549        50.000  
  22431159.53149 117876538.50049     -4724.07849        50.000  
 16 04 02 12 51 21.9000000  0  2G09G29                                          
  23749880.26649 124806461.63749     -6997.83249        50.000  
  22431249.43849 117877010.96949     -4726.61349        50.000  
 16 04 02 12 51 22.0000000  0  2G09G29                                          
  23750013.48449 124807161.71949     -7003.75849        50.000  
  22431339.43049 117877483.87949     -4730.85949        50.000  
 16 04 02 12 51 22.1000000  0  2G09G29                                          
  23750146.82049 124807862.35249     -7009.29749        50.000  
  22431429.49249 117877957.15649     -4734.63749        50.000  
 16 04 02 12 51 22.2000000  0  2G09G29                                          
  23750280.23449 124808563.43849     -7013.91849        50.000  
  22431519.60249 117878430.70749     -4737.43049        50.000  
 16 04 02 12 51 22.3000000  0  2G09G29                                          
  23750413.75049 124809265.09849     -7019.43849        50.000  
  22431609.78949 117878904.64549     -4741.15249        50.000  
 16 04 02 12 51 22.4000000  0  2G09G29                                          
  23750547.37549 124809967.31249     -7025.32449        50.000  
  22431700.06249 117879378.97349     -4745.27749        50.000  
 16 04 02 12 51 22.5000000  0  2G09G29                                          
  23750681.10249 124810670.03949     -7030.22749        50.000  
  22431790.38349 117879853.62549     -4748.33249        50.000  
 16 04 02 12 51 22.6000000  0  2G09G29                                          
  23750814.94549 124811373.36749     -7036.31649        50.000  
  22431880.78949 117880328.71149     -4752.79349        50.000  
 16 04 02 12 51 22.7000000  0  2G09G29                                          
  23750948.87549 124812077.21549     -7041.61749        50.000  
  22431971.25849 117880804.12149     -4756.18449        50.000  
 16 04 02 12 51 22.8000000  0  2G09G29                                          
  23751082.92249 124812781.65249     -7047.40649        50.000  
  22432061.80549 117881279.94949     -4760.11749        50.000  
 16 04 02 12 51 22.9000000  0  2G09G29                                          
  23751217.07849 124813486.62949     -7052.94149        50.000  
  22432152.42249 117881756.15249     -4763.96949        50.000  
 16 04 02 12 51 23.0000000  0  2G09G29                                          
  23751351.32849 124814192.11749     -7057.75849        50.000  
  22432243.10249 117882232.67649     -4767.02049        50.000  
 16 04 02 12 51 23.1000000  0  2G09G29                                          
  23751485.67249 124814898.07449     -7062.39149        50.000  
  22432333.83649 117882709.48049     -4769.69949        50.000  
 16 04 02 12 51 23.2000000  0  2G09G29                                          
  23751620.11749 124815604.59849     -7068.18049        50.000  
  22432424.64849 117883186.69149     -4773.84449        50.000  
 16 04 02 12 51 23.3000000  0  2G09G29                                          
  23751754.66449 124816311.64849     -7073.50849        50.000  
  22432515.52349 117883664.24649     -4777.29749        50.000  
 16 04 02 12 51 23.4000000  0  2G09G29                                          
  23751889.32849 124817019.30949     -7079.90249        50.000  
  22432606.48449 117884142.22749     -4781.83649        50.000  
 16 04 02 12 51 23.5000000  0  2G09G29                                          
  23752024.10249 124817727.52049     -7085.27049        50.000  
  22432697.51649 117884620.58249     -4785.54349        50.000  
 16 04 02 12 51 23.6000000  0  2G09G29                                          
  23752158.96949 124818436.25849     -7090.34849        50.000  
  22432788.60249 117885099.29349     -4788.96949        50.000  
 16 04 02 12 51 23.7000000  0  2G09G29                                          
  23752293.94549 124819145.54749     -7095.93849        50.000  
  22432879.76649 117885578.36749     -4792.65649        50.000  
 16 04 02 12 51 23.8000000  0  2G09G29                                          
  23752429.01649 124819855.33249     -7100.54749        50.000  
  22432970.98449 117886057.75449     -4795.49649        50.000  
 16 04 02 12 51 23.9000000  0  2G09G29                                          
  23752564.18049 124820565.62949     -7105.86349        50.000  
  22433062.28149 117886537.49249     -4799.10549        50.000  
 16 04 02 12 51 24.0000000  0  2G09G29                                          
  23752699.45349 124821276.49649     -7111.68849        50.000  
  22433153.64149 117887017.61349     -4803.08249        50.000  
 16 04 02 12 51 24.1000000  0  2G09G29                                          
  23752834.82049 124821987.88349     -7116.83649        50.000  
  22433245.07049 117887498.07049     -4806.41849        50.000  
 16 04 02 12 51 24.2000000  0  2G09G29                                          
  23752970.29749 124822699.79349     -7122.23449        50.000  
  22433336.56249 117887978.87949     -4809.96949        50.000  
 16 04 02 12 51 24.3000000  0  2G09G29                                          
  23753105.88349 124823412.31649     -7128.09049        50.000  
  22433428.14149 117888460.12549     -4814.19149        50.000  
 16 04 02 12 51 24.4000000  0  2G09G29                                          
  23753241.57849 124824125.39849     -7133.92249        50.000  
  22433519.79749 117888941.74249     -4818.16049        50.000  
 16 04 02 12 51 24.5000000  0  2G09G29                                          
  23753377.36749 124824838.96149     -7138.69949        50.000  
  22433611.50049 117889423.67249     -4821.20749        50.000  
 16 04 02 12 51 24.6000000  0  2G09G29                                          
  23753513.25849 124825553.07849     -7144.29349        50.000  
  22433703.27349 117889905.96549     -4824.82449        50.000  
 16 04 02 12 51 24.7000000  0  2G09G29                                          
  23753649.25849 124826267.71149     -7149.24249        50.000  
  22433795.12549 117890388.61749     -4828.19549        50.000  
 16 04 02 12 51 24.8000000  0  2G09G29                                          
  23753785.34449 124826982.85949     -7154.50049        50.000  
  22433887.02349 117890871.59049     -4831.60249        50.000  
 16 04 02 12 51 24.9000000  0  2G09G29                                          
  23753921.53949 124827698.58649     -7160.13749        50.000  
  22433979.00849 117891354.96149     -4835.37549        50.000  
 16 04 02 12 51 25.0000000  0  2G09G29                                          
  23754057.84449 124828414.84049     -7165.56249        50.000  
  22434071.04749 117891838.69149     -4839.14849        50.000  
 16 04 02 12 51 25.1000000  0  2G09G29                                          
  23754194.25049 124829131.67649     -7171.43449        50.000  
  22434163.17249 117892322.81649     -4843.14149        50.000  
 16 04 02 12 51 25.2000000  0  2G09G29                                          
  23754330.76649 124829849.03149     -7176.54749        50.000  
  22434255.37549 117892807.29749     -4846.63349        50.000  
 16 04 02 12 51 25.3000000  0  2G09G29                                          
  23754467.37549 124830566.91849     -7181.91049        50.000  
  22434347.63349 117893292.11349     -4849.97349        50.000  
 16 04 02 12 51 25.4000000  0  2G09G29                                          
  23754604.09449 124831285.38749     -7187.77349        50.000  
  22434439.96949 117893777.34849     -4854.24649        50.000  
 16 04 02 12 51 25.5000000  0  2G09G29                                          
  23754740.90649 124832004.35549     -7192.68449        50.000  
  22434532.36749 117894262.89849     -4857.34049        50.000  
 16 04 02 12 51 25.6000000  0  2G09G29                                          
  23754877.82849 124832723.87149     -7197.99249        50.000  
  22434624.83649 117894748.82449     -4861.00449        50.000  
 16 04 02 12 51 25.7000000  0  2G09G29                                          
  23755014.85249 124833443.93049     -7203.35549        50.000  
  22434717.36749 117895235.09849     -4864.48849        50.000  
 16 04 02 12 51 25.8000000  0  2G09G29                                          
  23755151.96149 124834164.45349     -7207.91049        50.000  
  22434809.96149 117895721.67249     -4867.30149        50.000  
 16 04 02 12 51 25.9000000  0  2G09G29                                          
  23755289.18049 124834885.52349     -7213.78549        50.000  
  22434902.62549 117896208.61749     -4871.29349        50.000  
 16 04 02 12 51 26.0000000  0  2G09G29                                          
  23755426.50849 124835607.20349     -7219.74249        50.000  
  22434995.35949 117896695.98049     -4875.53949        50.000  
 16 04 02 12 51 26.1000000  0  2G09G29                                          
  23755563.93849 124836329.35549     -7224.53149        50.000  
  22435088.16449 117897183.65649     -4878.63349        50.000  
 16 04 02 12 51 26.2000000  0  2G09G29                                          
  23755701.46949 124837052.12149     -7230.82849        50.000  
  22435181.04749 117897671.75449     -4883.01649        50.000  
 16 04 02 12 51 26.3000000  0  2G09G29                                          
  23755839.10949 124837775.42249     -7235.93049        50.000  
  22435274.00049 117898160.20349     -4886.27349        50.000  
 16 04 02 12 51 26.4000000  0  2G09G29                                          
  23755976.85249 124838499.27049     -7241.50449        50.000  
  22435367.02349 117898649.03549     -4890.16449        50.000  
 16 04 02 12 51 26.5000000  0  2G09G29                                          
  23756114.69549 124839223.66049     -7246.98049        50.000  
  22435460.10949 117899138.23449     -4893.90649        50.000  
 16 04 02 12 51 26.6000000  0  2G09G29                                          
  23756252.64849 124839948.60949     -7252.35549        50.000  
  22435553.27349 117899627.80549     -4897.53549        50.000  
 16 04 02 12 51 26.7000000  0  2G09G29                                          
  23756390.68849 124840674.03949     -7257.17649        50.000  
  22435646.50049 117900117.68049     -4900.44549        50.000  
 16 04 02 12 51 26.8000000  0  2G09G29                                          
  23756528.83649 124841400.02349     -7262.85249        50.000  
  22435739.79749 117900607.93849     -4904.41449        50.000  
 16 04 02 12 51 26.9000000  0  2G09G29                                          
  23756667.10949 124842126.61349     -7268.73449        50.000  
  22435833.17249 117901098.62149     -4908.59449        50.000  
 16 04 02 12 51 27.0000000  0  2G09G29                                          
  23756805.46949 124842853.69949     -7273.98849        50.000  
  22435926.60249 117901589.61749     -4911.96949        50.000  
 16 04 02 12 51 27.1000000  0  2G09G29                                          
  23756943.93849 124843581.34049     -7279.36749        50.000  
  22436020.10949 117902080.99649     -4915.66849        50.000  
 16 04 02 12 51 27.2000000  0  2G09G29                                          
  23757082.49249 124844309.47749     -7284.48449        50.000  
  22436113.68049 117902572.69149     -4918.87149        50.000  
 16 04 02 12 51 27.3000000  0  2G09G29                                          
  23757221.16449 124845038.18849     -7290.12549        50.000  
  22436207.32049 117903064.78549     -4922.80949        50.000  
 16 04 02 12 51 27.4000000  0  2G09G29                                          
  23757359.94549 124845767.48449     -7295.91849        50.000  
  22436301.04749 117903557.27749     -4926.77049        50.000  
 16 04 02 12 51 27.5000000  0  2G09G29                                          
  23757498.82049 124846497.28949     -7301.10949        50.000  
  22436394.82849 117904050.10249     -4930.15249        50.000  
 16 04 02 12 51 27.6000000  0  2G09G29                                          
  23757637.80549 124847227.65249     -7306.57449        50.000  
  22436488.68849 117904543.32049     -4934.03949        50.000  
 16 04 02 12 51 27.7000000  0  2G09G29                                          
  23757776.88349 124847958.53549     -7311.98449        50.000  
  22436582.60949 117905036.87949     -4937.47749        50.000  
 16 04 02 12 51 27.8000000  0  2G09G29                                          
  23757916.07049 124848689.97749     -7317.19949        50.000  
  22436676.59449 117905530.79349     -4940.84049        50.000  
 16 04 02 12 51 27.9000000  0  2G09G29                                          
  23758055.34449 124849421.88349     -7322.07049        50.000  
  22436770.64849 117906025.02349     -4943.99249        50.000  
 16 04 02 12 51 28.0000000  0  2G09G29                                          
  23758194.75049 124850154.43049     -7328.30149        50.000  
  22436864.77349 117906519.70749     -4948.53949        50.000  
 16 04 02 12 51 28.1000000  0  2G09G29                                          
  23758334.22749 124850887.41849     -7332.78949        50.000  
  22436958.96149 117907014.64849     -4951.37149        50.000  
 16 04 02 12 51 28.2000000  0  2G09G29                                          
  23758473.81249 124851620.92249     -7337.95349        50.000  
  22437053.21149 117907509.93449     -4954.53549        50.000  
 16 04 02 12 51 28.3000000  0  2G09G29                                          
  23758613.49249 124852354.98849     -7343.76649        50.000  
  22437147.53949 117908005.61349     -4958.64549        50.000  
 16 04 02 12 51 28.4000000  0  2G09G29                                          
  23758753.29749 124853089.64549     -7349.51649        50.000  
  22437241.93849 117908501.68449     -4962.51249        50.000  
 16 04 02 12 51 28.5000000  0  2G09G29                                          
  23758893.18849 124853824.77349     -7354.23049        50.000  
  22437336.39149 117908998.06649     -4965.74649        50.000  
 16 04 02 12 51 28.6000000  0  2G09G29                                          
  23759033.18849 124854560.47749     -7359.91049        50.000  
  22437430.92249 117909494.83649     -4969.50449        50.000  
 16 04 02 12 51 28.7000000  0  2G09G29                                          
  23759173.28149 124855296.73049     -7365.61349        50.000  
  22437525.53149 117909991.98849     -4973.47349        50.000  
 16 04 02 12 51 28.8000000  0  2G09G29                                          
  23759313.50049 124856033.56649     -7371.34849        50.000  
  22437620.21149 117910489.53949     -4977.46149        50.000  
 16 04 02 12 51 28.9000000  0  2G09G29                                          
  23759453.79749 124856770.86749     -7376.06249        50.000  
  22437714.94549 117910987.36749     -4980.21149        50.000  
 16 04 02 12 51 29.0000000  0  2G09G29                                          
  23759594.20349 124857508.68449     -7381.03549        50.000  
  22437809.75049 117911485.54749     -4983.49649        50.000  
 16 04 02 12 51 29.1000000  0  2G09G29                                          
  23759734.71949 124858247.06649     -7386.53149        50.000  
  22437904.62549 117911984.10949     -4987.20349        50.000  
 16 04 02 12 51 29.2000000  0  2G09G29                                          
  23759875.32049 124858985.92649     -7391.88749        50.000  
  22437999.54749 117912482.96949     -4990.56249        50.000  
 16 04 02 12 51 29.3000000  0  2G09G29                                          
  23760016.03149 124859725.37549     -7397.59449        50.000  
  22438094.55549 117912982.26249     -4994.82849        50.000  
 16 04 02 12 51 29.4000000  0  2G09G29                                          
  23760156.85249 124860465.39149     -7403.26249        50.000  
  22438189.64149 117913481.91849     -4998.56649        50.000  
 16 04 02 12 51 29.5000000  0  2G09G29                                          
  23760297.77349 124861205.93449     -7408.43449        50.000  
  22438284.79749 117913981.93449     -5001.98849        50.000  
 16 04 02 12 51 29.6000000  0  2G09G29                                          
  23760438.79749 124861946.99649     -7413.62149        50.000  
  22438380.01649 117914482.28949     -5005.28949        50.000  
 16 04 02 12 51 29.7000000  0  2G09G29                                          
  23760579.90649 124862688.59449     -7418.68449        50.000  
  22438475.29749 117914983.00049     -5008.68849        50.000  
 16 04 02 12 51 29.8000000  0  2G09G29                                          
  23760721.13349 124863430.71949     -7424.29349        50.000  
  22438570.65649 117915484.07049     -5012.55549        50.000  
 16 04 02 12 51 29.9000000  0  2G09G29                                          
  23760862.46149 124864173.41449     -7430.18449        50.000  
  22438666.07849 117915985.52049     -5016.43849        50.000  
 16 04 02 12 51 30.0000000  0  2G09G29                                          
  23761003.89149 124864916.64149     -7435.20749        50.000  
  22438761.57049 117916487.35249     -5020.05549        50.000  
 16 04 02 12 51 30.1000000  0  2G09G29                                          
  23761145.41449 124865660.32049     -7439.58249        50.000  
  22438857.11749 117916989.42249     -5022.45349        50.000  
 16 04 02 12 51 30.2000000  0  2G09G29                                          
  23761287.03149 124866404.53949     -7445.09849        50.000  
  22438952.72749 117917491.88349     -5026.24249        50.000  
 16 04 02 12 51 30.3000000  0  2G09G29                                          
  23761428.75049 124867149.28549     -7450.24649        50.000  
  22439048.40649 117917994.68449     -5029.77349        50.000  
 16 04 02 12 51 30.4000000  0  2G09G29                                          
  23761570.57849 124867894.60949     -7456.01649        50.000  
  22439144.16449 117918497.87149     -5033.58249        50.000  
 16 04 02 12 51 30.5000000  0  2G09G29                                          
  23761712.50049 124868640.40249     -7460.92649        50.000  
  22439239.96949 117919001.36349     -5036.77749        50.000  
 16 04 02 12 51 30.6000000  0  2G09G29                                          
  23761854.53149 124869386.77749     -7466.80949        50.000  
  22439335.86749 117919505.26649     -5040.87949        50.000  
 16 04 02 12 51 30.7000000  0  2G09G29                                          
  23761996.67249 124870133.69549     -7472.18449        50.000  
  22439431.82849 117920009.53149     -5044.53149        50.000  
 16 04 02 12 51 30.8000000  0  2G09G29                                          
  23762138.90649 124870881.14849     -7477.68849        50.000  
  22439527.85249 117920514.14549     -5048.11349        50.000  
 16 04 02 12 51 30.9000000  0  2G09G29                                          
  23762281.25849 124871629.19949     -7483.37949        50.000  
  22439623.95349 117921019.18049     -5052.10549        50.000  
 16 04 02 12 51 31.0000000  0  2G09G29                                          
  23762423.69549 124872377.72749     -7488.37149        50.000  
  22439720.11749 117921524.53149     -5055.46949        50.000  
 16 04 02 12 51 31.1000000  0  2G09G29                                          
  23762566.25049 124873126.87149     -7494.60249        50.000  
  22439816.35949 117922030.30149     -5059.68049        50.000  
 16 04 02 12 51 31.2000000  0  2G09G29                                          
  23762708.90649 124873876.55549     -7499.65249        50.000  
  22439912.67249 117922536.44549     -5063.09049        50.000  
 16 04 02 12 51 31.3000000  0  2G09G29                                          
  23762851.68049 124874626.78549     -7505.53149        50.000  
  22440009.06249 117923042.96149     -5067.24649        50.000  
 16 04 02 12 51 31.4000000  0  2G09G29                                          
  23762994.54749 124875377.55549     -7510.43049        50.000  
  22440105.51649 117923549.83649     -5070.43449        50.000  
 16 04 02 12 51 31.5000000  0  2G09G29                                          
  23763137.51649 124876128.83649     -7515.91849        50.000  
  22440202.03949 117924057.03549     -5074.00849        50.000  
 16 04 02 12 51 31.6000000  0  2G09G29                                          
  23763280.58649 124876880.68049     -7521.30949        50.000  
  22440298.63349 117924564.63349     -5077.70749        50.000  
 16 04 02 12 51 31.7000000  0  2G09G29                                          
  23763423.74249 124877633.02749     -7526.61349        50.000  
  22440395.28949 117925072.56249     -5081.31249        50.000  
 16 04 02 12 51 31.8000000  0  2G09G29                                          
  23763567.01649 124878385.90249     -7531.51649        50.000  
  22440492.00049 117925580.82449     -5084.38349        50.000  
 16 04 02 12 51 31.9000000  0  2G09G29                                          
  23763710.38349 124879139.27749     -7536.66849        50.000  
  22440588.78149 117926089.41449     -5087.74249        50.000  
 16 04 02 12 51 32.0000000  0  2G09G29                                          
  23763853.85249 124879893.19949     -7542.15649        50.000  
  22440685.64149 117926598.37949     -5091.40649        50.000  
 16 04 02 12 51 32.1000000  0  2G09G29                                          
  23763997.43049 124880647.70749     -7548.07849        50.000  
  22440782.57049 117927107.74649     -5095.55949        50.000  
 16 04 02 12 51 32.2000000  0  2G09G29                                          
  23764141.10249 124881402.71149     -7553.00049        50.000  
  22440879.56249 117927617.43449     -5098.63749        50.000  
 16 04 02 12 51 32.3000000  0  2G09G29                                          
  23764284.87549 124882158.23849     -7558.32049        50.000  
  22440976.61749 117928127.47749     -5102.31649        50.000  
 16 04 02 12 51 32.4000000  0  2G09G29                                          
  23764428.75049 124882914.29749     -7563.68049        50.000  
  22441073.74249 117928637.87149     -5105.87149        50.000  
 16 04 02 12 51 32.5000000  0  2G09G29                                          
  23764572.73449 124883670.94149     -7569.14549        50.000  
  22441170.94549 117929148.66849     -5109.56249        50.000  
 16 04 02 12 51 32.6000000  0  2G09G29                                          
  23764716.81249 124884428.08249     -7574.50849        50.000  
  22441268.21149 117929659.78949     -5113.13349        50.000  
 16 04 02 12 51 32.7000000  0  2G09G29                                          
  23764861.00849 124885185.82449     -7580.53149        50.000  
  22441365.55549 117930171.33649     -5117.43049        50.000  
 16 04 02 12 51 32.8000000  0  2G09G29                                          
  23765005.30549 124885944.11349     -7585.84049        50.000  
  22441462.96949 117930683.25049     -5121.01649        50.000  
 16 04 02 12 51 32.9000000  0  2G09G29                                          
  23765149.70349 124886702.94549     -7591.50049        50.000  
  22441560.45349 117931195.52049     -5124.73849        50.000  
 16 04 02 12 51 33.0000000  0  2G09G29                                          
  23765294.20349 124887462.29349     -7596.35549        50.000  
  22441658.00049 117931708.14149     -5128.00449        50.000  
 16 04 02 12 51 33.1000000  0  2G09G29                                          
  23765438.80549 124888222.16849     -7601.58249        50.000  
  22441755.61749 117932221.11349     -5131.48849        50.000  
 16 04 02 12 51 33.2000000  0  2G09G29                                          
  23765583.49249 124888982.51649     -7606.44949        50.000  
  22441853.28149 117932734.38349     -5134.55549        50.000  
 16 04 02 12 51 33.3000000  0  2G09G29                                          
  23765728.30549 124889743.48449     -7612.66849        50.000  
  22441951.03949 117933248.07449     -5138.70749        50.000  
 16 04 02 12 51 33.4000000  0  2G09G29                                          
  23765873.21149 124890504.99249     -7618.13749        50.000  
  22442048.85949 117933762.14849     -5142.54349        50.000  
 16 04 02 12 51 33.5000000  0  2G09G29                                          
  23766018.21949 124891266.97749     -7622.67249        50.000  
  22442146.74249 117934276.52349     -5145.40649        50.000  
 16 04 02 12 51 33.6000000  0  2G09G29                                          
  23766163.32049 124892029.50049     -7628.06649        50.000  
  22442244.68849 117934791.26249     -5149.12949        50.000  
 16 04 02 12 51 33.7000000  0  2G09G29                                          
  23766308.53149 124892792.58649     -7633.66849        50.000  
  22442342.71149 117935306.36349     -5152.75849        50.000  
 16 04 02 12 51 33.8000000  0  2G09G29                                          
  23766453.83649 124893556.19149     -7638.98449        50.000  
  22442440.80549 117935821.83649     -5156.50449        50.000  
 16 04 02 12 51 33.9000000  0  2G09G29                                          
  23766599.25849 124894320.37949     -7645.04349        50.000  
  22442538.96949 117936337.69149     -5160.57449        50.000  
 16 04 02 12 51 34.0000000  0  2G09G29                                          
  23766744.76649 124895085.05949     -7649.58649        50.000  
  22442637.19549 117936853.87949     -5163.55949        50.000  
 16 04 02 12 51 34.1000000  0  2G09G29                                          
  23766890.37549 124895850.21949     -7654.75849        50.000  
  22442735.47749 117937370.36349     -5166.80549        50.000  
 16 04 02 12 51 34.2000000  0  2G09G29                                          
  23767036.09449 124896615.96549     -7660.28949        50.000  
  22442833.83649 117937887.26249     -5170.77349        50.000  
 16 04 02 12 51 34.3000000  0  2G09G29                                          
  23767181.90649 124897382.23849     -7665.76249        50.000  
  22442932.26649 117938404.50449     -5174.28549        50.000  
 16 04 02 12 51 34.4000000  0  2G09G29                                          
  23767327.82849 124898149.04749     -7671.19149        50.000  
  22443030.75849 117938922.11349     -5177.99649        50.000  
 16 04 02 12 51 34.5000000  0  2G09G29                                          
  23767473.85249 124898916.41849     -7676.77349        50.000  
  22443129.32849 117939440.09449     -5181.76649        50.000  
 16 04 02 12 51 34.6000000  0  2G09G29                                          
  23767619.96949 124899684.27749     -7681.62149        50.000  
  22443227.95349 117939958.40249     -5184.87949        50.000  
 16 04 02 12 51 34.7000000  0  2G09G29                                          
  23767766.20349 124900452.71149     -7687.09449        50.000  
  22443326.65649 117940477.09449     -5188.59049        50.000  
 16 04 02 12 51 34.8000000  0  2G09G29                                          
  23767912.53149 124901221.67649     -7692.75849        50.000  
  22443425.43049 117940996.15249     -5192.49249        50.000  
 16 04 02 12 51 34.9000000  0  2G09G29                                          
  23768058.96949 124901991.21149     -7698.20749        50.000  
  22443524.27349 117941515.59449     -5196.16449        50.000  
 16 04 02 12 51 35.0000000  0  2G09G29                                          
  23768205.49249 124902761.19549     -7702.80149        50.000  
  22443623.18049 117942035.31649     -5198.95749        50.000  
 16 04 02 12 51 35.1000000  0  2G09G29                                          
  23768352.13349 124903531.81249     -7709.08649        50.000  
  22443722.16449 117942555.48449     -5203.53949        50.000  
 16 04 02 12 51 35.2000000  0  2G09G29                                          
  23768498.88349 124904302.98449     -7714.96149        50.000  
  22443821.22749 117943076.03549     -5207.62149        50.000  
 16 04 02 12 51 35.3000000  0  2G09G29                                          
  23768645.72749 124905074.69149     -7720.06649        50.000  
  22443920.35249 117943596.95349     -5210.94149        50.000  
 16 04 02 12 51 35.4000000  0  2G09G29                                          
  23768792.68049 124905846.91849     -7725.21549        50.000  
  22444019.53949 117944118.21149     -5214.36749        50.000  
 16 04 02 12 51 35.5000000  0  2G09G29                                          
  23768939.72749 124906619.66049     -7730.35249        50.000  
  22444118.79749 117944639.79749     -5217.64849        50.000  
 16 04 02 12 51 35.6000000  0  2G09G29                                          
  23769086.88349 124907392.94549     -7735.70349        50.000  
  22444218.12549 117945161.76249     -5221.30149        50.000  
 16 04 02 12 51 35.7000000  0  2G09G29                                          
  23769234.14849 124908166.81249     -7741.73449        50.000  
  22444317.53149 117945684.13349     -5225.70749        50.000  
 16 04 02 12 51 35.8000000  0  2G09G29                                          
  23769381.51649 124908941.22349     -7747.00849        50.000  
  22444417.00049 117946206.85949     -5229.16849        50.000  
 16 04 02 12 51 35.9000000  0  2G09G29                                          
  23769528.97749 124909716.16849     -7752.75049        50.000  
  22444516.53949 117946729.94549     -5232.99249        50.000  
 16 04 02 12 51 36.0000000  0  2G09G29                                          
  23769676.55549 124910491.71149     -7758.63349        50.000  
  22444616.16449 117947253.46149     -5237.15649        50.000  
 16 04 02 12 51 36.1000000  0  2G09G29                                          
  23769824.24249 124911267.75849     -7763.33649        50.000  
  22444715.84449 117947777.30149     -5240.21949        50.000  
 16 04 02 12 51 36.2000000  0  2G09G29                                          
  23769972.02349 124912044.37149     -7768.94149        50.000  
  22444815.60249 117948301.52349     -5244.00049        50.000  
 16 04 02 12 51 36.3000000  0  2G09G29                                          
  23770119.90649 124912821.46549     -7773.97349        50.000  
  22444915.41449 117948826.05549     -5247.12949        50.000  
 16 04 02 12 51 36.4000000  0  2G09G29                                          
  23770267.88349 124913599.09449     -7779.11349        50.000  
  22445015.29749 117949350.94949     -5250.55149        50.000  
 16 04 02 12 51 36.5000000  0  2G09G29                                          
  23770415.96949 124914377.25849     -7784.65249        50.000  
  22445115.25049 117949876.20349     -5254.37149        50.000  
 16 04 02 12 51 36.6000000  0  2G09G29                                          
  23770564.15649 124915156.00049     -7790.28949        50.000  
  22445215.28149 117950401.85949     -5258.35249        50.000  
 16 04 02 12 51 36.7000000  0  2G09G29                                          
  23770712.45349 124915935.25449     -7795.63349        50.000  
  22445315.37549 117950927.84449     -5261.80949        50.000  
 16 04 02 12 51 36.8000000  0  2G09G29                                          
  23770860.83649 124916715.01249     -7800.46149        50.000  
  22445415.53149 117951454.15649     -5264.93449        50.000  
 16 04 02 12 51 36.9000000  0  2G09G29                                          
  23771009.32849 124917495.32849     -7806.19549        50.000  
  22445515.75849 117951980.85549     -5268.89849        50.000  
 16 04 02 12 51 37.0000000  0  2G09G29                                          
  23771157.91449 124918276.16849     -7811.21149        50.000  
  22445616.05549 117952507.90649     -5272.18449        50.000  
 16 04 02 12 51 37.1000000  0  2G09G29                                          
  23771306.60249 124919057.52749     -7816.58649        50.000  
  22445716.41449 117953035.28949     -5275.72349        50.000  
 16 04 02 12 51 37.2000000  0  2G09G29                                          
  23771455.38349 124919839.38749     -7821.49249        50.000  
  22445816.82849 117953562.98849     -5278.77049        50.000  
 16 04 02 12 51 37.3000000  0  2G09G29                                          
  23771604.27349 124920621.79749     -7827.15249        50.000  
  22445917.32049 117954091.08649     -5282.73449        50.000  
 16 04 02 12 51 37.4000000  0  2G09G29                                          
  23771753.27349 124921404.78549     -7832.78549        50.000  
  22446017.89149 117954619.56649     -5286.62949        50.000  
 16 04 02 12 51 37.5000000  0  2G09G29                                          
  23771902.36749 124922188.28549     -7838.01249        50.000  
  22446118.52349 117955148.39549     -5290.18449        50.000  
 16 04 02 12 51 37.6000000  0  2G09G29                                          
  23772051.57049 124922972.32449     -7843.25049        50.000  
  22446219.22749 117955677.58249     -5293.71549        50.000  
 16 04 02 12 51 37.7000000  0  2G09G29                                          
  23772200.86749 124923756.91449     -7849.01249        50.000  
  22446320.00049 117956207.14149     -5297.57449        50.000  
 16 04 02 12 51 37.8000000  0  2G09G29                                          
  23772350.27349 124924542.06249     -7854.46149        50.000  
  22446420.84449 117956737.08249     -5301.27049        50.000  
 16 04 02 12 51 37.9000000  0  2G09G29                                          
  23772499.79749 124925327.77349     -7860.21549        50.000  
  22446521.76649 117957267.41449     -5305.26649        50.000  
 16 04 02 12 51 38.0000000  0  2G09G29                                          
  23772649.40649 124926114.00049     -7865.12149        50.000  
  22446622.74249 117957798.08249     -5308.47349        50.000  
 16 04 02 12 51 38.1000000  0  2G09G29                                          
  23772799.11749 124926900.73049     -7870.28549        50.000  
  22446723.78949 117958329.07849     -5311.84049        50.000  
 16 04 02 12 51 38.2000000  0  2G09G29                                          
  23772948.93849 124927688.06249     -7876.29749        50.000  
  22446824.91449 117958860.49649     -5316.01649        50.000  
 16 04 02 12 51 38.3000000  0  2G09G29                                          
  23773098.85249 124928475.87149     -7881.17249        50.000  
  22446926.10249 117959392.21949     -5319.12549        50.000  
 16 04 02 12 51 38.4000000  0  2G09G29                                          
  23773248.87549 124929264.24649     -7886.62149        50.000  
  22447027.35249 117959924.34049     -5323.00449        50.000  
 16 04 02 12 51 38.5000000  0  2G09G29                                          
  23773398.99249 124930053.12949     -7891.66849        50.000  
  22447128.67249 117960456.77349     -5326.16849        50.000  
 16 04 02 12 51 38.6000000  0  2G09G29                                          
  23773549.21949 124930842.56649     -7897.21549        50.000  
  22447230.06249 117960989.59449     -5329.91049        50.000  
 16 04 02 12 51 38.7000000  0  2G09G29                                          
  23773699.54749 124931632.50449     -7902.40649        50.000  
  22447331.52349 117961522.74649     -5333.41049        50.000  
 16 04 02 12 51 38.8000000  0  2G09G29                                          
  23773849.97749 124932423.03149     -7908.44949        50.000  
  22447433.05549 117962056.30149     -5337.48049        50.000  
 16 04 02 12 51 38.9000000  0  2G09G29                                          
  23774000.50849 124933214.09049     -7913.44149        50.000  
  22447534.65649 117962590.22749     -5341.01249        50.000  
 16 04 02 12 51 39.0000000  0  2G09G29                                          
  23774151.14149 124934005.67249     -7918.79349        50.000  
  22447636.32849 117963124.48049     -5344.43049        50.000  
 16 04 02 12 51 39.1000000  0  2G09G29                                          
  23774301.87549 124934797.79749     -7924.34849        50.000  
  22447738.06249 117963659.10549     -5348.22749        50.000  
 16 04 02 12 51 39.2000000  0  2G09G29                                          
  23774452.71949 124935590.47749     -7929.43049        50.000  
  22447839.87549 117964194.12149     -5351.65249        50.000  
 16 04 02 12 51 39.3000000  0  2G09G29                                          
  23774603.64849 124936383.59049     -7934.04349        50.000  
  22447941.73449 117964729.38349     -5354.43049        50.000  
 16 04 02 12 51 39.4000000  0  2G09G29                                          
  23774754.68049 124937177.27049     -7939.91049        50.000  
  22448043.67249 117965265.03149     -5358.34449        50.000  
 16 04 02 12 51 39.5000000  0  2G09G29                                          
  23774905.83649 124937971.59849     -7946.17649        50.000  
  22448145.68849 117965801.16049     -5363.03949        50.000  
 16 04 02 12 51 39.6000000  0  2G09G29                                          
  23775057.08649 124938766.41849     -7951.30549        50.000  
  22448247.78149 117966337.61349     -5366.49249        50.000  
 16 04 02 12 51 39.7000000  0  2G09G29                                          
  23775208.43049 124939561.73849     -7956.08249        50.000  
  22448349.92249 117966874.37949     -5369.39849        50.000  
 16 04 02 12 51 39.8000000  0  2G09G29                                          
  23775359.86749 124940357.56649     -7961.23849        50.000  
  22448452.12549 117967411.47749     -5372.81649        50.000  
 16 04 02 12 51 39.9000000  0  2G09G29                                          
  23775511.42249 124941153.97349     -7966.85949        50.000  
  22448554.41449 117967948.98449     -5376.74249        50.000  
 16 04 02 12 51 40.0000000  0  2G09G29                                          
  23775663.07049 124941950.87149     -7972.00049        50.000  
  22448656.75849 117968486.80549     -5380.09049        50.000  
 16 04 02 12 51 40.1000000  0  2G09G29                                          
  23775814.82049 124942748.30949     -7977.33649        50.000  
  22448759.17249 117969024.99249     -5383.70349        50.000  
 16 04 02 12 51 40.2000000  0  2G09G29                                          
  23775966.66449 124943546.26649     -7982.41849        50.000  
  22448861.65649 117969563.51249     -5386.96149        50.000  
 16 04 02 12 51 40.3000000  0  2G09G29                                          
  23776118.61749 124944344.78949     -7988.18849        50.000  
  22448964.20349 117970102.42649     -5390.98049        50.000  
 16 04 02 12 51 40.4000000  0  2G09G29                                          
  23776270.67249 124945143.83249     -7993.44149        50.000  
  22449066.82849 117970641.69549     -5394.56649        50.000  
 16 04 02 12 51 40.5000000  0  2G09G29                                          
  23776422.83649 124945943.44149     -7999.12149        50.000  
  22449169.51649 117971181.33649     -5398.24249        50.000  
 16 04 02 12 51 40.6000000  0  2G09G29                                          
  23776575.10249 124946743.60949     -8004.66849        50.000  
  22449272.28149 117971721.36749     -5402.06249        50.000  
 16 04 02 12 51 40.7000000  0  2G09G29                                          
  23776727.47749 124947544.30149     -8009.83249        50.000  
  22449375.10949 117972261.75449     -5405.71149        50.000  
 16 04 02 12 51 40.8000000  0  2G09G29                                          
  23776879.93049 124948345.47749     -8014.83649        50.000  
  22449478.00049 117972802.44549     -5408.78949        50.000  
 16 04 02 12 51 40.9000000  0  2G09G29                                          
  23777032.50849 124949147.25049     -8020.74649        50.000  
  22449580.96949 117973343.55549     -5413.02049        50.000  
 16 04 02 12 51 41.0000000  0  2G09G29                                          
  23777185.18849 124949949.59849     -8026.50049        50.000  
  22449684.00849 117973885.06249     -5417.08249        50.000  
 16 04 02 12 51 41.1000000  0  2G09G29                                          
  23777337.95349 124950752.41049     -8031.20349        50.000  
  22449787.10949 117974426.86349     -5419.87149        50.000  
 16 04 02 12 51 41.2000000  0  2G09G29                                          
  23777490.82849 124951555.75849     -8036.41449        50.000  
  22449890.28149 117974969.02349     -5423.36749        50.000  
 16 04 02 12 51 41.3000000  0  2G09G29                                          
  23777643.80549 124952359.64549     -8041.65249        50.000  
  22449993.51649 117975511.55149     -5426.94949        50.000  
 16 04 02 12 51 41.4000000  0  2G09G29                                          
  23777796.87549 124953164.04749     -8046.84049        50.000  
  22450096.82049 117976054.41049     -5430.49649        50.000  
 16 04 02 12 51 41.5000000  0  2G09G29                                          
  23777950.04749 124953968.95749     -8052.05549        50.000  
  22450200.18849 117976597.60249     -5433.68449        50.000  
 16 04 02 12 51 41.6000000  0  2G09G29                                          
  23778103.32049 124954774.41049     -8057.43849        50.000  
  22450303.62549 117977141.16049     -5437.43049        50.000  
 16 04 02 12 51 41.7000000  0  2G09G29                                          
  23778256.69549 124955580.40249     -8062.96549        50.000  
  22450407.13349 117977685.08249     -5441.05149        50.000  
 16 04 02 12 51 41.8000000  0  2G09G29                                          
  23778410.18049 124956386.96949     -8068.96149        50.000  
  22450510.71149 117978229.41449     -5445.37949        50.000  
 16 04 02 12 51 41.9000000  0  2G09G29                                          
  23778563.77349 124957194.07849     -8074.13349        50.000  
  22450614.36749 117978774.10249     -5448.79749        50.000  
 16 04 02 12 51 42.0000000  0  2G09G29                                          
  23778717.45349 124958001.70349     -8079.07049        50.000  
  22450718.07849 117979319.12949     -5452.06249        50.000  
 16 04 02 12 51 42.1000000  0  2G09G29                                          
  23778871.24249 124958809.84849     -8084.42249        50.000  
  22450821.85949 117979864.50449     -5455.55549        50.000  
 16 04 02 12 51 42.2000000  0  2G09G29                                          
  23779025.13349 124959618.55149     -8090.00049        50.000  
  22450925.71149 117980410.26249     -5459.36349        50.000  
 16 04 02 12 51 42.3000000  0  2G09G29                                          
  23779179.13349 124960427.81649     -8095.50849        50.000  
  22451029.64149 117980956.41049     -5463.25849        50.000  
 16 04 02 12 51 42.4000000  0  2G09G29                                          
  23779333.23449 124961237.59849     -8100.85949        50.000  
  22451133.63349 117981502.88749     -5466.73049        50.000  
 16 04 02 12 51 42.5000000  0  2G09G29                                          
  23779487.42249 124962047.87549     -8105.70349        50.000  
  22451237.68849 117982049.69549     -5469.87549        50.000  
 16 04 02 12 51 42.6000000  0  2G09G29                                          
  23779641.71949 124962858.70349     -8111.16849        50.000  
  22451341.81249 117982596.88349     -5473.62949        50.000  
 16 04 02 12 51 42.7000000  0  2G09G29                                          
  23779796.11749 124963670.06649     -8116.74649        50.000  
  22451446.00849 117983144.41849     -5477.23449        50.000  
 16 04 02 12 51 42.8000000  0  2G09G29                                          
  23779950.60949 124964481.94549     -8121.65249        50.000  
  22451550.26649 117983692.29349     -5480.55149        50.000  
 16 04 02 12 51 42.9000000  0  2G09G29                                          
  23780105.21149 124965294.35949     -8127.30149        50.000  
  22451654.59449 117984240.55149     -5484.39149        50.000  
 16 04 02 12 51 43.0000000  0  2G09G29                                          
  23780259.92249 124966107.36749     -8132.99249        50.000  
  22451759.00049 117984789.19949     -5488.30949        50.000  
 16 04 02 12 51 43.1000000  0  2G09G29                                          
  23780414.72749 124966920.87949     -8138.09049        50.000  
  22451863.46949 117985338.18849     -5491.73049        50.000  
 16 04 02 12 51 43.2000000  0  2G09G29                                          
  23780569.63349 124967734.89549     -8143.33249        50.000  
  22451968.00049 117985887.49649     -5495.10949        50.000  
 16 04 02 12 51 43.3000000  0  2G09G29                                          
  23780724.64849 124968549.50849     -8148.85549        50.000  
  22452072.61749 117986437.24649     -5499.23049        50.000  
 16 04 02 12 51 43.4000000  0  2G09G29                                          
  23780879.75049 124969364.58649     -8153.74649        50.000  
  22452177.28149 117986987.26649     -5502.00449        50.000  
 16 04 02 12 51 43.5000000  0  2G09G29                                          
  23781034.96149 124970180.21949     -8159.40649        50.000  
  22452282.02349 117987537.67249     -5505.93449        50.000  
 16 04 02 12 51 43.6000000  0  2G09G29                                          
  23781190.27349 124970996.39549     -8164.62949        50.000  
  22452386.82849 117988088.44149     -5509.41049        50.000  
 16 04 02 12 51 43.7000000  0  2G09G29                                          
  23781345.68849 124971813.05949     -8169.56249        50.000  
  22452491.70349 117988639.54349     -5512.82849        50.000  
 16 04 02 12 51 43.8000000  0  2G09G29                                          
  23781501.18849 124972630.25849     -8174.78949        50.000  
  22452596.63349 117989190.97349     -5516.19149        50.000  
 16 04 02 12 51 43.9000000  0  2G09G29                                          
  23781656.80549 124973448.02349     -8180.65649        50.000  
  22452701.64849 117989742.81249     -5520.29349        50.000  
 16 04 02 12 51 44.0000000  0  2G09G29                                          
  23781812.53149 124974266.34849     -8186.37949        50.000  
  22452806.73449 117990295.04349     -5524.15649        50.000  
 16 04 02 12 51 44.1000000  0  2G09G29                                          
  23781968.35249 124975085.17249     -8191.01649        50.000  
  22452911.88349 117990847.59049     -5527.19549        50.000  
 16 04 02 12 51 44.2000000  0  2G09G29                                          
  23782124.26649 124975904.50849     -8196.28149        50.000  
  22453017.09449 117991400.46949     -5530.49649        50.000  
 16 04 02 12 51 44.3000000  0  2G09G29                                          
  23782280.28949 124976724.40649     -8201.87949        50.000  
  22453122.37549 117991953.73849     -5534.39149        50.000  
 16 04 02 12 51 44.4000000  0  2G09G29                                          
  23782436.40649 124977544.82049     -8207.18849        50.000  
  22453227.72749 117992507.35249     -5538.00449        50.000  
 16 04 02 12 51 44.5000000  0  2G09G29                                          
  23782592.64149 124978365.83649     -8212.82849        50.000  
  22453333.15649 117993061.38349     -5541.92649        50.000  
 16 04 02 12 51 44.6000000  0  2G09G29                                          
  23782748.95349 124979187.29349     -8217.71549        50.000  
  22453438.63349 117993615.68849     -5544.96949        50.000  
 16 04 02 12 51 44.7000000  0  2G09G29                                          
  23782905.39149 124980009.34449     -8223.46149        50.000  
  22453544.19549 117994170.41049     -5549.02349        50.000  
 16 04 02 12 51 44.8000000  0  2G09G29                                          
  23783061.92249 124980831.93449     -8228.81649        50.000  
  22453649.82049 117994725.49649     -5552.66849        50.000  
 16 04 02 12 51 44.9000000  0  2G09G29                                          
  23783218.55549 124981655.05549     -8234.16849        50.000  
  22453755.51649 117995280.93849     -5556.24249        50.000  
 16 04 02 12 51 45.0000000  0  2G09G29                                          
  23783375.28149 124982478.66449     -8238.88749        50.000  
  22453861.27349 117995836.68849     -5559.21149        50.000  
 16 04 02 12 51 45.1000000  0  2G09G29                                          
  23783532.11749 124983302.82849     -8244.87949        50.000  
  22453967.10249 117996392.82049     -5563.37949        50.000  
 16 04 02 12 51 45.2000000  0  2G09G29                                          
  23783689.05549 124984127.55549     -8250.14849        50.000  
  22454073.00849 117996949.34849     -5567.02749        50.000  
 16 04 02 12 51 45.3000000  0  2G09G29                                          
  23783846.09449 124984952.80149     -8255.66849        50.000  
  22454178.97749 117997506.22349     -5570.69549        50.000  
 16 04 02 12 51 45.4000000  0  2G09G29                                          
  23784003.25049 124985778.66449     -8261.50849        50.000  
  22454285.02349 117998063.51649     -5574.75849        50.000  
 16 04 02 12 51 45.5000000  0  2G09G29                                          
  23784160.49249 124986604.99649     -8266.28149        50.000  
  22454391.13349 117998621.12149     -5577.96549        50.000  
 16 04 02 12 51 45.6000000  0  2G09G29                                          
  23784317.83649 124987431.82449     -8271.32049        50.000  
  22454497.30549 117999179.04749     -5581.12949        50.000  
 16 04 02 12 51 45.7000000  0  2G09G29                                          
  23784475.28949 124988259.27749     -8277.40649        50.000  
  22454603.55549 117999737.42249     -5585.43049        50.000  
 16 04 02 12 51 45.8000000  0  2G09G29                                          
  23784632.85249 124989087.25049     -8282.77349        50.000  
  22454709.86749 118000296.13349     -5589.12149        50.000  
 16 04 02 12 51 45.9000000  0  2G09G29                                          
  23784790.50049 124989915.72349     -8287.50849        50.000  
  22454816.25849 118000855.18849     -5592.16449        50.000  
 16 04 02 12 51 46.0000000  0  2G09G29                                          
  23784948.26649 124990744.75849     -8293.16049        50.000  
  22454922.70349 118001414.60549     -5595.93849        50.000  
 16 04 02 12 51 46.1000000  0  2G09G29                                          
  23785106.12549 124991574.30949     -8298.36349        50.000  
  22455029.22749 118001974.37549     -5599.54749        50.000  
 16 04 02 12 51 46.2000000  0  2G09G29                                          
  23785264.07849 124992404.36749     -8303.36349        50.000  
  22455135.81249 118002534.47749     -5602.76249        50.000  
 16 04 02 12 51 46.3000000  0  2G09G29                                          
  23785422.14849 124993235.00849     -8309.58249        50.000  
  22455242.46949 118003094.98449     -5607.02749        50.000  
 16 04 02 12 51 46.4000000  0  2G09G29                                          
  23785580.32049 124994066.22749     -8315.37149        50.000  
  22455349.21149 118003655.90649     -5611.20349        50.000  
 16 04 02 12 51 46.5000000  0  2G09G29                                          
  23785738.60249 124994897.98849     -8320.50049        50.000  
  22455456.01649 118004217.18449     -5614.64549        50.000  
 16 04 02 12 51 46.6000000  0  2G09G29                                          
  23785896.97749 124995730.25449     -8325.69149        50.000  
  22455562.89149 118004778.80149     -5618.16449        50.000  
 16 04 02 12 51 46.7000000  0  2G09G29                                          
  23786055.46149 124996563.08649     -8331.24249        50.000  
  22455669.83649 118005340.79749     -5621.74249        50.000  
 16 04 02 12 51 46.8000000  0  2G09G29                                          
  23786214.03149 124997396.37949     -8335.92649        50.000  
  22455776.82849 118005903.08649     -5624.80949        50.000  
 16 04 02 12 51 46.9000000  0  2G09G29                                          
  23786372.71149 124998230.25849     -8341.47349        50.000  
  22455883.90649 118006465.78549     -5628.61349        50.000  
 16 04 02 12 51 47.0000000  0  2G09G29                                          
  23786531.49249 124999064.66449     -8347.26649        50.000  
  22455991.05549 118007028.84049     -5632.55549        50.000  
 16 04 02 12 51 47.1000000  0  2G09G29                                          
  23786690.37549 124999899.61349     -8352.40649        50.000  
  22456098.27349 118007592.25849     -5635.98849        50.000  
 16 04 02 12 51 47.2000000  0  2G09G29                                          
  23786849.35249 125000735.05149     -8357.42249        50.000  
  22456205.54749 118008155.99649     -5639.29349        50.000  
 16 04 02 12 51 47.3000000  0  2G09G29                                          
  23787008.43849 125001571.03949     -8362.71549        50.000  
  22456312.89149 118008720.10949     -5642.94149        50.000  
 16 04 02 12 51 47.4000000  0  2G09G29                                          
  23787167.61749 125002407.53949     -8368.03149        50.000  
  22456420.30549 118009284.55149     -5646.29349        50.000  
 16 04 02 12 51 47.5000000  0  2G09G29                                          
  23787326.89849 125003244.57049     -8373.08649        50.000  
  22456527.78149 118009849.35249     -5649.74649        50.000  
 16 04 02 12 51 47.6000000  0  2G09G29                                          
  23787486.28949 125004082.16849     -8378.95749        50.000  
  22456635.33649 118010414.53949     -5653.70749        50.000  
 16 04 02 12 51 47.7000000  0  2G09G29                                          
  23787645.78149 125004920.27049     -8384.02749        50.000  
  22456742.95349 118010980.08249     -5657.21149        50.000  
 16 04 02 12 51 47.8000000  0  2G09G29                                          
  23787805.37549 125005758.97349     -8390.21949        50.000  
  22456850.65649 118011546.01649     -5661.36749        50.000  
 16 04 02 12 51 47.9000000  0  2G09G29                                          
  23787965.07849 125006598.19149     -8395.10949        50.000  
  22456958.41449 118012112.31249     -5664.69949        50.000  
 16 04 02 12 51 48.0000000  0  2G09G29                                          
  23788124.86749 125007437.92649     -8400.18849        50.000  
  22457066.24249 118012678.94949     -5668.18049        50.000  
 16 04 02 12 51 48.1000000  0  2G09G29                                          
  23788284.76649 125008278.19549     -8405.72749        50.000  
  22457174.14149 118013245.94949     -5671.84849        50.000  
 16 04 02 12 51 48.2000000  0  2G09G29                                          
  23788444.77349 125009119.02749     -8411.35549        50.000  
  22457282.10949 118013813.32049     -5675.70749        50.000  
 16 04 02 12 51 48.3000000  0  2G09G29                                          
  23788604.88349 125009960.42249     -8416.91449        50.000  
  22457390.15649 118014381.09449     -5679.70749        50.000  
 16 04 02 12 51 48.4000000  0  2G09G29                                          
  23788765.10249 125010802.36349     -8422.60949        50.000  
  22457498.26649 118014949.23049     -5683.39549        50.000  
 16 04 02 12 51 48.5000000  0  2G09G29                                          
  23788925.41449 125011644.79349     -8427.09049        50.000  
  22457606.43849 118015517.68449     -5686.22349        50.000  
 16 04 02 12 51 48.6000000  0  2G09G29                                          
  23789085.82849 125012487.78149     -8432.91449        50.000  
  22457714.68849 118016086.52349     -5690.21149        50.000  
 16 04 02 12 51 48.7000000  0  2G09G29                                          
  23789246.34449 125013331.28949     -8437.93449        50.000  
  22457823.00049 118016655.71549     -5693.70349        50.000  
 16 04 02 12 51 48.8000000  0  2G09G29                                          
  23789406.96149 125014175.35549     -8443.49249        50.000  
  22457931.38349 118017225.27349     -5697.30549        50.000  
 16 04 02 12 51 48.9000000  0  2G09G29                                          
  23789567.67249 125015019.89149     -8448.24649        50.000  
  22458039.82849 118017795.15249     -5700.48849        50.000  
 16 04 02 12 51 49.0000000  0  2G09G29                                          
  23789728.48449 125015864.96149     -8453.40649        50.000  
  22458148.33649 118018365.37149     -5704.03549        50.000  
 16 04 02 12 51 49.1000000  0  2G09G29                                          
  23789889.39849 125016710.56649     -8459.07849        50.000  
  22458256.91449 118018935.94949     -5707.74249        50.000  
 16 04 02 12 51 49.2000000  0  2G09G29                                          
  23790050.41449 125017556.72749     -8464.30949        50.000  
  22458365.56249 118019506.91449     -5711.28549        50.000  
 16 04 02 12 51 49.3000000  0  2G09G29                                          
  23790211.53149 125018403.37149     -8469.59849        50.000  
  22458474.27349 118020078.18849     -5714.69149        50.000  
 16 04 02 12 51 49.4000000  0  2G09G29                                          
  23790372.75049 125019250.59449     -8475.18449        50.000  
  22458583.06249 118020649.86349     -5718.62549        50.000  
 16 04 02 12 51 49.5000000  0  2G09G29                                          
  23790534.07049 125020098.34449     -8480.41449        50.000  
  22458691.91449 118021221.89549     -5722.18849        50.000  
 16 04 02 12 51 49.6000000  0  2G09G29                                          
  23790695.47749 125020946.54749     -8485.05949        50.000  
  22458800.82049 118021794.20349     -5724.89849        50.000  
 16 04 02 12 51 49.7000000  0  2G09G29                                          
  23790857.00049 125021795.34449     -8490.75449        50.000  
  22458909.80549 118022366.93449     -5729.00849        50.000  
 16 04 02 12 51 49.8000000  0  2G09G29                                          
  23791018.61749 125022644.65249     -8495.95749        50.000  
  22459018.85949 118022940.00449     -5732.48849        50.000  
 16 04 02 12 51 49.9000000  0  2G09G29                                          
  23791180.33649 125023494.49249     -8501.43049        50.000  
  22459127.98449 118023513.42249     -5736.14149        50.000  
 16 04 02 12 51 50.0000000  0  2G09G29                                          
  23791342.15649 125024344.85549     -8506.47749        50.000  
  22459237.16449 118024087.19149     -5739.46149        50.000  
 16 04 02 12 51 50.1000000  0  2G09G29                                          
  23791504.07849 125025195.77049     -8512.09449        50.000  
  22459346.41449 118024661.34049     -5743.35949        50.000  
 16 04 02 12 51 50.2000000  0  2G09G29                                          
  23791666.10949 125026047.25849     -8517.98849        50.000  
  22459455.75049 118025235.88749     -5747.32449        50.000  
 16 04 02 12 51 50.3000000  0  2G09G29                                          
  23791828.23449 125026899.23049     -8522.79749        50.000  
  22459565.14849 118025810.75849     -5750.65649        50.000  
 16 04 02 12 51 50.4000000  0  2G09G29                                          
  23791990.46949 125027751.76649     -8528.17649        50.000  
  22459674.61749 118026385.99249     -5754.10549        50.000  
 16 04 02 12 51 50.5000000  0  2G09G29                                          
  23792152.80549 125028604.85249     -8533.77349        50.000  
  22459784.15649 118026961.62549     -5758.10249        50.000  
 16 04 02 12 51 50.6000000  0  2G09G29                                          
  23792315.24249 125029458.45349     -8538.77349        50.000  
  22459893.75849 118027537.57849     -5761.34049        50.000  
 16 04 02 12 51 50.7000000  0  2G09G29                                          
  23792477.77349 125030312.55949     -8544.09849        50.000  
  22460003.42249 118028113.88349     -5764.85249        50.000  
 16 04 02 12 51 50.8000000  0  2G09G29                                          
  23792640.42249 125031167.29349     -8550.36349        50.000  
  22460113.17249 118028690.62149     -5769.19549        50.000  
 16 04 02 12 51 50.9000000  0  2G09G29                                          
  23792803.17249 125032022.53149     -8555.28949        50.000  
  22460222.99249 118029267.71549     -5772.79749        50.000  
 16 04 02 12 51 51.0000000  0  2G09G29                                          
  23792966.00849 125032878.27349     -8560.46149        50.000  
  22460332.85949 118029845.11349     -5775.90649        50.000  
 16 04 02 12 51 51.1000000  0  2G09G29                                          
  23793128.96149 125033734.55149     -8565.54749        50.000  
  22460442.80549 118030422.89149     -5779.46949        50.000  
 16 04 02 12 51 51.2000000  0  2G09G29                                          
  23793292.00849 125034591.35249     -8571.02049        50.000  
  22460552.82049 118031001.00449     -5783.05549        50.000  
 16 04 02 12 51 51.3000000  0  2G09G29                                          
  23793455.15649 125035448.71149     -8576.48449        50.000  
  22460662.90649 118031579.51649     -5786.85249        50.000  
 16 04 02 12 51 51.4000000  0  2G09G29                                          
  23793618.39849 125036306.57449     -8581.73449        50.000  
  22460773.05549 118032158.34449     -5790.20349        50.000  
 16 04 02 12 51 51.5000000  0  2G09G29                                          
  23793781.75049 125037164.98049     -8586.90649        50.000  
  22460883.27349 118032737.53549     -5793.67649        50.000  
 16 04 02 12 51 51.6000000  0  2G09G29                                          
  23793945.19549 125038023.87949     -8591.83649        50.000  
  22460993.54749 118033317.06649     -5797.05149        50.000  
 16 04 02 12 51 51.7000000  0  2G09G29                                          
  23794108.75049 125038883.34449     -8597.55149        50.000  
  22461103.89849 118033896.97349     -5800.83249        50.000  
 16 04 02 12 51 51.8000000  0  2G09G29                                          
  23794272.39849 125039743.32449     -8602.80949        50.000  
  22461214.32049 118034477.23449     -5804.44149        50.000  
 16 04 02 12 51 51.9000000  0  2G09G29                                          
  23794436.14849 125040603.85549     -8608.34049        50.000  
  22461324.81249 118035057.85949     -5808.13349        50.000  
 16 04 02 12 51 52.0000000  0  2G09G29                                          
  23794600.00049 125041464.89549     -8613.21149        50.000  
  22461435.35949 118035638.82449     -5811.41049        50.000  
 16 04 02 12 51 52.1000000  0  2G09G29                                          
  23794763.94549 125042326.44149     -8618.57049        50.000  
  22461545.98449 118036220.12949     -5814.97349        50.000  
 16 04 02 12 51 52.2000000  0  2G09G29                                          
  23794928.00049 125043188.53149     -8623.80149        50.000  
  22461656.66449 118036801.78949     -5818.35949        50.000  
 16 04 02 12 51 52.3000000  0  2G09G29                                          
  23795092.15649 125044051.16849     -8629.37949        50.000  
  22461767.43049 118037383.83649     -5822.23849        50.000  
 16 04 02 12 51 52.4000000  0  2G09G29                                          
  23795256.41449 125044914.34049     -8634.25049        50.000  
  22461878.25049 118037966.23049     -5825.62149        50.000  
 16 04 02 12 51 52.5000000  0  2G09G29                                          
  23795420.75849 125045777.94549     -8639.30549        50.000  
  22461989.13349 118038548.90249     -5828.70349        50.000  
 16 04 02 12 51 52.6000000  0  2G09G29                                          
  23795585.22749 125046642.26249     -8646.04349        50.000  
  22462100.10249 118039132.09049     -5833.64149        50.000  
 16 04 02 12 51 52.7000000  0  2G09G29                                          
  23795749.80549 125047507.12149     -8651.85549        50.000  
  22462211.15649 118039715.66049     -5837.84849        50.000  
 16 04 02 12 51 52.8000000  0  2G09G29                                          
  23795914.47749 125048372.46949     -8656.46949        50.000  
  22462322.26649 118040299.54749     -5840.73449        50.000  
 16 04 02 12 51 52.9000000  0  2G09G29                                          
  23796079.23449 125049238.32049     -8661.37149        50.000  
  22462433.43849 118040883.75049     -5843.84849        50.000  
 16 04 02 12 51 53.0000000  0  2G09G29                                          
  23796244.10249 125050104.69149     -8666.50849        50.000  
  22462544.67249 118041468.30549     -5847.12549        50.000  
 16 04 02 12 51 53.1000000  0  2G09G29                                          
  23796409.06249 125050971.55149     -8671.57049        50.000  
  22462655.96949 118042053.18849     -5850.65649        50.000  
 16 04 02 12 51 53.2000000  0  2G09G29                                          
  23796574.14149 125051839.05149     -8677.91449        50.000  
  22462767.35249 118042638.52749     -5855.17249        50.000  
 16 04 02 12 51 53.3000000  0  2G09G29                                          
  23796739.31249 125052707.03549     -8682.66049        50.000  
  22462878.79749 118043224.17249     -5858.27049        50.000  
 16 04 02 12 51 53.4000000  0  2G09G29                                          
  23796904.57849 125053575.51249     -8687.53949        50.000  
  22462990.30549 118043810.13749     -5861.42649        50.000  
 16 04 02 12 51 53.5000000  0  2G09G29                                          
  23797069.93849 125054444.48849     -8692.53149        50.000  
  22463101.86749 118044396.42649     -5864.58649        50.000  
 16 04 02 12 51 53.6000000  0  2G09G29                                          
  23797235.40649 125055314.04749     -8698.57449        50.000  
  22463213.51649 118044983.12949     -5868.74649        50.000  
 16 04 02 12 51 53.7000000  0  2G09G29                                          
  23797400.97749 125056184.12149     -8703.63349        50.000  
  22463325.22749 118045570.17649     -5872.27049        50.000  
 16 04 02 12 51 53.8000000  0  2G09G29                                          
  23797566.64149 125057054.67649     -8708.43049        50.000  
  22463437.00049 118046157.52749     -5875.26249        50.000  
 16 04 02 12 51 53.9000000  0  2G09G29                                          
  23797732.39849 125057925.75849     -8713.62549        50.000  
  22463548.83649 118046745.23049     -5878.71549        50.000  
 16 04 02 12 51 54.0000000  0  2G09G29                                          
  23797898.26649 125058797.37949     -8719.18049        50.000  
  22463660.74249 118047333.31249     -5882.62149        50.000  
 16 04 02 12 51 54.1000000  0  2G09G29                                          
  23798064.23449 125059669.53549     -8724.45749        50.000  
  22463772.71949 118047921.73849     -5886.09049        50.000  
 16 04 02 12 51 54.2000000  0  2G09G29                                          
  23798230.30549 125060542.23849     -8730.15649        50.000  
  22463884.76649 118048510.54349     -5890.00449        50.000  
 16 04 02 12 51 54.3000000  0  2G09G29                                          
  23798396.47749 125061415.50449     -8735.55949        50.000  
  22463996.88349 118049099.73849     -5893.75449        50.000  
 16 04 02 12 51 54.4000000  0  2G09G29                                          
  23798562.75049 125062289.25849     -8740.63749        50.000  
  22464109.06249 118049689.25049     -5897.12149        50.000  
 16 04 02 12 51 54.5000000  0  2G09G29                                          
  23798729.11749 125063163.56649     -8746.02349        50.000  
  22464221.31249 118050279.13349     -5900.77349        50.000  
 16 04 02 12 51 54.6000000  0  2G09G29                                          
  23798895.59449 125064038.40649     -8751.46949        50.000  
  22464333.63349 118050869.38349     -5904.37949        50.000  
 16 04 02 12 51 54.7000000  0  2G09G29                                          
  23799062.17249 125064913.80549     -8756.87949        50.000  
  22464446.02349 118051460.01249     -5908.08249        50.000  
 16 04 02 12 51 54.8000000  0  2G09G29                                          
  23799228.85249 125065789.69149     -8761.93049        50.000  
  22464558.47749 118052050.94949     -5911.40249        50.000  
 16 04 02 12 51 54.9000000  0  2G09G29                                          
  23799395.62549 125066666.10249     -8767.12549        50.000  
  22464671.00049 118052642.25849     -5914.83649        50.000  
 16 04 02 12 51 55.0000000  0  2G09G29                                          
  23799562.50849 125067543.06649     -8772.55949        50.000  
  22464783.59449 118053233.94149     -5918.69149        50.000  
 16 04 02 12 51 55.1000000  0  2G09G29                                          
  23799729.49249 125068420.55949     -8777.69949        50.000  
  22464896.25049 118053825.96149     -5921.93049        50.000  
 16 04 02 12 51 55.2000000  0  2G09G29                                          
  23799896.57049 125069298.57049     -8783.08649        50.000  
  22465008.98449 118054418.34049     -5925.62149        50.000  
 16 04 02 12 51 55.3000000  0  2G09G29                                          
  23800063.74249 125070177.09849     -8788.12549        50.000  
  22465121.77349 118055011.05949     -5928.96949        50.000  
 16 04 02 12 51 55.4000000  0  2G09G29                                          
  23800231.02349 125071056.13349     -8793.34049        50.000  
  22465234.63349 118055604.11749     -5932.39849        50.000  
 16 04 02 12 51 55.5000000  0  2G09G29                                          
  23800398.39849 125071935.69949     -8798.48049        50.000  
  22465347.55549 118056197.51649     -5935.77049        50.000  
 16 04 02 12 51 55.6000000  0  2G09G29                                          
  23800565.86749 125072815.77349     -8803.92249        50.000  
  22465460.53949 118056791.28149     -5939.59849        50.000  
 16 04 02 12 51 55.7000000  0  2G09G29                                          
  23800733.45349 125073696.43049     -8809.47749        50.000  
  22465573.60949 118057385.43449     -5943.35249        50.000  
 16 04 02 12 51 55.8000000  0  2G09G29                                          
  23800901.14149 125074577.61349     -8814.91049        50.000  
  22465686.74249 118057979.93849     -5946.99249        50.000  
 16 04 02 12 51 55.9000000  0  2G09G29                                          
  23801068.92249 125075459.33649     -8820.20349        50.000  
  22465799.93849 118058574.82049     -5950.67249        50.000  
 16 04 02 12 51 56.0000000  0  2G09G29                                          
  23801236.81249 125076341.60949     -8825.64549        50.000  
  22465913.21149 118059170.06649     -5954.35949        50.000  
 16 04 02 12 51 56.1000000  0  2G09G29                                          
  23801404.80549 125077224.39849     -8830.68449        50.000  
  22466026.54749 118059765.65649     -5957.60549        50.000  
 16 04 02 12 51 56.2000000  0  2G09G29                                          
  23801572.89149 125078107.69949     -8836.02349        50.000  
  22466139.95349 118060361.59849     -5961.17249        50.000  
 16 04 02 12 51 56.3000000  0  2G09G29                                          
  23801741.07849 125078991.53949     -8841.30949        50.000  
  22466253.42249 118060957.89149     -5964.74249        50.000  
 16 04 02 12 51 56.4000000  0  2G09G29                                          
  23801909.37549 125079875.94549     -8847.00849        50.000  
  22466366.97749 118061554.58649     -5968.81249        50.000  
 16 04 02 12 51 56.5000000  0  2G09G29                                          
  23802077.76649 125080760.84849     -8851.63749        50.000  
  22466480.57849 118062151.58649     -5971.62149        50.000  
 16 04 02 12 51 56.6000000  0  2G09G29                                          
  23802246.25049 125081646.23449     -8857.03549        50.000  
  22466594.25049 118062748.91849     -5975.16049        50.000  
 16 04 02 12 51 56.7000000  0  2G09G29                                          
  23802414.83649 125082532.17249     -8862.24249        50.000  
  22466707.99249 118063346.62549     -5978.77349        50.000  
 16 04 02 12 51 56.8000000  0  2G09G29                                          
  23802583.53149 125083418.66449     -8867.96949        50.000  
  22466821.79749 118063944.70749     -5982.68449        50.000  
 16 04 02 12 51 56.9000000  0  2G09G29                                          
  23802752.33649 125084305.69949     -8873.49249        50.000  
  22466935.68049 118064543.17649     -5986.59049        50.000  
 16 04 02 12 51 57.0000000  0  2G09G29                                          
  23802921.23449 125085193.26249     -8878.68049        50.000  
  22467049.62549 118065141.97349     -5989.86749        50.000  
 16 04 02 12 51 57.1000000  0  2G09G29                                          
  23803090.22749 125086081.35249     -8883.98449        50.000  
  22467163.64849 118065741.13749     -5993.45749        50.000  
 16 04 02 12 51 57.2000000  0  2G09G29                                          
  23803259.33649 125086970.01249     -8889.39849        50.000  
  22467277.74249 118066340.69549     -5997.35549        50.000  
 16 04 02 12 51 57.3000000  0  2G09G29                                          
  23803428.54749 125087859.18449     -8894.87149        50.000  
  22467391.89849 118066940.59449     -6001.09049        50.000  
 16 04 02 12 51 57.4000000  0  2G09G29                                          
  23803597.85949 125088748.93049     -8900.23049        50.000  
  22467506.12549 118067540.89149     -6004.56249        50.000  
 16 04 02 12 51 57.5000000  0  2G09G29                                          
  23803767.26649 125089639.17649     -8905.38749        50.000  
  22467620.42249 118068141.52349     -6008.17649        50.000  
 16 04 02 12 51 57.6000000  0  2G09G29                                          
  23803936.77349 125090529.93049     -8910.46149        50.000  
  22467734.78149 118068742.48849     -6011.50049        50.000  
 16 04 02 12 51 57.7000000  0  2G09G29                                          
  23804106.38349 125091421.27049     -8916.35549        50.000  
  22467849.21949 118069343.85949     -6015.57049        50.000  
 16 04 02 12 51 57.8000000  0  2G09G29                                          
  23804276.09449 125092313.10949     -8921.28949        50.000  
  22467963.71949 118069945.55549     -6018.65249        50.000  
 16 04 02 12 51 57.9000000  0  2G09G29                                          
  23804445.89149 125093205.39849     -8925.60949        50.000  
  22468078.27349 118070547.53949     -6021.46549        50.000  
 16 04 02 12 51 58.0000000  0  2G09G29                                          
  23804615.79749 125094098.27749     -8931.69949        50.000  
  22468192.89849 118071149.93849     -6025.70349        50.000  
 16 04 02 12 51 58.1000000  0  2G09G29                                          
  23804785.80549 125094991.67249     -8936.71949        50.000  
  22468307.59449 118071752.66449     -6028.95349        50.000  
 16 04 02 12 51 58.2000000  0  2G09G29                                          
  23804955.90649 125095885.56649     -8941.91849        50.000  
  22468422.35949 118072355.73449     -6032.56249        50.000  
 16 04 02 12 51 58.3000000  0  2G09G29                                          
  23805126.11749 125096780.00049     -8947.11349        50.000  
  22468537.18849 118072959.16049     -6035.94549        50.000  
 16 04 02 12 51 58.4000000  0  2G09G29                                          
  23805296.42249 125097674.96549     -8952.78149        50.000  
  22468652.09449 118073562.94949     -6039.74649        50.000  
 16 04 02 12 51 58.5000000  0  2G09G29                                          
  23805466.82849 125098570.46149     -8957.78549        50.000  
  22468767.05549 118074167.09849     -6043.12949        50.000  
 16 04 02 12 51 58.6000000  0  2G09G29                                          
  23805637.33649 125099466.48049     -8963.19949        50.000  
  22468882.09449 118074771.59849     -6047.00849        50.000  
 16 04 02 12 51 58.7000000  0  2G09G29                                          
  23805807.95349 125100363.08649     -8968.83649        50.000  
  22468997.20349 118075376.50449     -6050.87949        50.000  
 16 04 02 12 51 58.8000000  0  2G09G29                                          
  23805978.66449 125101260.17649     -8974.12949        50.000  
  22469112.37549 118075981.73449     -6054.38749        50.000  
 16 04 02 12 51 58.9000000  0  2G09G29                                          
  23806149.49249 125102157.83649     -8979.27349        50.000  
  22469227.62549 118076587.34849     -6057.75449        50.000  
 16 04 02 12 51 59.0000000  0  2G09G29                                          
  23806320.39849 125103055.98849     -8984.48449        50.000  
  22469342.93049 118077193.28549     -6061.26249        50.000  
 16 04 02 12 51 59.1000000  0  2G09G29                                          
  23806491.41449 125103954.66449     -8989.63349        50.000  
  22469458.29749 118077799.56649     -6064.58649        50.000  
 16 04 02 12 51 59.2000000  0  2G09G29                                          
  23806662.53149 125104853.91049     -8995.53549        50.000  
  22469573.75049 118078406.26249     -6068.83649        50.000  
 16 04 02 12 51 59.3000000  0  2G09G29                                          
  23806833.75849 125105753.69149     -9000.83249        50.000  
  22469689.26649 118079013.30549     -6072.36349        50.000  
 16 04 02 12 51 59.4000000  0  2G09G29                                          
  23807005.06249 125106653.93449     -9005.35549        50.000  
  22469804.84449 118079620.65249     -6075.24649        50.000  
 16 04 02 12 51 59.5000000  0  2G09G29                                          
  23807176.49249 125107554.77349     -9011.23849        50.000  
  22469920.49249 118080228.40249     -6079.27749        50.000  
 16 04 02 12 51 59.6000000  0  2G09G29                                          
  23807348.00849 125108456.10949     -9016.35949        50.000  
  22470036.21149 118080836.50449     -6082.77749        50.000  
 16 04 02 12 51 59.7000000  0  2G09G29                                          
  23807519.64149 125109358.04349     -9022.25849        50.000  
  22470152.00849 118081444.99649     -6086.82449        50.000  
 16 04 02 12 51 59.8000000  0  2G09G29                                          
  23807691.37549 125110260.50449     -9027.57849        50.000  
  22470267.86749 118082053.86749     -6090.50049        50.000  
 16 04 02 12 51 59.9000000  0  2G09G29                                          
  23807863.20349 125111163.44549     -9032.35949        50.000  
  22470383.78949 118082663.03949     -6093.60249        50.000  
 16 04 02 12 52  0.0000000  0  2G09G29                                          
  23808035.11749 125112066.89149     -9037.18049        50.000  
  22470499.78149 118083272.54349     -6096.59849        50.000  
 16 04 02 12 52  0.1000000  0  2G09G29                                          
  23808207.14149 125112970.87949     -9042.84449        50.000  
  22470615.83649 118083882.41449     -6100.53149        50.000  
 16 04 02 12 52  0.2000000  0  2G09G29                                          
  23808379.26649 125113875.39149     -9047.98849        50.000  
  22470731.95349 118084492.63749     -6103.94149        50.000  
 16 04 02 12 52  0.3000000  0  2G09G29                                          
  23808551.47749 125114780.36749     -9052.71949        50.000  
  22470848.13349 118085103.16049     -6106.98449        50.000  
 16 04 02 12 52  0.4000000  0  2G09G29                                          
  23808723.80549 125115685.95749     -9058.73849        50.000  
  22470964.39149 118085714.11749     -6111.32049        50.000  
 16 04 02 12 52  0.5000000  0  2G09G29                                          
  23808896.23449 125116592.05949     -9063.94149        50.000  
  22471080.71949 118086325.41449     -6114.80549        50.000  
 16 04 02 12 52  0.6000000  0  2G09G29                                          
  23809068.75049 125117498.66449     -9069.08249        50.000  
  22471197.10249 118086937.04349     -6118.11349        50.000  
 16 04 02 12 52  0.7000000  0  2G09G29                                          
  23809241.37549 125118405.83249     -9074.43449        50.000  
  22471313.56249 118087549.05549     -6121.77749        50.000  
 16 04 02 12 52  0.8000000  0  2G09G29                                          
  23809414.10949 125119313.53149     -9080.16449        50.000  
  22471430.10249 118088161.43449     -6125.73849        50.000  
 16 04 02 12 52  0.9000000  0  2G09G29                                          
  23809586.93849 125120221.73449     -9084.84449        50.000  
  22471546.69549 118088774.14549     -6128.82449        50.000  
 16 04 02 12 52  1.0000000  0  2G09G29                                          
  23809759.85949 125121130.45349     -9090.03149        50.000  
  22471663.35949 118089387.19949     -6132.31249        50.000  
 16 04 02 12 52  1.1000000  0  2G09G29                                          
  23809932.88349 125122039.68449     -9095.21949        50.000  
  22471780.07849 118090000.59049     -6135.72749        50.000  
 16 04 02 12 52  1.2000000  0  2G09G29                                          
  23810106.00049 125122949.43449     -9100.35549        50.000  
  22471896.86749 118090614.33249     -6139.06649        50.000  
 16 04 02 12 52  1.3000000  0  2G09G29                                          
  23810279.22749 125123859.73049     -9105.98849        50.000  
  22472013.72749 118091228.43449     -6142.93449        50.000  
 16 04 02 12 52  1.4000000  0  2G09G29                                          
  23810452.56249 125124770.62549     -9111.78549        50.000  
  22472130.67249 118091842.97749     -6147.16449        50.000  
 16 04 02 12 52  1.5000000  0  2G09G29                                          
  23810625.98449 125125681.96149     -9116.38749        50.000  
  22472247.67249 118092457.78549     -6150.02049        50.000  
 16 04 02 12 52  1.6000000  0  2G09G29                                          
  23810799.50849 125126593.83249     -9121.46949        50.000  
  22472364.72749 118093072.95349     -6153.34049        50.000  
 16 04 02 12 52  1.7000000  0  2G09G29                                          
  23810973.14149 125127506.27349     -9127.48049        50.000  
  22472481.86749 118093688.52349     -6157.62949        50.000  
 16 04 02 12 52  1.8000000  0  2G09G29                                          
  23811146.86749 125128419.21549     -9132.30949        50.000  
  22472599.07049 118094304.41449     -6160.75849        50.000  
 16 04 02 12 52  1.9000000  0  2G09G29                                          
  23811320.68049 125129332.62549     -9136.94949        50.000  
  22472716.32849 118094920.60549     -6163.65649        50.000  
 16 04 02 12 52  2.0000000  0  2G09G29                                          
  23811494.60949 125130246.61349     -9142.99649        50.000  
  22472833.66449 118095537.19949     -6167.87549        50.000  
 16 04 02 12 52  2.1000000  0  2G09G29                                          
  23811668.64149 125131161.13749     -9148.09049        50.000  
  22472951.07049 118096154.17249     -6171.50049        50.000  
 16 04 02 12 52  2.2000000  0  2G09G29                                          
  23811842.76649 125132076.18449     -9153.55949        50.000  
  22473068.53949 118096771.47749     -6175.06649        50.000  
 16 04 02 12 52  2.3000000  0  2G09G29                                          
  23812017.00849 125132991.79749     -9159.00849        50.000  
  22473186.07849 118097389.17649     -6178.78149        50.000  
 16 04 02 12 52  2.4000000  0  2G09G29                                          
  23812191.32049 125133907.84849     -9163.35949        50.000  
  22473303.68049 118098007.14849     -6181.43849        50.000  
 16 04 02 12 52  2.5000000  0  2G09G29                                          
  23812365.75049 125134824.47349     -9169.24249        50.000  
  22473421.35249 118098625.52049     -6185.60249        50.000  
 16 04 02 12 52  2.6000000  0  2G09G29                                          
  23812540.28149 125135741.64549     -9174.76249        50.000  
  22473539.09449 118099244.27349     -6189.43849        50.000  
 16 04 02 12 52  2.7000000  0  2G09G29                                          
  23812714.92249 125136659.36349     -9180.03549        50.000  
  22473656.90649 118099863.38749     -6193.01249        50.000  
 16 04 02 12 52  2.8000000  0  2G09G29                                          
  23812889.64849 125137577.54749     -9184.88749        50.000  
  22473774.78149 118100482.80949     -6196.07449        50.000  
 16 04 02 12 52  2.9000000  0  2G09G29                                          
  23813064.48449 125138496.32049     -9190.74649        50.000  
  22473892.73449 118101102.63749     -6200.03149        50.000  
 16 04 02 12 52  3.0000000  0  2G09G29                                          
  23813239.42249 125139415.60949     -9195.82849        50.000  
  22474010.74249 118101722.81249     -6203.53149        50.000  
 16 04 02 12 52  3.1000000  0  2G09G29                                          
  23813414.43849 125140335.35549     -9200.54349        50.000  
  22474128.81249 118102343.28149     -6206.69949        50.000  
 16 04 02 12 52  3.2000000  0  2G09G29                                          
  23813589.57849 125141255.72749     -9206.46949        50.000  
  22474246.96949 118102964.18449     -6210.73449        50.000  
 16 04 02 12 52  3.3000000  0  2G09G29                                          
  23813764.80549 125142176.53549     -9210.76249        50.000  
  22474365.17249 118103585.35949     -6213.37549        50.000  
 16 04 02 12 52  3.4000000  0  2G09G29                                          
  23813940.11749 125143097.80949     -9215.72349        50.000  
  22474483.43849 118104206.82849     -6216.47349        50.000  
 16 04 02 12 52  3.5000000  0  2G09G29                                          
  23814115.53949 125144019.69149     -9221.66449        50.000  
  22474601.78149 118104828.74249     -6220.73449        50.000  
 16 04 02 12 52  3.6000000  0  2G09G29                                          
  23814291.06249 125144942.05149     -9226.62549        50.000  
  22474720.18049 118105450.94949     -6224.02349        50.000  
 16 04 02 12 52  3.7000000  0  2G09G29                                          
  23814466.69549 125145865.01249     -9232.52049        50.000  
  22474838.66449 118106073.60549     -6228.42649        50.000  
 16 04 02 12 52  3.8000000  0  2G09G29                                          
  23814642.42249 125146788.45749     -9237.63749        50.000  
  22474957.21149 118106696.55549     -6231.43049        50.000  
 16 04 02 12 52  3.9000000  0  2G09G29                                          
  23814818.25049 125147712.44549     -9242.62549        50.000  
  22475075.82849 118107319.87949     -6235.00849        50.000  
 16 04 02 12 52  4.0000000  0  2G09G29                                          
  23814994.18049 125148636.95349     -9248.09049        50.000  
  22475194.50849 118107943.55149     -6238.59849        50.000  
 16 04 02 12 52  4.1000000  0  2G09G29                                          
  23815170.20349 125149561.97349     -9253.04749        50.000  
  22475313.25849 118108567.56249     -6241.86749        50.000  
 16 04 02 12 52  4.2000000  0  2G09G29                                          
  23815346.32849 125150487.49249     -9257.88749        50.000  
  22475432.07049 118109191.92249     -6245.24649        50.000  
 16 04 02 12 52  4.3000000  0  2G09G29                                          
  23815522.53949 125151413.50849     -9263.27749        50.000  
  22475550.93849 118109816.57849     -6248.60549        50.000  
 16 04 02 12 52  4.4000000  0  2G09G29                                          
  23815698.85949 125152340.09049     -9268.57449        50.000  
  22475669.87549 118110441.62549     -6252.23449        50.000  
 16 04 02 12 52  4.5000000  0  2G09G29                                          
  23815875.28149 125153267.17649     -9273.74249        50.000  
  22475788.89149 118111067.02349     -6255.73449        50.000  
 16 04 02 12 52  4.6000000  0  2G09G29                                          
  23816051.80549 125154194.78949     -9279.08649        50.000  
  22475907.96949 118111692.77349     -6259.26649        50.000  
 16 04 02 12 52  4.7000000  0  2G09G29                                          
  23816228.41449 125155122.90649     -9284.01649        50.000  
  22476027.10949 118112318.84849     -6262.44549        50.000  
 16 04 02 12 52  4.8000000  0  2G09G29                                          
  23816405.14149 125156051.59849     -9289.92249        50.000  
  22476146.32849 118112945.33649     -6266.67649        50.000  
 16 04 02 12 52  4.9000000  0  2G09G29                                          
  23816581.96149 125156980.77749     -9294.64849        50.000  
  22476265.60249 118113572.12949     -6269.84049        50.000  
 16 04 02 12 52  5.0000000  0  2G09G29                                          
  23816758.88349 125157910.51249     -9300.54349        50.000  
  22476384.94549 118114199.30949     -6273.71549        50.000  
 16 04 02 12 52  5.1000000  0  2G09G29                                          
  23816935.91449 125158840.82449     -9306.13349        50.000  
  22476504.37549 118114826.90649     -6277.83649        50.000  
 16 04 02 12 52  5.2000000  0  2G09G29                                          
  23817113.04749 125159771.63749     -9310.88749        50.000  
  22476623.86749 118115454.81249     -6280.82049        50.000  
 16 04 02 12 52  5.3000000  0  2G09G29                                          
  23817290.25849 125160702.91449     -9315.62149        50.000  
  22476743.41449 118116083.02349     -6283.79749        50.000  
 16 04 02 12 52  5.4000000  0  2G09G29                                          
  23817467.57849 125161634.73849     -9321.07849        50.000  
  22476863.03149 118116711.60249     -6287.47749        50.000  
 16 04 02 12 52  5.5000000  0  2G09G29                                          
  23817645.00849 125162567.10249     -9326.62149        50.000  
  22476982.71949 118117340.56249     -6291.25049        50.000  
 16 04 02 12 52  5.6000000  0  2G09G29                                          
  23817822.53149 125163500.02049     -9332.26649        50.000  
  22477102.48449 118117969.91049     -6295.43449        50.000  
 16 04 02 12 52  5.7000000  0  2G09G29                                          
  23818000.16449 125164433.45349     -9337.09449        50.000  
  22477222.30549 118118599.57049     -6298.38349        50.000  
 16 04 02 12 52  5.8000000  0  2G09G29                                          
  23818177.89149 125165367.41849     -9342.67649        50.000  
  22477342.19549 118119229.61749     -6302.43449        50.000  
 16 04 02 12 52  5.9000000  0  2G09G29                                          
  23818355.72749 125166301.94549     -9348.21149        50.000  
  22477462.16449 118119860.04349     -6306.11749        50.000  
 16 04 02 12 52  6.0000000  0  2G09G29                                          
  23818533.65649 125167236.96549     -9352.79749        50.000  
  22477582.18849 118120490.79349     -6309.13349        50.000  
 16 04 02 12 52  6.1000000  0  2G09G29                                          
  23818711.67249 125168172.45749     -9358.02049        50.000  
  22477702.27349 118121121.84449     -6312.36349        50.000  
 16 04 02 12 52  6.2000000  0  2G09G29                                          
  23818889.80549 125169108.52749     -9363.39849        50.000  
  22477822.43849 118121753.28949     -6316.10949        50.000  
 16 04 02 12 52  6.3000000  0  2G09G29                                          
  23819068.03149 125170045.15249     -9369.30549        50.000  
  22477942.68049 118122385.14149     -6320.40249        50.000  
 16 04 02 12 52  6.4000000  0  2G09G29                                          
  23819246.38349 125170982.37949     -9375.30949        50.000  
  22478062.99249 118123017.41049     -6324.66849        50.000  
 16 04 02 12 52  6.5000000  0  2G09G29                                          
  23819424.80549 125171920.00849     -9379.12149        50.000  
  22478183.35249 118123649.90649     -6326.83249        50.000  
 16 04 02 12 52  6.6000000  0  2G09G29                                          
  23819603.33649 125172858.19149     -9384.57849        50.000  
  22478303.78149 118124282.79349     -6330.52049        50.000  
 16 04 02 12 52  6.7000000  0  2G09G29                                          
  23819781.96949 125173796.90249     -9390.27749        50.000  
  22478424.28149 118124916.02749     -6334.37149        50.000  
 16 04 02 12 52  6.8000000  0  2G09G29                                          
  23819960.70349 125174736.16849     -9395.33249        50.000  
  22478544.85949 118125549.66049     -6337.90249        50.000  
 16 04 02 12 52  6.9000000  0  2G09G29                                          
  23820139.52349 125175675.86749     -9399.87949        50.000  
  22478665.48449 118126183.53949     -6340.65249        50.000  
 16 04 02 12 52  7.0000000  0  2G09G29                                          
  23820318.43849 125176616.08649     -9404.93849        50.000  
  22478786.17249 118126817.77049     -6343.97749        50.000  
 16 04 02 12 52  7.1000000  0  2G09G29                                          
  23820497.44549 125177556.78549     -9409.75449        50.000  
  22478906.92249 118127452.31249     -6347.07849        50.000  
 16 04 02 12 52  7.2000000  0  2G09G29                                          
  23820676.56249 125178498.02749     -9415.37949        50.000  
  22479027.75049 118128087.23049     -6350.98449        50.000  
 16 04 02 12 52  7.3000000  0  2G09G29                                          
  23820855.78949 125179439.85949     -9421.35249        50.000  
  22479148.64849 118128722.55949     -6355.32449        50.000  
 16 04 02 12 52  7.4000000  0  2G09G29                                          
  23821035.10949 125180382.21149     -9426.42649        50.000  
  22479269.61749 118129358.23449     -6358.60549        50.000  
 16 04 02 12 52  7.5000000  0  2G09G29                                          
  23821214.53149 125181325.06249     -9431.47349        50.000  
  22479390.64149 118129994.25849     -6362.04349        50.000  
 16 04 02 12 52  7.6000000  0  2G09G29                                          
  23821394.04749 125182268.42249     -9436.53949        50.000  
  22479511.73449 118130630.59049     -6365.15649        50.000  
 16 04 02 12 52  7.7000000  0  2G09G29                                          
  23821573.68049 125183212.37549     -9442.56249        50.000  
  22479632.90649 118131267.35949     -6369.53949        50.000  
 16 04 02 12 52  7.8000000  0  2G09G29                                          
  23821753.39849 125184156.80949     -9447.09849        50.000  
  22479754.14149 118131904.44149     -6372.51649        50.000  
 16 04 02 12 52  7.9000000  0  2G09G29                                          
  23821933.21949 125185101.77349     -9452.57849        50.000  
  22479875.44549 118132541.87149     -6376.06649        50.000  
 16 04 02 12 52  8.0000000  0  2G09G29                                          
  23822113.14149 125186047.23849     -9457.52749        50.000  
  22479996.80549 118133179.64849     -6379.51249        50.000  
 16 04 02 12 52  8.1000000  0  2G09G29                                          
  23822293.17249 125186993.30949     -9463.75849        50.000  
  22480118.25049 118133817.83249     -6383.83649        50.000  
 16 04 02 12 52  8.2000000  0  2G09G29                                          
  23822473.29749 125187939.87949     -9468.57849        50.000  
  22480239.75849 118134456.36749     -6387.13749        50.000  
 16 04 02 12 52  8.3000000  0  2G09G29                                          
  23822653.51649 125188886.92249     -9473.32449        50.000  
  22480361.32049 118135095.19949     -6390.11749        50.000  
 16 04 02 12 52  8.4000000  0  2G09G29                                          
  23822833.83649 125189834.51649     -9478.68449        50.000  
  22480482.96149 118135734.40649     -6393.73049        50.000  
 16 04 02 12 52  8.5000000  0  2G09G29                                          
  23823014.25049 125190782.60249     -9483.74649        50.000  
  22480604.65649 118136373.93849     -6397.07449        50.000  
 16 04 02 12 52  8.6000000  0  2G09G29                                          
  23823194.76649 125191731.19949     -9488.73849        50.000  
  22480726.42249 118137013.80549     -6400.37149        50.000  
 16 04 02 12 52  8.7000000  0  2G09G29                                          
  23823375.37549 125192680.32449     -9494.38349        50.000  
  22480848.25849 118137654.03949     -6404.30549        50.000  
 16 04 02 12 52  8.8000000  0  2G09G29                                          
  23823556.09449 125193630.01649     -9499.73049        50.000  
  22480970.16449 118138294.66449     -6407.92649        50.000  
 16 04 02 12 52  8.9000000  0  2G09G29                                          
  23823736.90649 125194580.20749     -9504.89149        50.000  
  22481092.13349 118138935.60949     -6411.46149        50.000  
 16 04 02 12 52  9.0000000  0  2G09G29                                          
  23823917.82849 125195530.94549     -9510.18449        50.000  
  22481214.17249 118139576.93849     -6415.06649        50.000  
 16 04 02 12 52  9.1000000  0  2G09G29                                          
  23824098.84449 125196482.18449     -9515.18849        50.000  
  22481336.27349 118140218.59049     -6418.23049        50.000  
 16 04 02 12 52  9.2000000  0  2G09G29                                          
  23824279.95349 125197433.93049     -9520.55949        50.000  
  22481458.43849 118140860.57849     -6421.77049        50.000  
 16 04 02 12 52  9.3000000  0  2G09G29                                          
  23824461.17249 125198386.23849     -9525.93849        50.000  
  22481580.68049 118141502.96549     -6425.52049        50.000  
 16 04 02 12 52  9.4000000  0  2G09G29                                          
  23824642.47749 125199338.98449     -9530.32849        50.000  
  22481702.97749 118142145.62549     -6428.37549        50.000  
 16 04 02 12 52  9.5000000  0  2G09G29                                          
  23824823.88349 125200292.28549     -9535.85949        50.000  
  22481825.33649 118142788.65249     -6432.00449        50.000  
 16 04 02 12 52  9.6000000  0  2G09G29                                          
  23825005.39149 125201246.13349     -9541.39149        50.000  
  22481947.77349 118143432.06649     -6435.96549        50.000  
 16 04 02 12 52  9.7000000  0  2G09G29                                          
  23825187.00849 125202200.52749     -9546.87149        50.000  
  22482070.28149 118144075.84849     -6439.73849        50.000  
 16 04 02 12 52  9.8000000  0  2G09G29                                          
  23825368.72749 125203155.46149     -9552.39849        50.000  
  22482192.85949 118144720.00049     -6443.48049        50.000  
 16 04 02 12 52  9.9000000  0  2G09G29                                          
  23825550.54749 125204110.92649     -9557.55149        50.000  
  22482315.50849 118145364.52349     -6447.03149        50.000  
 16 04 02 12 52 10.0000000  0  2G09G29                                          
  23825732.46149 125205066.89149     -9562.41849        50.000  
  22482438.21949 118146009.36349     -6450.05149        50.000  
 16 04 02 12 52 10.1000000  0  2G09G29                                          
  23825914.46149 125206023.31649     -9567.30949        50.000  
  22482560.98449 118146654.50049     -6453.25449        50.000  
 16 04 02 12 52 10.2000000  0  2G09G29                                          
  23826096.57849 125206980.32849     -9572.84849        50.000  
  22482683.82849 118147300.04749     -6457.07449        50.000  
 16 04 02 12 52 10.3000000  0  2G09G29                                          
  23826278.78149 125207937.80149     -9577.55549        50.000  
  22482806.72749 118147945.88349     -6460.12949        50.000  
 16 04 02 12 52 10.4000000  0  2G09G29                                          
  23826461.07049 125208895.75849     -9582.43449        50.000  
  22482929.68849 118148592.03549     -6463.31249        50.000  
 16 04 02 12 52 10.5000000  0  2G09G29                                          
  23826643.48449 125209854.34049     -9589.01649        50.000  
  22483052.73449 118149238.64549     -6468.16049        50.000  
 16 04 02 12 52 10.6000000  0  2G09G29                                          
  23826826.00849 125210813.50049     -9594.46549        50.000  
  22483175.85249 118149885.66049     -6472.02349        50.000  
 16 04 02 12 52 10.7000000  0  2G09G29                                          
  23827008.61749 125211773.10549     -9599.12149        50.000  
  22483299.03149 118150532.94149     -6474.81249        50.000  
 16 04 02 12 52 10.8000000  0  2G09G29                                          
  23827191.33649 125212733.29349     -9604.65649        50.000  
  22483422.28149 118151180.64149     -6478.69949        50.000  
 16 04 02 12 52 10.9000000  0  2G09G29                                          
  23827374.15649 125213693.99249     -9609.79349        50.000  
  22483545.60249 118151828.68849     -6482.18049        50.000  
 16 04 02 12 52 11.0000000  0  2G09G29                                          
  23827557.05549 125214655.14849     -9614.47349        50.000  
  22483668.97749 118152477.01249     -6485.05149        50.000  
 16 04 02 12 52 11.1000000  0  2G09G29                                          
  23827740.07849 125215616.91049     -9620.56649        50.000  
  22483792.43049 118153125.76249     -6489.28949        50.000  
 16 04 02 12 52 11.2000000  0  2G09G29                                          
  23827923.18849 125216579.16849     -9625.34049        50.000  
  22483915.94549 118153774.85549     -6492.62949        50.000  
 16 04 02 12 52 11.3000000  0  2G09G29                                          
  23828106.38349 125217541.90649     -9630.30949        50.000  
  22484039.52349 118154424.25449     -6495.80949        50.000  
 16 04 02 12 52 11.4000000  0  2G09G29                                          
  23828289.68849 125218505.14149     -9635.38349        50.000  
  22484163.16449 118155073.97349     -6499.04749        50.000  
 16 04 02 12 52 11.5000000  0  2G09G29                                          
  23828473.09449 125219468.94149     -9640.70349        50.000  
  22484286.87549 118155724.09449     -6502.85549        50.000  
 16 04 02 12 52 11.6000000  0  2G09G29                                          
  23828656.57849 125220433.18449     -9645.47349        50.000  
  22484410.64149 118156374.48849     -6505.86749        50.000  
 16 04 02 12 52 11.7000000  0  2G09G29                                          
  23828840.18049 125221398.00449     -9651.02749        50.000  
  22484534.48449 118157025.28149     -6509.70749        50.000  
 16 04 02 12 52 11.8000000  0  2G09G29                                          
  23829023.88349 125222363.34049     -9656.18849        50.000  
  22484658.39149 118157676.41449     -6513.11349        50.000  
 16 04 02 12 52 11.9000000  0  2G09G29                                          
  23829207.68049 125223329.21549     -9661.78149        50.000  
  22484782.36749 118158327.93049     -6517.06649        50.000  
 16 04 02 12 52 12.0000000  0  2G09G29                                          
  23829391.58649 125224295.63749     -9667.22349        50.000  
  22484906.41449 118158979.81649     -6520.80549        50.000  
 16 04 02 12 52 12.1000000  0  2G09G29                                          
  23829575.57849 125225262.55149     -9672.25449        50.000  
  22485030.53149 118159632.02349     -6523.96149        50.000  
 16 04 02 12 52 12.2000000  0  2G09G29                                          
  23829759.68049 125226230.00849     -9677.44949        50.000  
  22485154.71149 118160284.59849     -6527.51249        50.000  
 16 04 02 12 52 12.3000000  0  2G09G29                                          
  23829943.88349 125227197.97349     -9682.51249        50.000  
  22485278.95349 118160937.51649     -6530.98449        50.000  
 16 04 02 12 52 12.4000000  0  2G09G29                                          
  23830128.17249 125228166.43849     -9687.52049        50.000  
  22485403.26649 118161590.76249     -6534.12149        50.000  
 16 04 02 12 52 12.5000000  0  2G09G29                                          
  23830312.57849 125229135.49249     -9693.43849        50.000  
  22485527.65649 118162244.43449     -6538.52749        50.000  
 16 04 02 12 52 12.6000000  0  2G09G29                                          
  23830497.07849 125230105.03949     -9698.43849        50.000  
  22485652.10949 118162898.41849     -6541.66449        50.000  
 16 04 02 12 52 12.7000000  0  2G09G29                                          
  23830681.67249 125231075.08649     -9703.05549        50.000  
  22485776.62549 118163552.73849     -6544.71149        50.000  
 16 04 02 12 52 12.8000000  0  2G09G29                                          
  23830866.36749 125232045.66849     -9709.00849        50.000  
  22485901.20349 118164207.42249     -6548.83649        50.000  
 16 04 02 12 52 12.9000000  0  2G09G29                                          
  23831051.17249 125233016.84049     -9714.37149        50.000  
  22486025.86749 118164862.51649     -6552.58249        50.000  
 16 04 02 12 52 13.0000000  0  2G09G29                                          
  23831236.06249 125233988.46549     -9719.11349        50.000  
  22486150.57849 118165517.90249     -6555.68049        50.000  
 16 04 02 12 52 13.1000000  0  2G09G29                                          
  23831421.05549 125234960.55549     -9723.65249        50.000  
  22486275.35249 118166173.58249     -6558.35549        50.000  
 16 04 02 12 52 13.2000000  0  2G09G29                                          
  23831606.14149 125235933.19149     -9729.09849        50.000  
  22486400.19549 118166829.63749     -6562.27749        50.000  
 16 04 02 12 52 13.3000000  0  2G09G29                                          
  23831791.32849 125236906.35549     -9734.58249        50.000  
  22486525.10949 118167486.05149     -6565.94549        50.000  
 16 04 02 12 52 13.4000000  0  2G09G29                                          
  23831976.61749 125237880.08249     -9740.18849        50.000  
  22486650.09449 118168142.84849     -6569.82449        50.000  
 16 04 02 12 52 13.5000000  0  2G09G29                                          
  23832162.00849 125238854.28549     -9745.18049        50.000  
  22486775.13349 118168799.97349     -6573.13349        50.000  
 16 04 02 12 52 13.6000000  0  2G09G29                                          
  23832347.48449 125239829.00849     -9749.87549        50.000  
  22486900.24249 118169457.41849     -6576.10549        50.000  
 16 04 02 12 52 13.7000000  0  2G09G29                                          
  23832533.07849 125240804.30549     -9755.91449        50.000  
  22487025.43049 118170115.29349     -6580.48849        50.000  
 16 04 02 12 52 13.8000000  0  2G09G29                                          
  23832718.77349 125241780.14849     -9761.48449        50.000  
  22487150.68849 118170773.52749     -6584.25049        50.000  
 16 04 02 12 52 13.9000000  0  2G09G29                                          
  23832904.55549 125242756.44149     -9765.92249        50.000  
  22487276.00849 118171432.05149     -6587.04749        50.000  
 16 04 02 12 52 14.0000000  0  2G09G29                                          
  23833090.44549 125243733.30149     -9771.45349        50.000  
  22487401.39149 118172090.95749     -6590.84849        50.000  
 16 04 02 12 52 14.1000000  0  2G09G29                                          
  23833276.42249 125244710.63749     -9775.99649        50.000  
  22487526.83649 118172750.19149     -6593.93849        50.000  
 16 04 02 12 52 14.2000000  0  2G09G29                                          
  23833462.49249 125245688.44149     -9780.90649        50.000  
  22487652.33649 118173409.70749     -6596.91849        50.000  
 16 04 02 12 52 14.3000000  0  2G09G29                                          
  23833648.67249 125246666.80149     -9786.29349        50.000  
  22487777.91449 118174069.61349     -6600.67249        50.000  
 16 04 02 12 52 14.4000000  0  2G09G29                                          
  23833834.94549 125247645.68849     -9791.78149        50.000  
  22487903.56249 118174729.87949     -6604.51249        50.000  
 16 04 02 12 52 14.5000000  0  2G09G29                                          
  23834021.32049 125248625.12549     -9797.33249        50.000  
  22488029.27349 118175390.51649     -6608.28949        50.000  
 16 04 02 12 52 14.6000000  0  2G09G29                                          
  23834207.80549 125249605.10549     -9802.93049        50.000  
  22488155.06249 118176051.53949     -6612.14549        50.000  
 16 04 02 12 52 14.7000000  0  2G09G29                                          
  23834394.39149 125250585.60249     -9807.71149        50.000  
  22488280.91449 118176712.89149     -6615.30149        50.000  
 16 04 02 12 52 14.8000000  0  2G09G29                                          
  23834581.06249 125251566.57849     -9812.65249        50.000  
  22488406.82849 118177374.56249     -6618.44549        50.000  
 16 04 02 12 52 14.9000000  0  2G09G29                                          
  23834767.84449 125252548.13349     -9818.41049        50.000  
  22488532.82049 118178036.64849     -6622.57449        50.000  
 16 04 02 12 52 15.0000000  0  2G09G29                                          
  23834954.71949 125253530.17249     -9823.35549        50.000  
  22488658.86749 118178699.03549     -6625.74649        50.000  
 16 04 02 12 52 15.1000000  0  2G09G29                                          
  23835141.69549 125254512.73049     -9828.52049        50.000  
  22488784.98449 118179361.78549     -6629.35249        50.000  
 16 04 02 12 52 15.2000000  0  2G09G29                                          
  23835328.76649 125255495.79749     -9833.34049        50.000  
  22488911.15649 118180024.86349     -6632.46149        50.000  
 16 04 02 12 52 15.3000000  0  2G09G29                                          
  23835515.93049 125256479.32049     -9838.20349        50.000  
  22489037.39849 118180688.23449     -6635.56249        50.000  
 16 04 02 12 52 15.4000000  0  2G09G29                                          
  23835703.19549 125257463.42249     -9843.80149        50.000  
  22489163.71149 118181352.01249     -6639.39149        50.000  
 16 04 02 12 52 15.5000000  0  2G09G29                                          
  23835890.55549 125258448.02349     -9848.65649        50.000  
  22489290.08649 118182016.11349     -6642.62549        50.000  
 16 04 02 12 52 15.6000000  0  2G09G29                                          
  23836078.01649 125259433.10549     -9853.85249        50.000  
  22489416.51649 118182680.53949     -6646.14149        50.000  
 16 04 02 12 52 15.7000000  0  2G09G29                                          
  23836265.57049 125260418.71949     -9858.77349        50.000  
  22489543.02349 118183345.32449     -6649.33249        50.000  
 16 04 02 12 52 15.8000000  0  2G09G29                                          
  23836453.23449 125261404.88749     -9864.66449        50.000  
  22489669.60249 118184010.47749     -6653.44949        50.000  
 16 04 02 12 52 15.9000000  0  2G09G29                                          
  23836641.00049 125262391.58249     -9869.81649        50.000  
  22489796.24249 118184676.00849     -6657.12149        50.000  
 16 04 02 12 52 16.0000000  0  2G09G29                                          
  23836828.85949 125263378.78149     -9875.01249        50.000  
  22489922.95349 118185341.85249     -6660.43449        50.000  
 16 04 02 12 52 16.1000000  0  2G09G29                                          
  23837016.80549 125264366.46149     -9879.87149        50.000  
  22490049.71949 118186008.02049     -6663.46149        50.000  
 16 04 02 12 52 16.2000000  0  2G09G29                                          
  23837204.87549 125265354.76649     -9885.77749        50.000  
  22490176.57049 118186674.64149     -6667.83249        50.000  
 16 04 02 12 52 16.3000000  0  2G09G29                                          
  23837393.03149 125266343.52749     -9890.65249        50.000  
  22490303.48449 118187341.55149     -6670.95349        50.000  
 16 04 02 12 52 16.4000000  0  2G09G29                                          
  23837581.28949 125267332.81649     -9895.67249        50.000  
  22490430.45349 118188008.81249     -6674.41849        50.000  
 16 04 02 12 52 16.5000000  0  2G09G29                                          
  23837769.63349 125268322.54749     -9900.21149        50.000  
  22490557.48449 118188676.35249     -6677.09449        50.000  
 16 04 02 12 52 16.6000000  0  2G09G29                                          
  23837958.08649 125269312.86349     -9906.00449        50.000  
  22490684.59449 118189344.31249     -6681.29349        50.000  
 16 04 02 12 52 16.7000000  0  2G09G29                                          
  23838146.62549 125270303.65649     -9910.87549        50.000  
  22490811.75849 118190012.56249     -6684.34449        50.000  
 16 04 02 12 52 16.8000000  0  2G09G29                                          
  23838335.27349 125271295.02049     -9916.52749        50.000  
  22490939.00049 118190681.22749     -6688.36749        50.000  
 16 04 02 12 52 16.9000000  0  2G09G29                                          
  23838524.02349 125272286.88349     -9921.46149        50.000  
  22491066.30549 118191350.21949     -6691.67249        50.000  
 16 04 02 12 52 17.0000000  0  2G09G29                                          
  23838712.85949 125273279.23849     -9926.44549        50.000  
  22491193.67249 118192019.53949     -6694.89549        50.000  
 16 04 02 12 52 17.1000000  0  2G09G29                                          
  23838901.81249 125274272.17649     -9932.16449        50.000  
  22491321.11749 118192689.25849     -6698.85949        50.000  
 16 04 02 12 52 17.2000000  0  2G09G29                                          
  23839090.85249 125275265.60949     -9937.44549        50.000  
  22491448.62549 118193359.31649     -6702.54749        50.000  
 16 04 02 12 52 17.3000000  0  2G09G29                                          
  23839280.00849 125276259.61749     -9943.05949        50.000  
  22491576.20349 118194029.77049     -6706.46549        50.000  
 16 04 02 12 52 17.4000000  0  2G09G29                                          
  23839469.25849 125277254.12549     -9948.04349        50.000  
  22491703.85249 118194700.56649     -6709.80149        50.000  
 16 04 02 12 52 17.5000000  0  2G09G29                                          
  23839658.59449 125278249.12149     -9952.74249        50.000  
  22491831.56249 118195371.66849     -6712.82049        50.000  
 16 04 02 12 52 17.6000000  0  2G09G29                                          
  23839848.03149 125279244.62949     -9957.94149        50.000  
  22491959.32849 118196043.11349     -6716.33249        50.000  
 16 04 02 12 52 17.7000000  0  2G09G29                                          
  23840037.56249 125280240.63749     -9962.98049        50.000  
  22492087.17249 118196714.90249     -6719.72349        50.000  
 16 04 02 12 52 17.8000000  0  2G09G29                                          
  23840227.19549 125281237.17249     -9968.32449        50.000  
  22492215.07049 118197387.03149     -6723.14549        50.000  
 16 04 02 12 52 17.9000000  0  2G09G29                                          
  23840416.93849 125282234.25049     -9973.80149        50.000  
  22492343.04749 118198059.54749     -6727.06649        50.000  
 16 04 02 12 52 18.0000000  0  2G09G29                                          
  23840606.77349 125283231.85249     -9979.19149        50.000  
  22492471.08649 118198732.40649     -6730.59849        50.000  
 16 04 02 12 52 18.1000000  0  2G09G29                                          
  23840796.71949 125284229.98849     -9984.15249        50.000  
  22492599.20349 118199405.64149     -6734.03549        50.000  
 16 04 02 12 52 18.2000000  0  2G09G29                                          
  23840986.74249 125285228.56649     -9988.59849        50.000  
  22492727.36749 118200079.14549     -6736.82049        50.000  
 16 04 02 12 52 18.3000000  0  2G09G29                                          
  23841176.86749 125286227.68049     -9993.84049        50.000  
  22492855.60249 118200753.01249     -6740.32049        50.000  
 16 04 02 12 52 18.4000000  0  2G09G29                                          
  23841367.09449 125287227.32849     -9999.41849        50.000  
  22492983.90649 118201427.23449     -6744.03149        50.000  
 16 04 02 12 52 18.5000000  0  2G09G29                                          
  23841557.41449 125288227.46949    -10004.31249        50.000  
  22493112.27349 118202101.80549     -6747.43449        50.000  
 16 04 02 12 52 18.6000000  0  2G09G29                                          
  23841747.83649 125289228.14849    -10009.78549        50.000  
  22493240.70349 118202776.73449     -6751.22749        50.000  
 16 04 02 12 52 18.7000000  0  2G09G29                                          
  23841938.35949 125290229.34849    -10014.69549        50.000  
  22493369.20349 118203451.99649     -6754.30549        50.000  
 16 04 02 12 52 18.8000000  0  2G09G29                                          
  23842128.96949 125291231.02349    -10019.62549        50.000  
  22493497.76649 118204127.57849     -6757.54349        50.000  
 16 04 02 12 52 18.9000000  0  2G09G29                                          
  23842319.68049 125292233.21949    -10024.70349        50.000  
  22493626.39149 118204803.52749     -6761.18049        50.000  
 16 04 02 12 52 19.0000000  0  2G09G29                                          
  23842510.50049 125293235.98049    -10030.60949        50.000  
  22493755.09449 118205479.84449     -6765.05949        50.000  
 16 04 02 12 52 19.1000000  0  2G09G29                                          
  23842701.41449 125294239.22349    -10035.27049        50.000  
  22493883.85249 118206156.49249     -6768.18849        50.000  
 16 04 02 12 52 19.2000000  0  2G09G29                                          
  23842892.43049 125295243.03549    -10041.19949        50.000  
  22494012.69549 118206833.53949     -6772.46149        50.000  
 16 04 02 12 52 19.3000000  0  2G09G29                                          
  23843083.54749 125296247.34049    -10045.87549        50.000  
  22494141.59449 118207510.90249     -6775.37549        50.000  
 16 04 02 12 52 19.4000000  0  2G09G29                                          
  23843274.75849 125297252.16449    -10051.30549        50.000  
  22494270.55549 118208188.61349     -6779.05549        50.000  
 16 04 02 12 52 19.5000000  0  2G09G29                                          
  23843466.07049 125298257.50049    -10056.18049        50.000  
  22494399.58649 118208866.68049     -6782.31649        50.000  
 16 04 02 12 52 19.6000000  0  2G09G29                                          
  23843657.46949 125299263.33249    -10061.14549        50.000  
  22494528.68049 118209545.05949     -6785.52349        50.000  
 16 04 02 12 52 19.7000000  0  2G09G29                                          
  23843848.98449 125300269.69549    -10066.58249        50.000  
  22494657.84449 118210223.81649     -6789.37949        50.000  
 16 04 02 12 52 19.8000000  0  2G09G29                                          
  23844040.58649 125301276.57449    -10071.64549        50.000  
  22494787.07049 118210902.90649     -6792.67249        50.000  
 16 04 02 12 52 19.9000000  0  2G09G29                                          
  23844232.29749 125302284.03549    -10077.49249        50.000  
  22494916.37549 118211582.41849     -6796.92649        50.000  
 16 04 02 12 52 20.0000000  0  2G09G29                                          
  23844424.10249 125303291.94149    -10082.01249        50.000  
  22495045.73449 118212262.19949     -6799.68449        50.000  
 16 04 02 12 52 20.1000000  0  2G09G29                                          
  23844616.00849 125304300.42649    -10087.60949        50.000  
  22495175.17249 118212942.39149     -6803.61349        50.000  
 16 04 02 12 52 20.2000000  0  2G09G29                                          
  23844808.00049 125305309.37549    -10092.37949        50.000  
  22495304.66449 118213622.87949     -6806.76249        50.000  
 16 04 02 12 52 20.3000000  0  2G09G29                                          
  23845000.10249 125306318.87949    -10098.03949        50.000  
  22495434.22749 118214303.76249     -6810.68849        50.000  
 16 04 02 12 52 20.4000000  0  2G09G29                                          
  23845192.29749 125307328.89149    -10102.88349        50.000  
  22495563.85949 118214984.96949     -6813.71149        50.000  
 16 04 02 12 52 20.5000000  0  2G09G29                                          
  23845384.60249 125308339.44549    -10108.50849        50.000  
  22495693.56249 118215666.55549     -6817.74649        50.000  
 16 04 02 12 52 20.6000000  0  2G09G29                                          
  23845577.00049 125309350.49249    -10113.33649        50.000  
  22495823.32049 118216348.46149     -6820.86749        50.000  
 16 04 02 12 52 20.7000000  0  2G09G29                                          
  23845769.48449 125310362.02749    -10118.21549        50.000  
  22495953.14849 118217030.69149     -6824.03149        50.000  
 16 04 02 12 52 20.8000000  0  2G09G29                                          
  23845962.07849 125311374.10949    -10123.65249        50.000  
  22496083.03949 118217713.30149     -6827.78549        50.000  
 16 04 02 12 52 20.9000000  0  2G09G29                                          
  23846154.77349 125312386.69149    -10128.71549        50.000  
  22496213.00049 118218396.24249     -6831.15649        50.000  
 16 04 02 12 52 21.0000000  0  2G09G29                                          
  23846347.54749 125313399.76249    -10133.53949        50.000  
  22496343.02349 118219079.50849     -6834.43449        50.000  
 16 04 02 12 52 21.1000000  0  2G09G29                                          
  23846540.43049 125314413.35549    -10138.66849        50.000  
  22496473.10249 118219763.10249     -6837.73449        50.000  
 16 04 02 12 52 21.2000000  0  2G09G29                                          
  23846733.40649 125315427.45349    -10143.99249        50.000  
  22496603.25849 118220447.06249     -6841.46549        50.000  
 16 04 02 12 52 21.3000000  0  2G09G29                                          
  23846926.49249 125316442.11749    -10149.59849        50.000  
  22496733.48449 118221131.41049     -6845.36749        50.000  
 16 04 02 12 52 21.4000000  0  2G09G29                                          
  23847119.68049 125317457.29749    -10154.64549        50.000  
  22496863.77349 118221816.09449     -6848.59849        50.000  
 16 04 02 12 52 21.5000000  0  2G09G29                                          
  23847312.96149 125318473.00049    -10159.88349        50.000  
  22496994.13349 118222501.13349     -6852.13349        50.000  
 16 04 02 12 52 21.6000000  0  2G09G29                                          
  23847506.33649 125319489.19149    -10164.99649        50.000  
  22497124.55549 118223186.51249     -6855.69949        50.000  
 16 04 02 12 52 21.7000000  0  2G09G29                                          
  23847699.82049 125320505.95749    -10170.59049        50.000  
  22497255.05549 118223872.27749     -6859.52349        50.000  
 16 04 02 12 52 21.8000000  0  2G09G29                                          
  23847893.40649 125321523.25849    -10175.89849        50.000  
  22497385.61749 118224558.41449     -6863.20349        50.000  
 16 04 02 12 52 21.9000000  0  2G09G29                                          
  23848087.08649 125322541.02349    -10180.53949        50.000  
  22497516.24249 118225244.85549     -6866.14149        50.000  
 16 04 02 12 52 22.0000000  0  2G09G29                                          
  23848280.85949 125323559.32449    -10185.77049        50.000  
  22497646.93849 118225931.64549     -6869.64549        50.000  
 16 04 02 12 52 22.1000000  0  2G09G29                                          
  23848474.72749 125324578.09049    -10190.49649        50.000  
  22497777.68849 118226618.74649     -6872.76649        50.000  
 16 04 02 12 52 22.2000000  0  2G09G29                                          
  23848668.69549 125325597.41849    -10196.13349        50.000  
  22497908.50849 118227306.23449     -6876.55149        50.000  
 16 04 02 12 52 22.3000000  0  2G09G29                                          
  23848862.75849 125326617.24249    -10201.21949        50.000  
  22498039.39849 118227994.06249     -6880.16849        50.000  
 16 04 02 12 52 22.4000000  0  2G09G29                                          
  23849056.93049 125327637.61749    -10206.62949        50.000  
  22498170.35949 118228682.25449     -6883.67249        50.000  
 16 04 02 12 52 22.5000000  0  2G09G29                                          
  23849251.19549 125328658.47349    -10211.21149        50.000  
  22498301.37549 118229370.76249     -6886.60549        50.000  
 16 04 02 12 52 22.6000000  0  2G09G29                                          
  23849445.56249 125329679.86349    -10216.93049        50.000  
  22498432.46949 118230059.64549     -6890.69149        50.000  
 16 04 02 12 52 22.7000000  0  2G09G29                                          
  23849640.03149 125330701.83249    -10222.66849        50.000  
  22498563.63349 118230748.92649     -6894.70749        50.000  
 16 04 02 12 52 22.8000000  0  2G09G29                                          
  23849834.60249 125331724.27749    -10227.27749        50.000  
  22498694.85949 118231438.52749     -6897.75849        50.000  
 16 04 02 12 52 22.9000000  0  2G09G29                                          
  23850029.25049 125332747.18449    -10232.08649        50.000  
  22498826.14849 118232128.42649     -6900.75449        50.000  
 16 04 02 12 52 23.0000000  0  2G09G29                                          
  23850224.00849 125333770.62949    -10236.77349        50.000  
  22498957.49249 118232818.67249     -6903.93849        50.000  
 16 04 02 12 52 23.1000000  0  2G09G29                                          
  23850418.85249 125334794.52349    -10241.91849        50.000  
  22499088.89849 118233509.20749     -6907.11749        50.000  
 16 04 02 12 52 23.2000000  0  2G09G29                                          
  23850613.78949 125335818.94149    -10247.09049        50.000  
  22499220.37549 118234200.09849     -6910.50849        50.000  
 16 04 02 12 52 23.3000000  0  2G09G29                                          
  23850808.82849 125336843.90249    -10252.45749        50.000  
  22499351.91449 118234891.37149     -6914.56249        50.000  
 16 04 02 12 52 23.4000000  0  2G09G29                                          
  23851003.96949 125337869.35949    -10257.58249        50.000  
  22499483.52349 118235582.97349     -6917.91449        50.000  
 16 04 02 12 52 23.5000000  0  2G09G29                                          
  23851199.21149 125338895.34449    -10262.74249        50.000  
  22499615.19549 118236274.92649     -6921.20349        50.000  
 16 04 02 12 52 23.6000000  0  2G09G29                                          
  23851394.53949 125339921.81249    -10267.36749        50.000  
  22499746.93049 118236967.19549     -6924.41049        50.000  
 16 04 02 12 52 23.7000000  0  2G09G29                                          
  23851589.96149 125340948.78549    -10272.73449        50.000  
  22499878.73449 118237659.80549     -6927.89849        50.000  
 16 04 02 12 52 23.8000000  0  2G09G29                                          
  23851785.49249 125341976.31649    -10278.25049        50.000  
  22500010.60949 118238352.80549     -6931.93849        50.000  
 16 04 02 12 52 23.9000000  0  2G09G29                                          
  23851981.12549 125343004.37149    -10283.37549        50.000  
  22500142.54749 118239046.15649     -6935.24649        50.000  
 16 04 02 12 52 24.0000000  0  2G09G29                                          
  23852176.85949 125344032.93849    -10288.61349        50.000  
  22500274.55549 118239739.84449     -6938.68049        50.000  
 16 04 02 12 52 24.1000000  0  2G09G29                                          
  23852372.68049 125345062.00049    -10293.51649        50.000  
  22500406.62549 118240433.87149     -6942.00849        50.000  
 16 04 02 12 52 24.2000000  0  2G09G29                                          
  23852568.60249 125346091.59049    -10298.76249        50.000  
  22500538.75849 118241128.25449     -6945.54349        50.000  
 16 04 02 12 52 24.3000000  0  2G09G29                                          
  23852764.63349 125347121.71549    -10304.10549        50.000  
  22500670.96149 118241823.00049     -6949.25449        50.000  
 16 04 02 12 52 24.4000000  0  2G09G29                                          
  23852960.75049 125348152.32449    -10308.78549        50.000  
  22500803.23449 118242518.07049     -6952.32849        50.000  
 16 04 02 12 52 24.5000000  0  2G09G29                                          
  23853156.96149 125349183.41049    -10313.73049        50.000  
  22500935.55549 118243213.44549     -6955.52349        50.000  
 16 04 02 12 52 24.6000000  0  2G09G29                                          
  23853353.27349 125350215.02349    -10318.80149        50.000  
  22501067.95349 118243909.16849     -6958.88749        50.000  
 16 04 02 12 52 24.7000000  0  2G09G29                                          
  23853549.68849 125351247.18449    -10324.69149        50.000  
  22501200.42249 118244605.28949     -6963.16449        50.000  
 16 04 02 12 52 24.8000000  0  2G09G29                                          
  23853746.19549 125352279.83649    -10329.50449        50.000  
  22501332.95349 118245301.72349     -6966.21949        50.000  
 16 04 02 12 52 24.9000000  0  2G09G29                                          
  23853942.80549 125353313.04749    -10335.00449        50.000  
  22501465.54749 118245998.54349     -6970.03949        50.000  
 16 04 02 12 52 25.0000000  0  2G09G29                                          
  23854139.50849 125354346.70349    -10339.38349        50.000  
  22501598.20349 118246695.66049     -6972.90649        50.000  
 16 04 02 12 52 25.1000000  0  2G09G29                                          
  23854336.30549 125355380.88349    -10344.60549        50.000  
  22501730.93049 118247393.11349     -6976.27049        50.000  
 16 04 02 12 52 25.2000000  0  2G09G29                                          
  23854533.19549 125356415.55549    -10349.60249        50.000  
  22501863.71149 118248090.89549     -6979.63349        50.000  
 16 04 02 12 52 25.3000000  0  2G09G29                                          
  23854730.19549 125357450.77749    -10355.11749        50.000  
  22501996.57049 118248789.05549     -6983.37549        50.000  
 16 04 02 12 52 25.4000000  0  2G09G29                                          
  23854927.28149 125358486.49649    -10360.02749        50.000  
  22502129.49249 118249487.55549     -6986.68849        50.000  
 16 04 02 12 52 25.5000000  0  2G09G29                                          
  23855124.47749 125359522.76649    -10365.67249        50.000  
  22502262.47749 118250186.42249     -6990.58249        50.000  
 16 04 02 12 52 25.6000000  0  2G09G29                                          
  23855321.77349 125360559.55949    -10370.94949        50.000  
  22502395.53949 118250885.65649     -6994.19949        50.000  
 16 04 02 12 52 25.7000000  0  2G09G29                                          
  23855519.16449 125361596.86749    -10375.89149        50.000  
  22502528.66449 118251585.23049     -6997.44149        50.000  
 16 04 02 12 52 25.8000000  0  2G09G29                                          
  23855716.65649 125362634.66849    -10380.82449        50.000  
  22502661.85249 118252285.13749     -7000.72349        50.000  
 16 04 02 12 52 25.9000000  0  2G09G29                                          
  23855914.24249 125363672.99249    -10385.95749        50.000  
  22502795.10949 118252985.39149     -7004.15649        50.000  
 16 04 02 12 52 26.0000000  0  2G09G29                                          
  23856111.92249 125364711.79749    -10390.85949        50.000  
  22502928.43049 118253685.97349     -7007.54749        50.000  
 16 04 02 12 52 26.1000000  0  2G09G29                                          
  23856309.70349 125365751.15649    -10396.47749        50.000  
  22503061.81249 118254386.93049     -7011.43449        50.000  
 16 04 02 12 52 26.2000000  0  2G09G29                                          
  23856507.58649 125366791.02049    -10401.43049        50.000  
  22503195.26649 118255088.21549     -7014.71149        50.000  
 16 04 02 12 52 26.3000000  0  2G09G29                                          
  23856705.55549 125367831.35949    -10406.21549        50.000  
  22503328.77349 118255789.82049     -7017.79349        50.000  
 16 04 02 12 52 26.4000000  0  2G09G29                                          
  23856903.62549 125368872.24249    -10411.57449        50.000  
  22503462.35949 118256491.79749     -7021.46549        50.000  
 16 04 02 12 52 26.5000000  0  2G09G29                                          
  23857101.80549 125369913.66049    -10417.14549        50.000  
  22503596.00849 118257194.14149     -7025.16849        50.000  
 16 04 02 12 52 26.6000000  0  2G09G29                                          
  23857300.08649 125370955.60949    -10422.51249        50.000  
  22503729.72749 118257896.85249     -7029.00849        50.000  
 16 04 02 12 52 26.7000000  0  2G09G29                                          
  23857498.46149 125371998.07849    -10427.57049        50.000  
  22503863.51649 118258599.91449     -7032.43049        50.000  
 16 04 02 12 52 26.8000000  0  2G09G29                                          
  23857696.93049 125373041.05949    -10432.70349        50.000  
  22503997.36749 118259303.31649     -7035.72749        50.000  
 16 04 02 12 52 26.9000000  0  2G09G29                                          
  23857895.50849 125374084.58649    -10438.04749        50.000  
  22504131.29749 118260007.10249     -7039.63349        50.000  
 16 04 02 12 52 27.0000000  0  2G09G29                                          
  23858094.16449 125375128.53549    -10442.12949        50.000  
  22504265.27349 118260711.13349     -7041.93449        50.000  
 16 04 02 12 52 27.1000000  0  2G09G29                                          
  23858292.92249 125376172.97749    -10447.08249        50.000  
  22504399.30549 118261415.50049     -7045.25449        50.000  
 16 04 02 12 52 27.2000000  0  2G09G29                                          
  23858491.75849 125377217.89149    -10451.70749        50.000  
  22504533.39849 118262120.16049     -7048.09449        50.000  
 16 04 02 12 52 27.3000000  0  2G09G29                                          
  23858690.70349 125378263.34049    -10457.66049        50.000  
  22504667.56249 118262825.19149     -7052.23449        50.000  
 16 04 02 12 52 27.4000000  0  2G09G29                                          
  23858889.75049 125379309.34449    -10462.57449        50.000  
  22504801.80549 118263530.61749     -7055.79749        50.000  
 16 04 02 12 52 27.5000000  0  2G09G29                                          
  23859088.88349 125380355.75449    -10467.14149        50.000  
  22504936.08649 118264236.27749     -7058.56249        50.000  
 16 04 02 12 52 27.6000000  0  2G09G29                                          
  23859288.11749 125381402.74249    -10472.75449        50.000  
  22505070.44549 118264942.34049     -7062.33249        50.000  
 16 04 02 12 52 27.7000000  0  2G09G29                                          
  23859487.44549 125382450.22749    -10477.59449        50.000  
  22505204.87549 118265648.74649     -7065.79349        50.000  
 16 04 02 12 52 27.8000000  0  2G09G29                                          
  23859686.88349 125383498.25049    -10482.98049        50.000  
  22505339.36749 118266355.51249     -7069.28549        50.000  
 16 04 02 12 52 27.9000000  0  2G09G29                                          
  23859886.40649 125384546.75849    -10487.95349        50.000  
  22505473.92249 118267062.59849     -7072.69949        50.000  
 16 04 02 12 52 28.0000000  0  2G09G29                                          
  23860086.03149 125385595.80549    -10493.48049        50.000  
  22505608.54749 118267770.05949     -7076.48049        50.000  
 16 04 02 12 52 28.1000000  0  2G09G29                                          
  23860285.75049 125386645.34449    -10498.10549        50.000  
  22505743.23449 118268477.83649     -7079.44149        50.000  
 16 04 02 12 52 28.2000000  0  2G09G29                                          
  23860485.57849 125387695.43049    -10503.43449        50.000  
  22505877.99249 118269186.00449     -7083.26649        50.000  
 16 04 02 12 52 28.3000000  0  2G09G29                                          
  23860685.49249 125388745.99649    -10508.65249        50.000  
  22506012.81249 118269894.47349     -7086.55949        50.000  
 16 04 02 12 52 28.4000000  0  2G09G29                                          
  23860885.50049 125389797.04349    -10513.10249        50.000  
  22506147.68849 118270603.26649     -7089.53149        50.000  
 16 04 02 12 52 28.5000000  0  2G09G29                                          
  23861085.60949 125390848.65649    -10518.96949        50.000  
  22506282.64149 118271312.44949     -7093.57849        50.000  
 16 04 02 12 52 28.6000000  0  2G09G29                                          
  23861285.81249 125391900.73849    -10523.89549        50.000  
  22506417.65649 118272021.94149     -7096.80149        50.000  
 16 04 02 12 52 28.7000000  0  2G09G29                                          
  23861486.12549 125392953.35949    -10528.77349        50.000  
  22506552.74249 118272731.80149     -7100.21149        50.000  
 16 04 02 12 52 28.8000000  0  2G09G29                                          
  23861686.51649 125394006.44949    -10533.92649        50.000  
  22506687.87549 118273441.96149     -7103.51649        50.000  
 16 04 02 12 52 28.9000000  0  2G09G29                                          
  23861887.03149 125395060.15649    -10539.87549        50.000  
  22506823.10249 118274152.57849     -7107.86749        50.000  
 16 04 02 12 52 29.0000000  0  2G09G29                                          
  23862087.63349 125396114.30149    -10544.30949        50.000  
  22506958.38349 118274863.45749     -7110.60249        50.000  
 16 04 02 12 52 29.1000000  0  2G09G29                                          
  23862288.32049 125397168.93849    -10549.03149        50.000  
  22507093.71949 118275574.65649     -7113.67649        50.000  
 16 04 02 12 52 29.2000000  0  2G09G29                                          
  23862489.11749 125398224.10249    -10554.40249        50.000  
  22507229.12549 118276286.22749     -7117.40249        50.000  
 16 04 02 12 52 29.3000000  0  2G09G29                                          
  23862690.01649 125399279.84449    -10560.42249        50.000  
  22507364.60949 118276998.19149     -7121.51649        50.000  
 16 04 02 12 52 29.4000000  0  2G09G29                                          
  23862890.99249 125400335.99649    -10564.46549        50.000  
  22507500.14149 118277710.42249     -7124.09449        50.000  
 16 04 02 12 52 29.5000000  0  2G09G29                                          
  23863092.08649 125401392.71949    -10569.89549        50.000  
  22507635.74249 118278423.03549     -7127.77049        50.000  
 16 04 02 12 52 29.6000000  0  2G09G29                                          
  23863293.27349 125402449.96549    -10575.42649        50.000  
  22507771.43049 118279136.02749     -7131.73449        50.000  
 16 04 02 12 52 29.7000000  0  2G09G29                                          
  23863494.56249 125403507.72749    -10580.30149        50.000  
  22507907.16449 118279849.35249     -7135.05949        50.000  
 16 04 02 12 52 29.8000000  0  2G09G29                                          
  23863695.93849 125404565.98049    -10585.23449        50.000  
  22508042.96949 118280563.00049     -7138.14849        50.000  
 16 04 02 12 52 29.9000000  0  2G09G29                                          
  23863897.40649 125405624.68849    -10589.97749        50.000  
  22508178.82849 118281276.93849     -7141.07449        50.000  
 16 04 02 12 52 30.0000000  0  2G09G29                                          
  23864098.97749 125406683.97749    -10595.63349        50.000  
  22508314.76649 118281991.27749     -7145.13749        50.000  
 16 04 02 12 52 30.1000000  0  2G09G29                                          
  23864300.65649 125407743.77349    -10601.03549        50.000  
  22508450.76649 118282705.97749     -7148.93849        50.000  
 16 04 02 12 52 30.2000000  0  2G09G29                                          
  23864502.42249 125408804.09449    -10606.19149        50.000  
  22508586.83649 118283421.03549     -7152.48449        50.000  
 16 04 02 12 52 30.3000000  0  2G09G29                                          
  23864704.29749 125409864.94949    -10611.23849        50.000  
  22508722.97749 118284136.44949     -7155.79749        50.000  
 16 04 02 12 52 30.4000000  0  2G09G29                                          
  23864906.25849 125410926.25449    -10615.80949        50.000  
  22508859.17249 118284852.14149     -7158.64549        50.000  
 16 04 02 12 52 30.5000000  0  2G09G29                                          
  23865108.32049 125411988.09849    -10621.21949        50.000  
  22508995.43049 118285568.21949     -7162.46149        50.000  
 16 04 02 12 52 30.6000000  0  2G09G29                                          
  23865310.47749 125413050.44549    -10626.50449        50.000  
  22509131.75849 118286284.62549     -7166.00849        50.000  
 16 04 02 12 52 30.7000000  0  2G09G29                                          
  23865512.74249 125414113.32049    -10631.68849        50.000  
  22509268.15649 118287001.40649     -7169.62549        50.000  
 16 04 02 12 52 30.8000000  0  2G09G29                                          
  23865715.10249 125415176.74649    -10637.25449        50.000  
  22509404.63349 118287718.54349     -7173.28949        50.000  
 16 04 02 12 52 30.9000000  0  2G09G29                                          
  23865917.53949 125416240.55949    -10640.69549        50.000  
  22509541.14149 118288435.92649     -7175.41049        50.000  
 16 04 02 12 52 31.0000000  0  2G09G29                                          
  23866120.07049 125417304.86749    -10645.73449        50.000  
  22509677.71949 118289153.62149     -7178.56249        50.000  
 16 04 02 12 52 31.1000000  0  2G09G29                                          
  23866322.70349 125418369.69949    -10650.96149        50.000  
  22509814.35949 118289871.67649     -7182.07449        50.000  
 16 04 02 12 52 31.2000000  0  2G09G29                                          
  23866525.43849 125419435.08249    -10656.89549        50.000  
  22509951.07849 118290590.12549     -7186.35549        50.000  
 16 04 02 12 52 31.3000000  0  2G09G29                                          
  23866728.26649 125420500.97349    -10661.73049        50.000  
  22510087.85249 118291308.90649     -7189.69549        50.000  
 16 04 02 12 52 31.4000000  0  2G09G29                                          
  23866931.19549 125421567.36349    -10666.71949        50.000  
  22510224.69549 118292028.02349     -7192.87149        50.000  
 16 04 02 12 52 31.5000000  0  2G09G29                                          
  23867134.22749 125422634.31249    -10672.47349        50.000  
  22510361.60949 118292747.52349     -7196.91449        50.000  
 16 04 02 12 52 31.6000000  0  2G09G29                                          
  23867337.35949 125423701.76649    -10677.43449        50.000  
  22510498.59449 118293467.37149     -7200.28549        50.000  
 16 04 02 12 52 31.7000000  0  2G09G29                                          
  23867540.57849 125424769.70749    -10682.32849        50.000  
  22510635.64149 118294187.54349     -7203.53549        50.000  
 16 04 02 12 52 31.8000000  0  2G09G29                                          
  23867743.89849 125425838.14849    -10687.12949        50.000  
  22510772.75049 118294908.03549     -7206.60949        50.000  
 16 04 02 12 52 31.9000000  0  2G09G29                                          
  23867947.31249 125426907.09049    -10692.25449        50.000  
  22510909.91449 118295628.87149     -7209.98849        50.000  
 16 04 02 12 52 32.0000000  0  2G09G29                                          
  23868150.82049 125427976.51649    -10697.12149        50.000  
  22511047.14849 118296350.02049     -7213.30549        50.000  
 16 04 02 12 52 32.1000000  0  2G09G29                                          
  23868354.43849 125429046.55549    -10703.03149        50.000  
  22511184.46149 118297071.61349     -7217.57849        50.000  
 16 04 02 12 52 32.2000000  0  2G09G29                                          
  23868558.14849 125430117.03149    -10707.71949        50.000  
  22511321.82849 118297793.47749     -7220.57449        50.000  
 16 04 02 12 52 32.3000000  0  2G09G29                                          
  23868761.93849 125431187.96549    -10712.03949        50.000  
  22511459.25049 118298515.64549     -7223.33649        50.000  
 16 04 02 12 52 32.4000000  0  2G09G29                                          
  23868965.82849 125432259.41449    -10717.02749        50.000  
  22511596.74249 118299238.14849     -7226.52749        50.000  
 16 04 02 12 52 32.5000000  0  2G09G29                                          
  23869169.82049 125433331.39549    -10722.62549        50.000  
  22511734.29749 118299961.01649     -7230.50049        50.000  
 16 04 02 12 52 32.6000000  0  2G09G29                                          
  23869373.91449 125434403.89849    -10727.95749        50.000  
  22511871.92249 118300684.24649     -7234.10549        50.000  
 16 04 02 12 52 32.7000000  0  2G09G29                                          
  23869578.08649 125435476.85949    -10732.25849        50.000  
  22512009.60249 118301407.75849     -7236.76649        50.000  
 16 04 02 12 52 32.8000000  0  2G09G29                                          
  23869782.36749 125436550.34049    -10737.63349        50.000  
  22512147.35249 118302131.63349     -7240.51249        50.000  
 16 04 02 12 52 32.9000000  0  2G09G29                                          
  23869986.73449 125437624.30949    -10742.59849        50.000  
  22512285.16449 118302855.82449     -7243.66049        50.000  
 16 04 02 12 52 33.0000000  0  2G09G29                                          
  23870191.21949 125438698.86349    -10748.73849        50.000  
  22512423.05549 118303580.43849     -7248.16849        50.000  
 16 04 02 12 52 33.1000000  0  2G09G29                                          
  23870395.80549 125439773.98449    -10754.09449        50.000  
  22512561.02349 118304305.44949     -7251.88749        50.000  
 16 04 02 12 52 33.2000000  0  2G09G29                                          
  23870600.48449 125440849.55549    -10758.53549        50.000  
  22512699.03949 118305030.74649     -7254.77349        50.000  
 16 04 02 12 52 33.3000000  0  2G09G29                                          
  23870805.25049 125441925.63749    -10763.67649        50.000  
  22512837.12549 118305756.38349     -7258.18449        50.000  
 16 04 02 12 52 33.4000000  0  2G09G29                                          
  23871010.11749 125443002.20349    -10768.50049        50.000  
  22512975.27349 118306482.32849     -7261.15649        50.000  
 16 04 02 12 52 33.5000000  0  2G09G29                                          
  23871215.08649 125444079.31649    -10774.04749        50.000  
  22513113.49249 118307208.68049     -7265.23049        50.000  
 16 04 02 12 52 33.6000000  0  2G09G29                                          
  23871420.14849 125445156.92649    -10778.92649        50.000  
  22513251.77349 118307935.34849     -7268.50449        50.000  
 16 04 02 12 52 33.7000000  0  2G09G29                                          
  23871625.30549 125446235.04349    -10783.96949        50.000  
  22513390.11749 118308662.35249     -7271.78549        50.000  
 16 04 02 12 52 33.8000000  0  2G09G29                                          
  23871830.56249 125447313.65649    -10788.87149        50.000  
  22513528.52349 118309389.69149     -7275.10949        50.000  
 16 04 02 12 52 33.9000000  0  2G09G29                                          
  23872035.91449 125448392.78149    -10794.22749        50.000  
  22513667.00049 118310117.36749     -7278.62949        50.000  
 16 04 02 12 52 34.0000000  0  2G09G29                                          
  23872241.35949 125449472.39149    -10798.86749        50.000  
  22513805.53149 118310845.37949     -7281.75049        50.000  
 16 04 02 12 52 34.1000000  0  2G09G29                                          
  23872446.89149 125450552.48049    -10803.61349        50.000  
  22513944.12549 118311573.68849     -7284.70749        50.000  
 16 04 02 12 52 34.2000000  0  2G09G29                                          
  23872652.53149 125451633.13749    -10809.25449        50.000  
  22514082.79749 118312302.41049     -7288.89549        50.000  
 16 04 02 12 52 34.3000000  0  2G09G29                                          
  23872858.25849 125452714.23849    -10813.84049        50.000  
  22514221.51649 118313031.39549     -7291.67249        50.000  
 16 04 02 12 52 34.4000000  0  2G09G29                                          
  23873064.08649 125453795.85249    -10819.01649        50.000  
  22514360.31249 118313760.73849     -7295.14849        50.000  
 16 04 02 12 52 34.5000000  0  2G09G29                                          
  23873270.01649 125454878.02049    -10824.59449        50.000  
  22514499.17249 118314490.46949     -7299.06649        50.000  
 16 04 02 12 52 34.6000000  0  2G09G29                                          
  23873476.03949 125455960.68049    -10829.42249        50.000  
  22514638.10249 118315220.52749     -7302.33649        50.000  
 16 04 02 12 52 34.7000000  0  2G09G29                                          
  23873682.15649 125457043.81649    -10834.10549        50.000  
  22514777.07849 118315950.88349     -7305.35549        50.000  
 16 04 02 12 52 34.8000000  0  2G09G29                                          
  23873888.36749 125458127.47349    -10839.54349        50.000  
  22514916.13349 118316681.59849     -7308.86349        50.000  
 16 04 02 12 52 34.9000000  0  2G09G29                                          
  23874094.68049 125459211.66049    -10844.52049        50.000  
  22515055.25049 118317412.68849     -7312.53549        50.000  
 16 04 02 12 52 35.0000000  0  2G09G29                                          
  23874301.08649 125460296.32449    -10849.82449        50.000  
  22515194.43049 118318144.08249     -7315.98449        50.000  
 16 04 02 12 52 35.1000000  0  2G09G29                                          
  23874507.59449 125461381.52749    -10854.64149        50.000  
  22515333.68049 118318875.84849     -7319.19949        50.000  
 16 04 02 12 52 35.2000000  0  2G09G29                                          
  23874714.19549 125462467.21149    -10859.79349        50.000  
  22515472.99249 118319607.93049     -7322.61749        50.000  
 16 04 02 12 52 35.3000000  0  2G09G29                                          
  23874920.89849 125463553.46549    -10865.30149        50.000  
  22515612.38349 118320340.41449     -7326.55949        50.000  
 16 04 02 12 52 35.4000000  0  2G09G29                                          
  23875127.69549 125464640.19149    -10870.18049        50.000  
  22515751.82849 118321073.21149     -7329.79749        50.000  
 16 04 02 12 52 35.5000000  0  2G09G29                                          
  23875334.58649 125465727.41449    -10875.09849        50.000  
  22515891.33649 118321806.32849     -7333.05549        50.000  
 16 04 02 12 52 35.6000000  0  2G09G29                                          
  23875541.57849 125466815.15249    -10880.09449        50.000  
  22516030.90649 118322539.78949     -7336.35249        50.000  
 16 04 02 12 52 35.7000000  0  2G09G29                                          
  23875748.66449 125467903.38749    -10885.25449        50.000  
  22516170.54749 118323273.60249     -7339.96949        50.000  
 16 04 02 12 52 35.8000000  0  2G09G29                                          
  23875955.85949 125468992.21549    -10891.23449        50.000  
  22516310.27349 118324007.82449     -7344.09849        50.000  
 16 04 02 12 52 35.9000000  0  2G09G29                                          
  23876163.15649 125470081.52749    -10895.87149        50.000  
  22516450.04749 118324742.36749     -7347.19949        50.000  
 16 04 02 12 52 36.0000000  0  2G09G29                                          
  23876370.53949 125471171.33649    -10901.09849        50.000  
  22516589.89149 118325477.25049     -7350.70749        50.000  
 16 04 02 12 52 36.1000000  0  2G09G29                                          
  23876578.00849 125472261.59049    -10905.30549        50.000  
  22516729.78949 118326212.41049     -7353.24249        50.000  
 16 04 02 12 52 36.2000000  0  2G09G29                                          
  23876785.57849 125473352.36349    -10910.32849        50.000  
  22516869.75049 118326947.91049     -7356.58649        50.000  
 16 04 02 12 52 36.3000000  0  2G09G29                                          
  23876993.23449 125474443.63349    -10915.40249        50.000  
  22517009.78149 118327683.75449     -7360.09449        50.000  
 16 04 02 12 52 36.4000000  0  2G09G29                                          
  23877200.99249 125475535.41049    -10920.60949        50.000  
  22517149.86749 118328419.94149     -7363.57849        50.000  
 16 04 02 12 52 36.5000000  0  2G09G29                                          
  23877408.85249 125476627.68849    -10925.71549        50.000  
  22517290.02349 118329156.45349     -7366.96149        50.000  
 16 04 02 12 52 36.6000000  0  2G09G29                                          
  23877616.79749 125477720.44549    -10930.25049        50.000  
  22517430.23449 118329893.28549     -7369.86749        50.000  
 16 04 02 12 52 36.7000000  0  2G09G29                                          
  23877824.83649 125478813.72749    -10935.78149        50.000  
  22517570.51649 118330630.47349     -7373.69549        50.000  
 16 04 02 12 52 36.8000000  0  2G09G29                                          
  23878032.98449 125479907.52749    -10940.68049        50.000  
  22517710.86749 118331368.00849     -7376.90649        50.000  
 16 04 02 12 52 36.9000000  0  2G09G29                                          
  23878241.21949 125481001.79749    -10945.43449        50.000  
  22517851.27349 118332105.86349     -7380.27349        50.000  
 16 04 02 12 52 37.0000000  0  2G09G29                                          
  23878449.53949 125482096.54349    -10950.40249        50.000  
  22517991.74249 118332844.02349     -7383.40249        50.000  
 16 04 02 12 52 37.1000000  0  2G09G29                                          
  23878657.98449 125483191.91049    -10956.49649        50.000  
  22518132.29749 118333582.62949     -7387.83249        50.000  
 16 04 02 12 52 37.2000000  0  2G09G29                                          
  23878866.50849 125484287.73049    -10961.10249        50.000  
  22518272.90649 118334321.53149     -7390.89849        50.000  
 16 04 02 12 52 37.3000000  0  2G09G29                                          
  23879075.14849 125485384.11749    -10966.69549        50.000  
  22518413.58649 118335060.81649     -7394.66049        50.000  
 16 04 02 12 52 37.4000000  0  2G09G29                                          
  23879283.87549 125486481.00449    -10971.80949        50.000  
  22518554.33649 118335800.46149     -7398.32849        50.000  
 16 04 02 12 52 37.5000000  0  2G09G29                                          
  23879492.70349 125487578.41449    -10976.64549        50.000  
  22518695.14849 118336540.44549     -7401.41849        50.000  
 16 04 02 12 52 37.6000000  0  2G09G29                                          
  23879701.62549 125488676.27749    -10981.68449        50.000  
  22518836.02349 118337280.73449     -7404.75049        50.000  
 16 04 02 12 52 37.7000000  0  2G09G29                                          
  23879910.64849 125489774.71149    -10987.12549        50.000  
  22518976.96949 118338021.40649     -7408.45749        50.000  
 16 04 02 12 52 37.8000000  0  2G09G29                                          
  23880119.76649 125490873.60249    -10991.67249        50.000  
  22519117.96949 118338762.38349     -7411.43849        50.000  
 16 04 02 12 52 37.9000000  0  2G09G29                                          
  23880328.96149 125491972.96549    -10996.37549        50.000  
  22519259.03149 118339503.67249     -7414.52049        50.000  
 16 04 02 12 52 38.0000000  0  2G09G29                                          
  23880538.26649 125493072.85949    -11001.54749        50.000  
  22519400.16449 118340245.30949     -7418.04749        50.000  
 16 04 02 12 52 38.1000000  0  2G09G29                                          
  23880747.65649 125494173.21149    -11006.40649        50.000  
  22519541.35249 118340987.25449     -7421.16849        50.000  
 16 04 02 12 52 38.2000000  0  2G09G29                                          
  23880957.14849 125495274.11349    -11011.92249        50.000  
  22519682.60249 118341729.57049     -7424.96549        50.000  
 16 04 02 12 52 38.3000000  0  2G09G29                                          
  23881166.75049 125496375.54749    -11017.19149        50.000  
  22519823.93849 118342472.26249     -7428.73049        50.000  
 16 04 02 12 52 38.4000000  0  2G09G29                                          
  23881376.43849 125497477.49249    -11022.17649        50.000  
  22519965.32849 118343215.30149     -7432.18449        50.000  
 16 04 02 12 52 38.5000000  0  2G09G29                                          
  23881586.23449 125498579.94549    -11027.40649        50.000  
  22520106.78949 118343958.68049     -7435.62149        50.000  
 16 04 02 12 52 38.6000000  0  2G09G29                                          
  23881796.10949 125499682.84849    -11032.02349        50.000  
  22520248.31249 118344702.34449     -7438.52749        50.000  
 16 04 02 12 52 38.7000000  0  2G09G29                                          
  23882006.09449 125500786.31649    -11037.34449        50.000  
  22520389.89849 118345446.39549     -7442.17249        50.000  
 16 04 02 12 52 38.8000000  0  2G09G29                                          
  23882216.16449 125501890.27049    -11042.56249        50.000  
  22520531.55549 118346190.77749     -7445.69149        50.000  
 16 04 02 12 52 38.9000000  0  2G09G29                                          
  23882426.34449 125502994.74649    -11047.54749        50.000  
  22520673.27349 118346935.52349     -7449.14549        50.000  
 16 04 02 12 52 39.0000000  0  2G09G29                                          
  23882636.60949 125504099.71149    -11052.55949        50.000  
  22520815.04749 118347680.58649     -7452.39549        50.000  
 16 04 02 12 52 39.1000000  0  2G09G29                                          
  23882846.98449 125505205.20349    -11057.59049        50.000  
  22520956.89849 118348426.01249     -7455.95349        50.000  
 16 04 02 12 52 39.2000000  0  2G09G29                                          
  23883057.45349 125506311.22349    -11063.02349        50.000  
  22521098.82049 118349171.79349     -7459.67649        50.000  
 16 04 02 12 52 39.3000000  0  2G09G29                                          
  23883268.01649 125507417.74649    -11068.17249        50.000  
  22521240.80549 118349917.93049     -7463.18449        50.000  
 16 04 02 12 52 39.4000000  0  2G09G29                                          
  23883478.67249 125508524.74649    -11072.79349        50.000  
  22521382.84449 118350664.35949     -7466.05549        50.000  
 16 04 02 12 52 39.5000000  0  2G09G29                                          
  23883689.42249 125509632.23849    -11077.63749        50.000  
  22521524.95349 118351411.11749     -7469.21949        50.000  
 16 04 02 12 52 39.6000000  0  2G09G29                                          
  23883900.26649 125510740.24249    -11082.59049        50.000  
  22521667.11749 118352158.23049     -7472.54749        50.000  
 16 04 02 12 52 39.7000000  0  2G09G29                                          
  23884111.21149 125511848.74649    -11088.09849        50.000  
  22521809.35249 118352905.68049     -7476.42649        50.000  
 16 04 02 12 52 39.8000000  0  2G09G29                                          
  23884322.25049 125512957.79349    -11093.32449        50.000  
  22521951.65649 118353653.49649     -7479.90649        50.000  
 16 04 02 12 52 39.9000000  0  2G09G29                                          
  23884533.39849 125514067.37549    -11098.82849        50.000  
  22522094.03949 118354401.69949     -7483.84849        50.000  
 16 04 02 12 52 40.0000000  0  2G09G29                                          
  23884744.63349 125515177.42649    -11103.10549        50.000  
  22522236.47749 118355150.19149     -7486.55149        50.000  
 16 04 02 12 52 40.1000000  0  2G09G29                                          
  23884955.96949 125516287.96949    -11108.29349        50.000  
  22522378.96949 118355899.01249     -7490.07449        50.000  
 16 04 02 12 52 40.2000000  0  2G09G29                                          
  23885167.39149 125517399.03549    -11113.23449        50.000  
  22522521.53149 118356648.18849     -7493.30949        50.000  
 16 04 02 12 52 40.3000000  0  2G09G29                                          
  23885378.92249 125518510.60249    -11118.30949        50.000  
  22522664.16449 118357397.70749     -7496.84049        50.000  
 16 04 02 12 52 40.4000000  0  2G09G29                                          
  23885590.54749 125519622.69949    -11123.87949        50.000  
  22522806.85949 118358147.58649     -7500.66449        50.000  
 16 04 02 12 52 40.5000000  0  2G09G29                                          
  23885802.25849 125520735.25849    -11128.52749        50.000  
  22522949.61749 118358897.75849     -7503.44549        50.000  
 16 04 02 12 52 40.6000000  0  2G09G29                                          
  23886014.07849 125521848.36349    -11133.80149        50.000  
  22523092.44549 118359648.32049     -7507.31649        50.000  
 16 04 02 12 52 40.7000000  0  2G09G29                                          
  23886225.99249 125522961.98449    -11139.03149        50.000  
  22523235.33649 118360399.24249     -7510.95749        50.000  
 16 04 02 12 52 40.8000000  0  2G09G29                                          
  23886438.00049 125524076.07849    -11143.71949        50.000  
  22523378.28949 118361150.44949     -7513.85249        50.000  
 16 04 02 12 52 40.9000000  0  2G09G29                                          
  23886650.10249 125525190.68449    -11148.98449        50.000  
  22523521.30549 118361902.02049     -7517.47749        50.000  
 16 04 02 12 52 41.0000000  0  2G09G29                                          
  23886862.31249 125526305.84449    -11154.54749        50.000  
  22523664.40649 118362653.96949     -7521.34449        50.000  
 16 04 02 12 52 41.1000000  0  2G09G29                                          
  23887074.60949 125527421.48449    -11159.26649        50.000  
  22523807.55549 118363406.24249     -7524.45749        50.000  
 16 04 02 12 52 41.2000000  0  2G09G29                                          
  23887287.00849 125528537.65249    -11164.40249        50.000  
  22523950.77349 118364158.87949     -7528.14149        50.000  
 16 04 02 12 52 41.3000000  0  2G09G29                                          
  23887499.50849 125529654.32049    -11169.60249        50.000  
  22524094.06249 118364911.83649     -7531.48849        50.000  
 16 04 02 12 52 41.4000000  0  2G09G29                                          
  23887712.09449 125530771.48449    -11174.46949        50.000  
  22524237.41449 118365665.13749     -7534.67249        50.000  
 16 04 02 12 52 41.5000000  0  2G09G29                                          
  23887924.76649 125531889.09049    -11178.93849        50.000  
  22524380.81249 118366418.71949     -7537.46949        50.000  
 16 04 02 12 52 41.6000000  0  2G09G29                                          
  23888137.54749 125533007.26249    -11184.43449        50.000  
  22524524.28949 118367172.68449     -7541.43849        50.000  
 16 04 02 12 52 41.7000000  0  2G09G29                                          
  23888350.43049 125534125.94149    -11189.47349        50.000  
  22524667.83649 118367927.00449     -7544.86349        50.000  
 16 04 02 12 52 41.8000000  0  2G09G29                                          
  23888563.38349 125535245.02049    -11193.66049        50.000  
  22524811.42249 118368681.55949     -7547.34049        50.000  
 16 04 02 12 52 41.9000000  0  2G09G29                                          
  23888776.44549 125536364.68449    -11199.55149        50.000  
  22524955.08649 118369436.53149     -7551.49649        50.000  
 16 04 02 12 52 42.0000000  0  2G09G29                                          
  23888989.60249 125537484.82449    -11204.42249        50.000  
  22525098.82049 118370191.82449     -7554.81649        50.000  
 16 04 02 12 52 42.1000000  0  2G09G29                                          
  23889202.85949 125538605.52349    -11209.74249        50.000  
  22525242.61749 118370947.50049     -7558.42249        50.000  
 16 04 02 12 52 42.2000000  0  2G09G29                                          
  23889416.21149 125539726.68049    -11214.42249        50.000  
  22525386.47749 118371703.46949     -7561.48449        50.000  
 16 04 02 12 52 42.3000000  0  2G09G29                                          
  23889629.65649 125540848.34049    -11219.43449        50.000  
  22525530.39849 118372459.78149     -7564.88349        50.000  
 16 04 02 12 52 42.4000000  0  2G09G29                                          
  23889843.20349 125541970.54349    -11224.71949        50.000  
  22525674.39149 118373216.47749     -7568.54349        50.000  
 16 04 02 12 52 42.5000000  0  2G09G29                                          
  23890056.84449 125543093.23049    -11229.62549        50.000  
  22525818.44549 118373973.48049     -7571.83249        50.000  
 16 04 02 12 52 42.6000000  0  2G09G29                                          
  23890270.57849 125544216.41449    -11234.50449        50.000  
  22525962.56249 118374730.82049     -7574.91449        50.000  
 16 04 02 12 52 42.7000000  0  2G09G29                                          
  23890484.39849 125545340.05549    -11239.31649        50.000  
  22526106.73449 118375488.45349     -7578.19149        50.000  
 16 04 02 12 52 42.8000000  0  2G09G29                                          
  23890698.33649 125546464.27049    -11245.21549        50.000  
  22526250.99249 118376246.50849     -7582.44149        50.000  
 16 04 02 12 52 42.9000000  0  2G09G29                                          
  23890912.37549 125547589.03549    -11250.38749        50.000  
  22526395.31249 118377004.93449     -7586.05149        50.000  
 16 04 02 12 52 43.0000000  0  2G09G29                                          
  23891126.49249 125548714.24249    -11254.73049        50.000  
  22526539.68849 118377763.64149     -7588.69149        50.000  
 16 04 02 12 52 43.1000000  0  2G09G29                                          
  23891340.70349 125549839.91049    -11259.31249        50.000  
  22526684.12549 118378522.63749     -7591.53549        50.000  
 16 04 02 12 52 43.2000000  0  2G09G29                                          
  23891555.00849 125550966.11349    -11264.77049        50.000  
  22526828.62549 118379282.00849     -7595.35549        50.000  
 16 04 02 12 52 43.3000000  0  2G09G29                                          
  23891769.40649 125552092.78549    -11269.38749        50.000  
  22526973.18849 118380041.68849     -7598.46949        50.000  
 16 04 02 12 52 43.4000000  0  2G09G29                                          
  23891983.89149 125553219.92249    -11274.10949        50.000  
  22527117.80549 118380801.67249     -7601.53149        50.000  
 16 04 02 12 52 43.5000000  0  2G09G29                                          
  23892198.47749 125554347.56649    -11279.16049        50.000  
  22527262.49249 118381561.98849     -7604.81649        50.000  
 16 04 02 12 52 43.6000000  0  2G09G29                                          
  23892413.16449 125555475.76649    -11284.90249        50.000  
  22527407.25049 118382322.68849     -7608.77049        50.000  
 16 04 02 12 52 43.7000000  0  2G09G29                                          
  23892627.96149 125556604.48449    -11290.04749        50.000  
  22527552.07849 118383083.75449     -7612.39849        50.000  
 16 04 02 12 52 43.8000000  0  2G09G29                                          
  23892842.83649 125557733.68849    -11295.05949        50.000  
  22527696.96149 118383845.14849     -7615.75849        50.000  
 16 04 02 12 52 43.9000000  0  2G09G29                                          
  23893057.82849 125558863.46149    -11300.70349        50.000  
  22527841.92249 118384606.93849     -7619.73449        50.000  
 16 04 02 12 52 44.0000000  0  2G09G29                                          
  23893272.90649 125559993.71149    -11305.24249        50.000  
  22527986.95349 118385369.04749     -7622.83249        50.000  
 16 04 02 12 52 44.1000000  0  2G09G29                                          
  23893488.07049 125561124.41849    -11309.80149        50.000  
  22528132.03149 118386131.43849     -7625.46949        50.000  
 16 04 02 12 52 44.2000000  0  2G09G29                                          
  23893703.35249 125562255.71549    -11316.01249        50.000  
  22528277.19549 118386894.25849     -7630.03549        50.000  
 16 04 02 12 52 44.3000000  0  2G09G29                                          
  23893918.71949 125563387.51249    -11320.67649        50.000  
  22528422.41449 118387657.41849     -7633.24649        50.000  
 16 04 02 12 52 44.4000000  0  2G09G29                                          
  23894134.17249 125564519.71549    -11324.87549        50.000  
  22528567.68849 118388420.82049     -7635.80149        50.000  
 16 04 02 12 52 44.5000000  0  2G09G29                                          
  23894349.72749 125565652.45749    -11330.10249        50.000  
  22528713.02349 118389184.59049     -7639.35249        50.000  
 16 04 02 12 52 44.6000000  0  2G09G29                                          
  23894565.39149 125566785.75049    -11335.50849        50.000  
  22528858.44549 118389948.75049     -7643.13749        50.000  
 16 04 02 12 52 44.7000000  0  2G09G29                                          
  23894781.14149 125567919.53549    -11341.19149        50.000  
  22529003.92249 118390713.24649     -7647.07849        50.000  
 16 04 02 12 52 44.8000000  0  2G09G29                                          
  23894997.00849 125569053.91449    -11346.75849        50.000  
  22529149.47749 118391478.15649     -7650.94949        50.000  
 16 04 02 12 52 44.9000000  0  2G09G29                                          
  23895212.95349 125570188.73449    -11351.10949        50.000  
  22529295.09449 118392243.35249     -7653.83649        50.000  
 16 04 02 12 52 45.0000000  0  2G09G29                                          
  23895428.99249 125571324.01249    -11355.64549        50.000  
  22529440.75849 118393008.84849     -7656.64149        50.000  
 16 04 02 12 52 45.1000000  0  2G09G29                                          
  23895645.13349 125572459.80949    -11360.48049        50.000  
  22529586.49249 118393774.69149     -7659.91049        50.000  
 16 04 02 12 52 45.2000000  0  2G09G29                                          
  23895861.35249 125573596.07449    -11365.52749        50.000  
  22529732.28949 118394540.83249     -7663.13349        50.000  
 16 04 02 12 52 45.3000000  0  2G09G29                                          
  23896077.68849 125574732.90649    -11371.37149        50.000  
  22529878.15649 118395307.38349     -7667.28549        50.000  
 16 04 02 12 52 45.4000000  0  2G09G29                                          
  23896294.11749 125575870.26649    -11376.13349        50.000  
  22530024.10249 118396074.30549     -7670.74649        50.000  
 16 04 02 12 52 45.5000000  0  2G09G29                                          
  23896510.63349 125577008.05549    -11380.83249        50.000  
  22530170.08649 118396841.48449     -7673.61349        50.000  
 16 04 02 12 52 45.6000000  0  2G09G29                                          
  23896727.25049 125578146.36749    -11385.98849        50.000  
  22530316.14849 118397609.01649     -7677.09449        50.000  
 16 04 02 12 52 45.7000000  0  2G09G29                                          
  23896943.96149 125579285.17249    -11391.07449        50.000  
  22530462.26649 118398376.89849     -7680.54349        50.000  
 16 04 02 12 52 45.8000000  0  2G09G29                                          
  23897160.77349 125580424.54749    -11396.47749        50.000  
  22530608.46949 118399145.16449     -7684.37149        50.000  
 16 04 02 12 52 45.9000000  0  2G09G29                                          
  23897377.68049 125581564.40649    -11401.47749        50.000  
  22530754.72749 118399913.76249     -7687.80949        50.000  
 16 04 02 12 52 46.0000000  0  2G09G29                                          
  23897594.68049 125582704.76249    -11406.46949        50.000  
  22530901.05549 118400682.68449     -7691.10249        50.000  
 16 04 02 12 52 46.1000000  0  2G09G29                                          
  23897811.78149 125583845.64149    -11411.55549        50.000  
  22531047.44549 118401451.96149     -7694.46949        50.000  
 16 04 02 12 52 46.2000000  0  2G09G29                                          
  23898028.97749 125584986.96949    -11415.96549        50.000  
  22531193.89149 118402221.54749     -7697.48449        50.000  
 16 04 02 12 52 46.3000000  0  2G09G29                                          
  23898246.25049 125586128.79349    -11421.06649        50.000  
  22531340.39149 118402991.44149     -7700.73049        50.000  
 16 04 02 12 52 46.4000000  0  2G09G29                                          
  23898463.63349 125587271.13349    -11426.14149        50.000  
  22531486.96949 118403761.69549     -7704.20349        50.000  
 16 04 02 12 52 46.5000000  0  2G09G29                                          
  23898681.11749 125588413.99249    -11431.39849        50.000  
  22531633.60949 118404532.31649     -7707.89849        50.000  
 16 04 02 12 52 46.6000000  0  2G09G29                                          
  23898898.68049 125589557.29749    -11435.80149        50.000  
  22531780.30549 118405303.20349     -7710.54749        50.000  
 16 04 02 12 52 46.7000000  0  2G09G29                                          
  23899116.34449 125590701.14549    -11441.44549        50.000  
  22531927.07849 118406074.48049     -7714.54749        50.000  
 16 04 02 12 52 46.8000000  0  2G09G29                                          
  23899334.11749 125591845.55149    -11446.84049        50.000  
  22532073.92249 118406846.13749     -7718.25849        50.000  
 16 04 02 12 52 46.9000000  0  2G09G29                                          
  23899551.97749 125592990.40649    -11451.43449        50.000  
  22532220.81249 118407618.09049     -7721.35549        50.000  
 16 04 02 12 52 47.0000000  0  2G09G29                                          
  23899769.93849 125594135.79749    -11456.89149        50.000  
  22532367.78149 118408390.41849     -7725.17649        50.000  
 16 04 02 12 52 47.1000000  0  2G09G29                                          
  23899988.00049 125595281.68849    -11461.68849        50.000  
  22532514.82049 118409163.07449     -7728.30949        50.000  
 16 04 02 12 52 47.2000000  0  2G09G29                                          
  23900206.14149 125596428.03949    -11466.14549        50.000  
  22532661.89849 118409936.02749     -7731.08249        50.000  
 16 04 02 12 52 47.3000000  0  2G09G29                                          
  23900424.37549 125597574.88749    -11471.42649        50.000  
  22532809.05549 118410709.32449     -7734.79749        50.000  
 16 04 02 12 52 47.4000000  0  2G09G29                                          
  23900642.72749 125598722.32049    -11477.07449        50.000  
  22532956.28949 118411483.03149     -7738.83649        50.000  
 16 04 02 12 52 47.5000000  0  2G09G29                                          
  23900861.15649 125599870.19149    -11481.52049        50.000  
  22533103.57049 118412257.01649     -7741.66449        50.000  
 16 04 02 12 52 47.6000000  0  2G09G29                                          
  23901079.68849 125601018.56649    -11486.47749        50.000  
  22533250.92249 118413031.34049     -7744.95749        50.000  
 16 04 02 12 52 47.7000000  0  2G09G29                                          
  23901298.31249 125602167.46149    -11491.74649        50.000  
  22533398.33649 118413806.02349     -7748.48049        50.000  
 16 04 02 12 52 47.8000000  0  2G09G29                                          
  23901517.03949 125603316.89149    -11497.29349        50.000  
  22533545.82849 118414581.06649     -7752.37149        50.000  
 16 04 02 12 52 47.9000000  0  2G09G29                                          
  23901735.85949 125604466.78149    -11501.56649        50.000  
  22533693.37549 118415356.43049     -7755.15249        50.000  
 16 04 02 12 52 48.0000000  0  2G09G29                                          
  23901954.76649 125605617.14849    -11506.55949        50.000  
  22533840.97749 118416132.08649     -7758.37149        50.000  
 16 04 02 12 52 48.1000000  0  2G09G29                                          
  23902173.77349 125606768.03949    -11511.69949        50.000  
  22533988.64849 118416908.10549     -7761.87549        50.000  
 16 04 02 12 52 48.2000000  0  2G09G29                                          
  23902392.87549 125607919.43049    -11516.88749        50.000  
  22534136.38349 118417684.47349     -7765.46549        50.000  
 16 04 02 12 52 48.3000000  0  2G09G29                                          
  23902612.07849 125609071.34849    -11521.64849        50.000  
  22534284.18849 118418461.18449     -7768.69949        50.000  
 16 04 02 12 52 48.4000000  0  2G09G29                                          
  23902831.35949 125610223.65649    -11526.07449        50.000  
  22534432.03949 118419238.14849     -7771.48849        50.000  
 16 04 02 12 52 48.5000000  0  2G09G29                                          
  23903050.74249 125611376.55149    -11531.64149        50.000  
  22534579.96949 118420015.51649     -7775.19949        50.000  
 16 04 02 12 52 48.6000000  0  2G09G29                                          
  23903270.23449 125612529.99249    -11537.54349        50.000  
  22534727.96949 118420793.27749     -7779.68449        50.000  
 16 04 02 12 52 48.7000000  0  2G09G29                                          
  23903489.82849 125613683.93049    -11542.25849        50.000  
  22534876.03949 118421571.36349     -7782.67649        50.000  
 16 04 02 12 52 48.8000000  0  2G09G29                                          
  23903709.50849 125614838.34449    -11546.94949        50.000  
  22535024.16449 118422349.77049     -7785.86749        50.000  
 16 04 02 12 52 48.9000000  0  2G09G29                                          
  23903929.27349 125615993.25849    -11551.62949        50.000  
  22535172.35249 118423128.50849     -7788.93049        50.000  
 16 04 02 12 52 49.0000000  0  2G09G29                                          
  23904149.14149 125617148.64549    -11556.57449        50.000  
  22535320.60249 118423907.55149     -7792.13749        50.000  
 16 04 02 12 52 49.1000000  0  2G09G29                                          
  23904369.10249 125618304.55549    -11561.89849        50.000  
  22535468.91449 118424686.96949     -7795.84049        50.000  
 16 04 02 12 52 49.2000000  0  2G09G29                                          
  23904589.15649 125619460.94949    -11566.83249        50.000  
  22535617.29749 118425466.69549     -7799.16049        50.000  
 16 04 02 12 52 49.3000000  0  2G09G29                                          
  23904809.31249 125620617.87549    -11572.12149        50.000  
  22535765.74249 118426246.79349     -7802.84049        50.000  
 16 04 02 12 52 49.4000000  0  2G09G29                                          
  23905029.55549 125621775.25849    -11576.54349        50.000  
  22535914.24249 118427027.18049     -7805.64149        50.000  
 16 04 02 12 52 49.5000000  0  2G09G29                                          
  23905249.89849 125622933.17649    -11582.17649        50.000  
  22536062.82049 118427807.94949     -7809.57849        50.000  
 16 04 02 12 52 49.6000000  0  2G09G29                                          
  23905470.35249 125624091.66049    -11587.59849        50.000  
  22536211.46949 118428589.11349     -7813.29749        50.000  
 16 04 02 12 52 49.7000000  0  2G09G29                                          
  23905690.89149 125625250.58249    -11591.91849        50.000  
  22536360.17249 118429370.55549     -7816.09849        50.000  
 16 04 02 12 52 49.8000000  0  2G09G29                                          
  23905911.53949 125626410.09449    -11598.06249        50.000  
  22536508.95349 118430152.42249     -7820.57449        50.000  
 16 04 02 12 52 49.9000000  0  2G09G29                                          
  23906132.27349 125627570.08649    -11602.70349        50.000  
  22536657.80549 118430934.60549     -7823.58649        50.000  
 16 04 02 12 52 50.0000000  0  2G09G29                                          
  23906353.10249 125628730.52349    -11607.16049        50.000  
  22536806.70349 118431717.07049     -7826.34849        50.000  
 16 04 02 12 52 50.1000000  0  2G09G29                                          
  23906574.03149 125629891.52049    -11612.53949        50.000  
  22536955.68049 118432499.92649     -7830.04749        50.000  
 16 04 02 12 52 50.2000000  0  2G09G29                                          
  23906795.03949 125631052.94149    -11616.88749        50.000  
  22537104.70349 118433283.06649     -7833.07449        50.000  
 16 04 02 12 52 50.3000000  0  2G09G29                                          
  23907016.15649 125632214.91849    -11622.50849        50.000  
  22537253.79749 118434066.57449     -7836.73049        50.000  
 16 04 02 12 52 50.4000000  0  2G09G29                                          
  23907237.38349 125633377.45349    -11628.28949        50.000  
  22537402.97749 118434850.48849     -7840.94949        50.000  
 16 04 02 12 52 50.5000000  0  2G09G29                                          
  23907458.69549 125634540.43849    -11632.77049        50.000  
  22537552.20349 118435634.68849     -7843.87149        50.000  
 16 04 02 12 52 50.6000000  0  2G09G29                                          
  23907680.09449 125635703.89849    -11637.20349        50.000  
  22537701.49249 118436419.20349     -7846.68049        50.000  
 16 04 02 12 52 50.7000000  0  2G09G29                                          
  23907901.58649 125636867.84849    -11642.13749        50.000  
  22537850.84449 118437204.04349     -7849.96549        50.000  
 16 04 02 12 52 50.8000000  0  2G09G29                                          
  23908123.17249 125638032.29749    -11647.04749        50.000  
  22538000.25849 118437989.20349     -7853.19149        50.000  
 16 04 02 12 52 50.9000000  0  2G09G29                                          
  23908344.85249 125639197.24249    -11652.39149        50.000  
  22538149.73449 118438774.71549     -7856.95749        50.000  
 16 04 02 12 52 51.0000000  0  2G09G29                                          
  23908566.64149 125640362.74249    -11657.80549        50.000  
  22538299.28949 118439560.61349     -7860.73049        50.000  
 16 04 02 12 52 51.1000000  0  2G09G29                                          
  23908788.50849 125641528.68849    -11662.33249        50.000  
  22538448.89849 118440346.80149     -7863.69549        50.000  
 16 04 02 12 52 51.2000000  0  2G09G29                                          
  23909010.47749 125642695.13749    -11667.20749        50.000  
  22538598.56249 118441133.32849     -7866.85949        50.000  
 16 04 02 12 52 51.3000000  0  2G09G29                                          
  23909232.53949 125643862.09849    -11672.26249        50.000  
  22538748.29749 118441920.19549     -7870.29349        50.000  
 16 04 02 12 52 51.4000000  0  2G09G29                                          
  23909454.70349 125645029.55549    -11677.38349        50.000  
  22538898.10249 118442707.40649     -7873.97749        50.000  
 16 04 02 12 52 51.5000000  0  2G09G29                                          
  23909676.96149 125646197.55549    -11682.84849        50.000  
  22539047.96949 118443494.98449     -7877.64549        50.000  
 16 04 02 12 52 51.6000000  0  2G09G29                                          
  23909899.32049 125647366.06249    -11687.99649        50.000  
  22539197.91449 118444282.92249     -7881.33249        50.000  
 16 04 02 12 52 51.7000000  0  2G09G29                                          
  23910121.77349 125648535.03949    -11692.62949        50.000  
  22539347.90649 118445071.14849     -7884.01249        50.000  
 16 04 02 12 52 51.8000000  0  2G09G29                                          
  23910344.31249 125649704.51249    -11697.38349        50.000  
  22539497.96949 118445859.72749     -7887.34049        50.000  
 16 04 02 12 52 51.9000000  0  2G09G29                                          
  23910566.94549 125650874.43449    -11701.83649        50.000  
  22539648.07849 118446648.57849     -7890.17649        50.000  
 16 04 02 12 52 52.0000000  0  2G09G29                                          
  23910789.67249 125652044.89849    -11707.64149        50.000  
  22539798.26649 118447437.81649     -7894.24649        50.000  
 16 04 02 12 52 52.1000000  0  2G09G29                                          
  23911012.50049 125653215.86349    -11712.11349        50.000  
  22539948.51649 118448227.39149     -7897.27049        50.000  
 16 04 02 12 52 52.2000000  0  2G09G29                                          
  23911235.42249 125654387.29749    -11717.16049        50.000  
  22540098.82849 118449017.27049     -7900.63349        50.000  
 16 04 02 12 52 52.3000000  0  2G09G29                                          
  23911458.43849 125655559.27349    -11722.70349        50.000  
  22540249.21149 118449807.53149     -7904.46149        50.000  
 16 04 02 12 52 52.4000000  0  2G09G29                                          
  23911681.54749 125656731.72349    -11727.30949        50.000  
  22540399.65649 118450598.09049     -7907.35249        50.000  
 16 04 02 12 52 52.5000000  0  2G09G29                                          
  23911904.75049 125657904.67249    -11732.30149        50.000  
  22540550.16449 118451389.00849     -7910.85249        50.000  
 16 04 02 12 52 52.6000000  0  2G09G29                                          
  23912128.05549 125659078.14849    -11737.46149        50.000  
  22540700.73449 118452180.28149     -7914.43449        50.000  
 16 04 02 12 52 52.7000000  0  2G09G29                                          
  23912351.45349 125660252.09049    -11742.06249        50.000  
  22540851.36749 118452971.85549     -7917.35949        50.000  
 16 04 02 12 52 52.8000000  0  2G09G29                                          
  23912574.93049 125661426.46149    -11746.70749        50.000  
  22541002.04749 118453763.69949     -7920.16849        50.000  
 16 04 02 12 52 52.9000000  0  2G09G29                                          
  23912798.52349 125662601.47749    -11752.79349        50.000  
  22541152.82049 118454556.02049     -7924.79349        50.000  
 16 04 02 12 52 53.0000000  0  2G09G29                                          
  23913022.20349 125663776.89149    -11756.96149        50.000  
  22541303.64149 118455348.58649     -7927.43849        50.000  
 16 04 02 12 52 53.1000000  0  2G09G29                                          
  23913245.96949 125664952.80149    -11761.58649        50.000  
  22541454.52349 118456141.47749     -7930.46549        50.000  
 16 04 02 12 52 53.2000000  0  2G09G29                                          
  23913469.82849 125666129.18449    -11766.63749        50.000  
  22541605.46149 118456934.67249     -7933.63749        50.000  
 16 04 02 12 52 53.3000000  0  2G09G29                                          
  23913693.78949 125667306.10549    -11772.09849        50.000  
  22541756.47749 118457728.25449     -7937.56649        50.000  
 16 04 02 12 52 53.4000000  0  2G09G29                                          
  23913917.84449 125668483.52349    -11777.05549        50.000  
  22541907.55549 118458522.17649     -7941.02049        50.000  
 16 04 02 12 52 53.5000000  0  2G09G29                                          
  23914141.99249 125669661.42649    -11781.77349        50.000  
  22542058.69549 118459316.41449     -7944.03949        50.000  
 16 04 02 12 52 53.6000000  0  2G09G29                                          
  23914366.24249 125670839.86349    -11787.23049        50.000  
  22542209.90649 118460111.02349     -7947.98049        50.000  
 16 04 02 12 52 53.7000000  0  2G09G29                                          
  23914590.57849 125672018.78149    -11791.84049        50.000  
  22542361.17249 118460905.94549     -7950.92249        50.000  
 16 04 02 12 52 53.8000000  0  2G09G29                                          
  23914815.01649 125673198.18849    -11796.88749        50.000  
  22542512.50049 118461701.19149     -7954.27049        50.000  
 16 04 02 12 52 53.9000000  0  2G09G29                                          
  23915039.54749 125674378.10549    -11802.06649        50.000  
  22542663.89849 118462496.80549     -7957.81249        50.000  
 16 04 02 12 52 54.0000000  0  2G09G29                                          
  23915264.16449 125675558.49249    -11806.78549        50.000  
  22542815.35949 118463292.71149     -7960.91449        50.000  
 16 04 02 12 52 54.1000000  0  2G09G29                                          
  23915488.89149 125676739.42249    -11811.97749        50.000  
  22542966.88349 118464088.99249     -7964.46949        50.000  
 16 04 02 12 52 54.2000000  0  2G09G29                                          
  23915713.70349 125677920.84849    -11817.20749        50.000  
  22543118.47749 118464885.61749     -7968.16049        50.000  
 16 04 02 12 52 54.3000000  0  2G09G29                                          
  23915938.62549 125679102.78949    -11822.28549        50.000  
  22543270.13349 118465682.59449     -7971.54749        50.000  
 16 04 02 12 52 54.4000000  0  2G09G29                                          
  23916163.63349 125680285.22349    -11827.19949        50.000  
  22543421.85949 118466479.91049     -7974.82049        50.000  
 16 04 02 12 52 54.5000000  0  2G09G29                                          
  23916388.74249 125681468.17649    -11832.40649        50.000  
  22543573.64849 118467277.56249     -7978.30949        50.000  
 16 04 02 12 52 54.6000000  0  2G09G29                                          
  23916613.94549 125682651.60949    -11836.94149        50.000  
  22543725.50049 118468075.54349     -7981.35249        50.000  
 16 04 02 12 52 54.7000000  0  2G09G29                                          
  23916839.23449 125683835.54749    -11842.24249        50.000  
  22543877.41449 118468873.87149     -7985.02749        50.000  
 16 04 02 12 52 54.8000000  0  2G09G29                                          
  23917064.63349 125685019.98449    -11847.21549        50.000  
  22544029.39849 118469672.53949     -7988.42249        50.000  
 16 04 02 12 52 54.9000000  0  2G09G29                                          
  23917290.11749 125686204.91449    -11852.17249        50.000  
  22544181.43849 118470471.53149     -7991.69949        50.000  
 16 04 02 12 52 55.0000000  0  2G09G29                                          
  23917515.71149 125687390.41049    -11857.82849        50.000  
  22544333.56249 118471270.92649     -7995.69149        50.000  
 16 04 02 12 52 55.1000000  0  2G09G29                                          
  23917741.38349 125688576.31249    -11861.63749        50.000  
  22544485.72749 118472070.56649     -7997.96549        50.000  
 16 04 02 12 52 55.2000000  0  2G09G29                                          
  23917967.14849 125689762.74649    -11867.32449        50.000  
  22544637.96949 118472870.58249     -8002.04749        50.000  
 16 04 02 12 52 55.3000000  0  2G09G29                                          
  23918193.02349 125690949.71149    -11872.38749        50.000  
  22544790.27349 118473670.95749     -8005.41449        50.000  
 16 04 02 12 52 55.4000000  0  2G09G29                                          
  23918418.98449 125692137.14549    -11877.11349        50.000  
  22544942.63349 118474471.64549     -8008.58649        50.000  
 16 04 02 12 52 55.5000000  0  2G09G29                                          
  23918645.03949 125693325.04749    -11881.68849        50.000  
  22545095.05549 118475272.62949     -8011.46149        49.000  
 16 04 02 12 52 55.6000000  0  2G09G29                                          
  23918871.18849 125694513.46549    -11886.93849        50.000  
  22545247.55549 118476073.98449     -8015.19549        50.000  
 16 04 02 12 52 55.7000000  0  2G09G29                                          
  23919097.43849 125695702.40649    -11891.97349        50.000  
  22545400.10949 118476875.68049     -8018.54349        49.000  
 16 04 02 12 52 55.8000000  0  2G09G29                                          
  23919323.75849 125696891.75049    -11896.19149        50.000  
  22545552.71949 118477677.63749     -8021.11749        50.000  
 16 04 02 12 52 55.9000000  0  2G09G29                                          
  23919550.18049 125698081.60549    -11901.20749        50.000  
  22545705.39149 118478479.94549     -8024.57049        50.000  
 16 04 02 12 52 56.0000000  0  2G09G29                                          
  23919776.69549 125699271.95749    -11906.32449        50.000  
  22545858.12549 118479282.57049     -8027.94549        50.000  
 16 04 02 12 52 56.1000000  0  2G09G29                                          
  23920003.32049 125700462.87949    -11911.97749        50.000  
  22546010.93849 118480085.60949     -8031.97349        50.000  
 16 04 02 12 52 56.2000000  0  2G09G29                                          
  23920230.03949 125701654.29749    -11917.04749        50.000  
  22546163.81249 118480888.98049     -8035.53549        50.000  
 16 04 02 12 52 56.3000000  0  2G09G29                                          
  23920456.83649 125702846.12549    -11921.21949        50.000  
  22546316.74249 118481692.61349     -8038.05149        50.000  
 16 04 02 12 52 56.4000000  0  2G09G29                                          
  23920683.74249 125704038.51249    -11926.52749        50.000  
  22546469.74249 118482496.62549     -8041.76649        50.000  
 16 04 02 12 52 56.5000000  0  2G09G29                                          
  23920910.74249 125705231.40249    -11931.88349        50.000  
  22546622.80549 118483301.00449     -8045.62949        50.000  
 16 04 02 12 52 56.6000000  0  2G09G29                                          
  23921137.82849 125706424.75849    -11936.05949        50.000  
  22546775.93049 118484105.66049     -8048.10549        50.000  
 16 04 02 12 52 56.7000000  0  2G09G29                                          
  23921365.00849 125707618.59049    -11941.04349        50.000  
  22546929.10949 118484910.64549     -8051.53149        50.000  
 16 04 02 12 52 56.8000000  0  2G09G29                                          
  23921592.28149 125708812.89549    -11945.77749        50.000  
  22547082.35249 118485715.93849     -8054.68049        50.000  
 16 04 02 12 52 56.9000000  0  2G09G29                                          
  23921819.64849 125710007.74249    -11951.30549        50.000  
  22547235.66449 118486521.60549     -8058.54749        50.000  
 16 04 02 12 52 57.0000000  0  2G09G29                                          
  23922047.10949 125711203.03949    -11955.80549        50.000  
  22547389.03949 118487327.57049     -8061.32049        50.000  
 16 04 02 12 52 57.1000000  0  2G09G29                                          
  23922274.67249 125712398.90249    -11961.64149        50.000  
  22547542.48449 118488133.94149     -8065.64549        50.000  
 16 04 02 12 52 57.2000000  0  2G09G29                                          
  23922502.33649 125713595.27749    -11966.50449        50.000  
  22547696.00049 118488940.65249     -8068.76249        49.000  
 16 04 02 12 52 57.3000000  0  2G09G29                                          
  23922730.08649 125714792.10249    -11971.03949        50.000  
  22547849.56249 118489747.65649     -8071.83249        50.000  
 16 04 02 12 52 57.4000000  0  2G09G29                                          
  23922957.93049 125715989.42649    -11976.07849        50.000  
  22548003.20349 118490555.00849     -8075.25449        50.000  
 16 04 02 12 52 57.5000000  0  2G09G29                                          
  23923185.87549 125717187.28949    -11981.45349        50.000  
  22548156.90649 118491362.71949     -8078.89549        49.000  
 16 04 02 12 52 57.6000000  0  2G09G29                                          
  23923413.92249 125718385.68449    -11986.86349        50.000  
  22548310.68049 118492170.80949     -8082.81249        49.000  
 16 04 02 12 52 57.7000000  0  2G09G29                                          
  23923642.05549 125719584.56249    -11991.55549        50.000  
  22548464.51649 118492979.21149     -8085.76249        49.000  
 16 04 02 12 52 57.8000000  0  2G09G29                                          
  23923870.29749 125720783.96949    -11996.92249        50.000  
  22548618.42249 118493787.99249     -8089.64149        49.000  
 16 04 02 12 52 57.9000000  0  2G09G29                                          
  23924098.63349 125721983.86349    -12001.68049        50.000  
  22548772.38349 118494597.10249     -8092.77749        49.000  
 16 04 02 12 52 58.0000000  0  2G09G29                                          
  23924327.04749 125723184.19549    -12006.07849        50.000  
  22548926.40649 118495406.48449     -8095.48849        49.000  
 16 04 02 12 52 58.1000000  0  2G09G29                                          
  23924555.55549 125724385.01649    -12010.80549        50.000  
  22549080.49249 118496216.19549     -8098.71949        49.000  
 16 04 02 12 52 58.2000000  0  2G09G29                                          
  23924784.15649 125725586.32849    -12015.86749        50.000  
  22549234.63349 118497026.23449     -8102.10549        49.000  
 16 04 02 12 52 58.3000000  0  2G09G29                                          
  23925012.86749 125726788.19549    -12021.30949        50.000  
  22549388.85249 118497836.66049     -8105.92649        49.000  
 16 04 02 12 52 58.4000000  0  2G09G29                                          
  23925241.64849 125727990.44549    -12025.27049        50.000  
  22549543.11749 118498647.31649     -8108.24649        49.000  
 16 04 02 12 52 58.5000000  0  2G09G29                                          
  23925470.54749 125729193.30549    -12031.55149        50.000  
  22549697.46949 118499458.41849     -8112.90649        49.000  
 16 04 02 12 52 58.6000000  0  2G09G29                                          
  23925699.54749 125730396.73049    -12037.09049        50.000  
  22549851.89149 118500269.92249     -8116.87949        50.000  
 16 04 02 12 52 58.7000000  0  2G09G29                                          
  23925928.64149 125731600.61349    -12041.94149        50.000  
  22550006.37549 118501081.71949     -8120.03149        49.000  
 16 04 02 12 52 58.8000000  0  2G09G29                                          
  23926157.82849 125732804.99649    -12046.43449        50.000  
  22550160.92249 118501893.86349     -8122.96149        49.000  
 16 04 02 12 52 58.9000000  0  2G09G29                                          
  23926387.10249 125734009.86349    -12051.32449        50.000  
  22550315.52349 118502706.32849     -8126.18849        50.000  
 16 04 02 12 52 59.0000000  0  2G09G29                                          
  23926616.47749 125735215.22749    -12056.45349        50.000  
  22550470.19549 118503519.13349     -8129.85549        50.000  
 16 04 02 12 52 59.1000000  0  2G09G29                                          
  23926845.94549 125736421.09849    -12061.48849        50.000  
  22550624.93049 118504332.27749     -8133.11349        49.000  
 16 04 02 12 52 59.2000000  0  2G09G29                                          
  23927075.50049 125737627.39549    -12065.62949        50.000  
  22550779.71949 118505145.69149     -8135.73049        49.000  
 16 04 02 12 52 59.3000000  0  2G09G29                                          
  23927305.14849 125738834.21549    -12070.85549        50.000  
  22550934.57849 118505959.45749     -8139.37149        49.000  
 16 04 02 12 52 59.4000000  0  2G09G29                                          
  23927534.89149 125740041.54349    -12076.20349        50.000  
  22551089.50049 118506773.57849     -8142.98449        50.000  
 16 04 02 12 52 59.5000000  0  2G09G29                                          
  23927764.74249 125741249.38749    -12081.44549        50.000  
  22551244.48449 118507588.05149     -8146.56649        50.000  
 16 04 02 12 52 59.6000000  0  2G09G29                                          
  23927994.68049 125742457.73849    -12086.09049        50.000  
  22551399.54749 118508402.88349     -8149.79349        50.000  
 16 04 02 12 52 59.7000000  0  2G09G29                                          
  23928224.71149 125743666.57049    -12091.13749        50.000  
  22551554.65649 118509218.01249     -8153.23849        50.000  
 16 04 02 12 52 59.8000000  0  2G09G29                                          
  23928454.84449 125744875.91849    -12096.21549        50.000  
  22551709.84449 118510033.51249     -8156.64849        49.000  
 16 04 02 12 52 59.9000000  0  2G09G29                                          
  23928685.06249 125746085.71949    -12100.92649        50.000  
  22551865.08649 118510849.30149     -8159.85949        49.000  
 16 04 02 12 53  0.0000000  0  2G09G29                                          
  23928915.38349 125747296.06249    -12106.24649        50.000  
  22552020.39849 118511665.47349     -8163.44149        49.000  
 16 04 02 12 53  0.1000000  0  2G09G29                                          
  23929145.78949 125748506.85549    -12110.57449        50.000  
  22552175.76649 118512481.92249     -8166.13349        49.000  
 16 04 02 12 53  0.2000000  0  2G09G29                                          
  23929376.28949 125749718.13749    -12115.48449        50.000  
  22552331.19549 118513298.71149     -8169.47349        49.000  
 16 04 02 12 53  0.3000000  0  2G09G29                                          
  23929606.88349 125750929.91849    -12120.55949        50.000  
  22552486.68849 118514115.84449     -8173.03149        49.000  
 16 04 02 12 53  0.4000000  0  2G09G29                                          
  23929837.59449 125752142.28549    -12126.65249        50.000  
  22552642.25849 118514933.37549     -8177.32449        49.000  
 16 04 02 12 53  0.5000000  0  2G09G29                                          
  23930068.39149 125753355.12949    -12131.14549        49.000  
  22552797.89849 118515751.25049     -8180.41049        49.000  
 16 04 02 12 53  0.6000000  0  2G09G29                                          
  23930299.26649 125754568.38749    -12135.46949        50.000  
  22552953.57849 118516569.36749     -8182.99249        49.000  
 16 04 02 12 53  0.7000000  0  2G09G29                                          
  23930530.25849 125755782.25849    -12141.52749        50.000  
  22553109.34449 118517387.93449     -8187.39849        49.000  
 16 04 02 12 53  0.8000000  0  2G09G29                                          
  23930761.33649 125756996.57849    -12145.96949        50.000  
  22553265.17249 118518206.79749     -8190.31249        49.000  
 16 04 02 12 53  0.9000000  0  2G09G29                                          
  23930992.50049 125758211.35549    -12150.37949        50.000  
  22553421.04749 118519025.94549     -8193.04749        49.000  
 16 04 02 12 53  1.0000000  0  2G09G29                                          
  23931223.76649 125759426.65249    -12155.66449        50.000  
  22553577.00049 118519845.46549     -8196.85549        49.000  
 16 04 02 12 53  1.1000000  0  2G09G29                                          
  23931455.11749 125760642.42649    -12160.58649        50.000  
  22553733.00849 118520665.28949     -8200.13349        49.000  
 16 04 02 12 53  1.2000000  0  2G09G29                                          
  23931686.57849 125761858.75849    -12166.13749        50.000  
  22553889.09449 118521485.51649     -8204.10549        49.000  
 16 04 02 12 53  1.3000000  0  2G09G29                                          
  23931918.12549 125763075.53149    -12170.40249        50.000  
  22554045.23449 118522306.03149     -8206.77749        49.000  
 16 04 02 12 53  1.4000000  0  2G09G29                                          
  23932149.77349 125764292.86349    -12176.35949        50.000  
  22554201.44549 118523126.93449     -8210.89149        49.000  
 16 04 02 12 53  1.5000000  0  2G09G29                                          
  23932381.52349 125765510.72349    -12181.40649        50.000  
  22554357.72749 118523948.21149     -8214.55549        50.000  
 16 04 02 12 53  1.6000000  0  2G09G29                                          
  23932613.35949 125766729.04349    -12186.06649        50.000  
  22554514.06249 118524769.77749     -8217.45749        50.000  
 16 04 02 12 53  1.7000000  0  2G09G29                                          
  23932845.29749 125767947.84049    -12190.75849        50.000  
  22554670.46949 118525591.68049     -8220.78949        50.000  
 16 04 02 12 53  1.8000000  0  2G09G29                                          
  23933077.32049 125769167.12149    -12195.43449        50.000  
  22554826.93049 118526413.89149     -8223.81649        50.000  
 16 04 02 12 53  1.9000000  0  2G09G29                                          
  23933309.44549 125770386.95749    -12200.98449        50.000  
  22554983.46949 118527236.49249     -8227.71549        49.000  
 16 04 02 12 53  2.0000000  0  2G09G29                                          
  23933541.65649 125771607.23449    -12205.43849        50.000  
  22555140.06249 118528059.38749     -8230.64849        49.000  
 16 04 02 12 53  2.1000000  0  2G09G29                                          
  23933773.94549 125772827.91449    -12209.70349        50.000  
  22555296.69549 118528882.51249     -8233.06249        49.000  
 16 04 02 12 53  2.2000000  0  2G09G29                                          
  23934006.33649 125774049.16449    -12214.82049        50.000  
  22555453.40649 118529706.04349     -8236.79749        49.000  
 16 04 02 12 53  2.3000000  0  2G09G29                                          
  23934238.82849 125775270.88749    -12220.14549        50.000  
  22555610.18849 118530529.90649     -8240.44149        49.000  
 16 04 02 12 53  2.4000000  0  2G09G29                                          
  23934471.41449 125776493.14849    -12225.59449        50.000  
  22555767.03149 118531354.14549     -8244.34849        50.000  
 16 04 02 12 53  2.5000000  0  2G09G29                                          
  23934704.11749 125777715.97349    -12231.28149        50.000  
  22555923.94549 118532178.75449     -8248.18449        49.000  
 16 04 02 12 53  2.6000000  0  2G09G29                                          
  23934936.88349 125778939.19549    -12234.92649        50.000  
  22556080.92249 118533003.64849     -8250.57849        49.000  
 16 04 02 12 53  2.7000000  0  2G09G29                                          
  23935169.75049 125780162.90249    -12239.80149        50.000  
  22556237.94549 118533828.82849     -8253.44549        49.000  
 16 04 02 12 53  2.8000000  0  2G09G29                                          
  23935402.71949 125781387.15249    -12245.32049        50.000  
  22556395.05549 118534654.40649     -8257.52349        49.000  
 16 04 02 12 53  2.9000000  0  2G09G29                                          
  23935635.76649 125782611.84849    -12249.77349        50.000  
  22556552.21149 118535480.27749     -8260.47349        49.000  
 16 04 02 12 53  3.0000000  0  2G09G29                                          
  23935868.91449 125783837.05149    -12254.65249        50.000  
  22556709.43049 118536306.48049     -8263.48049        50.000  
 16 04 02 12 53  3.1000000  0  2G09G29                                          
  23936102.14849 125785062.68449    -12259.16049        50.000  
  22556866.70349 118537132.96949     -8266.59849        49.000  
 16 04 02 12 53  3.2000000  0  2G09G29                                          
  23936335.49249 125786288.90249    -12264.92649        50.000  
  22557024.05549 118537959.85549     -8270.66449        50.000  
 16 04 02 12 53  3.3000000  0  2G09G29                                          
  23936568.92249 125787515.59049    -12269.72749        50.000  
  22557181.47749 118538787.07849     -8273.89549        50.000  
 16 04 02 12 53  3.4000000  0  2G09G29                                          
  23936802.46149 125788742.83649    -12275.40249        50.000  
  22557338.96149 118539614.68449     -8277.90249        49.000  
 16 04 02 12 53  3.5000000  0  2G09G29                                          
  23937036.08649 125789970.55949    -12279.91449        50.000  
  22557496.50849 118540442.60949     -8280.93049        50.000  
 16 04 02 12 53  3.6000000  0  2G09G29                                          
  23937269.79749 125791198.72349    -12284.24249        50.000  
  22557654.10949 118541270.80949     -8283.49649        49.000  
 16 04 02 12 53  3.7000000  0  2G09G29                                          
  23937503.60249 125792427.37549    -12289.41849        50.000  
  22557811.77349 118542099.34849     -8287.06249        49.000  
 16 04 02 12 53  3.8000000  0  2G09G29                                          
  23937737.50849 125793656.56249    -12294.81649        50.000  
  22557969.51649 118542928.28549     -8291.08249        49.000  
 16 04 02 12 53  3.9000000  0  2G09G29                                          
  23937971.50849 125794886.25449    -12299.74249        50.000  
  22558127.31249 118543757.52049     -8294.02749        49.000  
 16 04 02 12 53  4.0000000  0  2G09G29                                          
  23938205.60949 125796116.45349    -12304.93849        50.000  
  22558285.18849 118544587.14549     -8298.05149        50.000  
 16 04 02 12 53  4.1000000  0  2G09G29                                          
  23938439.80549 125797347.14849    -12309.83249        50.000  
  22558443.11749 118545417.07049     -8301.01649        50.000  
 16 04 02 12 53  4.2000000  0  2G09G29                                          
  23938674.10249 125798578.38749    -12315.35949        50.000  
  22558601.12549 118546247.38749     -8304.87549        50.000  
 16 04 02 12 53  4.3000000  0  2G09G29                                          
  23938908.48449 125799810.07849    -12319.56249        50.000  
  22558759.18049 118547078.00849     -8307.85549        50.000  
 16 04 02 12 53  4.4000000  0  2G09G29                                          
  23939142.96149 125801042.23849    -12324.59049        50.000  
  22558917.30549 118547908.93849     -8311.04349        50.000  
 16 04 02 12 53  4.5000000  0  2G09G29                                          
  23939377.53149 125802274.93049    -12329.35549        50.000  
  22559075.49249 118548740.23449     -8314.47749        50.000  
 16 04 02 12 53  4.6000000  0  2G09G29                                          
  23939612.19549 125803508.07449    -12334.23849        50.000  
  22559233.74249 118549571.82049     -8317.54349        50.000  
 16 04 02 12 53  4.7000000  0  2G09G29                                          
  23939846.95349 125804741.74249    -12339.41449        50.000  
  22559392.05549 118550403.78149     -8321.18049        50.000  
 16 04 02 12 53  4.8000000  0  2G09G29                                          
  23940081.80549 125805975.89549    -12344.37949        50.000  
  22559550.43049 118551236.05549     -8324.51649        50.000  
 16 04 02 12 53  4.9000000  0  2G09G29                                          
  23940316.76649 125807210.59849    -12349.96549        50.000  
  22559708.88349 118552068.72749     -8328.58649        50.000  
 16 04 02 12 53  5.0000000  0  2G09G29                                          
  23940551.81249 125808445.78549    -12354.53549        50.000  
  22559867.39849 118552901.71149     -8331.46949        50.000  
 16 04 02 12 53  5.1000000  0  2G09G29                                          
  23940786.94549 125809681.40649    -12358.82849        50.000  
  22560025.96149 118553734.97749     -8334.18449        50.000  
 16 04 02 12 53  5.2000000  0  2G09G29                                          
  23941022.17249 125810917.54749    -12364.07849        50.000  
  22560184.59449 118554568.60549     -8337.85249        50.000  
 16 04 02 12 53  5.3000000  0  2G09G29                                          
  23941257.49249 125812154.17249    -12368.95349        50.000  
  22560343.28949 118555402.55949     -8341.27749        50.000  
 16 04 02 12 53  5.4000000  0  2G09G29                                          
  23941492.90649 125813391.28949    -12373.90649        50.000  
  22560502.05549 118556236.84849     -8344.63749        50.000  
 16 04 02 12 53  5.5000000  0  2G09G29                                          
  23941728.42249 125814628.92249    -12379.24249        50.000  
  22560660.87549 118557071.47749     -8348.13349        50.000  
 16 04 02 12 53  5.6000000  0  2G09G29                                          
  23941964.03949 125815867.07849    -12384.19549        50.000  
  22560819.77349 118557906.48049     -8351.67649        50.000  
 16 04 02 12 53  5.7000000  0  2G09G29                                          
  23942199.74249 125817105.68849    -12388.96149        50.000  
  22560978.72749 118558741.78549     -8354.87149        50.000  
 16 04 02 12 53  5.8000000  0  2G09G29                                          
  23942435.54749 125818344.87949    -12394.83249        50.000  
  22561137.75849 118559577.49249     -8358.94949        50.000  
 16 04 02 12 53  5.9000000  0  2G09G29                                          
  23942671.45349 125819584.54349    -12399.45349        50.000  
  22561296.84449 118560413.52049     -8362.04349        50.000  
 16 04 02 12 53  6.0000000  0  2G09G29                                          
  23942907.45349 125820824.72349    -12404.83649        50.000  
  22561456.00849 118561249.91049     -8365.74249        50.000  
 16 04 02 12 53  6.1000000  0  2G09G29                                          
  23943143.53949 125822065.39149    -12409.21949        50.000  
  22561615.22749 118562086.62549     -8368.70349        50.000  
 16 04 02 12 53  6.2000000  0  2G09G29                                          
  23943379.71949 125823306.50049    -12413.75849        50.000  
  22561774.50849 118562923.63349     -8371.68449        50.000  
 16 04 02 12 53  6.3000000  0  2G09G29                                          
  23943615.98449 125824548.09449    -12418.51649        50.000  
  22561933.84449 118563760.94149     -8374.75449        50.000  
 16 04 02 12 53  6.4000000  0  2G09G29                                          
  23943852.35249 125825790.19149    -12423.89149        50.000  
  22562093.24249 118564598.61349     -8378.50849        50.000  
 16 04 02 12 53  6.5000000  0  2G09G29                                          
  23944088.82049 125827032.84849    -12429.54749        50.000  
  22562252.72749 118565436.69149     -8382.73849        50.000  
 16 04 02 12 53  6.6000000  0  2G09G29                                          
  23944325.38349 125828275.98849    -12434.28149        50.000  
  22562412.26649 118566275.06649     -8385.64849        50.000  
 16 04 02 12 53  6.7000000  0  2G09G29                                          
  23944562.02349 125829519.55949    -12438.25849        50.000  
  22562571.85949 118567113.72749     -8388.11349        50.000  
 16 04 02 12 53  6.8000000  0  2G09G29                                          
  23944798.75849 125830763.57849    -12442.93849        50.000  
  22562731.50849 118567952.68849     -8391.18049        50.000  
 16 04 02 12 53  6.9000000  0  2G09G29                                          
  23945035.58649 125832008.14149    -12448.40649        50.000  
  22562891.22749 118568792.02049     -8395.05549        50.000  
 16 04 02 12 53  7.0000000  0  2G09G29                                          
  23945272.52349 125833253.25449    -12454.12549        50.000  
  22563051.02349 118569631.75049     -8399.24249        50.000  
 16 04 02 12 53  7.1000000  0  2G09G29                                          
  23945509.56249 125834498.88749    -12459.27749        50.000  
  22563210.88349 118570471.83649     -8402.80949        50.000  
 16 04 02 12 53  7.2000000  0  2G09G29                                          
  23945746.68849 125835745.00849    -12463.95749        50.000  
  22563370.81249 118571312.24649     -8405.95749        50.000  
 16 04 02 12 53  7.3000000  0  2G09G29                                          
  23945983.91449 125836991.62149    -12468.80549        50.000  
  22563530.80549 118572152.98849     -8409.11749        50.000  
 16 04 02 12 53  7.4000000  0  2G09G29                                          
  23946221.23449 125838238.72749    -12473.95349        50.000  
  22563690.85249 118572994.07049     -8412.60249        50.000  
 16 04 02 12 53  7.5000000  0  2G09G29                                          
  23946458.64849 125839486.34849    -12478.71149        50.000  
  22563850.97749 118573835.50849     -8415.94549        50.000  
 16 04 02 12 53  7.6000000  0  2G09G29                                          
  23946696.13349 125840734.35549    -12482.85549        50.000  
  22564011.14149 118574677.17649     -8418.36749        50.000  
 16 04 02 12 53  7.7000000  0  2G09G29                                          
  23946933.71949 125841982.87949    -12487.98049        50.000  
  22564171.36749 118575519.19149     -8421.85549        50.000  
 16 04 02 12 53  7.8000000  0  2G09G29                                          
  23947171.40649 125843231.91849    -12492.94549        50.000  
  22564331.66449 118576361.57049     -8425.39849        50.000  
 16 04 02 12 53  7.9000000  0  2G09G29                                          
  23947409.18049 125844481.41849    -12497.80949        50.000  
  22564492.02349 118577204.25049     -8428.56249        50.000  
 16 04 02 12 53  8.0000000  0  2G09G29                                          
  23947647.05549 125845731.47349    -12503.34449        50.000  
  22564652.46149 118578047.32849     -8432.50449        50.000  
 16 04 02 12 53  8.1000000  0  2G09G29                                          
  23947885.03149 125846982.01649    -12508.39849        50.000  
  22564812.95349 118578890.73049     -8435.96949        50.000  
 16 04 02 12 53  8.2000000  0  2G09G29                                          
  23948123.10249 125848233.07849    -12513.43449        50.000  
  22564973.51649 118579734.49649     -8439.30549        50.000  
 16 04 02 12 53  8.3000000  0  2G09G29                                          
  23948361.25849 125849484.60249    -12517.92649        50.000  
  22565134.13349 118580578.54749     -8442.19549        50.000  
 16 04 02 12 53  8.4000000  0  2G09G29                                          
  23948599.51649 125850736.62549    -12523.09049        50.000  
  22565294.82049 118581422.96149     -8445.85549        50.000  
 16 04 02 12 53  8.5000000  0  2G09G29                                          
  23948837.86749 125851989.17249    -12528.38749        50.000  
  22565455.57849 118582267.73449     -8449.56649        50.000  
 16 04 02 12 53  8.6000000  0  2G09G29                                          
  23949076.30549 125853242.18049    -12532.72749        50.000  
  22565616.39149 118583112.80149     -8452.30549        50.000  
 16 04 02 12 53  8.7000000  0  2G09G29                                          
  23949314.84449 125854495.68449    -12537.80149        50.000  
  22565777.26649 118583958.22349     -8455.88349        50.000  
 16 04 02 12 53  8.8000000  0  2G09G29                                          
  23949553.46949 125855749.66849    -12542.49649        50.000  
  22565938.20349 118584803.95349     -8458.94549        50.000  
 16 04 02 12 53  8.9000000  0  2G09G29                                          
  23949792.18849 125857004.17649    -12547.90249        50.000  
  22566099.20349 118585650.03949     -8462.72349        50.000  
 16 04 02 12 53  9.0000000  0  2G09G29                                          
  23950031.00849 125858259.18049    -12553.05549        50.000  
  22566260.27349 118586496.47349     -8466.25449        50.000  
 16 04 02 12 53  9.1000000  0  2G09G29                                          
  23950269.93049 125859514.71549    -12558.27049        50.000  
  22566421.41449 118587343.28149     -8469.90249        50.000  
 16 04 02 12 53  9.2000000  0  2G09G29                                          
  23950508.93849 125860770.69549    -12562.28949        50.000  
  22566582.61749 118588190.36349     -8472.38349        50.000  
 16 04 02 12 53  9.3000000  0  2G09G29                                          
  23950748.02349 125862027.09449    -12566.60549        50.000  
  22566743.85949 118589037.71949     -8475.10949        50.000  
 16 04 02 12 53  9.4000000  0  2G09G29                                          
  23950987.21149 125863284.04349    -12572.27749        50.000  
  22566905.18049 118589885.46549     -8479.13749        50.000  
 16 04 02 12 53  9.5000000  0  2G09G29                                          
  23951226.49249 125864541.47749    -12577.08249        50.000  
  22567066.56249 118590733.52349     -8482.32449        50.000  
 16 04 02 12 53  9.6000000  0  2G09G29                                          
  23951465.86749 125865799.39549    -12581.86749        50.000  
  22567228.00849 118591581.92649     -8485.60949        50.000  
 16 04 02 12 53  9.7000000  0  2G09G29                                          
  23951705.32849 125867057.77049    -12586.46149        50.000  
  22567389.50849 118592430.61749     -8488.47349        50.000  
 16 04 02 12 53  9.8000000  0  2G09G29                                          
  23951944.89149 125868316.68449    -12592.04749        50.000  
  22567551.07849 118593279.69149     -8492.58249        50.000  
 16 04 02 12 53  9.9000000  0  2G09G29                                          
  23952184.53949 125869576.04349    -12596.19149        50.000  
  22567712.70349 118594129.05149     -8495.20349        50.000  
 16 04 02 12 53 10.0000000  0  2G09G29                                          
  23952424.28149 125870835.86349    -12601.00449        50.000  
  22567874.39149 118594978.69949     -8498.27749        50.000  
 16 04 02 12 53 10.1000000  0  2G09G29                                          
  23952664.11749 125872096.23049    -12606.46949        50.000  
  22568036.14849 118595828.75449     -8502.34849        50.000  
 16 04 02 12 53 10.2000000  0  2G09G29                                          
  23952904.05549 125873357.11749    -12611.74249        50.000  
  22568197.97749 118596679.16449     -8505.82449        50.000  
 16 04 02 12 53 10.3000000  0  2G09G29                                          
  23953144.07849 125874618.43049    -12615.89549        50.000  
  22568359.85949 118597529.84049     -8508.45349        50.000  
 16 04 02 12 53 10.4000000  0  2G09G29                                          
  23953384.20349 125875880.27749    -12621.10549        50.000  
  22568521.80549 118598380.89849     -8512.17249        50.000  
 16 04 02 12 53 10.5000000  0  2G09G29                                          
  23953624.42249 125877142.64149    -12626.34849        50.000  
  22568683.82849 118599232.30549     -8515.87149        50.000  
 16 04 02 12 53 10.6000000  0  2G09G29                                          
  23953864.72749 125878405.45349    -12630.96949        50.000  
  22568845.89849 118600084.00449     -8518.74649        50.000  
 16 04 02 12 53 10.7000000  0  2G09G29                                          
  23954105.14149 125879668.82049    -12636.46949        50.000  
  22569008.04749 118600936.10249     -8522.73849        50.000  
 16 04 02 12 53 10.8000000  0  2G09G29                                          
  23954345.64149 125880932.66849    -12641.16849        50.000  
  22569170.25049 118601788.51649     -8525.85249        50.000  
 16 04 02 12 53 10.9000000  0  2G09G29                                          
  23954586.22749 125882196.93449    -12645.32849        50.000  
  22569332.51649 118602641.20349     -8528.43449        50.000  
 16 04 02 12 53 11.0000000  0  2G09G29                                          
  23954826.90649 125883461.73049    -12650.82449        50.000  
  22569494.84449 118603494.25049     -8532.22749        50.000  
 16 04 02 12 53 11.1000000  0  2G09G29                                          
  23955067.69549 125884727.07449    -12656.32849        50.000  
  22569657.25049 118604347.69949     -8536.26649        50.000  
 16 04 02 12 53 11.2000000  0  2G09G29                                          
  23955308.57049 125885992.87949    -12660.61349        50.000  
  22569819.71149 118605201.43849     -8539.14149        50.000  
 16 04 02 12 53 11.3000000  0  2G09G29                                          
  23955549.53949 125887259.18849    -12665.71549        50.000  
  22569982.23449 118606055.50849     -8542.38349        50.000  
 16 04 02 12 53 11.4000000  0  2G09G29                                          
  23955790.59449 125888525.94549    -12670.39849        50.000  
  22570144.82049 118606909.89849     -8545.67249        50.000  
 16 04 02 12 53 11.5000000  0  2G09G29                                          
  23956031.75849 125889793.25049    -12675.70749        50.000  
  22570307.47749 118607764.66449     -8549.25449        50.000  
 16 04 02 12 53 11.6000000  0  2G09G29                                          
  23956273.00849 125891061.02349    -12680.57449        50.000  
  22570470.19549 118608619.74649     -8552.65249        50.000  
 16 04 02 12 53 11.7000000  0  2G09G29                                          
  23956514.35249 125892329.30149    -12685.65649        50.000  
  22570632.97749 118609475.16449     -8556.08249        50.000  
 16 04 02 12 53 11.8000000  0  2G09G29                                          
  23956755.80549 125893598.16049    -12691.61349        50.000  
  22570795.83649 118610331.00849     -8560.27349        50.000  
 16 04 02 12 53 11.9000000  0  2G09G29                                          
  23956997.35249 125894867.50449    -12696.47749        50.000  
  22570958.75849 118611187.18849     -8563.78549        50.000  
 16 04 02 12 53 12.0000000  0  2G09G29                                          
  23957238.98449 125896137.28149    -12700.24649        50.000  
  22571121.73449 118612043.62949     -8566.01649        50.000  
 16 04 02 12 53 12.1000000  0  2G09G29                                          
  23957480.70349 125897407.53149    -12705.18849        50.000  
  22571284.77349 118612900.39149     -8569.20349        50.000  
 16 04 02 12 53 12.2000000  0  2G09G29                                          
  23957722.53149 125898678.32449    -12710.60549        50.000  
  22571447.88349 118613757.53549     -8573.07449        50.000  
 16 04 02 12 53 12.3000000  0  2G09G29                                          
  23957964.43849 125899949.54749    -12714.87949        50.000  
  22571611.03949 118614614.94949     -8575.73049        50.000  
 16 04 02 12 53 12.4000000  0  2G09G29                                          
  23958206.43849 125901221.27349    -12720.21549        50.000  
  22571774.26649 118615472.71949     -8579.48049        50.000  
 16 04 02 12 53 12.5000000  0  2G09G29                                          
  23958448.53949 125902493.52049    -12725.19149        50.000  
  22571937.56249 118616330.84849     -8582.88349        50.000  
 16 04 02 12 53 12.6000000  0  2G09G29                                          
  23958690.72749 125903766.22749    -12729.59849        50.000  
  22572100.92249 118617189.27349     -8585.82849        50.000  
 16 04 02 12 53 12.7000000  0  2G09G29                                          
  23958933.00849 125905039.39549    -12734.43449        50.000  
  22572264.32849 118618047.99649     -8588.96949        50.000  
 16 04 02 12 53 12.8000000  0  2G09G29                                          
  23959175.38349 125906313.11349    -12739.75849        50.000  
  22572427.82049 118618907.12549     -8592.84449        50.000  
 16 04 02 12 53 12.9000000  0  2G09G29                                          
  23959417.85249 125907587.29749    -12744.61749        50.000  
  22572591.36749 118619766.55949     -8596.15649        50.000  
 16 04 02 12 53 13.0000000  0  2G09G29                                          
  23959660.42249 125908862.00849    -12750.06649        50.000  
  22572754.97749 118620626.34849     -8599.84849        50.000  
 16 04 02 12 53 13.1000000  0  2G09G29                                          
  23959903.09449 125910137.23849    -12755.12949        50.000  
  22572918.66449 118621486.52349     -8603.51249        50.000  
 16 04 02 12 53 13.2000000  0  2G09G29                                          
  23960145.85249 125911412.94549    -12759.79749        50.000  
  22573082.40649 118622346.99649     -8606.50849        50.000  
 16 04 02 12 53 13.3000000  0  2G09G29                                          
  23960388.71149 125912689.14549    -12764.61349        50.000  
  22573246.21149 118623207.80949     -8609.75049        50.000  
 16 04 02 12 53 13.4000000  0  2G09G29                                          
  23960631.64849 125913965.77049    -12768.96949        50.000  
  22573410.07049 118624068.89149     -8612.44149        50.000  
 16 04 02 12 53 13.5000000  0  2G09G29                                          
  23960874.68849 125915242.95349    -12774.48849        50.000  
  22573574.00849 118624930.37149     -8616.38749        50.000  
 16 04 02 12 53 13.6000000  0  2G09G29                                          
  23961117.82049 125916520.63349    -12779.62949        50.000  
  22573738.00849 118625792.19949     -8620.10949        50.000  
 16 04 02 12 53 13.7000000  0  2G09G29                                          
  23961361.04749 125917798.78949    -12784.46549        50.000  
  22573902.07049 118626654.33649     -8623.24649        50.000  
 16 04 02 12 53 13.8000000  0  2G09G29                                          
  23961604.37549 125919077.48849    -12789.83249        50.000  
  22574066.20349 118627516.85249     -8626.90649        50.000  
 16 04 02 12 53 13.9000000  0  2G09G29                                          
  23961847.79749 125920356.68449    -12794.71949        50.000  
  22574230.39849 118628379.71949     -8630.39549        50.000  
 16 04 02 12 53 14.0000000  0  2G09G29                                          
  23962091.30549 125921636.33249    -12799.41449        50.000  
  22574394.65649 118629242.87949     -8633.44549        50.000  
 16 04 02 12 53 14.1000000  0  2G09G29                                          
  23962334.92249 125922916.53149    -12804.67649        50.000  
  22574558.98449 118630106.42249     -8637.13749        50.000  
 16 04 02 12 53 14.2000000  0  2G09G29                                          
  23962578.62549 125924197.17249    -12809.28149        50.000  
  22574723.36749 118630970.26249     -8640.16849        50.000  
 16 04 02 12 53 14.3000000  0  2G09G29                                          
  23962822.42249 125925478.32849    -12814.19549        50.000  
  22574887.81249 118631834.45349     -8643.53149        50.000  
 16 04 02 12 53 14.4000000  0  2G09G29                                          
  23963066.31249 125926759.99649    -12819.57449        50.000  
  22575052.33649 118632698.99649     -8647.24649        50.000  
 16 04 02 12 53 14.5000000  0  2G09G29                                          
  23963310.31249 125928042.19149    -12824.56249        50.000  
  22575216.92249 118633563.91049     -8650.78549        50.000  
 16 04 02 12 53 14.6000000  0  2G09G29                                          
  23963554.37549 125929324.78149    -12828.58249        50.000  
  22575381.55549 118634429.06649     -8653.19949        50.000  
 16 04 02 12 53 14.7000000  0  2G09G29                                          
  23963798.53949 125930607.87949    -12833.75849        50.000  
  22575546.25849 118635294.56649     -8656.71149        50.000  
 16 04 02 12 53 14.8000000  0  2G09G29                                          
  23964042.79749 125931891.47349    -12838.61749        50.000  
  22575711.01649 118636160.41049     -8660.00849        50.000  
 16 04 02 12 53 14.9000000  0  2G09G29                                          
  23964287.16449 125933175.58649    -12843.88749        50.000  
  22575875.85249 118637026.60949     -8663.73049        50.000  
 16 04 02 12 53 15.0000000  0  2G09G29                                          
  23964531.62549 125934460.23849    -12849.35249        50.000  
  22576040.75849 118637893.19949     -8667.69149        50.000  
 16 04 02 12 53 15.1000000  0  2G09G29                                          
  23964776.17249 125935745.33249    -12853.58649        50.000  
  22576205.71949 118638760.05949     -8670.34049        50.000  
 16 04 02 12 53 15.2000000  0  2G09G29                                          
  23965020.80549 125937030.88749    -12858.49249        50.000  
  22576370.73449 118639627.23449     -8673.61749        50.000  
 16 04 02 12 53 15.3000000  0  2G09G29                                          
  23965265.53949 125938316.98849    -12863.63349        50.000  
  22576535.82849 118640494.79749     -8677.23049        50.000  
 16 04 02 12 53 15.4000000  0  2G09G29                                          
  23965510.36749 125939603.56249    -12868.55949        50.000  
  22576700.97749 118641362.66849     -8680.52349        50.000  
 16 04 02 12 53 15.5000000  0  2G09G29                                          
  23965755.29749 125940890.68849    -12874.27749        50.000  
  22576866.20349 118642230.95349     -8684.77749        50.000  
 16 04 02 12 53 15.6000000  0  2G09G29                                          
  23966000.31249 125942178.23849    -12878.01649        50.000  
  22577031.48449 118643099.47749     -8686.92249        50.000  
 16 04 02 12 53 15.7000000  0  2G09G29                                          
  23966245.41449 125943466.23049    -12882.66049        50.000  
  22577196.81249 118643968.30149     -8689.89549        50.000  
 16 04 02 12 53 15.8000000  0  2G09G29                                          
  23966490.60949 125944754.77349    -12887.96149        50.000  
  22577362.21949 118644837.51249     -8693.68049        50.000  
 16 04 02 12 53 15.9000000  0  2G09G29                                          
  23966735.89849 125946043.77349    -12893.02049        50.000  
  22577527.68049 118645707.03949     -8697.12949        50.000  
 16 04 02 12 53 16.0000000  0  2G09G29                                          
  23966981.30549 125947333.35949    -12898.46549        50.000  
  22577693.22749 118646576.97349     -8700.99649        50.000  
 16 04 02 12 53 16.1000000  0  2G09G29                                          
  23967226.78149 125948623.34449    -12902.57049        50.000  
  22577858.81249 118647447.16449     -8703.63349        50.000  
 16 04 02 12 53 16.2000000  0  2G09G29                                          
  23967472.33649 125949913.77749    -12906.98849        50.000  
  22578024.46149 118648317.63349     -8706.38349        50.000  
 16 04 02 12 53 16.3000000  0  2G09G29                                          
  23967718.00049 125951204.70749    -12911.78149        50.000  
  22578190.17249 118649188.44949     -8709.66849        50.000  
 16 04 02 12 53 16.4000000  0  2G09G29                                          
  23967963.74249 125952496.09849    -12916.65249        50.000  
  22578355.94549 118650059.56649     -8712.81649        50.000  
 16 04 02 12 53 16.5000000  0  2G09G29                                          
  23968209.57849 125953787.98449    -12921.63349        50.000  
  22578521.77349 118650931.02749     -8716.31649        50.000  
 16 04 02 12 53 16.6000000  0  2G09G29                                          
  23968455.52349 125955080.42649    -12926.98449        50.000  
  22578687.68849 118651802.88349     -8720.07849        50.000  
 16 04 02 12 53 16.7000000  0  2G09G29                                          
  23968701.54749 125956373.27749    -12931.35949        50.000  
  22578853.64149 118652674.99249     -8722.88749        50.000  
 16 04 02 12 53 16.8000000  0  2G09G29                                          
  23968947.66449 125957666.66449    -12936.38349        50.000  
  22579019.67249 118653547.47749     -8726.39549        50.000  
 16 04 02 12 53 16.9000000  0  2G09G29                                          
  23969193.88349 125958960.53549    -12941.71549        50.000  
  22579185.75849 118654420.28149     -8729.97349        50.000  
 16 04 02 12 53 17.0000000  0  2G09G29                                          
  23969440.19549 125960254.90649    -12946.40649        50.000  
  22579351.91449 118655293.44549     -8733.22749        50.000  
 16 04 02 12 53 17.1000000  0  2G09G29                                          
  23969686.59449 125961549.73849    -12951.08649        50.000  
  22579518.13349 118656166.90649     -8736.39149        50.000  
 16 04 02 12 53 17.2000000  0  2G09G29                                          
  23969933.08649 125962845.06249    -12955.97749        50.000  
  22579684.40649 118657040.70349     -8739.68049        50.000  
 16 04 02 12 53 17.3000000  0  2G09G29                                          
  23970179.68849 125964140.96549    -12961.94149        50.000  
  22579850.76649 118657914.91049     -8743.87949        50.000  
 16 04 02 12 53 17.4000000  0  2G09G29                                          
  23970426.37549 125965437.29749    -12966.03549        50.000  
  22580017.17249 118658789.39849     -8746.57849        50.000  
 16 04 02 12 53 17.5000000  0  2G09G29                                          
  23970673.15649 125966734.12149    -12971.00449        50.000  
  22580183.64849 118659664.23049     -8750.00849        50.000  
 16 04 02 12 53 17.6000000  0  2G09G29                                          
  23970920.02349 125968031.43449    -12975.70749        50.000  
  22580350.18849 118660539.38349     -8753.09449        50.000  
 16 04 02 12 53 17.7000000  0  2G09G29                                          
  23971166.98449 125969329.19549    -12980.37149        50.000  
  22580516.78149 118661414.82849     -8756.13749        50.000  
 16 04 02 12 53 17.8000000  0  2G09G29                                          
  23971414.03949 125970627.47749    -12985.28149        50.000  
  22580683.43849 118662290.63749     -8759.51249        50.000  
 16 04 02 12 53 17.9000000  0  2G09G29                                          
  23971661.18849 125971926.24249    -12990.41449        50.000  
  22580850.16449 118663166.77749     -8763.12949        50.000  
 16 04 02 12 53 18.0000000  0  2G09G29                                          
  23971908.42249 125973225.49249    -12995.36349        50.000  
  22581016.95349 118664043.24649     -8766.54349        50.000  
 16 04 02 12 53 18.1000000  0  2G09G29                                          
  23972155.75849 125974525.22749    -13000.04349        50.000  
  22581183.79749 118664920.03549     -8769.52749        50.000  
 16 04 02 12 53 18.2000000  0  2G09G29                                          
  23972403.18049 125975825.45749    -13004.98049        50.000  
  22581350.71149 118665797.16849     -8772.92249        50.000  
 16 04 02 12 53 18.3000000  0  2G09G29                                          
  23972650.70349 125977126.19549    -13010.18049        50.000  
  22581517.69549 118666674.64549     -8776.63349        50.000  
 16 04 02 12 53 18.4000000  0  2G09G29                                          
  23972898.31249 125978427.39549    -13014.72349        50.000  
  22581684.72749 118667552.43449     -8779.51249        50.000  
 16 04 02 12 53 18.5000000  0  2G09G29                                          
  23973146.03149 125979729.14149    -13020.26249        50.000  
  22581851.84449 118668430.61349     -8783.52349        50.000  
 16 04 02 12 53 18.6000000  0  2G09G29                                          
  23973393.84449 125981031.42249    -13025.64149        50.000  
  22582019.02349 118669309.16849     -8787.38349        50.000  
 16 04 02 12 53 18.7000000  0  2G09G29                                          
  23973641.75049 125982334.15249    -13030.23449        50.000  
  22582186.26649 118670188.01649     -8790.37949        50.000  
 16 04 02 12 53 18.8000000  0  2G09G29                                          
  23973889.74249 125983637.36349    -13034.62149        50.000  
  22582353.57049 118671067.18849     -8793.35949        50.000  
 16 04 02 12 53 18.9000000  0  2G09G29                                          
  23974137.82049 125984941.05949    -13039.73049        50.000  
  22582520.93049 118671946.68449     -8796.70749        50.000  
 16 04 02 12 53 19.0000000  0  2G09G29                                          
  23974386.01649 125986245.32049    -13045.50449        50.000  
  22582688.36749 118672826.59049     -8800.85949        50.000  
 16 04 02 12 53 19.1000000  0  2G09G29                                          
  23974634.30549 125987550.10249    -13050.58649        50.000  
  22582855.87549 118673706.86749     -8804.51649        50.000  
 16 04 02 12 53 19.2000000  0  2G09G29                                          
  23974882.68049 125988855.30549    -13054.88349        50.000  
  22583023.43849 118674587.39549     -8807.14849        50.000  
 16 04 02 12 53 19.3000000  0  2G09G29                                          
  23975131.15649 125990161.03149    -13059.81249        50.000  
  22583191.07049 118675468.30549     -8810.62149        50.000  
 16 04 02 12 53 19.4000000  0  2G09G29                                          
  23975379.71949 125991467.24649    -13064.92649        50.000  
  22583358.76649 118676349.53549     -8814.16449        50.000  
 16 04 02 12 53 19.5000000  0  2G09G29                                          
  23975628.38349 125992773.97749    -13070.12149        50.000  
  22583526.52349 118677231.13349     -8817.82049        50.000  
 16 04 02 12 53 19.6000000  0  2G09G29                                          
  23975877.13349 125994081.17249    -13074.73049        50.000  
  22583694.34449 118678113.02749     -8820.74249        50.000  
 16 04 02 12 53 19.7000000  0  2G09G29                                          
  23976125.97749 125995388.86349    -13079.59049        50.000  
  22583862.23449 118678995.27749     -8824.11349        50.000  
 16 04 02 12 53 19.8000000  0  2G09G29                                          
  23976374.92249 125996697.05949    -13084.69149        50.000  
  22584030.18049 118679877.86749     -8827.55949        50.000  
 16 04 02 12 53 19.9000000  0  2G09G29                                          
  23976623.94549 125998005.69549    -13089.18049        50.000  
  22584198.18849 118680760.73849     -8830.53149        50.000  
 16 04 02 12 53 20.0000000  0  2G09G29                                          
  23976873.07049 125999314.84049    -13094.01649        50.000  
  22584366.26649 118681643.96949     -8833.84449        50.000  
 16 04 02 12 53 20.1000000  0  2G09G29                                          
  23977122.28149 126000624.45749    -13098.66849        50.000  
  22584534.39849 118682527.50449     -8836.91849        50.000  
 16 04 02 12 53 20.2000000  0  2G09G29                                          
  23977371.58649 126001934.55149    -13103.80149        50.000  
  22584702.59449 118683411.37549     -8840.48849        50.000  
 16 04 02 12 53 20.3000000  0  2G09G29                                          
  23977620.99249 126003245.21149    -13109.36749        50.000  
  22584870.85949 118684295.64149     -8844.49249        50.000  
 16 04 02 12 53 20.4000000  0  2G09G29                                          
  23977870.49249 126004556.34049    -13113.96949        50.000  
  22585039.19549 118685180.22749     -8847.52749        50.000  
 16 04 02 12 53 20.5000000  0  2G09G29                                          
  23978120.07849 126005867.89549    -13118.43449        50.000  
  22585207.57849 118686065.08249     -8850.36749        50.000  
 16 04 02 12 53 20.6000000  0  2G09G29                                          
  23978369.76649 126007180.03149    -13124.04349        50.000  
  22585376.03949 118686950.36349     -8854.41849        50.000  
 16 04 02 12 53 20.7000000  0  2G09G29                                          
  23978619.53149 126008492.57449    -13128.09049        50.000  
  22585544.55549 118687835.89849     -8857.05949        50.000  
 16 04 02 12 53 20.8000000  0  2G09G29                                          
  23978869.40649 126009805.66849    -13133.91849        50.000  
  22585713.13349 118688721.82049     -8861.10549        50.000  
 16 04 02 12 53 20.9000000  0  2G09G29                                          
  23979119.39149 126011119.31249    -13139.00849        50.000  
  22585881.79749 118689608.13349     -8864.75449        50.000  
 16 04 02 12 53 21.0000000  0  2G09G29                                          
  23979369.44549 126012433.35549    -13143.44149        50.000  
  22586050.50849 118690494.69949     -8867.57449        50.000  
 16 04 02 12 53 21.1000000  0  2G09G29                                          
  23979619.59449 126013747.92649    -13148.30549        50.000  
  22586219.28149 118691381.62549     -8870.77049        50.000  
 16 04 02 12 53 21.2000000  0  2G09G29                                          
  23979869.84449 126015062.97749    -13153.02049        50.000  
  22586388.12549 118692268.89149     -8874.12149        50.000  
 16 04 02 12 53 21.3000000  0  2G09G29                                          
  23980120.18049 126016378.52749    -13158.34049        50.000  
  22586557.03149 118693156.48449     -8877.76649        50.000  
 16 04 02 12 53 21.4000000  0  2G09G29                                          
  23980370.61749 126017694.57449    -13163.26649        50.000  
  22586726.00049 118694044.42649     -8881.15649        50.000  
 16 04 02 12 53 21.5000000  0  2G09G29                                          
  23980621.14849 126019011.08649    -13168.01249        50.000  
  22586895.03149 118694932.68049     -8884.30549        50.000  
 16 04 02 12 53 21.6000000  0  2G09G29                                          
  23980871.76649 126020328.10949    -13172.82449        50.000  
  22587064.12549 118695821.28549     -8887.72749        50.000  
 16 04 02 12 53 21.7000000  0  2G09G29                                          
  23981122.47749 126021645.57849    -13177.44149        50.000  
  22587233.28149 118696710.17649     -8890.67649        50.000  
 16 04 02 12 53 21.8000000  0  2G09G29                                          
  23981373.27349 126022963.52749    -13182.16449        50.000  
  22587402.49249 118697599.39849     -8893.83249        50.000  
 16 04 02 12 53 21.9000000  0  2G09G29                                          
  23981624.15649 126024281.94949    -13186.87549        50.000  
  22587571.76649 118698488.92649     -8896.98849        50.000  
 16 04 02 12 53 22.0000000  0  2G09G29                                          
  23981875.14149 126025600.87549    -13191.91849        50.000  
  22587741.10249 118699378.81249     -8900.47349        50.000  
 16 04 02 12 53 22.1000000  0  2G09G29                                          
  23982126.22749 126026920.31649    -13197.38749        50.000  
  22587910.50849 118700269.05549     -8904.29749        50.000  
 16 04 02 12 53 22.2000000  0  2G09G29                                          
  23982377.39849 126028240.25049    -13202.03949        50.000  
  22588079.98449 118701159.63349     -8907.45349        50.000  
 16 04 02 12 53 22.3000000  0  2G09G29                                          
  23982628.66449 126029560.62549    -13206.43449        50.000  
  22588249.51649 118702050.50049     -8910.28149        50.000  
 16 04 02 12 53 22.4000000  0  2G09G29                                          
  23982880.01649 126030881.48849    -13211.30149        50.000  
  22588419.10249 118702941.69549     -8913.60549        50.000  
 16 04 02 12 53 22.5000000  0  2G09G29                                          
  23983131.46149 126032202.84049    -13216.34449        50.000  
  22588588.75849 118703833.23049     -8917.06649        50.000  
 16 04 02 12 53 22.6000000  0  2G09G29                                          
  23983382.99249 126033524.68049    -13221.27349        50.000  
  22588758.46949 118704725.09849     -8920.50049        50.000  
 16 04 02 12 53 22.7000000  0  2G09G29                                          
  23983634.64149 126034847.07449    -13226.17249        50.000  
  22588928.25849 118705617.34449     -8924.27349        50.000  
 16 04 02 12 53 22.8000000  0  2G09G29                                          
  23983886.35949 126036169.86349    -13230.21149        50.000  
  22589098.10249 118706509.84449     -8926.80549        50.000  
 16 04 02 12 53 22.9000000  0  2G09G29                                          
  23984138.18049 126037493.18449    -13235.40649        50.000  
  22589268.00849 118707402.72749     -8930.52749        50.000  
 16 04 02 12 53 23.0000000  0  2G09G29                                          
  23984390.09449 126038817.00849    -13240.45749        50.000  
  22589437.98449 118708295.94549     -8933.91849        50.000  
 16 04 02 12 53 23.1000000  0  2G09G29                                          
  23984642.10249 126040141.32049    -13245.46949        50.000  
  22589608.02349 118709189.50449     -8937.32849        50.000  
 16 04 02 12 53 23.2000000  0  2G09G29                                          
  23984894.20349 126041466.13349    -13250.37549        50.000  
  22589778.13349 118710083.41049     -8940.81249        50.000  
 16 04 02 12 53 23.3000000  0  2G09G29                                          
  23985146.39849 126042791.41049    -13255.05549        50.000  
  22589948.28949 118710977.60949     -8943.88749        50.000  
 16 04 02 12 53 23.4000000  0  2G09G29                                          
  23985398.69549 126044117.21949    -13260.18449        50.000  
  22590118.52349 118711872.19149     -8947.36349        50.000  
 16 04 02 12 53 23.5000000  0  2G09G29                                          
  23985651.07849 126045443.50049    -13264.96149        50.000  
  22590288.82049 118712767.10249     -8950.65249        50.000  
