     2.10           OBSERVATION DATA    G (GPS)             RINEX VERSION / TYPE
Convert v1.8.0                          09-Jun-2016 15:01   PGM / RUN BY / DATE 
Signal Strength values S1,S2 are in dBHz                    COMMENT             
                                                            MARKER NAME         
                                                            MARKER NUMBER       
                                                            OBSERVER / AGENCY   
                    NovAtel GPSCard                         REC # / TYPE / VERS 
                                                            ANT # / TYPE        
0.0000        0.0000        0.0000                          APPROX POSITION XYZ 
        0.0000        0.0000        0.0000                  ANTENNA: DELTA H/E/N
     1     0                                                WAVELENGTH FACT L1/2
     1     0     4   G04   G23   G26   G29                  WAVELENGTH FACT L1/2
                                                            COMMENT             
                                                            COMMENT             
                                                            COMMENT             
                                                            COMMENT             
                                                            COMMENT             
                                                            COMMENT             
     4    C1    L1    D1    S1                              # / TYPES OF OBSERV 
     0.100                                                  INTERVAL            
  2016    04    02    12    41     6.9000000    GPS         TIME OF FIRST OBS   
  2016    04    02    12    43    24.1000000    GPS         TIME OF LAST OBS    
Leap Seconds Unknown                                        COMMENT             
                                                            END OF HEADER       
 16 04 02 12 41  6.9000000  0  1G23                                             
  22338432.70349 117389255.60959       402.27749        50.000  
 16 04 02 12 41  7.0000000  0  1G23                                             
  22338425.10249 117389215.66449       396.42649        50.000  
 16 04 02 12 41  7.1000000  0  1G23                                             
  22338417.60249 117389176.27749       391.02049        50.000  
 16 04 02 12 41  7.2000000  0  1G23                                             
  22338410.21949 117389137.50049       384.82049        50.000  
 16 04 02 12 41  7.3000000  0  1G23                                             
  22338402.96949 117389099.33649       378.55149        50.000  
 16 04 02 12 41  7.4000000  0  1G23                                             
  22338395.82049 117389061.80149       372.29749        50.000  
 16 04 02 12 41  7.5000000  0  2G04G23                                          
  21255092.50049 111696264.14159     -9178.84449        49.000  
  22338388.78149 117389024.80549       366.79349        50.000  
 16 04 02 12 41  7.6000000  0  2G04G23                                          
  21255267.21949 111697182.29749     -9183.92249        49.000  
  22338381.86749 117388988.46149       360.34049        50.000  
 16 04 02 12 41  7.7000000  0  2G04G23                                          
  21255441.97749 111698100.95349     -9188.78549        49.000  
  22338375.04749 117388952.71549       354.41449        50.000  
 16 04 02 12 41  7.8000000  0  2G04G23                                          
  21255616.88349 111699020.09849     -9193.81649        49.000  
  22338368.35949 117388917.57049       348.39849        50.000  
 16 04 02 12 41  7.9000000  0  2G04G23                                          
  21255791.85249 111699939.61349     -9197.32049        49.000  
  22338361.76649 117388882.93049       343.52049        50.000  
 16 04 02 12 41  8.0000000  0  2G04G23                                          
  21255966.93049 111700859.64549     -9202.38749        49.000  
  22338355.28949 117388848.90249       337.44949        50.000  
 16 04 02 12 41  8.1000000  0  2G04G23                                          
  21256142.08649 111701780.17249     -9207.53549        49.000  
  22338348.93049 117388815.50449       330.97349        50.000  
 16 04 02 12 41  8.2000000  0  2G04G23                                          
  21256317.35949 111702701.21549     -9212.76649        49.000  
  22338342.69549 117388782.71549       324.74649        50.000  
 16 04 02 12 41  8.3000000  0  2G04G23                                          
  21256492.70349 111703622.70349     -9217.19149        49.000  
  22338336.55549 117388750.49649       319.14549        50.000  
 16 04 02 12 41  8.4000000  0  2G04G23                                          
  21256668.15649 111704544.69149     -9222.28949        49.000  
  22338330.53949 117388718.90249       312.82849        50.000  
 16 04 02 12 41  8.5000000  0  2G04G23                                          
  21256843.68849 111705467.16449     -9227.10549        49.000  
  22338324.63349 117388687.89549       306.85549        50.000  
 16 04 02 12 41  8.6000000  0  2G04G23                                          
  21257019.32849 111706390.18049     -9232.53949        49.000  
  22338318.85949 117388657.55549       300.26649        50.000  
 16 04 02 12 41  8.7000000  0  2G04G23                                          
  21257195.07849 111707313.66849     -9237.21949        49.000  
  22338313.19549 117388627.79749       294.51249        50.000  
 16 04 02 12 41  8.8000000  0  2G04G23                                          
  21257370.90649 111708237.63749     -9242.10949        49.000  
  22338307.64849 117388598.64549       288.33249        50.000  
 16 04 02 12 41  8.9000000  0  2G04G23                                          
  21257546.82049 111709162.10949     -9246.97749        49.000  
  22338302.21949 117388570.10249       282.39549        50.000  
 16 04 02 12 41  9.0000000  0  2G04G23                                          
  21257722.82849 111710087.02349     -9251.32849        49.000  
  22338296.89849 117388542.11749       276.95349        50.000  
 16 04 02 12 41  9.1000000  0  2G04G23                                          
  21257898.93049 111711012.41449     -9256.14149        49.000  
  22338291.68849 117388514.73449       270.84449        50.000  
 16 04 02 12 41  9.2000000  0  2G04G23                                          
  21258075.12549 111711938.32049     -9261.25849        49.000  
  22338286.60249 117388487.97749       264.60249        50.000  
 16 04 02 12 41  9.3000000  0  2G04G23                                          
  21258251.39149 111712864.64549     -9265.47349        49.000  
  22338281.60949 117388461.75849       259.21949        50.000  
 16 04 02 12 41  9.4000000  0  2G04G23                                          
  21258427.75849 111713791.48049     -9270.63749        49.000  
  22338276.73449 117388436.15249       253.00449        50.000  
 16 04 02 12 41  9.5000000  0  2G04G23                                          
  21258604.22749 111714718.80149     -9275.54749        49.000  
  22338271.98449 117388411.16049       246.81249        50.000  
 16 04 02 12 41  9.6000000  0  2G04G23                                          
  21258780.77349 111715646.54749     -9279.68449        49.000  
  22338267.32849 117388386.70349       241.60949        50.000  
 16 04 02 12 41  9.7000000  0  2G04G23                                          
  21258957.39849 111716574.78549     -9284.68849        49.000  
  22338262.78949 117388362.85549       235.36349        50.000  
 16 04 02 12 41  9.8000000  0  2G04G23                                          
  21259134.14149 111717503.60549     -9290.43449        49.000  
  22338258.38349 117388339.70749       228.46549        50.000  
 16 04 02 12 41  9.9000000  0  2G04G23                                          
  21259310.99249 111718432.84449     -9294.71949        49.000  
  22338254.08649 117388317.08649       223.09049        50.000  
 16 04 02 12 41 10.0000000  0  2G04G23                                          
  21259487.90649 111719362.55549     -9299.25049        49.000  
  22338249.89149 117388295.05949       217.34449        50.000  
 16 04 02 12 41 10.1000000  0  2G04G23                                          
  21259664.90649 111720292.74249     -9304.13749        49.000  
  22338245.81249 117388273.62949       211.32849        50.000  
 16 04 02 12 41 10.2000000  0  2G04G23                                          
  21259842.00849 111721223.39549     -9308.75049        49.000  
  22338241.84449 117388252.77049       205.57449        50.000  
 16 04 02 12 41 10.3000000  0  2G04G23                                          
  21260019.17249 111722154.52349     -9313.50849        49.000  
  22338237.98449 117388232.51249       199.63349        50.000  
 16 04 02 12 41 10.4000000  0  2G04G23                                          
  21260196.45349 111723086.13749     -9318.35549        49.000  
  22338234.25049 117388212.85549       193.48049        50.000  
 16 04 02 12 41 10.5000000  0  2G04G23                                          
  21260373.84449 111724018.30549     -9323.85249        49.000  
  22338230.62549 117388193.86349       186.94549        50.000  
 16 04 02 12 41 10.6000000  0  2G04G23                                          
  21260551.32049 111724950.96149     -9328.91049        49.000  
  22338227.12549 117388175.47749       180.72349        50.000  
 16 04 02 12 41 10.7000000  0  2G04G23                                          
  21260728.91449 111725884.09449     -9333.56249        49.000  
  22338223.74249 117388157.68049       174.97749        50.000  
 16 04 02 12 41 10.8000000  0  2G04G23                                          
  21260906.57849 111726817.70349     -9338.49249        49.000  
  22338220.46949 117388140.48049       168.83649        50.000  
 16 04 02 12 41 10.9000000  0  2G04G23                                          
  21261084.33649 111727751.82449     -9343.35949        49.000  
  22338217.31249 117388123.91049       162.83249        50.000  
 16 04 02 12 41 11.0000000  0  2G04G23                                          
  21261262.18849 111728686.43049     -9348.42649        49.000  
  22338214.27349 117388107.93849       156.59049        50.000  
 16 04 02 12 41 11.1000000  0  2G04G23                                          
  21261440.14149 111729621.55949     -9353.62149        49.000  
  22338211.35949 117388092.60949       150.14849        50.000  
 16 04 02 12 41 11.2000000  0  2G04G23                                          
  21261618.17249 111730557.10549     -9357.64549        49.000  
  22338208.53949 117388077.81249       145.13349        50.000  
 16 04 02 12 41 11.3000000  0  2G04G23                                          
  21261796.30549 111731493.21949     -9363.52349        49.000  
  22338205.84449 117388063.69549       137.94549        50.000  
 16 04 02 12 41 11.4000000  0  2G04G23                                          
  21261974.53949 111732429.81649     -9368.38749        49.000  
  22338203.27349 117388050.18049       132.00449        50.000  
 16 04 02 12 41 11.5000000  0  2G04G23                                          
  21262152.87549 111733366.86349     -9372.82449        49.000  
  22338200.82049 117388037.23049       126.40649        50.000  
 16 04 02 12 41 11.6000000  0  2G04G23                                          
  21262331.27349 111734304.34849     -9377.08649        49.000  
  22338198.46149 117388024.84449       120.80149        50.000  
 16 04 02 12 41 11.7000000  0  2G04G23                                          
  21262509.76649 111735242.36349     -9382.37149        49.000  
  22338196.21949 117388013.09449       114.43849        50.000  
 16 04 02 12 41 11.8000000  0  2G04G23                                          
  21262688.35249 111736180.85549     -9387.18849        49.000  
  22338194.10249 117388001.93049       108.57849        50.000  
 16 04 02 12 41 11.9000000  0  2G04G23                                          
  21262866.98449 111737119.76249     -9391.12149        49.000  
  22338192.07049 117387991.32049       103.29349        50.000  
 16 04 02 12 41 12.0000000  0  2G04G23                                          
  21263045.74249 111738059.15249     -9396.11749        49.000  
  22338190.16449 117387981.29349        97.19149        50.000  
 16 04 02 12 41 12.1000000  0  2G04G23                                          
  21263224.63349 111738999.07049     -9401.34449        49.000  
  22338188.37549 117387971.90649        91.04349        50.000  
 16 04 02 12 41 12.2000000  0  2G04G23                                          
  21263403.57849 111739939.42649     -9405.96549        49.000  
  22338186.69549 117387963.08249        85.10249        50.000  
 16 04 02 12 41 12.3000000  0  2G04G23                                          
  21263582.58649 111740880.29349     -9410.90649        49.000  
  22338185.14149 117387954.88749        78.89849        50.000  
 16 04 02 12 41 12.4000000  0  2G04G23                                          
  21263761.73449 111741821.73049     -9416.76249        49.000  
  22338183.71149 117387947.37149        72.03149        50.000  
 16 04 02 12 41 12.5000000  0  2G04G23                                          
  21263940.96949 111742763.62149     -9421.36349        49.000  
  22338182.38349 117387940.43849        66.19949        50.000  
 16 04 02 12 41 12.6000000  0  2G04G23                                          
  21264120.28949 111743705.97749     -9425.75849        49.000  
  22338181.17249 117387934.08649        60.48049        50.000  
 16 04 02 12 41 12.7000000  0  2G04G23                                          
  21264299.70349 111744648.82449     -9430.83249        49.000  
  22338180.07049 117387928.33249        54.45749        50.000  
 16 04 02 12 41 12.8000000  0  2G04G23                                          
  21264479.21949 111745592.21149     -9436.10549        49.000  
  22338179.10249 117387923.24249        47.93049        50.000  
 16 04 02 12 41 12.9000000  0  2G04G23                                          
  21264658.85249 111746536.02349     -9440.46949        49.000  
  22338178.21949 117387918.69149        42.43849        50.000  
 16 04 02 12 41 13.0000000  0  2G04G23                                          
  21264838.54749 111747480.35549     -9445.56249        49.000  
  22338177.47749 117387914.77749        36.01649        50.000  
 16 04 02 12 41 13.1000000  0  2G04G23                                          
  21265018.35249 111748425.17249     -9450.38349        49.000  
  22338176.84449 117387911.45749        30.12149        50.000  
 16 04 02 12 41 13.2000000  0  2G04G23                                          
  21265198.22749 111749370.42249     -9454.91449        49.000  
  22338176.32049 117387908.69549        24.47349        50.000  
 16 04 02 12 41 13.3000000  0  2G04G23                                          
  21265378.18849 111750316.20749     -9460.03949        49.000  
  22338175.92249 117387906.58249        18.28549        50.000  
 16 04 02 12 41 13.4000000  0  2G04G23                                          
  21265558.25849 111751262.48049     -9465.25049        49.000  
  22338175.64149 117387905.08649        11.68849        50.000  
 16 04 02 12 41 13.5000000  0  2G04G23                                          
  21265738.43849 111752209.22349     -9469.74249        49.000  
  22338175.46949 117387904.16849         6.05549        50.000  
 16 04 02 12 41 13.6000000  0  2G04G23                                          
  21265918.68849 111753156.45349     -9474.55149        49.000  
  22338175.41449 117387903.85549         0.03549        50.000  
 16 04 02 12 41 13.7000000  0  2G04G23                                          
  21266099.03149 111754104.16449     -9479.31249        49.000  
  22338175.47749 117387904.14149        -5.93049        50.000  
 16 04 02 12 41 13.8000000  0  2G04G23                                          
  21266279.46949 111755052.36349     -9484.29749        49.000  
  22338175.64149 117387905.01649       -11.88349        50.000  
 16 04 02 12 41 13.9000000  0  2G04G23                                          
  21266460.00849 111756001.05149     -9489.23449        49.000  
  22338175.91449 117387906.51649       -18.16449        50.000  
 16 04 02 12 41 14.0000000  0  2G04G23                                          
  21266640.63349 111756950.23049     -9494.12149        49.000  
  22338176.31249 117387908.60949       -24.09449        50.000  
 16 04 02 12 41 14.1000000  0  2G04G23                                          
  21266821.39149 111757899.87549     -9498.60549        49.000  
  22338176.82849 117387911.29749       -29.74649        50.000  
 16 04 02 12 41 14.2000000  0  2G04G23                                          
  21267002.19549 111758850.00849     -9503.62549        49.000  
  22338177.45349 117387914.58249       -35.84449        50.000  
 16 04 02 12 41 14.3000000  0  2G04G23                                          
  21267183.09449 111759800.62949     -9508.49649        49.000  
  22338178.19549 117387918.49249       -42.16849        50.000  
 16 04 02 12 41 14.4000000  0  2G04G23                                          
  21267364.09449 111760751.78149     -9513.87949        49.000  
  22338179.06249 117387923.02749       -48.48449        50.000  
 16 04 02 12 41 14.5000000  0  2G04G23                                          
  21267545.18849 111761703.40249     -9518.64549        49.000  
  22338180.03949 117387928.15649       -54.46949        50.000  
 16 04 02 12 41 14.6000000  0  2G04G23                                          
  21267726.36749 111762655.50849     -9523.33249        49.000  
  22338181.12549 117387933.89149       -60.37149        50.000  
 16 04 02 12 41 14.7000000  0  2G04G23                                          
  21267907.64149 111763608.06249     -9527.72349        49.000  
  22338182.32849 117387940.19149       -65.91849        50.000  
 16 04 02 12 41 14.8000000  0  2G04G23                                          
  21268089.00849 111764561.14549     -9532.96149        49.000  
  22338183.64849 117387947.13749       -72.34449        50.000  
 16 04 02 12 41 14.9000000  0  2G04G23                                          
  21268270.46149 111765514.68449     -9537.71949        49.000  
  22338185.07849 117387954.64549       -78.15249        50.000  
 16 04 02 12 41 15.0000000  0  2G04G23                                          
  21268452.00849 111766468.74249     -9542.85249        49.000  
  22338186.63349 117387962.80549       -84.59849        50.000  
 16 04 02 12 41 15.1000000  0  2G04G23                                          
  21268633.64149 111767423.25849     -9547.37549        49.000  
  22338188.28949 117387971.53149       -90.21149        50.000  
 16 04 02 12 41 15.2000000  0  2G04G23                                          
  21268815.35949 111768378.18849     -9551.59049        49.000  
  22338190.05549 117387980.79349       -95.55949        50.000  
 16 04 02 12 41 15.3000000  0  2G04G23                                          
  21268997.18049 111769333.58249     -9556.03549        49.000  
  22338191.92249 117387990.64149      -101.30549        50.000  
 16 04 02 12 41 15.4000000  0  2G04G23                                          
  21269179.06249 111770289.37549     -9560.00449        49.000  
  22338193.89849 117388000.99649      -106.50449        50.000  
 16 04 02 12 41 15.5000000  0  2G04G23                                          
  21269361.05549 111771245.72749     -9565.69149        49.000  
  22338195.99249 117388012.03149      -113.35949        50.000  
 16 04 02 12 41 15.6000000  0  2G04G23                                          
  21269543.14849 111772202.61349     -9571.29749        49.000  
  22338198.21949 117388023.71549      -120.08649        50.000  
 16 04 02 12 41 15.7000000  0  2G04G23                                          
  21269725.32849 111773159.98849     -9576.21149        49.000  
  22338200.55549 117388036.00849      -126.19149        50.000  
 16 04 02 12 41 15.8000000  0  2G04G23                                          
  21269907.60249 111774117.87149     -9581.12549        49.000  
  22338203.00849 117388048.92649      -132.23049        50.000  
 16 04 02 12 41 15.9000000  0  2G04G23                                          
  21270089.97749 111775076.20749     -9585.66049        49.000  
  22338205.57849 117388062.41849      -138.03149        50.000  
 16 04 02 12 41 16.0000000  0  2G04G23                                          
  21270272.43049 111776035.03549     -9590.59049        49.000  
  22338208.25849 117388076.51249      -143.99249        50.000  
 16 04 02 12 41 16.1000000  0  2G04G23                                          
  21270454.96949 111776994.33249     -9595.27749        49.000  
  22338211.05549 117388091.20349      -149.94149        50.000  
 16 04 02 12 41 16.2000000  0  2G04G23                                          
  21270637.60249 111777954.05949     -9599.37149        49.000  
  22338213.96149 117388106.43849      -155.25849        50.000  
 16 04 02 12 41 16.3000000  0  2G04G23                                          
  21270820.32049 111778914.27349     -9604.30949        49.000  
  22338216.96149 117388122.26249      -161.14849        50.000  
 16 04 02 12 41 16.4000000  0  2G04G23                                          
  21271003.14849 111779875.02349     -9609.94549        49.000  
  22338220.10249 117388138.75849      -168.10549        50.000  
 16 04 02 12 41 16.5000000  0  2G04G23                                          
  21271186.07049 111780836.28149     -9614.95349        49.000  
  22338223.35949 117388155.88349      -174.34449        50.000  
 16 04 02 12 41 16.6000000  0  2G04G23                                          
  21271369.07049 111781797.96949     -9619.12149        49.000  
  22338226.71949 117388173.54749      -179.66449        50.000  
 16 04 02 12 41 16.7000000  0  2G04G23                                          
  21271552.17249 111782760.13749     -9623.89849        49.000  
  22338230.19549 117388191.80949      -185.66049        50.000  
 16 04 02 12 41 16.8000000  0  2G04G23                                          
  21271735.36749 111783722.82049     -9629.04749        49.000  
  22338233.78949 117388210.71149      -192.00849        50.000  
 16 04 02 12 41 16.9000000  0  2G04G23                                          
  21271918.65649 111784686.00849     -9634.17649        49.000  
  22338237.49249 117388230.22349      -198.23449        50.000  
 16 04 02 12 41 17.0000000  0  2G04G23                                          
  21272102.03149 111785649.66449     -9638.87549        49.000  
  22338241.32049 117388250.33649      -204.27049        50.000  
 16 04 02 12 41 17.1000000  0  2G04G23                                          
  21272285.50849 111786613.77349     -9643.28949        49.000  
  22338245.25049 117388271.00049      -209.67649        50.000  
 16 04 02 12 41 17.2000000  0  2G04G23                                          
  21272469.07049 111787578.38749     -9648.43449        49.000  
  22338249.30549 117388292.30949      -216.14149        50.000  
 16 04 02 12 41 17.3000000  0  2G04G23                                          
  21272652.71949 111788543.48049     -9653.18849        49.000  
  22338253.48449 117388314.19549      -221.91849        50.000  
 16 04 02 12 41 17.4000000  0  2G04G23                                          
  21272836.45349 111789509.00849     -9657.39849        49.000  
  22338257.75849 117388336.65649      -227.56249        50.000  
 16 04 02 12 41 17.5000000  0  2G04G23                                          
  21273020.29749 111790475.03949     -9662.60249        49.000  
  22338262.14149 117388359.71149      -233.68449        50.000  
 16 04 02 12 41 17.6000000  0  2G04G23                                          
  21273204.21149 111791441.52049     -9667.17249        49.000  
  22338266.64149 117388383.36349      -239.54749        50.000  
 16 04 02 12 41 17.7000000  0  2G04G23                                          
  21273388.21149 111792408.51649     -9672.21549        49.000  
  22338271.25849 117388407.62149      -245.61749        50.000  
 16 04 02 12 41 17.8000000  0  2G04G23                                          
  21273572.31249 111793375.98849     -9677.16849        49.000  
  22338275.99249 117388432.50049      -251.96549        50.000  
 16 04 02 12 41 17.9000000  0  2G04G23                                          
  21273756.52349 111794343.94949     -9681.78949        49.000  
  22338280.84449 117388457.96949      -257.63349        50.000  
 16 04 02 12 41 18.0000000  0  2G04G23                                          
  21273940.81249 111795312.41849     -9686.98849        49.000  
  22338285.81249 117388484.07449      -264.19549        50.000  
 16 04 02 12 41 18.1000000  0  2G04G23                                          
  21274125.19549 111796281.39149     -9691.97349        49.000  
  22338290.89849 117388510.78949      -270.18449        50.000  
 16 04 02 12 41 18.2000000  0  2G04G23                                          
  21274309.67249 111797250.81249     -9696.49249        49.000  
  22338296.09449 117388538.07849      -275.97749        50.000  
 16 04 02 12 41 18.3000000  0  2G04G23                                          
  21274494.22749 111798220.63749     -9700.32449        49.000  
  22338301.37549 117388565.88349      -280.92249        50.000  
 16 04 02 12 41 18.4000000  0  2G04G23                                          
  21274678.88349 111799191.01649     -9705.99249        49.000  
  22338306.79749 117388594.37949      -287.86349        50.000  
 16 04 02 12 41 18.5000000  0  2G04G23                                          
  21274863.62549 111800161.87549     -9710.91449        49.000  
  22338312.32849 117388623.44149      -293.80949        50.000  
 16 04 02 12 41 18.6000000  0  2G04G23                                          
  21275048.47749 111801133.25849     -9716.27349        49.000  
  22338317.98449 117388653.17249      -300.52349        50.000  
 16 04 02 12 41 18.7000000  0  2G04G23                                          
  21275233.42249 111802105.07049     -9720.39849        49.000  
  22338323.74249 117388683.44949      -305.65649        50.000  
 16 04 02 12 41 18.8000000  0  2G04G23                                          
  21275418.43049 111803077.27749     -9724.19149        49.000  
  22338329.59449 117388714.22749      -310.68049        50.000  
 16 04 02 12 41 18.9000000  0  2G04G23                                          
  21275603.52349 111804050.01649     -9729.45749        49.000  
  22338335.57849 117388745.65249      -317.08249        50.000  
 16 04 02 12 41 19.0000000  0  2G04G23                                          
  21275788.71949 111805023.24649     -9734.55149        49.000  
  22338341.68049 117388777.70349      -323.48849        50.000  
 16 04 02 12 41 19.1000000  0  2G04G23                                          
  21275974.00049 111805996.88349     -9738.62949        49.000  
  22338347.87549 117388810.27349      -328.70349        50.000  
 16 04 02 12 41 19.2000000  0  2G04G23                                          
  21276159.38349 111806971.05949     -9743.95349        49.000  
  22338354.19549 117388843.50049      -335.25049        50.000  
 16 04 02 12 41 19.3000000  0  2G04G23                                          
  21276344.87549 111807945.76649     -9749.53549        49.000  
  22338360.64149 117388877.37549      -341.98049        50.000  
 16 04 02 12 41 19.4000000  0  2G04G23                                          
  21276530.44549 111808920.96149     -9754.31649        49.000  
  22338367.20349 117388911.86349      -347.97349        50.000  
 16 04 02 12 41 19.5000000  0  2G04G23                                          
  21276716.10249 111809896.61749     -9758.85949        49.000  
  22338373.87549 117388946.92249      -353.67249        50.000  
 16 04 02 12 41 19.6000000  0  2G04G23                                          
  21276901.85949 111810872.76249     -9763.80149        49.000  
  22338380.66449 117388982.59049      -359.73449        50.000  
 16 04 02 12 41 19.7000000  0  2G04G23                                          
  21277087.68849 111811849.37549     -9768.24649        49.000  
  22338387.57049 117389018.85549      -365.56249        50.000  
 16 04 02 12 41 19.8000000  0  3G26G04G23                                       
  21330547.01649 112092779.78959    -15106.62949        49.000  
  21277273.62549 111812826.47749     -9773.18049        49.000  
  22338394.58649 117389055.71949      -371.63749        50.000  
 16 04 02 12 41 19.9000000  0  3G26G04G23                                       
  21330834.53149 112094290.68049    -15111.14549        49.000  
  21277459.64849 111813804.05949     -9778.07849        49.000  
  22338401.71949 117389093.17649      -377.65249        50.000  
 16 04 02 12 41 20.0000000  0  3G26G04G23                                       
  21331122.10949 112095802.02049    -15115.54349        49.000  
  21277645.76649 111814782.08649     -9782.49249        49.000  
  22338408.96149 117389131.21149      -383.27349        50.000  
 16 04 02 12 41 20.1000000  0  3G26G04G23                                       
  21331409.79749 112097313.81649    -15120.09449        49.000  
  21277831.96949 111815760.60949     -9787.41049        49.000  
  22338416.32049 117389169.85249      -389.43849        50.000  
 16 04 02 12 41 20.2000000  0  3G26G04G23                                       
  21331697.58649 112098826.03149    -15124.29749        49.000  
  21278018.25849 111816739.57449     -9791.84449        49.000  
  22338423.78149 117389209.04749      -394.95349        50.000  
 16 04 02 12 41 20.3000000  0  3G26G04G23                                       
  21331985.44549 112100338.72749    -15128.96549        49.000  
  21278204.64849 111817719.02049     -9796.62549        49.000  
  22338431.35249 117389248.85549      -400.97749        50.000  
 16 04 02 12 41 20.4000000  0  3G26G04G23                                       
  21332273.39849 112101851.93049    -15134.42249        49.000  
  21278391.13349 111818699.00849     -9802.34849        49.000  
  22338439.05549 117389289.32049      -407.90249        50.000  
 16 04 02 12 41 20.5000000  0  3G26G04G23                                       
  21332561.43849 112103365.56249    -15138.47749        49.000  
  21278577.69549 111819679.44549     -9806.60549        49.000  
  22338446.87549 117389330.35549      -413.34449        50.000  
 16 04 02 12 41 20.6000000  0  3G26G04G23                                       
  21332849.55549 112104879.68049    -15143.38349        49.000  
  21278764.36749 111820660.38349     -9811.76649        49.000  
  22338454.79749 117389372.00049      -419.57849        50.000  
 16 04 02 12 41 20.7000000  0  3G26G04G23                                       
  21333137.76649 112106394.23449    -15147.77749        49.000  
  21278951.11749 111821641.77749     -9816.25049        49.000  
  22338462.84449 117389414.23449      -425.43449        50.000  
 16 04 02 12 41 20.8000000  0  3G26G04G23                                       
  21333426.07049 112107909.25849    -15152.37149        49.000  
  21279137.96949 111822623.67249     -9821.18849        49.000  
  22338470.99249 117389457.07449      -431.36749        50.000  
 16 04 02 12 41 20.9000000  0  3G26G04G23                                       
  21333714.46149 112109424.74649    -15157.08249        49.000  
  21279324.89849 111823606.03549     -9825.91849        49.000  
  22338479.26649 117389500.51249      -437.38349        50.000  
 16 04 02 12 41 21.0000000  0  3G26G04G23                                       
  21334002.85949 112110940.67249    -15161.43449        49.000  
  21279511.93049 111824588.86749     -9830.55149        49.000  
  22338487.64149 117389544.53549      -443.23849        50.000  
 16 04 02 12 41 21.1000000  0  3G26G04G23                                       
  21334291.42249 112112457.08649    -15166.31249        49.000  
  21279699.06249 111825572.21149     -9835.70749        49.000  
  22338496.14849 117389589.18849      -449.52749        50.000  
 16 04 02 12 41 21.2000000  0  3G26G04G23                                       
  21334580.04749 112113973.95749    -15170.91449        49.000  
  21279886.27349 111826556.03549     -9840.52749        49.000  
  22338504.75849 117389634.43849      -455.59049        50.000  
 16 04 02 12 41 21.3000000  0  3G26G04G23                                       
  21334868.78149 112115491.25449    -15175.11749        49.000  
  21280073.57049 111827540.29349     -9844.81649        49.000  
  22338513.46949 117389680.24649      -461.02349        50.000  
 16 04 02 12 41 21.4000000  0  3G26G04G23                                       
  21335157.58649 112117009.05549    -15180.31249        49.000  
  21280260.96949 111828525.09049     -9850.31249        49.000  
  22338522.30549 117389726.70749      -467.76249        50.000  
 16 04 02 12 41 21.5000000  0  3G26G04G23                                       
  21335446.50849 112118527.34449    -15185.23049        49.000  
  21280448.46149 111829510.39149     -9855.44549        49.000  
  22338531.26649 117389773.79349      -474.00849        50.000  
 16 04 02 12 41 21.6000000  0  3G26G04G23                                       
  21335735.50049 112120046.08649    -15189.60949        49.000  
  21280636.04749 111830496.16449     -9860.03149        49.000  
  22338540.33649 117389821.47349      -479.82849        50.000  
 16 04 02 12 41 21.7000000  0  3G26G04G23                                       
  21336024.57849 112121565.20349    -15193.26649        49.000  
  21280823.72749 111831482.33249     -9863.87549        49.000  
  22338549.50849 117389869.66449      -484.85949        50.000  
 16 04 02 12 41 21.8000000  0  3G26G04G23                                       
  21336313.77349 112123084.85549    -15198.59849        49.000  
  21281011.49249 111832469.05149     -9869.39149        49.000  
  22338558.81249 117389918.53149      -491.64849        50.000  
 16 04 02 12 41 21.9000000  0  3G26G04G23                                       
  21336603.03949 112124604.93049    -15202.84049        49.000  
  21281199.34449 111833456.22349     -9873.84849        49.000  
  22338568.21949 117389967.96149      -497.26649        50.000  
 16 04 02 12 41 22.0000000  0  3G26G04G23                                       
  21336892.36749 112126125.48849    -15207.89149        49.000  
  21281387.28949 111834443.89549     -9879.06249        49.000  
  22338577.74249 117390018.02349      -503.71149        50.000  
 16 04 02 12 41 22.1000000  0  3G26G04G23                                       
  21337181.81249 112127646.50449    -15212.38349        49.000  
  21281575.34449 111835432.04749     -9883.79749        49.000  
  22338587.38349 117390068.68049      -509.62549        50.000  
 16 04 02 12 41 22.2000000  0  3G26G04G23                                       
  21337471.37549 112129168.04749    -15217.62149        49.000  
  21281763.48449 111836420.75449     -9889.42249        49.000  
  22338597.14849 117390119.99249      -516.21149        50.000  
 16 04 02 12 41 22.3000000  0  3G26G04G23                                       
  21337760.99249 112130689.98849    -15221.62549        49.000  
  21281951.70349 111837409.86749     -9893.55149        49.000  
  22338607.02349 117390171.85549      -521.69949        50.000  
 16 04 02 12 41 22.4000000  0  3G26G04G23                                       
  21338050.71149 112132212.34049    -15225.69549        49.000  
  21282140.00849 111838399.41849     -9897.75849        49.000  
  22338616.99249 117390224.25849      -527.13349        50.000  
 16 04 02 12 41 22.5000000  0  3G26G04G23                                       
  21338340.50049 112133735.18049    -15230.48849        49.000  
  21282328.40649 111839389.48049     -9902.82449        49.000  
  22338627.08649 117390277.30949      -533.45749        50.000  
 16 04 02 12 41 22.6000000  0  3G26G04G23                                       
  21338630.35949 112135258.45749    -15234.87549        49.000  
  21282516.89849 111840379.99649     -9907.37149        49.000  
  22338637.28949 117390330.92249      -539.10549        50.000  
 16 04 02 12 41 22.7000000  0  3G26G04G23                                       
  21338920.32049 112136782.19149    -15239.48849        49.000  
  21282705.49249 111841370.99649     -9912.26649        49.000  
  22338647.60249 117390385.13749      -545.14149        50.000  
 16 04 02 12 41 22.8000000  0  3G26G04G23                                       
  21339210.38349 112138306.44549    -15244.76649        49.000  
  21282894.17249 111842362.52749     -9917.57449        49.000  
  22338658.04749 117390440.00849      -551.77749        50.000  
 16 04 02 12 41 22.9000000  0  3G26G04G23                                       
  21339500.52349 112139831.14849    -15249.35949        49.000  
  21283082.94549 111843354.53949     -9922.50049        49.000  
  22338668.60249 117390495.47349      -557.85949        50.000  
 16 04 02 12 41 23.0000000  0  3G26G04G23                                       
  21339790.75049 112141356.37549    -15254.52749        49.000  
  21283271.82849 111844347.09049     -9927.85249        49.000  
  22338679.28149 117390551.60549      -564.41449        50.000  
 16 04 02 12 41 23.1000000  0  3G26G04G23                                       
  21340081.06249 112142881.95349    -15258.05949        49.000  
  21283460.78149 111845340.01649     -9931.59449        49.000  
  22338690.05549 117390608.22349      -569.19149        50.000  
 16 04 02 12 41 23.2000000  0  3G26G04G23                                       
  21340371.44549 112144407.96949    -15262.16449        49.000  
  21283649.81249 111846333.39549     -9935.87549        49.000  
  22338700.94549 117390665.41849      -574.77749        50.000  
 16 04 02 12 41 23.3000000  0  3G26G04G23                                       
  21340661.93049 112145934.45749    -15266.97349        49.000  
  21283838.93049 111847327.26649     -9940.94549        49.000  
  22338711.94549 117390723.23449      -581.07049        50.000  
 16 04 02 12 41 23.4000000  0  3G26G04G23                                       
  21340952.50849 112147461.42649    -15271.86749        49.000  
  21284028.15649 111848321.64549     -9946.09049        49.000  
  22338723.06249 117390781.66849      -587.38349        50.000  
 16 04 02 12 41 23.5000000  0  3G26G04G23                                       
  21341243.16449 112148988.82049    -15276.04349        49.000  
  21284217.46949 111849316.46949     -9950.43849        49.000  
  22338734.28149 117390840.67249      -593.02349        50.000  
 16 04 02 12 41 23.6000000  0  3G26G04G23                                       
  21341533.88349 112150516.66049    -15280.68449        49.000  
  21284406.86749 111850311.76249     -9955.16049        49.000  
  22338745.61749 117390900.25849      -598.94149        50.000  
 16 04 02 12 41 23.7000000  0  3G26G04G23                                       
  21341824.71949 112152044.98449    -15285.28149        49.000  
  21284596.37549 111851307.55949     -9960.18049        49.000  
  22338757.07849 117390960.46149      -604.94149        50.000  
 16 04 02 12 41 23.8000000  0  3G26G04G23                                       
  21342115.56249 112153573.68849    -15289.25449        49.000  
  21284785.94549 111852303.75849     -9964.31649        49.000  
  22338768.63349 117391021.19549      -610.30949        50.000  
 16 04 02 12 41 23.9000000  0  3G26G04G23                                       
  21342406.56249 112155102.90249    -15294.14849        49.000  
  21284975.64149 111853300.48449     -9969.38749        49.000  
  22338780.32049 117391082.59049      -616.76249        50.000  
 16 04 02 12 41 24.0000000  0  3G26G04G23                                       
  21342697.64149 112156632.56249    -15298.86749        49.000  
  21285165.39849 111854297.67649     -9974.19149        49.000  
  22338792.10949 117391144.55149      -622.66449        50.000  
 16 04 02 12 41 24.1000000  0  3G26G04G23                                       
  21342988.82049 112158162.71549    -15303.85949        49.000  
  21285355.25849 111855295.39149     -9979.52749        49.000  
  22338804.01649 117391207.16849      -629.30549        50.000  
 16 04 02 12 41 24.2000000  0  3G26G04G23                                       
  21343280.08649 112159693.35949    -15308.64149        49.000  
  21285545.21149 111856293.61749     -9984.59049        49.000  
  22338816.04749 117391270.40249      -635.41449        50.000  
 16 04 02 12 41 24.3000000  0  3G26G04G23                                       
  21343571.43049 112161224.38749    -15312.50049        49.000  
  21285735.24249 111857292.24249     -9988.59049        49.000  
  22338828.18049 117391334.16449      -640.69549        50.000  
 16 04 02 12 41 24.4000000  0  3G26G04G23                                       
  21343862.87549 112162755.90649    -15317.07049        49.000  
  21285925.37549 111858291.37949     -9993.50449        49.000  
  22338840.43849 117391398.55549      -646.78149        50.000  
 16 04 02 12 41 24.5000000  0  3G26G04G23                                       
  21344154.38349 112164287.79749    -15320.94949        49.000  
  21286115.58649 111859290.91049     -9997.43049        49.000  
  22338852.78149 117391463.46149      -651.92649        50.000  
 16 04 02 12 41 24.6000000  0  3G26G04G23                                       
  21344445.99249 112165820.19549    -15325.96149        49.000  
  21286305.89149 111860290.96949    -10002.67649        49.000  
  22338865.25849 117391529.01649      -658.39149        50.000  
 16 04 02 12 41 24.7000000  0  3G26G04G23                                       
  21344737.68049 112167353.00849    -15330.35549        49.000  
  21286496.26649 111861291.46549    -10007.32849        49.000  
  22338877.83649 117391595.12949      -664.23849        50.000  
 16 04 02 12 41 24.8000000  0  3G26G04G23                                       
  21345029.45349 112168886.32049    -15335.24249        49.000  
  21286686.75849 111862292.48849    -10012.51249        49.000  
  22338890.53949 117391661.89149      -670.59049        50.000  
 16 04 02 12 41 24.9000000  0  3G26G04G23                                       
  21345321.32049 112170420.08249    -15339.71949        49.000  
  21286877.32849 111863293.96949    -10017.11349        49.000  
  22338903.34449 117391729.21949      -676.29349        50.000  
 16 04 02 12 41 25.0000000  0  3G26G04G23                                       
  21345613.28949 112171954.32049    -15344.52049        49.000  
  21287068.00049 111864295.96149    -10022.19149        49.000  
  22338916.28149 117391797.19149      -682.65649        50.000  
 16 04 02 12 41 25.1000000  0  3G26G04G23                                       
  21345905.34449 112173489.07049    -15349.86349        49.000  
  21287258.76649 111865298.48049    -10027.68849        49.000  
  22338929.34449 117391865.80549      -689.46549        50.000  
 16 04 02 12 41 25.2000000  0  3G26G04G23                                       
  21346197.47749 112175024.25449    -15354.04349        49.000  
  21287449.62549 111866301.45349    -10032.05549        49.000  
  22338942.50849 117391934.99249      -694.93849        50.000  
 16 04 02 12 41 25.3000000  0  4G29G26G04G23                                    
  22386143.78149 117639978.64559     15206.47749        50.000  
  21346489.68049 112176559.79749    -15357.42249        49.000  
  21287640.56249 111867304.80549    -10035.63349        49.000  
  22338955.76649 117392004.67649      -699.63349        50.000  
 16 04 02 12 41 25.4000000  0  4G29G26G04G23                                    
  22385854.44549 117638458.19549     15203.03949        50.000  
  21346781.99249 112178095.83649    -15362.43049        49.000  
  21287831.59449 111868308.68449    -10041.00449        49.000  
  22338969.14849 117392075.00849      -706.27349        50.000  
 16 04 02 12 41 25.5000000  0  4G29G26G04G23                                    
  22385565.14149 117636938.02349     15200.38349        50.000  
  21347074.36749 112179632.30149    -15366.68449        49.000  
  21288022.69549 111869312.99249    -10045.37149        49.000  
  22338982.63349 117392145.91049      -711.93449        50.000  
 16 04 02 12 41 25.6000000  0  4G29G26G04G23                                    
  22385275.92249 117635418.15649     15197.18449        50.000  
  21347366.85949 112181169.25449    -15371.67649        49.000  
  21288213.90649 111870317.82049    -10050.53149        49.000  
  22338996.24249 117392217.43049      -718.21149        50.000  
 16 04 02 12 41 25.7000000  0  4G29G26G04G23                                    
  22384986.75049 117633898.62149     15193.80149        50.000  
  21347659.43049 112182706.69949    -15376.72749        49.000  
  21288405.21149 111871323.15649    -10055.66049        49.000  
  22339009.96949 117392289.58649      -724.66049        50.000  
 16 04 02 12 41 25.8000000  0  4G29G26G04G23                                    
  22384697.64849 117632379.38749     15190.84449        50.000  
  21347952.09449 112184244.59849    -15381.22749        49.000  
  21288596.61749 111872328.98449    -10060.63349        49.000  
  22339023.81249 117392362.35249      -730.67649        50.000  
 16 04 02 12 41 25.9000000  0  4G29G26G04G23                                    
  22384408.60949 117630860.44149     15187.71949        50.000  
  21348244.82849 112185782.96149    -15385.86349        49.000  
  21288788.13349 111873335.27749    -10065.34849        49.000  
  22339037.77349 117392435.71149      -736.79349        50.000  
 16 04 02 12 41 26.0000000  0  4G29G26G04G23                                    
  22384119.60949 117629341.77349     15185.21149        50.000  
  21348537.64149 112187321.77049    -15390.17249        49.000  
  21288979.71949 111874342.05549    -10069.99249        49.000  
  22339051.84449 117392509.66049      -742.47749        50.000  
 16 04 02 12 41 26.1000000  0  4G29G26G04G23                                    
  22383830.67249 117627823.42649     15182.00849        50.000  
  21348830.55549 112188861.06249    -15395.05949        49.000  
  21289171.38349 111875349.32049    -10074.86749        49.000  
  22339066.03949 117392584.23049      -748.70749        50.000  
 16 04 02 12 41 26.2000000  0  4G29G26G04G23                                    
  22383541.79749 117626305.35949     15179.10249        50.000  
  21349123.56249 112190400.79749    -15399.57849        49.000  
  21289363.14849 111876357.06249    -10079.73849        49.000  
  22339080.33649 117392659.39149      -754.76649        50.000  
 16 04 02 12 41 26.3000000  0  4G29G26G04G23                                    
  22383252.97749 117624787.57849     15176.37149        50.000  
  21349416.64849 112191940.99249    -15404.04749        49.000  
  21289555.00049 111877365.27349    -10084.29749        49.000  
  22339094.75849 117392735.14149      -760.51649        50.000  
 16 04 02 12 41 26.4000000  0  4G29G26G04G23                                    
  22382964.19549 117623270.02749     15174.14149        50.000  
  21349709.82849 112193481.57049    -15407.83649        49.000  
  21289746.93049 111878373.89549    -10088.37149        49.000  
  22339109.27349 117392811.42649      -765.77349        50.000  
 16 04 02 12 41 26.5000000  0  4G29G26G04G23                                    
  22382675.50049 117621752.82049     15170.51649        50.000  
  21350003.08649 112195022.66049    -15413.05149        49.000  
  21289938.96949 111879383.05949    -10093.87149        49.000  
  22339123.91449 117392888.36749      -772.43049        50.000  
 16 04 02 12 41 26.6000000  0  4G29G26G04G23                                    
  22382386.84449 117620235.93849     15167.34449        50.000  
  21350296.44549 112196564.23849    -15417.97749        49.000  
  21290131.10249 111880392.72749    -10099.00849        49.000  
  22339138.68049 117392965.94549      -778.82049        50.000  
 16 04 02 12 41 26.7000000  0  4G29G26G04G23                                    
  22382098.23449 117618719.27749     15165.05549        50.000  
  21350589.87549 112198106.21149    -15421.95749        49.000  
  21290323.32049 111881402.80549    -10103.11349        49.000  
  22339153.53949 117393044.04349      -784.13749        50.000  
 16 04 02 12 41 26.8000000  0  4G29G26G04G23                                    
  22381809.68849 117617202.93849     15161.88349        50.000  
  21350883.42249 112199648.66849    -15426.77049        49.000  
  21290515.62549 111882413.39149    -10108.04349        49.000  
  22339168.51649 117393122.77349      -790.34049        50.000  
 16 04 02 12 41 26.9000000  0  4G29G26G04G23                                    
  22381521.18049 117615686.90249     15159.09449        50.000  
  21351177.03149 112201191.57849    -15431.16849        49.000  
  21290708.02349 111883424.45749    -10112.75449        49.000  
  22339183.61749 117393202.10249      -796.12949        50.000  
 16 04 02 12 41 27.0000000  0  4G29G26G04G23                                    
  22381232.73449 117614171.10949     15156.45749        50.000  
  21351470.73449 112202734.91049    -15435.46949        49.000  
  21290900.50049 111884435.95749    -10117.26249        49.000  
  22339198.82049 117393281.99249      -801.89149        50.000  
 16 04 02 12 41 27.1000000  0  4G29G26G04G23                                    
  22380944.34449 117612655.60549     15153.68449        50.000  
  21351764.50849 112204278.69149    -15439.87949        49.000  
  21291093.07849 111885447.93449    -10121.85549        49.000  
  22339214.12549 117393362.47349      -807.72749        50.000  
 16 04 02 12 41 27.2000000  0  4G29G26G04G23                                    
  22380656.02349 117611140.46549     15149.77349        50.000  
  21352058.39149 112205822.99649    -15445.24249        49.000  
  21291285.75849 111886460.46549    -10127.62949        49.000  
  22339229.57049 117393443.62949      -814.66849        50.000  
 16 04 02 12 41 27.3000000  0  4G29G26G04G23                                    
  22380367.75049 117609625.56649     15147.50449        50.000  
  21352352.34449 112207367.71949    -15449.30149        49.000  
  21291478.51649 111887473.41449    -10131.75449        49.000  
  22339245.11749 117393525.32849      -820.03149        50.000  
 16 04 02 12 41 27.4000000  0  4G29G26G04G23                                    
  22380079.52349 117608110.93449     15145.01649        50.000  
  21352646.38349 112208912.85949    -15453.44949        49.000  
  21291671.35949 111888486.81649    -10136.07849        49.000  
  22339260.77349 117393607.60249      -825.55549        50.000  
 16 04 02 12 41 27.5000000  0  4G29G26G04G23                                    
  22379791.34449 117606596.59449     15141.82849        50.000  
  21352940.50049 112210458.46949    -15458.29749        49.000  
  21291864.30549 111889500.69549    -10140.94149        49.000  
  22339276.54749 117393690.48049      -831.86749        50.000  
 16 04 02 12 41 27.6000000  0  4G29G26G04G23                                    
  22379503.23449 117605082.55549     15139.03949        50.000  
  21353234.70349 112212004.53549    -15462.80949        49.000  
  21292057.33649 111890515.07449    -10145.84049        49.000  
  22339292.43049 117393773.95749      -837.76649        50.000  
 16 04 02 12 41 27.7000000  0  4G29G26G04G23                                    
  22379215.16449 117603568.82049     15135.63349        50.000  
  21353529.00049 112213551.06649    -15467.58649        49.000  
  21292250.46149 111891529.93049    -10150.96149        49.000  
  22339308.43049 117393858.05149      -844.11749        50.000  
 16 04 02 12 41 27.8000000  0  4G29G26G04G23                                    
  22378927.17249 117602055.42649     15132.39149        50.000  
  21353823.40649 112215098.10549    -15472.55549        49.000  
  21292443.68849 111892545.32049    -10156.23449        49.000  
  22339324.55549 117393942.78549      -850.38349        50.000  
 16 04 02 12 41 27.9000000  0  4G29G26G04G23                                    
  22378639.22749 117600542.35249     15129.04349        50.000  
  21354117.89149 112216645.63749    -15477.67649        49.000  
  21292636.99249 111893561.20749    -10161.37149        49.000  
  22339340.80549 117394028.15249      -856.94949        50.000  
 16 04 02 12 41 28.0000000  0  4G29G26G04G23                                    
  22378351.35249 117599029.54349     15126.63349        50.000  
  21354412.46949 112218193.59049    -15481.75049        49.000  
  21292830.39849 111894577.55549    -10165.67249        49.000  
  22339357.15649 117394114.08649      -862.30949        50.000  
 16 04 02 12 41 28.1000000  0  4G29G26G04G23                                    
  22378063.51649 117597516.97349     15124.27049        50.000  
  21354707.10949 112219741.93849    -15485.64849        49.000  
  21293023.88349 111895594.31249    -10169.79749        49.000  
  22339373.60949 117394200.55949      -867.59849        50.000  
 16 04 02 12 41 28.2000000  0  4G29G26G04G23                                    
  22377775.73449 117596004.67249     15121.60249        50.000  
  21355001.81249 112221290.73449    -15489.97749        49.000  
  21293217.45349 111896611.53949    -10174.39149        49.000  
  22339390.17249 117394287.62949      -873.50849        50.000  
 16 04 02 12 41 28.3000000  0  4G29G26G04G23                                    
  22377488.00049 117594492.65249     15118.75049        50.000  
  21355296.61749 112222839.96549    -15494.41049        49.000  
  21293411.12549 111897629.23049    -10179.11349        49.000  
  22339406.85249 117394375.27349      -879.41449        50.000  
 16 04 02 12 41 28.4000000  0  4G29G26G04G23                                    
  22377200.33649 117592980.96549     15115.37549        50.000  
  21355591.53149 112224389.69949    -15499.52349        49.000  
  21293604.87549 111898647.42249    -10184.16049        49.000  
  22339423.64849 117394463.53949      -885.76649        50.000  
 16 04 02 12 41 28.5000000  0  4G29G26G04G23                                    
  22376912.71949 117591469.55149     15112.81249        50.000  
  21355886.51649 112225939.85949    -15503.73849        49.000  
  21293798.71949 111899666.08649    -10188.84049        49.000  
  22339440.56249 117394552.41449      -891.69149        50.000  
 16 04 02 12 41 28.6000000  0  4G29G26G04G23                                    
  22376625.17249 117589958.45749     15109.33249        50.000  
  21356181.57849 112227490.51249    -15508.79749        49.000  
  21293992.65649 111900685.25449    -10193.98849        49.000  
  22339457.59449 117394641.90649      -897.94549        50.000  
 16 04 02 12 41 28.7000000  0  4G29G26G04G23                                    
  22376337.67249 117588447.62949     15106.66849        50.000  
  21356476.73449 112229041.59049    -15513.00049        49.000  
  21294186.69549 111901704.88349    -10198.66449        49.000  
  22339474.72749 117394731.96949      -903.77349        50.000  
 16 04 02 12 41 28.8000000  0  4G29G26G04G23                                    
  22376050.23449 117586937.14549     15103.39549        50.000  
  21356772.00849 112230593.18049    -15518.03949        49.000  
  21294380.82049 111902725.02049    -10203.61349        49.000  
  22339491.99249 117394822.68449      -910.12949        50.000  
 16 04 02 12 41 28.9000000  0  4G29G26G04G23                                    
  22375762.84449 117585426.89549     15101.10249        50.000  
  21357067.33649 112232145.15249    -15521.79749        49.000  
  21294575.02349 111903745.59049    -10207.91449        49.000  
  22339509.35249 117394913.92649      -915.43849        50.000  
 16 04 02 12 41 29.0000000  0  4G29G26G04G23                                    
  22375475.50849 117583916.91849     15098.40649        50.000  
  21357362.76649 112233697.58649    -15526.35249        49.000  
  21294769.32049 111904766.61349    -10212.36349        49.000  
  22339526.82049 117395005.75849      -921.17249        50.000  
 16 04 02 12 41 29.1000000  0  4G29G26G04G23                                    
  22375188.23449 117582407.21149     15095.68849        50.000  
  21357658.25849 112235250.43049    -15530.53149        49.000  
  21294963.69549 111905788.08249    -10216.82049        49.000  
  22339544.40649 117395098.16049      -926.95349        50.000  
 16 04 02 12 41 29.2000000  0  4G29G26G04G23                                    
  22374901.00049 117580897.80949     15092.37149        50.000  
  21357953.86749 112236803.75849    -15535.60949        49.000  
  21295158.17249 111906810.05549    -10221.99249        49.000  
  22339562.10949 117395191.17649      -933.40649        50.000  
 16 04 02 12 41 29.3000000  0  4G29G26G04G23                                    
  22374613.83649 117579388.74649     15089.21949        50.000  
  21358249.54749 112238357.57449    -15540.26649        49.000  
  21295352.75849 111907832.55149    -10227.09849        49.000  
  22339579.93049 117395284.84049      -939.59449        50.000  
 16 04 02 12 41 29.4000000  0  4G29G26G04G23                                    
  22374326.71149 117577879.93049     15086.73049        50.000  
  21358545.29749 112239911.81249    -15544.49249        49.000  
  21295547.41449 111908855.47349    -10231.40249        49.000  
  22339597.85949 117395379.05549      -945.14149        50.000  
 16 04 02 12 41 29.5000000  0  4G29G26G04G23                                    
  22374039.65649 117576371.39549     15083.90249        50.000  
  21358841.14849 112241466.48449    -15548.87549        49.000  
  21295742.15649 111909878.86349    -10236.17249        49.000  
  22339615.89149 117395473.85949      -951.00449        50.000  
 16 04 02 12 41 29.6000000  0  4G29G26G04G23                                    
  22373752.65649 117574863.18049     15080.69149        50.000  
  21359137.08649 112243021.64849    -15553.73049        49.000  
  21295937.00049 111910902.75849    -10241.21949        49.000  
  22339634.05549 117395569.28949      -957.23849        50.000  
 16 04 02 12 41 29.7000000  0  4G29G26G04G23                                    
  22373465.70349 117573355.26649     15077.63349        50.000  
  21359433.10949 112244577.27049    -15558.40249        49.000  
  21296131.93849 111911927.12549    -10245.92649        49.000  
  22339652.32849 117395665.32449      -963.42649        50.000  
 16 04 02 12 41 29.8000000  0  4G29G26G04G23                                    
  22373178.82049 117571847.66049     15074.42249        50.000  
  21359729.21949 112246133.36749    -15563.34449        49.000  
  21296326.96949 111912952.01249    -10251.23449        49.000  
  22339670.71949 117395761.97349      -969.71949        50.000  
 16 04 02 12 41 29.9000000  0  4G29G26G04G23                                    
  22372892.00049 117570340.38349     15071.25449        50.000  
  21360025.42249 112247689.94949    -15568.05149        49.000  
  21296522.09449 111913977.38749    -10256.04349        49.000  
  22339689.23449 117395859.25849      -975.94149        50.000  
 16 04 02 12 41 30.0000000  0  4G29G26G04G23                                    
  22372605.21949 117568833.35249     15068.80149        50.000  
  21360321.71949 112249246.94149    -15572.11349        49.000  
  21296717.29749 111915003.20749    -10260.45349        49.000  
  22339707.85249 117395957.09049      -981.33249        50.000  
 16 04 02 12 41 30.1000000  0  4G29G26G04G23                                    
  22372318.50849 117567326.62149     15065.89149        50.000  
  21360618.09449 112250804.39849    -15576.68049        49.000  
  21296912.58649 111916029.50049    -10265.12949        49.000  
  22339726.57849 117396055.52749      -987.37949        50.000  
 16 04 02 12 41 30.2000000  0  4G29G26G04G23                                    
  22372031.82849 117565820.13349     15063.57049        50.000  
  21360914.54749 112252362.26649    -15580.67649        49.000  
  21297107.96949 111917056.23449    -10269.41849        49.000  
  22339745.41449 117396154.52749      -992.76249        50.000  
 16 04 02 12 41 30.3000000  0  4G29G26G04G23                                    
  22371745.21949 117564313.95349     15060.12949        50.000  
  21361211.08649 112253920.59849    -15585.61349        49.000  
  21297303.45349 111918083.44549    -10274.43049        49.000  
  22339764.36749 117396254.12549      -999.17249        50.000  
 16 04 02 12 41 30.4000000  0  4G29G26G04G23                                    
  22371458.65649 117562808.09849     15057.09049        50.000  
  21361507.71949 112255479.41849    -15590.39549        49.000  
  21297499.02349 111919111.17649    -10279.47349        49.000  
  22339783.43849 117396354.36349     -1005.40649        50.000  
 16 04 02 12 41 30.5000000  0  4G29G26G04G23                                    
  22371172.16449 117561302.51649     15054.13749        50.000  
  21361804.43849 112257038.67249    -15594.81649        49.000  
  21297694.68049 111920139.35549    -10284.14549        49.000  
  22339802.61749 117396455.16849     -1011.18849        50.000  
 16 04 02 12 41 30.6000000  0  4G29G26G04G23                                    
  22370885.71949 117559797.24249     15051.21149        50.000  
  21362101.23449 112258598.40249    -15599.53149        49.000  
  21297890.43049 111921168.03949    -10289.04749        49.000  
  22339821.92249 117396556.60249     -1017.35949        50.000  
 16 04 02 12 41 30.7000000  0  4G29G26G04G23                                    
  22370599.35249 117558292.28549     15048.05949        50.000  
  21362398.12549 112260158.60249    -15604.17249        49.000  
  21298086.28149 111922197.21549    -10294.11349        49.000  
  22339841.35249 117396658.66049     -1023.66049        50.000  
 16 04 02 12 41 30.8000000  0  4G29G26G04G23                                    
  22370313.01649 117556787.58649     15045.29349        50.000  
  21362695.10949 112261719.23049    -15608.63749        49.000  
  21298282.21149 111923226.84049    -10298.65249        49.000  
  22339860.87549 117396761.26249     -1029.31649        50.000  
 16 04 02 12 41 30.9000000  0  4G29G26G04G23                                    
  22370026.72749 117555283.18849     15042.64549        50.000  
  21362992.17249 112263280.31649    -15612.87149        49.000  
  21298478.23449 111924256.94149    -10303.14849        49.000  
  22339880.51649 117396864.49249     -1035.10249        50.000  
 16 04 02 12 41 31.0000000  0  4G29G26G04G23                                    
  22369740.49249 117553779.01249     15040.41049        50.000  
  21363289.29749 112264841.79349    -15616.80549        49.000  
  21298674.33649 111925287.44949    -10307.17249        49.000  
  22339900.25849 117396968.23449     -1040.43049        50.000  
 16 04 02 12 41 31.1000000  0  4G29G26G04G23                                    
  22369454.33649 117552275.19549     15036.69949        50.000  
  21363586.53949 112266403.78549    -15622.00049        49.000  
  21298870.54749 111926318.50449    -10312.71549        49.000  
  22339920.12549 117397072.64549     -1047.06649        50.000  
 16 04 02 12 41 31.2000000  0  4G29G26G04G23                                    
  22369168.22749 117550771.67249     15033.77749        50.000  
  21363883.85249 112267966.22749    -15626.58649        49.000  
  21299066.83649 111927350.02749    -10317.44149        49.000  
  22339940.10949 117397177.65649     -1053.10249        50.000  
 16 04 02 12 41 31.3000000  0  4G29G26G04G23                                    
  22368882.15649 117549268.40249     15031.04349        50.000  
  21364181.25049 112269529.09449    -15630.96149        49.000  
  21299263.21949 111928381.99649    -10322.02049        49.000  
  22339960.19549 117397283.22749     -1058.86749        50.000  
 16 04 02 12 41 31.4000000  0  4G29G26G04G23                                    
  22368596.16449 117547765.50849     15027.36349        50.000  
  21364478.75049 112271092.49249    -15636.25849        49.000  
  21299459.70349 111929414.53149    -10327.70749        49.000  
  22339980.41449 117397389.48449     -1065.71949        50.000  
 16 04 02 12 41 31.5000000  0  4G29G26G04G23                                    
  22368310.23449 117546262.85249     15025.07849        50.000  
  21364776.32849 112272656.30549    -15640.33249        49.000  
  21299656.26649 111930447.47349    -10331.68849        49.000  
  22340000.74249 117397496.27749     -1070.96549        50.000  
 16 04 02 12 41 31.6000000  0  4G29G26G04G23                                    
  22368024.35249 117544760.53149     15021.82849        50.000  
  21365074.00849 112274220.59449    -15645.03149        49.000  
  21299852.93049 111931480.93049    -10336.66049        49.000  
  22340021.18049 117397603.71549     -1077.31249        50.000  
 16 04 02 12 41 31.7000000  0  4G29G26G04G23                                    
  22367738.54749 117543258.50449     15018.73849        50.000  
  21365371.77349 112275785.34849    -15649.77349        49.000  
  21300049.68049 111932514.88749    -10341.83249        49.000  
  22340041.75049 117397711.75449     -1083.51649        50.000  
 16 04 02 12 41 31.8000000  0  4G29G26G04G23                                    
  22367452.76649 117541756.71949     15016.27749        50.000  
  21365669.62549 112277350.50049    -15653.80149        49.000  
  21300246.51649 111933549.25449    -10346.00449        49.000  
  22340062.40649 117397820.32849     -1088.90649        50.000  
 16 04 02 12 41 31.9000000  0  4G29G26G04G23                                    
  22367167.06249 117540255.30549     15012.71149        50.000  
  21365967.56249 112278916.19149    -15658.95349        49.000  
  21300443.46149 111934584.17649    -10351.38749        49.000  
  22340083.19549 117397929.59449     -1095.59449        50.000  
 16 04 02 12 41 32.0000000  0  4G29G26G04G23                                    
  22366881.39149 117538754.10949     15010.49649        50.000  
  21366265.58649 112280482.25849    -15662.79749        49.000  
  21300640.47749 111935619.50049    -10355.50449        49.000  
  22340104.08649 117398039.36749     -1100.80549        50.000  
 16 04 02 12 41 32.1000000  0  4G29G26G04G23                                    
  22366595.77349 117537253.20749     15007.71149        50.000  
  21366563.68849 112282048.78149    -15667.29349        49.000  
  21300837.58649 111936655.30549    -10360.22749        49.000  
  22340125.09449 117398149.75849     -1106.81649        50.000  
 16 04 02 12 41 32.2000000  0  4G29G26G04G23                                    
  22366310.21949 117535752.59849     15004.57449        50.000  
  21366861.88349 112283615.76249    -15671.93849        49.000  
  21301034.78149 111937691.58249    -10364.97349        49.000  
  22340146.21149 117398260.74249     -1112.92249        50.000  
 16 04 02 12 41 32.3000000  0  4G29G26G04G23                                    
  22366024.73449 117534252.34449     15000.97749        50.000  
  21367160.16449 112285183.25849    -15677.15649        49.000  
  21301232.07849 111938728.39149    -10370.28549        49.000  
  22340167.45349 117398372.37549     -1119.43449        50.000  
 16 04 02 12 41 32.4000000  0  4G29G26G04G23                                    
  22365739.29749 117532752.34849     14998.35549        50.000  
  21367458.53149 112286751.16849    -15681.42249        49.000  
  21301429.46149 111939765.65649    -10374.95349        49.000  
  22340188.80549 117398484.57849     -1125.14849        50.000  
 16 04 02 12 41 32.5000000  0  4G29G26G04G23                                    
  22365453.92249 117531252.67649     14995.30549        50.000  
  21367756.98449 112288319.56649    -15686.15649        49.000  
  21301626.94549 111940803.42649    -10379.99649        49.000  
  22340210.28149 117398597.42649     -1131.47749        50.000  
 16 04 02 12 41 32.6000000  0  4G29G26G04G23                                    
  22365168.58649 117529753.19949     14993.43849        50.000  
  21368055.49249 112289888.31649    -15689.52049        49.000  
  21301824.49249 111941841.56249    -10383.57849        49.000  
  22340231.84449 117398710.73849     -1136.03549        50.000  
 16 04 02 12 41 32.7000000  0  4G29G26G04G23                                    
  22364883.30549 117528254.00849     14990.37549        50.000  
  21368354.10249 112291457.52349    -15694.24249        49.000  
  21302022.14149 111942880.17649    -10388.35949        49.000  
  22340253.52349 117398824.67249     -1142.34449        50.000  
 16 04 02 12 41 32.8000000  0  4G29G26G04G23                                    
  22364598.08649 117526755.18049     14986.80549        50.000  
  21368652.82049 112293027.24249    -15699.35249        49.000  
  21302219.88349 111943919.33249    -10393.87549        49.000  
  22340275.32849 117398939.25849     -1148.92649        50.000  
 16 04 02 12 41 32.9000000  0  4G29G26G04G23                                    
  22364312.93849 117525256.68449     14983.27749        50.000  
  21368951.61749 112294597.46149    -15704.46549        49.000  
  21302417.71949 111944958.99649    -10399.04349        49.000  
  22340297.25849 117399054.49649     -1155.50849        50.000  
 16 04 02 12 41 33.0000000  0  4G29G26G04G23                                    
  22364027.82849 117523758.41449     14981.30149        50.000  
  21369250.49249 112296168.05949    -15708.07449        49.000  
  21302615.64149 111945999.07849    -10403.02349        49.000  
  22340319.28149 117399170.25049     -1160.49249        50.000  
 16 04 02 12 41 33.1000000  0  4G29G26G04G23                                    
  22363742.78149 117522260.43849     14978.25449        50.000  
  21369549.46149 112297739.12949    -15712.86349        49.000  
  21302813.65649 111947039.64149    -10407.86349        49.000  
  22340341.42249 117399286.61349     -1166.73449        50.000  
 16 04 02 12 41 33.2000000  0  4G29G26G04G23                                    
  22363457.78949 117520762.81249     14974.73449        50.000  
  21369848.52349 112299310.69549    -15717.75049        49.000  
  21303011.76649 111948080.73049    -10413.18049        49.000  
  22340363.69549 117399403.62949     -1173.11349        50.000  
 16 04 02 12 41 33.3000000  0  4G29G26G04G23                                    
  22363172.85249 117519265.47349     14971.96549        50.000  
  21370147.66449 112300882.71149    -15722.27049        49.000  
  21303209.96949 111949122.28549    -10417.80149        49.000  
  22340386.07849 117399521.23449     -1179.03549        50.000  
 16 04 02 12 41 33.4000000  0  4G29G26G04G23                                    
  22362887.97749 117517768.45749     14968.67649        50.000  
  21370446.90649 112302455.21549    -15727.22349        49.000  
  21303408.26649 111950164.35549    -10423.00049        49.000  
  22340408.57849 117399639.46949     -1185.39549        50.000  
 16 04 02 12 41 33.5000000  0  4G29G26G04G23                                    
  22362603.14849 117516271.71549     14965.86349        50.000  
  21370746.22749 112304028.14149    -15731.40649        49.000  
  21303606.64849 111951206.87149    -10427.44149        49.000  
  22340431.18049 117399758.28949     -1191.21549        50.000  
 16 04 02 12 41 33.6000000  0  4G29G26G04G23                                    
  22362318.38349 117514775.25849     14963.10249        50.000  
  21371045.64849 112305601.53149    -15736.05949        49.000  
  21303805.11749 111952249.85949    -10432.03949        49.000  
  22340453.90649 117399877.69149     -1197.09449        50.000  
 16 04 02 12 41 33.7000000  0  4G29G26G04G23                                    
  22362033.67249 117513279.09849     14960.16449        50.000  
  21371345.13349 112307175.35949    -15740.43049        49.000  
  21304003.69549 111953293.32849    -10436.86749        49.000  
  22340476.73449 117399997.69949     -1203.02749        50.000  
 16 04 02 12 41 33.8000000  0  4G29G26G04G23                                    
  22361749.02349 117511783.26249     14956.79749        50.000  
  21371644.73449 112308749.67249    -15745.22749        49.000  
  21304202.35949 111954337.29349    -10441.84049        49.000  
  22340499.68849 117400118.31649     -1209.25849        50.000  
 16 04 02 12 41 33.9000000  0  4G29G26G04G23                                    
  22361464.43049 117510287.71149     14954.19949        50.000  
  21371944.39849 112310324.45349    -15749.73849        49.000  
  21304401.11749 111955381.74649    -10446.64149        49.000  
  22340522.75849 117400239.55949     -1215.20749        50.000  
 16 04 02 12 41 34.0000000  0  4G29G26G04G23                                    
  22361179.89149 117508792.43449     14951.26249        50.000  
  21372244.14149 112311899.64849    -15754.10949        49.000  
  21304599.95349 111956426.63749    -10451.16449        49.000  
  22340545.93849 117400361.35949     -1221.05149        50.000  
 16 04 02 12 41 34.1000000  0  4G29G26G04G23                                    
  22360895.40649 117507297.42649     14948.64549        50.000  
  21372543.97749 112313475.28949    -15758.55149        49.000  
  21304798.87549 111957471.98849    -10455.76649        49.000  
  22340569.21949 117400483.73849     -1226.81249        50.000  
 16 04 02 12 41 34.2000000  0  4G29G26G04G23                                    
  22360610.96149 117505802.65649     14946.25849        50.000  
  21372843.89149 112315051.31249    -15762.37149        49.000  
  21304997.88349 111958517.76249    -10459.99649        49.000  
  22340592.60949 117400606.65249     -1232.12149        50.000  
 16 04 02 12 41 34.3000000  0  4G29G26G04G23                                    
  22360326.58649 117504308.23449     14942.99249        50.000  
  21373143.89149 112316627.85249    -15767.37149        49.000  
  21305196.96949 111959564.05949    -10464.99649        49.000  
  22340616.12549 117400730.23049     -1238.55949        50.000  
 16 04 02 12 41 34.4000000  0  4G29G26G04G23                                    
  22360042.26649 117502814.12549     14939.30949        50.000  
  21373443.99249 112318204.85949    -15772.53149        49.000  
  21305396.17249 111960610.85249    -10470.38749        49.000  
  22340639.75849 117400854.41449     -1245.05949        50.000  
 16 04 02 12 41 34.5000000  0  4G29G26G04G23                                    
  22359758.00049 117501320.34849     14936.35949        50.000  
  21373744.18049 112319782.35949    -15777.12949        49.000  
  21305595.46949 111961658.16449    -10475.32449        49.000  
  22340663.51649 117400979.24249     -1251.23049        50.000  
 16 04 02 12 41 34.6000000  0  4G29G26G04G23                                    
  22359473.78949 117499826.78549     14934.12149        50.000  
  21374044.43849 112321360.22349    -15780.84049        49.000  
  21305794.84449 111962705.86749    -10479.36749        49.000  
  22340687.36749 117401104.59449     -1256.55549        50.000  
 16 04 02 12 41 34.7000000  0  4G29G26G04G23                                    
  22359189.63349 117498333.56249     14930.68049        50.000  
  21374344.79749 112322938.59849    -15785.87949        49.000  
  21305994.32049 111963754.07849    -10484.45349        49.000  
  22340711.33649 117401230.57849     -1263.01249        50.000  
 16 04 02 12 41 34.8000000  0  4G29G26G04G23                                    
  22358905.53949 117496840.62549     14927.81249        50.000  
  21374645.23449 112324517.42649    -15790.36749        49.000  
  21306193.88349 111964802.78149    -10489.21949        49.000  
  22340735.43049 117401357.16849     -1268.87549        50.000  
 16 04 02 12 41 34.9000000  0  4G29G26G04G23                                    
  22358621.50049 117495347.94549     14925.39149        50.000  
  21374945.75049 112326096.65649    -15794.35949        49.000  
  21306393.51649 111965851.91449    -10493.46149        49.000  
  22340759.62549 117401484.30549     -1274.36349        50.000  
 16 04 02 12 41 35.0000000  0  4G29G26G04G23                                    
  22358337.50849 117493855.55949     14922.56249        50.000  
  21375246.35949 112327676.34449    -15798.89149        49.000  
  21306593.25049 111966901.52049    -10498.21549        49.000  
  22340783.93049 117401612.04349     -1280.25449        50.000  
 16 04 02 12 41 35.1000000  0  4G29G26G04G23                                    
  22358053.57049 117492363.41849     14920.09049        50.000  
  21375547.04749 112329256.44949    -15803.10549        49.000  
  21306793.07049 111967951.55549    -10502.44949        49.000  
  22340808.34449 117401740.34049     -1285.78949        50.000  
 16 04 02 12 41 35.2000000  0  4G29G26G04G23                                    
  22357769.68849 117490871.57849     14916.83649        50.000  
  21375847.81249 112330836.99249    -15807.71149        49.000  
  21306992.97749 111969002.07449    -10507.50449        49.000  
  22340832.87549 117401869.22749     -1291.98049        50.000  
 16 04 02 12 41 35.3000000  0  4G29G26G04G23                                    
  22357485.84449 117489380.04349     14913.78949        50.000  
  21376148.67249 112332418.00849    -15812.35549        49.000  
  21307192.96949 111970053.07449    -10512.34849        49.000  
  22340857.51649 117401998.73849     -1298.14549        50.000  
 16 04 02 12 41 35.4000000  0  4G29G26G04G23                                    
  22357202.08649 117487888.86349     14910.14849        50.000  
  21376449.63349 112333999.55149    -15817.65649        49.000  
  21307393.07049 111971104.61749    -10517.84049        49.000  
  22340882.28949 117402128.90649     -1304.81249        50.000  
 16 04 02 12 41 35.5000000  0  4G29G26G04G23                                    
  22356918.38349 117486397.92649     14907.83649        50.000  
  21376750.66449 112335581.47749    -15821.45349        49.000  
  21307593.25049 111972156.57449    -10521.88349        49.000  
  22340907.16449 117402259.61749     -1310.25849        50.000  
 16 04 02 12 41 35.6000000  0  4G29G26G04G23                                    
  22356634.71949 117484907.27749     14904.86749        50.000  
  21377051.76649 112337163.85949    -15826.02349        49.000  
  21307793.52349 111973209.01649    -10526.74249        49.000  
  22340932.14849 117402390.92649     -1316.21949        50.000  
 16 04 02 12 41 35.7000000  0  4G29G26G04G23                                    
  22356351.12549 117483416.94949     14901.87549        50.000  
  21377352.97749 112338746.73049    -15830.81649        49.000  
  21307993.88349 111974261.93849    -10531.43049        49.000  
  22340957.25049 117402522.85949     -1322.39149        50.000  
 16 04 02 12 41 35.8000000  0  4G29G26G04G23                                    
  22356067.59449 117481926.94549     14898.56649        50.000  
  21377654.27349 112340330.07449    -15835.62149        49.000  
  21308194.35249 111975315.39149    -10536.71549        49.000  
  22340982.47749 117402655.41849     -1328.66049        50.000  
 16 04 02 12 41 35.9000000  0  4G29G26G04G23                                    
  22355784.12549 117480437.27349     14895.20349        50.000  
  21377955.67249 112341913.91049    -15840.51249        49.000  
  21308394.91449 111976369.34849    -10541.92249        49.000  
  22341007.82849 117402788.61349     -1335.02049        50.000  
 16 04 02 12 41 36.0000000  0  4G29G26G04G23                                    
  22355500.69549 117478947.86349     14892.61349        50.000  
  21378257.14149 112343498.16849    -15844.75449        49.000  
  21308595.56249 111977423.73849    -10546.14549        49.000  
  22341033.28149 117402922.37149     -1340.61349        50.000  
 16 04 02 12 41 36.1000000  0  4G29G26G04G23                                    
  22355217.33649 117477458.77749     14889.40649        50.000  
  21378558.70349 112345082.90249    -15849.56249        49.000  
  21308796.29749 111978478.63749    -10551.23049        49.000  
  22341058.85949 117403056.76649     -1347.00449        50.000  
 16 04 02 12 41 36.2000000  0  4G29G26G04G23                                    
  22354934.01649 117475969.93849     14886.93849        50.000  
  21378860.35249 112346668.04349    -15853.53949        49.000  
  21308997.11749 111979533.96949    -10555.57049        49.000  
  22341084.53949 117403191.70749     -1352.50849        50.000  
 16 04 02 12 41 36.3000000  0  4G29G26G04G23                                    
  22354650.76649 117474481.38749     14884.10949        50.000  
  21379162.08649 112348253.64149    -15858.02349        49.000  
  21309198.04749 111980589.77049    -10560.14549        49.000  
  22341110.32849 117403327.23849     -1358.26249        50.000  
 16 04 02 12 41 36.4000000  0  4G29G26G04G23                                    
  22354367.55549 117472993.12949     14881.05149        50.000  
  21379463.89849 112349839.68449    -15862.62149        49.000  
  21309399.04749 111981646.03549    -10564.94949        49.000  
  22341136.23449 117403463.36749     -1364.40249        50.000  
 16 04 02 12 41 36.5000000  0  4G29G26G04G23                                    
  22354084.40649 117471505.22749     14877.53549        50.000  
  21379765.81249 112351426.23849    -15867.65649        49.000  
  21309600.14849 111982702.85549    -10570.48449        49.000  
  22341162.26649 117403600.15649     -1370.86349        50.000  
 16 04 02 12 41 36.6000000  0  4G29G26G04G23                                    
  22353801.31249 117470017.53949     14875.23849        50.000  
  21380067.80549 112353013.16849    -15871.52349        49.000  
  21309801.32049 111983760.05549    -10574.34849        49.000  
  22341188.39149 117403737.46949     -1376.15249        50.000  
 16 04 02 12 41 36.7000000  0  4G29G26G04G23                                    
  22353518.29749 117468530.21949     14871.65249        50.000  
  21380369.89149 112354600.61349    -15876.53949        49.000  
  21310002.60249 111984817.80149    -10579.65649        49.000  
  22341214.64849 117403875.44149     -1382.75049        50.000  
 16 04 02 12 41 36.8000000  0  4G29G26G04G23                                    
  22353235.32049 117467043.17249     14869.06649        50.000  
  21380672.03949 112356188.51249    -15881.03949        49.000  
  21310203.97749 111985876.01649    -10584.28949        49.000  
  22341241.01649 117404014.00849     -1388.64149        50.000  
 16 04 02 12 41 36.9000000  0  4G29G26G04G23                                    
  22352952.38349 117465556.45349     14865.56649        50.000  
  21380974.29749 112357776.88749    -15885.95349        49.000  
  21310405.44549 111986934.72749    -10589.38749        49.000  
  22341267.50049 117404153.19949     -1395.00049        50.000  
 16 04 02 12 41 37.0000000  0  4G29G26G04G23                                    
  22352669.53149 117464070.03549     14862.68049        50.000  
  21381276.65649 112359365.71949    -15890.45749        49.000  
  21310607.00049 111987993.93049    -10594.28149        49.000  
  22341294.10249 117404292.98849     -1400.94549        50.000  
 16 04 02 12 41 37.1000000  0  4G29G26G04G23                                    
  22352386.71149 117462583.85549     14860.34849        50.000  
  21381579.07049 112360954.95349    -15894.42649        49.000  
  21310808.63349 111989053.53949    -10598.32449        49.000  
  22341320.79749 117404433.32849     -1406.36349        50.000  
 16 04 02 12 41 37.2000000  0  4G29G26G04G23                                    
  22352103.96149 117461097.99249     14857.22749        50.000  
  21381881.57849 112362544.65249    -15899.03549        49.000  
  21311010.35949 111990113.65649    -10603.25849        49.000  
  22341347.62549 117404574.28949     -1412.51649        50.000  
 16 04 02 12 41 37.3000000  0  4G29G26G04G23                                    
  22351821.25849 117459612.42649     14854.17649        50.000  
  21382184.17249 112364134.82049    -15903.84049        49.000  
  21311212.19549 111991174.25449    -10608.17649        49.000  
  22341374.56249 117404715.85249     -1418.68449        50.000  
 16 04 02 12 41 37.4000000  0  4G29G26G04G23                                    
  22351538.62549 117458127.16049     14851.20749        50.000  
  21382486.85949 112365725.42649    -15908.19549        49.000  
  21311414.10949 111992235.31249    -10612.87949        49.000  
  22341401.61749 117404858.00449     -1424.59049        50.000  
 16 04 02 12 41 37.5000000  0  4G29G26G04G23                                    
  22351256.01649 117456642.14149     14848.66849        50.000  
  21382789.62549 112367316.45349    -15912.37149        49.000  
  21311616.10949 111993296.81649    -10617.22349        49.000  
  22341428.77349 117405000.72749     -1430.27349        50.000  
 16 04 02 12 41 37.6000000  0  4G29G26G04G23                                    
  22350973.50049 117455157.50849     14844.75449        50.000  
  21383092.49249 112368908.01249    -15917.73449        49.000  
  21311818.21149 111994358.87949    -10622.87149        49.000  
  22341456.06249 117405144.12549     -1437.13749        50.000  
 16 04 02 12 41 37.7000000  0  4G29G26G04G23                                    
  22350691.03149 117453673.09849     14842.63749        50.000  
  21383395.43049 112370499.97349    -15921.69549        49.000  
  21312020.39149 111995421.35549    -10626.98849        49.000  
  22341483.44549 117405288.06649     -1442.36349        50.000  
 16 04 02 12 41 37.8000000  0  4G29G26G04G23                                    
  22350408.60949 117452188.98449     14839.66049        50.000  
  21383698.45349 112372092.36349    -15926.09849        49.000  
  21312222.66449 111996484.29349    -10631.66449        49.000  
  22341510.94549 117405432.58649     -1448.23849        50.000  
 16 04 02 12 41 37.9000000  0  4G29G26G04G23                                    
  22350126.23449 117450705.11749     14837.18049        50.000  
  21384001.55549 112373685.17649    -15930.21149        49.000  
  21312425.02349 111997547.66849    -10635.98049        49.000  
  22341538.55549 117405577.67649     -1453.84049        50.000  
 16 04 02 12 41 38.0000000  0  4G29G26G04G23                                    
  22349843.90649 117449221.48449     14835.13749        50.000  
  21384304.74249 112375278.37549    -15933.89849        49.000  
  21312627.45349 111998611.44949    -10639.71949        49.000  
  22341566.26649 117405723.29349     -1458.87549        50.000  
 16 04 02 12 41 38.1000000  0  4G29G26G04G23                                    
  22349561.64849 117447738.16049     14831.48849        50.000  
  21384608.00849 112376872.03549    -15938.93449        49.000  
  21312829.96949 111999675.71949    -10645.03549        49.000  
  22341594.09449 117405869.52349     -1465.58249        50.000  
 16 04 02 12 41 38.2000000  0  4G29G26G04G23                                    
  22349279.45349 117446255.22349     14827.76249        50.000  
  21384911.37549 112378466.25049    -15944.28549        49.000  
  21313032.60949 112000740.56649    -10650.69149        49.000  
  22341622.05549 117406016.45749     -1472.44549        50.000  
 16 04 02 12 41 38.3000000  0  4G29G26G04G23                                    
  22348997.31249 117444772.55149     14825.00049        50.000  
  21385214.82849 112380060.87549    -15948.62949        49.000  
  21313235.33649 112001805.85549    -10655.27349        49.000  
  22341650.12549 117406163.94549     -1478.16449        50.000  
 16 04 02 12 41 38.4000000  0  4G29G26G04G23                                    
  22348715.24249 117443290.26249     14821.37149        50.000  
  21385518.37549 112381656.05149    -15953.92649        49.000  
  21313438.15649 112002871.70349    -10660.75049        49.000  
  22341678.32049 117406312.12549     -1484.89849        50.000  
 16 04 02 12 41 38.5000000  0  4G29G26G04G23                                    
  22348433.22749 117441808.23449     14818.56249        50.000  
  21385822.00849 112383251.63349    -15958.15249        49.000  
  21313641.07049 112003937.99249    -10665.28149        49.000  
  22341706.62549 117406460.85949     -1490.66049        50.000  
 16 04 02 12 41 38.6000000  0  4G29G26G04G23                                    
  22348151.26649 117440326.51649     14815.61349        50.000  
  21386125.71949 112384847.68449    -15962.72349        49.000  
  21313844.07049 112005004.77349    -10670.10249        49.000  
  22341735.04749 117406610.21949     -1496.67649        50.000  
 16 04 02 12 41 38.7000000  0  4G29G26G04G23                                    
  22347869.35249 117438845.03549     14813.32049        50.000  
  21386429.51649 112386444.14149    -15966.62949        49.000  
  21314047.15649 112006071.96949    -10674.22749        49.000  
  22341763.57049 117406760.11749     -1502.03949        50.000  
 16 04 02 12 41 38.8000000  0  4G29G26G04G23                                    
  22347587.48449 117437363.82049     14810.69149        50.000  
  21386733.38349 112388041.00849    -15970.72749        49.000  
  21314250.31249 112007139.60249    -10678.50449        49.000  
  22341792.20349 117406910.57849     -1507.52749        50.000  
 16 04 02 12 41 38.9000000  0  4G29G26G04G23                                    
  22347305.68849 117435882.92649     14807.41049        50.000  
  21387037.35249 112389638.37149    -15975.72749        49.000  
  21314453.57849 112008207.75849    -10683.73849        49.000  
  22341820.96149 117407061.67249     -1514.00049        50.000  
 16 04 02 12 41 39.0000000  0  4G29G26G04G23                                    
  22347023.95349 117434402.37949     14803.75449        50.000  
  21387341.41449 112391236.22349    -15980.87549        49.000  
  21314656.93849 112009276.43049    -10689.11749        49.000  
  22341849.83649 117407213.42249     -1520.72749        50.000  
 16 04 02 12 41 39.1000000  0  4G29G26G04G23                                    
  22346742.26649 117432922.08249     14801.56649        50.000  
  21387645.55549 112392834.48049    -15984.66449        49.000  
  21314860.38349 112010345.51649    -10693.06249        49.000  
  22341878.81249 117407365.71149     -1525.85249        50.000  
 16 04 02 12 41 39.2000000  0  4G29G26G04G23                                    
  22346460.62549 117431442.07449     14798.60249        50.000  
  21387949.79749 112394433.19549    -15989.23849        49.000  
  21315063.91449 112011415.09849    -10698.02749        49.000  
  22341907.90649 117407518.60549     -1531.92649        50.000  
 16 04 02 12 41 39.3000000  0  4G29G26G04G23                                    
  22346179.04749 117429962.34049     14795.87949        50.000  
  21388254.10249 112396032.33649    -15993.59449        49.000  
  21315267.53149 112012485.11349    -10702.46549        49.000  
  22341937.11749 117407672.07049     -1537.67249        50.000  
 16 04 02 12 41 39.4000000  0  4G29G26G04G23                                    
  22345897.53149 117428482.94949     14792.44949        50.000  
  21388558.50849 112397631.97349    -15998.50849        49.000  
  21315471.25049 112013555.65249    -10707.60949        49.000  
  22341966.44549 117407826.18449     -1544.12149        50.000  
 16 04 02 12 41 39.5000000  0  4G29G26G04G23                                    
  22345616.06249 117427003.88749     14788.89149        50.000  
  21388863.00849 112399232.10549    -16003.71949        49.000  
  21315675.07049 112014626.71149    -10713.03549        49.000  
  22341995.89149 117407980.93049     -1550.79749        50.000  
 16 04 02 12 41 39.6000000  0  4G29G26G04G23                                    
  22345334.67249 117425525.16449     14785.60249        50.000  
  21389167.59449 112400832.71149    -16008.42649        49.000  
  21315878.97749 112015698.27049    -10717.97749        49.000  
  22342025.45349 117408136.30549     -1557.00049        50.000  
 16 04 02 12 41 39.7000000  0  4G29G26G04G23                                    
  22345053.34449 117424046.77749     14782.09849        50.000  
  21389472.27349 112402433.83249    -16013.59849        49.000  
  21316082.99249 112016770.36349    -10723.32849        49.000  
  22342055.14849 117408292.34449     -1563.68049        50.000  
 16 04 02 12 41 39.8000000  0  4G29G26G04G23                                    
  22344772.06249 117422568.63349     14780.04749        50.000  
  21389777.02349 112404035.34049    -16017.22349        49.000  
  21316287.08649 112017842.85549    -10727.12549        49.000  
  22342084.94549 117408448.90649     -1568.68849        50.000  
 16 04 02 12 41 39.9000000  0  4G29G26G04G23                                    
  22344490.82849 117421090.75049     14777.35949        50.000  
  21390081.85949 112405637.26249    -16021.26249        49.000  
  21316491.25849 112018915.80949    -10731.66049        49.000  
  22342114.85249 117408606.03949     -1574.21949        50.000  
 16 04 02 12 41 40.0000000  0  4G29G26G04G23                                    
  22344209.64849 117419613.14849     14774.53949        50.000  
  21390386.78949 112407239.63349    -16025.78949        49.000  
  21316695.51649 112019989.21149    -10736.17649        49.000  
  22342144.85949 117408763.76649     -1580.19149        50.000  
 16 04 02 12 41 40.1000000  0  4G29G26G04G23                                    
  22343928.53149 117418135.88349     14771.18449        50.000  
  21390691.80549 112408842.49649    -16030.78549        49.000  
  21316899.88349 112021063.14149    -10741.53149        49.000  
  22342175.00049 117408922.13349     -1586.68449        50.000  
 16 04 02 12 41 40.2000000  0  4G29G26G04G23                                    
  22343647.47749 117416658.93449     14768.10549        50.000  
  21390996.90649 112410445.82849    -16035.43849        49.000  
  21317104.33649 112022137.55949    -10746.41849        49.000  
  22342205.25049 117409081.09849     -1592.62949        50.000  
 16 04 02 12 41 40.3000000  0  4G29G26G04G23                                    
  22343366.48449 117415182.20349     14765.77349        50.000  
  21391302.08649 112412049.54749    -16039.34049        49.000  
  21317308.86749 112023212.38349    -10750.52349        49.000  
  22342235.60249 117409240.62149     -1598.24249        50.000  
 16 04 02 12 41 40.4000000  0  4G29G26G04G23                                    
  22343085.54749 117413705.86349     14762.11749        50.000  
  21391607.36749 112413653.78949    -16044.41049        49.000  
  21317513.50049 112024287.75449    -10755.80149        49.000  
  22342266.08649 117409400.80949     -1604.80149        50.000  
 16 04 02 12 41 40.5000000  0  4G29G26G04G23                                    
  22342804.64849 117412229.75449     14759.68049        50.000  
  21391912.71949 112415258.42249    -16048.40249        49.000  
  21317718.22749 112025363.54749    -10760.06649        49.000  
  22342296.67249 117409561.53149     -1610.10249        50.000  
 16 04 02 12 41 40.6000000  0  4G29G26G04G23                                    
  22342523.79749 117410753.86349     14757.54749        50.000  
  21392218.13349 112416863.44949    -16052.18449        49.000  
  21317923.02349 112026439.74649    -10764.10249        49.000  
  22342327.35949 117409722.79749     -1615.61349        50.000  
 16 04 02 12 41 40.7000000  0  4G29G26G04G23                                    
  22342243.01649 117409278.34049     14753.89149        50.000  
  21392523.65649 112418468.98049    -16057.34849        49.000  
  21318127.92249 112027516.47349    -10769.41449        49.000  
  22342358.17249 117409884.69949     -1621.98049        50.000  
 16 04 02 12 41 40.8000000  0  4G29G26G04G23                                    
  22341962.28949 117407803.09849     14750.87549        50.000  
  21392829.28149 112420074.95749    -16062.01249        49.000  
  21318332.90649 112028593.67649    -10774.35949        49.000  
  22342389.09449 117410047.22349     -1628.30149        50.000  
 16 04 02 12 41 40.9000000  0  4G29G26G04G23                                    
  22341681.61749 117406328.14549     14748.00449        50.000  
  21393134.96949 112421681.37949    -16066.36749        49.000  
  21318537.97749 112029671.34049    -10778.91049        49.000  
  22342420.12549 117410210.31249     -1634.01649        50.000  
 16 04 02 12 41 41.0000000  0  4G29G26G04G23                                    
  22341401.00049 117404853.50049     14744.93449        50.000  
  21393440.75049 112423288.25849    -16070.98049        49.000  
  21318743.14149 112030749.48449    -10783.68849        49.000  
  22342451.28149 117410374.02749     -1640.18849        50.000  
 16 04 02 12 41 41.1000000  0  4G29G26G04G23                                    
  22341120.43849 117403379.14849     14742.06249        50.000  
  21393746.61749 112424895.59849    -16075.52349        49.000  
  21318948.39849 112031828.11349    -10788.44949        49.000  
  22342482.54749 117410538.33249     -1646.07849        50.000  
 16 04 02 12 41 41.2000000  0  4G29G26G04G23                                    
  22340839.93049 117401905.07049     14739.34449        50.000  
  21394052.56249 112426503.34849    -16079.60249        49.000  
  21319153.73449 112032907.17649    -10792.85549        49.000  
  22342513.92249 117410703.20349     -1651.72349        50.000  
 16 04 02 12 41 41.3000000  0  4G29G26G04G23                                    
  22340559.46149 117400431.21149     14737.32049        50.000  
  21394358.57849 112428111.48849    -16083.29749        49.000  
  21319359.15649 112033986.66049    -10796.78149        49.000  
  22342545.39849 117410868.62149     -1656.93849        50.000  
 16 04 02 12 41 41.4000000  0  4G29G26G04G23                                    
  22340279.05549 117398957.63349     14734.59049        50.000  
  21394664.68849 112429720.05949    -16087.45749        49.000  
  21319564.65649 112035066.58649    -10801.17649        49.000  
  22342576.98449 117411034.59849     -1662.44549        50.000  
 16 04 02 12 41 41.5000000  0  4G29G26G04G23                                    
  22339998.69549 117397484.39849     14731.14549        50.000  
  21394970.88349 112431329.13349    -16092.60549        49.000  
  21319770.26649 112036147.03549    -10806.46549        49.000  
  22342608.68849 117411201.23449     -1669.05549        50.000  
 16 04 02 12 41 41.6000000  0  4G29G26G04G23                                    
  22339718.39849 117396011.43449     14727.85949        50.000  
  21395277.16449 112432938.63349    -16097.37149        49.000  
  21319975.95349 112037227.93849    -10811.44149        49.000  
  22342640.50849 117411368.44949     -1675.39849        50.000  
 16 04 02 12 41 41.7000000  0  4G29G26G04G23                                    
  22339438.16449 117394538.80949     14724.73449        50.000  
  21395583.53149 112434548.61749    -16102.05949        49.000  
  21320181.74249 112038309.35949    -10816.44549        49.000  
  22342672.44549 117411536.29349     -1681.55949        50.000  
 16 04 02 12 41 41.8000000  0  4G29G26G04G23                                    
  22339157.97749 117393066.41449     14722.43049        50.000  
  21395889.98449 112436159.00049    -16106.00049        49.000  
  21320387.60949 112039391.18449    -10820.49249        49.000  
  22342704.49249 117411704.68049     -1686.98849        50.000  
 16 04 02 12 41 41.9000000  0  4G29G26G04G23                                    
  22338877.84449 117391594.28949     14719.82049        50.000  
  21396196.50849 112437769.79749    -16109.96549        49.000  
  21320593.53949 112040473.44949    -10824.72749        49.000  
  22342736.64149 117411873.62549     -1692.36349        50.000  
 16 04 02 12 41 42.0000000  0  4G29G26G04G23                                    
  22338597.77349 117390122.50849     14716.32849        50.000  
  21396503.13349 112439381.10549    -16115.14549        49.000  
  21320799.59449 112041556.25849    -10830.18849        49.000  
  22342768.91449 117412043.23449     -1699.02349        50.000  
 16 04 02 12 41 42.1000000  0  4G29G26G04G23                                    
  22338317.75849 117388651.00049     14713.41849        50.000  
  21396809.83649 112440992.83649    -16119.64849        49.000  
  21321005.73449 112042639.51649    -10834.97349        49.000  
  22342801.29749 117412213.41849     -1705.05149        50.000  
 16 04 02 12 41 42.2000000  0  4G29G26G04G23                                    
  22338037.80549 117387179.85549     14710.09849        50.000  
  21397116.63349 112442605.06649    -16124.30949        49.000  
  21321211.96949 112043723.28549    -10839.88749        49.000  
  22342833.79749 117412384.24249     -1711.16049        50.000  
 16 04 02 12 41 42.3000000  0  4G29G26G04G23                                    
  22337757.89149 117385708.94149     14707.57849        50.000  
  21397423.50849 112444217.71949    -16128.64549        49.000  
  21321418.28949 112044807.49249    -10844.31649        49.000  
  22342866.41449 117412555.63749     -1716.96949        50.000  
 16 04 02 12 41 42.4000000  0  4G29G26G04G23                                    
  22337478.04749 117384238.34449     14704.53549        50.000  
  21397730.46949 112445830.81249    -16133.06649        49.000  
  21321624.70349 112045892.18049    -10849.07849        49.000  
  22342899.14149 117412727.62149     -1722.82449        50.000  
 16 04 02 12 41 42.5000000  0  4G29G26G04G23                                    
  22337198.24249 117382768.02349     14701.71149        50.000  
  21398037.51649 112447444.34849    -16137.40649        49.000  
  21321831.19549 112046977.32849    -10853.66049        49.000  
  22342931.97749 117412900.19949     -1728.70749        50.000  
 16 04 02 12 41 42.6000000  0  4G29G26G04G23                                    
  22336918.51649 117381298.02749     14698.38349        50.000  
  21398344.65649 112449058.36749    -16142.34049        49.000  
  21322037.78949 112048062.98049    -10858.84449        49.000  
  22342964.93849 117413073.40649     -1735.12949        50.000  
 16 04 02 12 41 42.7000000  0  4G29G26G04G23                                    
  22336638.84449 117379828.29749     14695.98449        50.000  
  21398651.87549 112450672.80949    -16146.47749        49.000  
  21322244.46949 112049149.07049    -10863.12549        49.000  
  22342998.00049 117413247.17249     -1740.50849        50.000  
 16 04 02 12 41 42.8000000  0  4G29G26G04G23                                    
  22336359.21149 117378358.81649     14693.31649        50.000  
  21398959.18049 112452287.64549    -16150.59449        49.000  
  21322451.22749 112050235.58649    -10867.40249        49.000  
  22343031.18049 117413421.50049     -1746.30549        50.000  
 16 04 02 12 41 42.9000000  0  4G29G26G04G23                                    
  22336079.63349 117376889.67649     14690.12949        50.000  
  21399266.57049 112453902.97349    -16155.24249        49.000  
  21322658.08649 112051322.62549    -10872.44949        49.000  
  22343064.47749 117413596.46549     -1752.54349        50.000  
 16 04 02 12 41 43.0000000  0  4G29G26G04G23                                    
  22335800.13349 117375420.86749     14686.53149        50.000  
  21399574.06249 112455518.80149    -16160.43449        49.000  
  21322865.03949 112052410.17249    -10877.78149        49.000  
  22343097.89149 117413772.06249     -1759.09449        50.000  
 16 04 02 12 41 43.1000000  0  4G29G26G04G23                                    
  22335520.67249 117373952.34049     14683.86749        50.000  
  21399881.62549 112457135.04349    -16164.50449        49.000  
  21323072.06249 112053498.15649    -10882.01649        49.000  
  22343131.41449 117413948.24249     -1764.70349        50.000  
 16 04 02 12 41 43.2000000  0  4G29G26G04G23                                    
  22335241.27349 117372484.08249     14680.85249        50.000  
  21400189.27349 112458751.73449    -16169.10549        49.000  
  21323279.19549 112054586.62149    -10886.99249        49.000  
  22343165.04749 117414124.99649     -1770.71149        50.000  
 16 04 02 12 41 43.3000000  0  4G29G26G04G23                                    
  22334961.93049 117371016.09849     14678.39149        50.000  
  21400497.00049 112460368.84049    -16173.08649        49.000  
  21323486.40649 112055675.51649    -10891.06249        49.000  
  22343198.79749 117414302.33249     -1776.28549        50.000  
 16 04 02 12 41 43.4000000  0  4G29G26G04G23                                    
  22334682.64849 117369548.48849     14674.72349        50.000  
  21400804.83649 112461986.48449    -16178.52349        49.000  
  21323693.71949 112056764.98449    -10896.81649        49.000  
  22343232.68049 117414480.35249     -1783.16849        50.000  
 16 04 02 12 41 43.5000000  0  4G29G26G04G23                                    
  22334403.43849 117368081.17649     14671.52049        50.000  
  21401112.74249 112463604.55949    -16183.10249        49.000  
  21323901.12549 112057854.89549    -10901.53149        49.000  
  22343266.66449 117414658.94549     -1789.14149        50.000  
 16 04 02 12 41 43.6000000  0  4G29G26G04G23                                    
  22334124.25849 117366614.07449     14669.57849        50.000  
  21401420.72749 112465223.02349    -16186.73849        49.000  
  21324108.60949 112058945.22349    -10905.49649        49.000  
  22343300.75049 117414838.07849     -1794.33249        50.000  
 16 04 02 12 41 43.7000000  0  4G29G26G04G23                                    
  22333845.12549 117365147.32449     14665.86749        50.000  
  21401728.80549 112466841.97749    -16191.67649        49.000  
  21324316.18049 112060036.05549    -10910.56649        49.000  
  22343334.95349 117415017.84449     -1800.77049        50.000  
 16 04 02 12 41 43.8000000  0  4G29G26G04G23                                    
  22333566.07049 117363680.87949     14662.73449        50.000  
  21402036.96949 112468461.39549    -16196.35549        49.000  
  21324523.85249 112061127.38349    -10915.52349        49.000  
  22343369.28149 117415198.23049     -1807.01249        50.000  
 16 04 02 12 41 43.9000000  0  4G29G26G04G23                                    
  22333287.07049 117362214.72349     14660.14149        50.000  
  21402345.21949 112470081.25049    -16200.54749        49.000  
  21324731.60949 112062219.17249    -10919.99649        49.000  
  22343403.72749 117415379.19149     -1812.52049        50.000  
 16 04 02 12 41 44.0000000  0  4G29G26G04G23                                    
  22333008.10949 117360748.79749     14657.61749        50.000  
  21402653.53949 112471701.50049    -16204.71949        49.000  
  21324939.45349 112063311.38349    -10924.39549        49.000  
  22343438.26649 117415560.71149     -1818.30149        50.000  
 16 04 02 12 41 44.1000000  0  4G29G26G04G23                                    
  22332729.22749 117359283.26249     14654.02349        50.000  
  21402961.96149 112473322.28549    -16209.87549        49.000  
  21325147.39849 112064404.15249    -10929.86349        49.000  
  22343472.93849 117415742.90649     -1824.89549        50.000  
 16 04 02 12 41 44.2000000  0  4G29G26G04G23                                    
  22332450.39149 117357817.94949     14651.63749        50.000  
  21403270.46149 112474943.46549    -16213.85949        49.000  
  21325355.42249 112065497.32049    -10933.91449        49.000  
  22343507.71149 117415925.63749     -1830.33649        50.000  
 16 04 02 12 41 44.3000000  0  4G29G26G04G23                                    
  22332171.59449 117356352.91449     14648.80949        50.000  
  21403579.03949 112476565.04749    -16218.05149        49.000  
  21325563.52349 112066590.93049    -10938.41849        49.000  
  22343542.57849 117416108.92649     -1836.04749        50.000  
 16 04 02 12 41 44.4000000  0  4G29G26G04G23                                    
  22331892.87549 117354888.21549     14645.48449        50.000  
  21403887.71949 112478187.13749    -16222.96549        49.000  
  21325771.73449 112067685.05949    -10943.51249        49.000  
  22343577.58649 117416292.86749     -1842.35549        50.000  
 16 04 02 12 41 44.5000000  0  4G29G26G04G23                                    
  22331614.20349 117353423.80149     14642.47349        50.000  
  21404196.47749 112479809.66849    -16227.61749        49.000  
  21325980.02349 112068779.66049    -10948.34449        49.000  
  22343612.70349 117416477.40649     -1848.57049        50.000  
 16 04 02 12 41 44.6000000  0  4G29G26G04G23                                    
  22331335.59449 117351959.71949     14639.24649        50.000  
  21404505.31249 112481432.67249    -16232.23449        49.000  
  21326188.41449 112069874.76249    -10953.27349        49.000  
  22343647.93849 117416662.56649     -1854.73449        50.000  
 16 04 02 12 41 44.7000000  0  4G29G26G04G23                                    
  22331057.04749 117350495.96949     14635.93849        50.000  
  21404814.25049 112483056.16049    -16236.98449        49.000  
  21326396.90649 112070970.37549    -10958.35949        49.000  
  22343683.28949 117416848.35949     -1860.93849        50.000  
 16 04 02 12 41 44.8000000  0  4G29G26G04G23                                    
  22330778.54749 117349032.44549     14633.67649        50.000  
  21405123.26649 112484680.03549    -16240.89849        49.000  
  21326605.46949 112072066.39149    -10962.50049        49.000  
  22343718.74249 117417034.68449     -1866.37949        50.000  
 16 04 02 12 41 44.9000000  0  4G29G26G04G23                                    
  22330500.10949 117347569.25849     14630.64849        50.000  
  21405432.37549 112486304.40649    -16245.66449        49.000  
  21326814.12549 112073162.91849    -10967.35549        49.000  
  22343754.32849 117417221.65649     -1872.54749        50.000  
 16 04 02 12 41 45.0000000  0  4G29G26G04G23                                    
  22330221.71149 117346106.25049     14628.82449        50.000  
  21405741.53949 112487929.10549    -16248.90249        49.000  
  21327022.85249 112074259.79349    -10970.83249        49.000  
  22343789.99249 117417409.09049     -1877.18049        50.000  
 16 04 02 12 41 45.1000000  0  4G29G26G04G23                                    
  22329943.37549 117344643.57449     14625.39849        50.000  
  21406050.80549 112489554.28549    -16253.71149        49.000  
  21327231.68049 112075357.18849    -10976.00049        49.000  
  22343825.78949 117417597.17249     -1883.67249        50.000  
 16 04 02 12 41 45.2000000  0  4G29G26G04G23                                    
  22329665.09449 117343181.19549     14622.12549        50.000  
  21406360.16449 112491179.92249    -16258.56249        49.000  
  21327440.59449 112076455.06249    -10981.05549        49.000  
  22343861.69549 117417785.84849     -1889.97749        50.000  
 16 04 02 12 41 45.3000000  0  4G29G26G04G23                                    
  22329386.89149 117341719.18849     14618.52349        50.000  
  21406669.60949 112492806.07449    -16263.66449        49.000  
  21327649.60949 112077553.46549    -10986.29749        49.000  
  22343897.72749 117417975.19149     -1896.45349        50.000  
 16 04 02 12 41 45.4000000  0  4G29G26G04G23                                    
  22329108.73449 117340257.47749     14615.43049        50.000  
  21406979.14849 112494432.68849    -16268.42249        49.000  
  21327858.72749 112078652.35949    -10991.32049        49.000  
  22343933.87549 117418165.14849     -1902.78549        50.000  
 16 04 02 12 41 45.5000000  0  4G29G26G04G23                                    
  22328830.63349 117338796.04749     14612.90249        50.000  
  21407288.76649 112496059.72349    -16272.39549        49.000  
  21328067.92249 112079751.69149    -10995.49649        49.000  
  22343970.13349 117418355.68849     -1908.32449        50.000  
 16 04 02 12 41 45.6000000  0  4G29G26G04G23                                    
  22328552.59449 117337334.91849     14609.85949        50.000  
  21407598.46949 112497687.21549    -16277.01249        49.000  
  21328277.21149 112080851.51249    -11000.37149        49.000  
  22344006.50049 117418546.80949     -1914.22749        50.000  
 16 04 02 12 41 45.7000000  0  4G29G26G04G23                                    
  22328274.59449 117335874.08649     14606.63749        50.000  
  21407908.25049 112499315.16049    -16281.74649        49.000  
  21328486.58649 112081951.80549    -11005.35949        49.000  
  22344042.98449 117418738.54749     -1920.59449        50.000  
 16 04 02 12 41 45.8000000  0  4G29G26G04G23                                    
  22327996.68049 117334413.61749     14603.19949        50.000  
  21408218.14149 112500943.62149    -16286.75049        49.000  
  21328696.07049 112083052.64149    -11010.57049        49.000  
  22344079.60249 117418930.94149     -1927.03949        50.000  
 16 04 02 12 41 45.9000000  0  4G29G26G04G23                                    
  22327718.79749 117332953.37949     14600.93449        50.000  
  21408528.09449 112502572.46949    -16290.54749        49.000  
  21328905.62549 112084153.86749    -11014.44149        49.000  
  22344116.31249 117419123.87149     -1932.23449        50.000  
 16 04 02 12 41 46.0000000  0  4G29G26G04G23                                    
  22327440.96949 117331493.37549     14598.62149        50.000  
  21408838.13349 112504201.69149    -16294.26249        49.000  
  21329115.25849 112085255.52049    -11018.61749        49.000  
  22344153.12549 117419317.33249     -1937.53549        50.000  
 16 04 02 12 41 46.1000000  0  4G29G26G04G23                                    
  22327163.20349 117330033.70749     14595.28549        50.000  
  21409148.25849 112505831.40649    -16299.10949        49.000  
  21329324.99249 112086357.68049    -11023.67249        49.000  
  22344190.07049 117419511.44149     -1943.99649        50.000  
 16 04 02 12 41 46.2000000  0  4G29G26G04G23                                    
  22326885.51649 117328574.42649     14591.27049        50.000  
  21409458.48449 112507461.67249    -16304.79749        49.000  
  21329534.83649 112087460.40249    -11029.49649        49.000  
  22344227.13349 117419706.23049     -1950.93049        50.000  
 16 04 02 12 41 46.3000000  0  4G29G26G04G23                                    
  22326607.87549 117327115.43449     14588.33249        50.000  
  21409768.79749 112509092.36749    -16309.21949        49.000  
  21329744.76649 112088563.59049    -11034.27049        49.000  
  22344264.32049 117419901.61349     -1956.88349        50.000  
 16 04 02 12 41 46.4000000  0  4G29G26G04G23                                    
  22326330.28149 117325656.66449     14586.28949        50.000  
  21410079.18049 112510723.44549    -16312.84449        49.000  
  21329954.77349 112089667.17649    -11038.05549        49.000  
  22344301.60249 117420097.52749     -1962.02349        50.000  
 16 04 02 12 41 46.5000000  0  4G29G26G04G23                                    
  22326052.74249 117324198.19149     14583.23049        50.000  
  21410389.64849 112512354.96149    -16317.21549        49.000  
  21330164.85949 112090771.23049    -11042.77349        49.000  
  22344338.98449 117420294.02349     -1967.97349        50.000  
 16 04 02 12 41 46.6000000  0  4G29G26G04G23                                    
  22325775.26649 117322740.07449     14579.82849        50.000  
  21410700.22749 112513987.00049    -16322.40249        49.000  
  21330375.06249 112091875.82049    -11047.99649        49.000  
  22344376.50849 117420491.18849     -1974.52749        50.000  
 16 04 02 12 41 46.7000000  0  4G29G26G04G23                                    
  22325497.84449 117321282.21949     14576.97749        50.000  
  21411010.87549 112515619.44549    -16326.67249        49.000  
  21330585.33649 112092980.84449    -11052.58249        49.000  
  22344414.13349 117420688.91449     -1980.34049        50.000  
 16 04 02 12 41 46.8000000  0  4G29G26G04G23                                    
  22325220.48449 117319824.68449     14573.82449        50.000  
  21411321.61749 112517252.35949    -16331.33649        49.000  
  21330795.71149 112094086.36749    -11057.49649        49.000  
  22344451.87549 117420887.26249     -1986.53149        50.000  
 16 04 02 12 41 46.9000000  0  4G29G26G04G23                                    
  22324943.18049 117318367.45349     14570.73849        50.000  
  21411632.43849 112518885.73449    -16335.95349        49.000  
  21331006.18049 112095192.36749    -11062.36349        49.000  
  22344489.73449 117421086.21549     -1992.68049        50.000  
 16 04 02 12 41 47.0000000  0  4G29G26G04G23                                    
  22324665.93849 117316910.50449     14568.00849        50.000  
  21411943.33649 112520519.52749    -16340.08249        49.000  
  21331216.72749 112096298.81649    -11066.75049        49.000  
  22344527.70349 117421285.74649     -1998.28149        50.000  
 16 04 02 12 41 47.1000000  0  4G29G26G04G23                                    
  22324388.74249 117315453.83249     14565.05549        50.000  
  21412254.32049 112522153.77749    -16344.68449        49.000  
  21331427.35949 112097405.73049    -11071.38349        49.000  
  22344565.78949 117421485.86349     -2004.32049        50.000  
 16 04 02 12 41 47.2000000  0  4G29G26G04G23                                    
  22324111.60949 117313997.50049     14561.75449        50.000  
  21412565.40649 112523788.49249    -16349.25049        49.000  
  21331638.09449 112098513.14849    -11076.34449        49.000  
  22344603.99249 117421686.62149     -2010.54349        50.000  
 16 04 02 12 41 47.3000000  0  4G29G26G04G23                                    
  22323834.54749 117312541.47349     14558.89849        50.000  
  21412876.57049 112525423.68449    -16353.99249        49.000  
  21331848.93849 112099621.05949    -11081.22349        49.000  
  22344642.31249 117421887.97749     -2016.53549        50.000  
 16 04 02 12 41 47.4000000  0  4G29G26G04G23                                    
  22323557.53149 117311085.74649     14555.71949        50.000  
  21413187.82849 112527059.31249    -16358.44549        49.000  
  21332059.85249 112100729.43449    -11086.01649        49.000  
  22344680.74249 117422089.93849     -2022.68449        50.000  
 16 04 02 12 41 47.5000000  0  4G29G26G04G23                                    
  22323280.56249 117309630.29749     14553.05549        50.000  
  21413499.15649 112528695.37549    -16362.66049        49.000  
  21332270.85249 112101838.26649    -11090.49649        49.000  
  22344719.28149 117422292.47749     -2028.29749        50.000  
 16 04 02 12 41 47.6000000  0  4G29G26G04G23                                    
  22323003.66449 117308175.16849     14549.71149        50.000  
  21413810.57849 112530331.91849    -16367.53149        49.000  
  21332481.95349 112102947.60249    -11095.61349        49.000  
  22344757.94549 117422495.65249     -2034.89549        50.000  
 16 04 02 12 41 47.7000000  0  4G29G26G04G23                                    
  22322726.82049 117306720.33649     14546.95749        50.000  
  21414122.08649 112531968.90249    -16371.96949        49.000  
  21332693.13349 112104057.39549    -11100.09849        49.000  
  22344796.71149 117422699.40649     -2040.44149        50.000  
 16 04 02 12 41 47.8000000  0  4G29G26G04G23                                    
  22322450.02349 117305265.75049     14544.45349        50.000  
  21414433.67249 112533606.28949    -16375.87949        49.000  
  21332904.39849 112105167.62149    -11104.40649        49.000  
  22344835.59449 117422903.71549     -2046.04349        50.000  
 16 04 02 12 41 47.9000000  0  4G29G26G04G23                                    
  22322173.28149 117303811.49249     14541.05949        50.000  
  21414745.34449 112535244.15249    -16380.79749        49.000  
  21333115.77349 112106278.34049    -11109.36349        49.000  
  22344874.58649 117423108.65249     -2052.46949        50.000  
 16 04 02 12 41 48.0000000  0  4G29G26G04G23                                    
  22321896.60249 117302357.53549     14537.93849        50.000  
  21415057.10249 112536882.46949    -16385.45749        49.000  
  21333327.22749 112107389.53949    -11114.29349        49.000  
  22344913.70349 117423314.19549     -2058.63749        50.000  
 16 04 02 12 41 48.1000000  0  4G29G26G04G23                                    
  22321619.98449 117300903.91449     14534.64149        50.000  
  21415368.95349 112538521.26649    -16390.23049        49.000  
  21333538.78149 112108501.25449    -11119.41449        49.000  
  22344952.93849 117423520.36749     -2064.79749        50.000  
 16 04 02 12 41 48.2000000  0  4G29G26G04G23                                    
  22321343.43049 117299450.61749     14531.34049        50.000  
  21415680.89849 112540160.55149    -16395.19149        49.000  
  21333750.43049 112109613.45749    -11124.43049        49.000  
  22344992.28949 117423727.17649     -2071.30949        50.000  
 16 04 02 12 41 48.3000000  0  4G29G26G04G23                                    
  22321066.93849 117297997.61349     14528.67249        50.000  
  21415992.93049 112541800.26649    -16399.18849        49.000  
  21333962.17249 112110726.14149    -11129.00449        49.000  
  22345031.75049 117423934.56649     -2076.74649        50.000  
 16 04 02 12 41 48.4000000  0  4G29G26G04G23                                    
  22320790.48449 117296544.84449     14526.23849        50.000  
  21416305.01649 112543440.36749    -16403.18449        49.000  
  21334173.98449 112111839.22349    -11133.07049        49.000  
  22345071.32049 117424142.49249     -2082.37149        50.000  
 16 04 02 12 41 48.5000000  0  4G29G26G04G23                                    
  22320514.09449 117295092.41449     14522.79749        50.000  
  21416617.21149 112545080.97349    -16408.15249        49.000  
  21334385.89149 112112952.81249    -11138.06649        49.000  
  22345111.00849 117424351.06649     -2088.75049        50.000  
 16 04 02 12 41 48.6000000  0  4G29G26G04G23                                    
  22320237.76649 117293640.30149     14519.53149        50.000  
  21416929.50849 112546722.03549    -16412.92249        49.000  
  21334597.89849 112114066.90649    -11143.20749        49.000  
  22345150.82049 117424560.26249     -2095.10249        50.000  
 16 04 02 12 41 48.7000000  0  4G29G26G04G23                                    
  22319961.51649 117292188.57449     14515.58649        50.000  
  21417241.89149 112548363.63349    -16418.31249        49.000  
  21334810.01649 112115181.55549    -11148.87949        49.000  
  22345190.75049 117424770.13349     -2101.94949        50.000  
 16 04 02 12 41 48.8000000  0  4G29G26G04G23                                    
  22319685.29749 117290737.03549     14513.56649        50.000  
  21417554.34449 112550005.56649    -16421.69549        49.000  
  21335022.19549 112116296.56649    -11152.52749        49.000  
  22345230.78149 117424980.49649     -2106.91849        50.000  
 16 04 02 12 41 48.9000000  0  4G29G26G04G23                                    
  22319409.12549 117289285.77749     14511.40649        50.000  
  21417866.87549 112551647.94149    -16425.54349        49.000  
  21335234.46149 112117412.03949    -11156.71149        49.000  
  22345270.92249 117425191.44949     -2112.27749        50.000  
 16 04 02 12 41 49.0000000  0  4G29G26G04G23                                    
  22319133.00849 117287834.76249     14508.79349        50.000  
  21418179.49249 112553290.70749    -16429.61349        49.000  
  21335446.80549 112118527.91849    -11160.86749        49.000  
  22345311.16449 117425402.93049     -2117.66849        50.000  
 16 04 02 12 41 49.1000000  0  4G29G26G04G23                                    
  22318856.95349 117286384.10249     14505.12949        50.000  
  21418492.19549 112554933.98049    -16434.86749        49.000  
  21335659.25849 112119644.34049    -11166.43849        49.000  
  22345351.53949 117425615.07849     -2124.50449        50.000  
 16 04 02 12 41 49.2000000  0  4G29G26G04G23                                    
  22318580.96149 117284933.74649     14501.99249        50.000  
  21418804.99249 112556577.71149    -16439.50449        49.000  
  21335871.78949 112120761.23049    -11171.28549        49.000  
  22345392.02349 117425827.83649     -2130.62149        50.000  
 16 04 02 12 41 49.3000000  0  4G29G26G04G23                                    
  22318305.00849 117283483.63349     14499.53149        50.000  
  21419117.85949 112558221.82849    -16443.43849        49.000  
  21336084.40649 112121878.55149    -11175.54349        49.000  
  22345432.61749 117426041.13749     -2136.10549        50.000  
 16 04 02 12 41 49.4000000  0  4G29G26G04G23                                    
  22318029.13349 117282033.90649     14495.61349        50.000  
  21419430.80549 112559866.48449    -16448.73049        49.000  
  21336297.12549 112122996.40249    -11180.86349        49.000  
  22345473.33649 117426255.10549     -2142.80549        50.000  
 16 04 02 12 41 49.5000000  0  4G29G26G04G23                                    
  22317753.31249 117280584.44149     14493.15649        50.000  
  21419743.85249 112561511.54349    -16452.78549        49.000  
  21336509.93849 112124114.71549    -11185.32049        49.000  
  22345514.16449 117426469.66049     -2148.59449        50.000  
 16 04 02 12 41 49.6000000  0  4G29G26G04G23                                    
  22317477.53949 117279135.25849     14490.35949        50.000  
  21420056.97749 112563157.05549    -16457.18849        49.000  
  21336722.83649 112125233.47349    -11189.82049        49.000  
  22345555.10249 117426684.78149     -2154.20349        50.000  
 16 04 02 12 41 49.7000000  0  4G29G26G04G23                                    
  22317201.81249 117277686.33649     14487.88349        50.000  
  21420370.18849 112564802.95749    -16461.06249        49.000  
  21336935.81249 112126352.67249    -11194.04349        49.000  
  22345596.14149 117426900.46949     -2159.79749        50.000  
 16 04 02 12 41 49.8000000  0  4G29G26G04G23                                    
  22316926.14849 117276237.72349     14484.57849        50.000  
  21420683.48449 112566449.32849    -16465.70349        49.000  
  21337148.88349 112127472.34449    -11198.93849        49.000  
  22345637.29749 117427116.77049     -2166.03149        50.000  
 16 04 02 12 41 49.9000000  0  4G29G26G04G23                                    
  22316650.54749 117274789.41449     14481.63349        50.000  
  21420996.85949 112568096.15249    -16470.25849        49.000  
  21337362.03949 112128592.50449    -11203.70349        49.000  
  22345678.57849 117427333.66449     -2171.85949        50.000  
 16 04 02 12 41 50.0000000  0  4G29G26G04G23                                    
  22316374.98449 117273341.33649     14479.17649        50.000  
  21421310.31249 112569743.36749    -16474.23449        49.000  
  21337575.27349 112129713.07049    -11207.92249        49.000  
  22345719.95349 117427551.11349     -2177.53549        50.000  
 16 04 02 12 41 50.1000000  0  4G29G26G04G23                                    
  22316099.50049 117271893.62949     14475.39149        50.000  
  21421623.86749 112571391.09449    -16479.57049        49.000  
  21337788.60949 112130834.17249    -11213.32849        49.000  
  22345761.46149 117427769.20749     -2184.17249        50.000  
 16 04 02 12 41 50.2000000  0  4G29G26G04G23                                    
  22315824.06249 117270446.22349     14472.55149        50.000  
  21421937.51649 112573039.27349    -16483.97749        49.000  
  21338002.03949 112131955.75049    -11218.02749        49.000  
  22345803.07849 117427987.92249     -2190.29749        50.000  
 16 04 02 12 41 50.3000000  0  4G29G26G04G23                                    
  22315548.70349 117268999.15249     14469.02349        50.000  
  21422251.24249 112574687.92649    -16488.84449        49.000  
  21338215.57049 112133077.84449    -11223.28149        49.000  
  22345844.82049 117428207.26249     -2196.62549        50.000  
 16 04 02 12 41 50.4000000  0  4G29G26G04G23                                    
  22315273.38349 117267552.35249     14466.55549        50.000  
  21422565.05549 112576337.01249    -16492.88349        49.000  
  21338429.18049 112134200.36749    -11227.44949        49.000  
  22345886.67249 117428427.17649     -2202.05549        50.000  
 16 04 02 12 41 50.5000000  0  4G29G26G04G23                                    
  22314998.11749 117266105.81649     14463.87149        50.000  
  21422878.94549 112577986.52349    -16497.13749        49.000  
  21338642.88349 112135323.35549    -11231.98849        49.000  
  22345928.62549 117428647.66049     -2207.75049        50.000  
 16 04 02 12 41 50.6000000  0  4G29G26G04G23                                    
  22314722.91449 117264659.62949     14460.52349        50.000  
  21423192.93049 112579636.50849    -16501.96949        49.000  
  21338856.68049 112136446.83649    -11236.97749        49.000  
  22345970.70349 117428868.78149     -2214.17249        50.000  
 16 04 02 12 41 50.7000000  0  4G29G26G04G23                                    
  22314447.77349 117263213.75449     14457.04349        50.000  
  21423507.00049 112581286.97749    -16507.10549        49.000  
  21339070.57849 112137570.82449    -11242.28149        49.000  
  22346012.89849 117429090.52749     -2220.70349        50.000  
 16 04 02 12 41 50.8000000  0  4G29G26G04G23                                    
  22314172.68849 117261768.17249     14454.29349        50.000  
  21423821.14849 112582937.87149    -16511.13349        49.000  
  21339284.54749 112138695.26249    -11246.67249        49.000  
  22346055.21149 117429312.85549     -2226.28149        50.000  
 16 04 02 12 41 50.9000000  0  4G29G26G04G23                                    
  22313897.65649 117260322.84849     14451.82849        50.000  
  21424135.38349 112584589.18049    -16515.21549        49.000  
  21339498.60949 112139820.14549    -11250.91049        49.000  
  22346097.62549 117429535.75049     -2231.85949        50.000  
 16 04 02 12 41 51.0000000  0  4G29G26G04G23                                    
  22313622.68049 117258877.84849     14448.52049        50.000  
  21424449.69549 112586240.95749    -16519.86349        49.000  
  21339712.75849 112140945.51649    -11255.96949        49.000  
  22346140.15649 117429759.27049     -2238.20349        50.000  
 16 04 02 12 41 51.1000000  0  4G29G26G04G23                                    
  22313347.77349 117257433.21149     14444.85249        50.000  
  21424764.11749 112587893.24649    -16524.96949        49.000  
  21339927.01649 112142071.42649    -11261.37549        49.000  
  22346182.82049 117429983.44949     -2244.87949        50.000  
 16 04 02 12 41 51.2000000  0  4G29G26G04G23                                    
  22313072.92249 117255988.84449     14442.15249        50.000  
  21425078.62549 112589545.96149    -16529.28549        49.000  
  21340141.35249 112143197.76649    -11265.70749        49.000  
  22346225.59449 117430208.19949     -2250.62949        50.000  
 16 04 02 12 41 51.3000000  0  4G29G26G04G23                                    
  22312798.11749 117254544.74649     14439.76649        50.000  
  21425393.20349 112591199.09049    -16533.25849        49.000  
  21340355.77349 112144324.57049    -11270.08249        49.000  
  22346268.46949 117430433.51249     -2255.94549        50.000  
 16 04 02 12 41 51.4000000  0  4G29G26G04G23                                    
  22312523.36749 117253100.90249     14436.91449        50.000  
  21425707.85249 112592852.62949    -16537.46949        49.000  
  21340570.27349 112145451.78149    -11274.33649        49.000  
  22346311.44549 117430659.38749     -2261.77349        50.000  
 16 04 02 12 41 51.5000000  0  4G29G26G04G23                                    
  22312248.68049 117251657.43049     14433.30149        50.000  
  21426022.60949 112594506.67649    -16542.50049        49.000  
  21340784.87549 112146579.55549    -11279.89149        49.000  
  22346354.55549 117430885.92249     -2268.31649        50.000  
 16 04 02 12 41 51.6000000  0  4G29G26G04G23                                    
  22311974.03949 117250214.15249     14431.33249        50.000  
  21426337.43049 112596161.07849    -16546.10949        49.000  
  21340999.55549 112147707.68849    -11283.56249        49.000  
  22346397.75849 117431112.96549     -2273.30149        50.000  
 16 04 02 12 41 51.7000000  0  4G29G26G04G23                                    
  22311699.44549 117248771.17249     14428.46549        50.000  
  21426652.33649 112597815.92649    -16550.45349        49.000  
  21341214.32849 112148836.29749    -11288.25049        49.000  
  22346441.07849 117431340.60949     -2279.20349        50.000  
 16 04 02 12 41 51.8000000  0  4G29G26G04G23                                    
  22311424.92249 117247328.54349     14424.89149        50.000  
  21426967.34449 112599471.27049    -16555.45749        49.000  
  21341429.18849 112149965.41049    -11293.29349        49.000  
  22346484.51649 117431568.89849     -2285.74649        50.000  
 16 04 02 12 41 51.9000000  0  4G29G26G04G23                                    
  22311150.45349 117245886.18449     14422.12949        50.000  
  21427282.43049 112601127.03949    -16559.84049        49.000  
  21341644.14149 112151094.99249    -11298.03149        49.000  
  22346528.07049 117431797.75449     -2291.53949        50.000  
 16 04 02 12 41 52.0000000  0  4G29G26G04G23                                    
  22310876.03949 117244444.13749     14419.00449        50.000  
  21427597.60249 112602783.24649    -16564.26249        49.000  
  21341859.18049 112152225.02349    -11302.50449        49.000  
  22346571.73449 117432027.21549     -2297.62149        50.000  
 16 04 02 12 41 52.1000000  0  4G29G26G04G23                                    
  22310601.68049 117243002.36749     14416.12149        50.000  
  21427912.85249 112604439.91049    -16568.71549        49.000  
  21342074.31249 112153355.55949    -11307.46949        49.000  
  22346615.51649 117432257.25849     -2303.41449        50.000  
 16 04 02 12 41 52.2000000  0  4G29G26G04G23                                    
  22310327.37549 117241560.88349     14413.37949        50.000  
  21428228.18849 112606096.98449    -16572.85949        49.000  
  21342289.52349 112154486.48849    -11311.62149        49.000  
  22346659.40649 117432487.91049     -2309.48049        50.000  
 16 04 02 12 41 52.3000000  0  4G29G26G04G23                                    
  22310053.12549 117240119.68449     14410.62149        50.000  
  21428543.60249 112607754.50449    -16577.18849        49.000  
  21342504.82049 112155617.93049    -11316.52049        49.000  
  22346703.40649 117432719.11349     -2314.91449        50.000  
 16 04 02 12 41 52.4000000  0  4G29G26G04G23                                    
  22309778.93049 117238678.78549     14407.46149        50.000  
  21428859.09449 112609412.47349    -16581.80549        49.000  
  21342720.21149 112156749.81649    -11321.22749        49.000  
  22346747.51649 117432950.93049     -2321.21549        50.000  
 16 04 02 12 41 52.5000000  0  4G29G26G04G23                                    
  22309504.78949 117237238.15649     14404.91449        50.000  
  21429174.68049 112611070.85949    -16585.93449        49.000  
  21342935.68849 112157882.15249    -11325.50849        49.000  
  22346791.73449 117433183.32849     -2326.90249        50.000  
 16 04 02 12 41 52.6000000  0  4G29G26G04G23                                    
  22309230.70349 117235797.83649     14401.75449        50.000  
  21429490.34449 112612729.69949    -16590.56249        49.000  
  21343151.25849 112159014.95349    -11330.19549        49.000  
  22346836.07049 117433416.31649     -2332.89549        50.000  
 16 04 02 12 41 52.7000000  0  4G29G26G04G23                                    
  22308956.68849 117234357.86749     14398.19949        50.000  
  21429806.10949 112614389.03949    -16595.49649        49.000  
  21343366.92249 112160148.30149    -11335.77049        49.000  
  22346880.53149 117433649.96549     -2339.48449        50.000  
 16 04 02 12 41 52.8000000  0  4G29G26G04G23                                    
  22308682.71149 117232918.11349     14395.84449        50.000  
  21430121.95349 112616048.74249    -16599.24249        49.000  
  21343582.65649 112161282.03149    -11339.61349        49.000  
  22346925.09449 117433884.12549     -2344.77049        50.000  
 16 04 02 12 41 52.9000000  0  4G29G26G04G23                                    
  22308408.79749 117231478.70349     14392.66449        50.000  
  21430437.87549 112617708.94949    -16604.05549        49.000  
  21343798.50049 112162416.26249    -11344.48049        49.000  
  22346969.77349 117434118.93449     -2350.93449        50.000  
 16 04 02 12 41 53.0000000  0  4G29G26G04G23                                    
  22308134.93849 117230039.54749     14390.07849        50.000  
  21430753.87549 112619369.52749    -16607.89549        49.000  
  21344014.42249 112163550.91849    -11348.78949        49.000  
  22347014.56249 117434354.28549     -2356.46149        50.000  
 16 04 02 12 41 53.1000000  0  4G29G26G04G23                                    
  22307861.12549 117228600.65249     14387.36749        50.000  
  21431069.96149 112621030.54749    -16612.23849        49.000  
  21344230.42249 112164686.03949    -11353.41849        49.000  
  22347059.45349 117434590.20749     -2362.23049        50.000  
 16 04 02 12 41 53.2000000  0  4G29G26G04G23                                    
  22307587.38349 117227162.11749     14383.89149        50.000  
  21431386.13349 112622692.06249    -16617.17249        49.000  
  21344446.53149 112165821.66449    -11358.37549        49.000  
  22347104.47749 117434826.78549     -2368.73449        50.000  
 16 04 02 12 41 53.3000000  0  4G29G26G04G23                                    
  22307313.68049 117225723.81249     14381.54749        50.000  
  21431702.38349 112624353.97349    -16621.18849        49.000  
  21344662.71149 112166957.70749    -11362.63749        49.000  
  22347149.59449 117435063.90249     -2374.11749        50.000  
 16 04 02 12 41 53.4000000  0  4G29G26G04G23                                    
  22307040.03149 117224285.79349     14378.85549        50.000  
  21432018.71149 112626016.28949    -16625.16849        49.000  
  21344878.97749 112168094.18849    -11366.96949        49.000  
  22347194.82849 117435301.59449     -2379.86349        50.000  
 16 04 02 12 41 53.5000000  0  4G29G26G04G23                                    
  22306766.45349 117222848.09049     14375.37549        50.000  
  21432335.12549 112627679.07449    -16630.09849        49.000  
  21345095.32849 112169231.16849    -11372.07849        49.000  
  22347240.17249 117435539.89549     -2386.12149        50.000  
 16 04 02 12 41 53.6000000  0  4G29G26G04G23                                    
  22306492.93049 117221410.73049     14372.09449        50.000  
  21432651.64849 112629342.37149    -16635.07449        49.000  
  21345311.78949 112170368.66849    -11377.18049        49.000  
  22347285.64849 117435778.85949     -2392.69949        50.000  
 16 04 02 12 41 53.7000000  0  4G29G26G04G23                                    
  22306219.45349 117219973.62149     14369.49649        50.000  
  21432968.24249 112631006.05149    -16639.05949        49.000  
  21345528.32849 112171506.58649    -11381.52349        49.000  
  22347331.21949 117436018.35549     -2398.15649        50.000  
 16 04 02 12 41 53.8000000  0  4G29G26G04G23                                    
  22305946.04749 117218536.87949     14365.93449        50.000  
  21433284.93049 112632670.24249    -16644.05549        49.000  
  21345744.96949 112172645.04349    -11386.82849        49.000  
  22347376.92249 117436258.52349     -2404.66449        50.000  
 16 04 02 12 41 53.9000000  0  4G29G26G04G23                                    
  22305672.70349 117217100.42649     14362.90249        50.000  
  21433601.69549 112634334.87149    -16648.39849        49.000  
  21345961.70349 112173783.95349    -11391.41049        49.000  
  22347422.74249 117436499.28149     -2410.61749        50.000  
 16 04 02 12 41 54.0000000  0  4G29G26G04G23                                    
  22305399.40649 117215664.26249     14360.16449        50.000  
  21433918.55549 112635999.93849    -16652.71549        49.000  
  21346178.51649 112174923.33649    -11395.97749        49.000  
  22347468.67249 117436740.62149     -2416.40649        50.000  
 16 04 02 12 41 54.1000000  0  4G29G26G04G23                                    
  22305126.17249 117214228.36349     14357.35249        50.000  
  21434235.48449 112637665.43449    -16657.01249        49.000  
  21346395.42249 112176063.14849    -11400.42249        49.000  
  22347514.71149 117436982.54349     -2422.28549        50.000  
 16 04 02 12 41 54.2000000  0  4G29G26G04G23                                    
  22304852.99249 117212792.80549     14354.21149        50.000  
  21434552.51649 112639331.40249    -16661.64549        49.000  
  21346612.41449 112177203.47749    -11405.34449        49.000  
  22347560.85949 117437225.09449     -2428.41049        50.000  
 16 04 02 12 41 54.3000000  0  4G29G26G04G23                                    
  22304579.88349 117211357.55949     14350.91049        50.000  
  21434869.62549 112640997.82449    -16666.39549        49.000  
  21346829.50049 112178344.27749    -11410.32049        49.000  
  22347607.13349 117437468.25449     -2434.73049        50.000  
 16 04 02 12 41 54.4000000  0  4G29G26G04G23                                    
  22304306.82049 117209922.60249     14347.92649        50.000  
  21435186.82049 112642664.69149    -16670.84849        49.000  
  21347046.68049 112179485.54749    -11414.93849        49.000  
  22347653.51649 117437711.99649     -2440.50849        50.000  
 16 04 02 12 41 54.5000000  0  4G29G26G04G23                                    
  22304033.79749 117208487.91449     14345.44549        50.000  
  21435504.09449 112644331.97749    -16674.91449        49.000  
  21347263.93849 112180627.26249    -11419.27049        49.000  
  22347700.01649 117437956.32849     -2446.23449        50.000  
 16 04 02 12 41 54.6000000  0  4G29G26G04G23                                    
  22303760.84449 117207053.52349     14342.56249        50.000  
  21435821.45349 112645999.69949    -16679.16449        49.000  
  21347481.28949 112181769.43849    -11423.87549        49.000  
  22347746.61749 117438201.23049     -2451.92649        50.000  
 16 04 02 12 41 54.7000000  0  4G29G26G04G23                                    
  22303487.93049 117205619.32049     14340.61349        50.000  
  21436138.87549 112647667.76249    -16682.62549        49.000  
  21347698.71149 112182911.98449    -11427.62949        49.000  
  22347793.31249 117438446.64149     -2456.93049        50.000  
 16 04 02 12 41 54.8000000  0  4G29G26G04G23                                    
  22303215.07049 117204185.46549     14337.24249        50.000  
  21436456.39149 112649336.31649    -16687.46549        49.000  
  21347916.22749 112184055.03549    -11432.52049        49.000  
  22347840.13349 117438692.69549     -2463.34849        50.000  
 16 04 02 12 41 54.9000000  0  4G29G26G04G23                                    
  22302942.28949 117202751.92649     14334.05149        50.000  
  21436773.99249 112651005.33649    -16692.22749        49.000  
  21348133.83649 112185198.57449    -11437.50849        49.000  
  22347887.07049 117438939.35249     -2469.59449        50.000  
 16 04 02 12 41 55.0000000  0  4G29G26G04G23                                    
  22302669.55549 117201318.70749     14330.52349        50.000  
  21437091.68849 112652674.82449    -16697.14849        49.000  
  21348351.53949 112186342.61349    -11442.74649        49.000  
  22347934.13349 117439186.63349     -2475.96149        50.000  
 16 04 02 12 41 55.1000000  0  4G29G26G04G23                                    
  22302396.88349 117199885.79349     14327.49249        50.000  
  21437409.46949 112654344.75849    -16701.61749        49.000  
  21348569.32849 112187487.12149    -11447.43849        49.000  
  22347981.29749 117439434.52049     -2482.00849        50.000  
 16 04 02 12 41 55.2000000  0  4G29G26G04G23                                    
  22302124.26649 117198453.18049     14324.62949        50.000  
  21437727.33649 112656015.14549    -16705.92649        49.000  
  21348787.21149 112188632.10249    -11452.00049        49.000  
  22348028.58649 117439683.00449     -2487.80149        50.000  
 16 04 02 12 41 55.3000000  0  4G29G26G04G23                                    
  22301851.69549 117197020.80149     14322.43049        50.000  
  21438045.26649 112657685.90649    -16709.61749        49.000  
  21349005.18049 112189777.49249    -11456.04349        49.000  
  22348075.96949 117439932.02749     -2493.17649        50.000  
 16 04 02 12 41 55.4000000  0  4G29G26G04G23                                    
  22301579.18049 117195588.71949     14319.35949        50.000  
  21438363.28149 112659357.12149    -16714.24249        49.000  
  21349223.22749 112190923.34049    -11460.63349        49.000  
  22348123.47749 117440181.64549     -2499.10549        50.000  
 16 04 02 12 41 55.5000000  0  4G29G26G04G23                                    
  22301306.71949 117194156.95349     14316.21149        50.000  
  21438681.39149 112661028.79349    -16718.73049        49.000  
  21349441.36749 112192069.68849    -11465.65649        49.000  
  22348171.08649 117440431.87949     -2505.33249        50.000  
 16 04 02 12 41 55.6000000  0  4G29G26G04G23                                    
  22301034.32049 117192725.46549     14313.46549        50.000  
  21438999.57849 112662700.89149    -16723.07049        49.000  
  21349659.59449 112193216.47749    -11470.12549        49.000  
  22348218.81249 117440682.68849     -2511.06249        50.000  
 16 04 02 12 41 55.7000000  0  4G29G26G04G23                                    
  22300761.98449 117191294.31649     14309.81649        50.000  
  21439317.85249 112664373.46549    -16728.02049        49.000  
  21349877.92249 112194363.77349    -11475.35249        49.000  
  22348266.67249 117440934.13749     -2517.66049        50.000  
 16 04 02 12 41 55.8000000  0  4G29G26G04G23                                    
  22300489.71149 117189863.50049     14306.65249        50.000  
  21439636.22749 112666046.53949    -16732.80149        49.000  
  21350096.34449 112195511.57049    -11480.22749        49.000  
  22348314.64149 117441186.21549     -2523.89849        50.000  
 16 04 02 12 41 55.9000000  0  4G29G26G04G23                                    
  22300217.48449 117188432.93849     14304.03549        50.000  
  21439954.67249 112667719.99249    -16736.78549        49.000  
  21350314.84449 112196659.79749    -11484.46949        49.000  
  22348362.71149 117441438.84449     -2529.45749        50.000  
 16 04 02 12 41 56.0000000  0  4G29G26G04G23                                    
  22299945.32049 117187002.70349     14300.82449        50.000  
  21440273.22749 112669393.92649    -16741.45749        49.000  
  21350533.43849 112197808.51249    -11489.28949        49.000  
  22348410.90649 117441692.09449     -2535.57049        50.000  
 16 04 02 12 41 56.1000000  0  4G29G26G04G23                                    
  22299673.21149 117185572.74649     14298.02049        50.000  
  21440591.84449 112671068.28149    -16745.70749        49.000  
  21350752.11749 112198957.69549    -11494.06649        49.000  
  22348459.20349 117441945.92649     -2541.41849        50.000  
 16 04 02 12 41 56.2000000  0  4G29G26G04G23                                    
  22299401.14849 117184143.05949     14295.56649        50.000  
  21440910.54749 112672743.05549    -16749.63749        49.000  
  21350970.88349 112200107.30549    -11498.10949        49.000  
  22348507.61749 117442200.33249     -2546.85549        50.000  
 16 04 02 12 41 56.3000000  0  4G29G26G04G23                                    
  22299129.14149 117182713.65649     14292.64849        50.000  
  21441229.32849 112674418.26649    -16754.05149        49.000  
  21351189.73449 112201257.37149    -11502.68849        49.000  
  22348556.14149 117442455.30949     -2552.68049        50.000  
 16 04 02 12 41 56.4000000  0  4G29G26G04G23                                    
  22298857.20349 117181284.58249     14289.04349        50.000  
  21441548.20349 112676093.94149    -16758.98049        49.000  
  21351408.68049 112202407.94149    -11507.97349        49.000  
  22348604.78149 117442710.92649     -2559.38349        50.000  
 16 04 02 12 41 56.5000000  0  4G29G26G04G23                                    
  22298585.32049 117179855.85549     14285.65249        50.000  
  21441867.16449 112677770.12149    -16763.98849        49.000  
  21351627.72749 112203559.01649    -11513.04349        49.000  
  22348653.54749 117442967.18449     -2565.68849        50.000  
 16 04 02 12 41 56.6000000  0  4G29G26G04G23                                    
  22298313.49249 117178427.36749     14283.28949        50.000  
  21442186.20349 112679446.67649    -16767.80949        49.000  
  21351846.85249 112204710.52349    -11517.33649        49.000  
  22348702.41449 117443223.98449     -2571.12949        50.000  
 16 04 02 12 41 56.7000000  0  4G29G26G04G23                                    
  22298041.71949 117176999.20349     14280.17249        50.000  
  21442505.32849 112681123.69949    -16772.30549        49.000  
  21352066.06249 112205862.50449    -11522.01649        49.000  
  22348751.39849 117443481.39849     -2577.14149        50.000  
 16 04 02 12 41 56.8000000  0  4G29G26G04G23                                    
  22297770.00849 117175571.34049     14277.20349        50.000  
  21442824.54749 112682801.17649    -16776.78949        49.000  
  21352285.36749 112207014.96149    -11526.69149        49.000  
  22348800.50049 117443739.40649     -2582.94949        50.000  
 16 04 02 12 41 56.9000000  0  4G29G26G04G23                                    
  22297498.33649 117174143.73049     14274.63349        50.000  
  21443143.83649 112684479.05149    -16780.84049        49.000  
  21352504.74249 112208167.84049    -11530.95349        49.000  
  22348849.70349 117443997.98449     -2588.73849        50.000  
 16 04 02 12 41 57.0000000  0  4G29G26G04G23                                    
  22297226.72749 117172716.39149     14272.11349        50.000  
  21443463.20349 112686157.34449    -16784.85249        49.000  
  21352724.21149 112209321.16449    -11535.17649        49.000  
  22348899.01649 117444257.12949     -2594.31249        50.000  
 16 04 02 12 41 57.1000000  0  4G29G26G04G23                                    
  22296955.17249 117171289.35949     14268.78949        50.000  
  21443782.65649 112687836.07849    -16789.49249        49.000  
  21352943.77349 112210474.95749    -11540.06249        49.000  
  22348948.44549 117444516.86349     -2600.35249        50.000  
 16 04 02 12 41 57.2000000  0  4G29G26G04G23                                    
  22296683.67249 117169862.62949     14265.75049        50.000  
  21444102.19549 112689515.27049    -16794.10549        49.000  
  21353163.42249 112211629.23049    -11544.92249        49.000  
  22348997.98449 117444777.21149     -2606.46149        50.000  
 16 04 02 12 41 57.3000000  0  4G29G26G04G23                                    
  22296412.22749 117168436.16849     14263.02349        50.000  
  21444421.81249 112691194.87949    -16798.16449        49.000  
  21353383.15649 112212783.94549    -11549.33249        49.000  
  22349047.64149 117445038.12949     -2612.23449        50.000  
 16 04 02 12 41 57.4000000  0  4G29G26G04G23                                    
  22296140.84449 117167010.05549     14259.83649        50.000  
  21444741.52349 112692874.96949    -16802.89849        49.000  
  21353602.98449 112213939.16849    -11554.34049        49.000  
  22349097.40649 117445299.68449     -2618.39849        50.000  
 16 04 02 12 41 57.5000000  0  4G29G26G04G23                                    
  22295869.52349 117165584.21149     14256.68849        50.000  
  21445061.32049 112694555.48849    -16807.43449        49.000  
  21353822.90649 112215094.84449    -11559.14149        49.000  
  22349147.28949 117445561.81249     -2624.51649        50.000  
 16 04 02 12 41 57.6000000  0  4G29G26G04G23                                    
  22295598.25049 117164158.67649     14253.69549        50.000  
  21445381.19549 112696236.45349    -16811.93849        49.000  
  21354042.91449 112216250.98049    -11563.77049        49.000  
  22349197.28949 117445824.54349     -2630.48049        50.000  
 16 04 02 12 41 57.7000000  0  4G29G26G04G23                                    
  22295327.03149 117162733.44549     14251.14149        50.000  
  21445701.15649 112697917.86749    -16815.99649        49.000  
  21354263.00849 112217407.60249    -11568.18449        49.000  
  22349247.39849 117446087.87949     -2635.98849        50.000  
 16 04 02 12 41 57.8000000  0  4G29G26G04G23                                    
  22295055.85949 117161308.42649     14248.54749        50.000  
  21446021.18849 112699599.63349    -16819.84849        49.000  
  21354483.17249 112218564.58649    -11572.15249        49.000  
  22349297.60249 117446351.71949     -2641.45749        50.000  
 16 04 02 12 41 57.9000000  0  4G29G26G04G23                                    
  22294784.75849 117159883.76649     14245.37149        50.000  
  21446341.32049 112701281.91849    -16824.82049        49.000  
  21354703.44549 112219722.13349    -11577.48049        49.000  
  22349347.93849 117446616.23049     -2647.91449        50.000  
 16 04 02 12 41 58.0000000  0  4G29G26G04G23                                    
  22294513.70349 117158459.36749     14242.38749        50.000  
  21446661.52349 112702964.59449    -16829.01249        49.000  
  21354923.78949 112220880.07449    -11581.82849        49.000  
  22349398.37549 117446881.29349     -2653.70749        50.000  
 16 04 02 12 41 58.1000000  0  4G29G26G04G23                                    
  22294242.69549 117157035.22749     14240.14149        50.000  
  21446981.80549 112704647.68049    -16832.76649        49.000  
  21355144.22749 112222038.46949    -11585.98449        49.000  
  22349448.92249 117447146.90649     -2658.98049        50.000  
 16 04 02 12 41 58.2000000  0  4G29G26G04G23                                    
  22293971.75049 117155611.41849     14236.61749        50.000  
  21447302.18049 112706331.23449    -16837.61349        49.000  
  21355364.75049 112223197.34049    -11590.90649        49.000  
  22349499.59449 117447413.16049     -2665.49649        50.000  
 16 04 02 12 41 58.3000000  0  4G29G26G04G23                                    
  22293700.86749 117154187.88749     14233.59449        50.000  
  21447622.63349 112708015.22749    -16842.15249        49.000  
  21355585.35949 112224356.68849    -11595.83249        49.000  
  22349550.35949 117447679.98049     -2671.43049        50.000  
 16 04 02 12 41 58.4000000  0  4G29G26G04G23                                    
  22293430.03949 117152764.69549     14230.34449        50.000  
  21447943.18049 112709699.68449    -16846.70349        49.000  
  21355806.07049 112225516.51249    -11600.55149        49.000  
  22349601.25849 117447947.43849     -2677.55149        50.000  
 16 04 02 12 41 58.5000000  0  4G29G26G04G23                                    
  22293159.25849 117151341.75849     14227.74649        50.000  
  21448263.80549 112711384.56249    -16850.95749        49.000  
  21356026.86749 112226676.78149    -11604.92249        49.000  
  22349652.26649 117448215.46149     -2683.40249        50.000  
 16 04 02 12 41 58.6000000  0  4G29G26G04G23                                    
  22292888.53949 117149919.09849     14225.12149        50.000  
  21448584.50049 112713069.84849    -16854.84049        49.000  
  21356247.74249 112227837.50049    -11609.27749        49.000  
  22349703.37549 117448484.05549     -2688.85549        50.000  
 16 04 02 12 41 58.7000000  0  4G29G26G04G23                                    
  22292617.87549 117148496.75849     14221.90649        50.000  
  21448905.28949 112714755.60549    -16859.64549        49.000  
  21356468.71149 112228998.69549    -11614.17249        49.000  
  22349754.60249 117448753.25449     -2695.00449        50.000  
 16 04 02 12 41 58.8000000  0  4G29G26G04G23                                    
  22292347.27349 117147074.75049     14218.60949        50.000  
  21449226.16449 112716441.82449    -16864.25849        49.000  
  21356689.77349 112230160.38749    -11619.02749        49.000  
  22349805.95349 117449023.09449     -2701.34449        50.000  
 16 04 02 12 41 58.9000000  0  4G29G26G04G23                                    
  22292076.74249 117145653.04749     14215.14549        50.000  
  21449547.13349 112718128.51649    -16869.28149        49.000  
  21356910.93049 112231322.58249    -11624.35549        49.000  
  22349857.41449 117449293.54349     -2707.89849        50.000  
 16 04 02 12 41 59.0000000  0  4G29G26G04G23                                    
  22291806.26649 117144231.68849     14212.17649        50.000  
  21449868.18849 112719815.68449    -16873.75849        49.000  
  21357132.18049 112232485.26649    -11629.02049        49.000  
  22349909.00049 117449564.62549     -2713.74649        50.000  
 16 04 02 12 41 59.1000000  0  4G29G26G04G23                                    
  22291535.83649 117142810.54349     14209.94949        50.000  
  21450189.31249 112721503.21149    -16877.40249        49.000  
  21357353.51649 112233648.33649    -11632.95749        49.000  
  22349960.68849 117449836.22349     -2719.02349        50.000  
 16 04 02 12 41 59.2000000  0  4G29G26G04G23                                    
  22291265.46149 117141389.70749     14206.80149        50.000  
  21450510.52349 112723191.18849    -16881.90649        49.000  
  21357574.93049 112234811.87549    -11637.59849        49.000  
  22350012.48449 117450108.41849     -2725.04749        50.000  
 16 04 02 12 41 59.3000000  0  4G29G26G04G23                                    
  22290995.14849 117139969.23849     14203.18849        50.000  
  21450831.82849 112724879.67249    -16886.85249        49.000  
  21357796.44549 112235975.95749    -11642.96149        49.000  
  22350064.40649 117450381.28149     -2731.57049        50.000  
 16 04 02 12 41 59.4000000  0  4G29G26G04G23                                    
  22290724.89849 117138549.04349     14200.39549        50.000  
  21451153.21949 112726568.58249    -16891.24249        49.000  
  21358018.04749 112237140.48849    -11647.59449        49.000  
  22350116.43849 117450654.71549     -2737.37549        50.000  
 16 04 02 12 41 59.5000000  0  4G29G26G04G23                                    
  22290454.68849 117137129.09849     14197.89549        50.000  
  21451474.68849 112728257.89549    -16895.27749        49.000  
  21358239.72749 112238305.42649    -11651.62949        49.000  
  22350168.57849 117450928.71549     -2742.98049        50.000  
 16 04 02 12 41 59.6000000  0  4G29G26G04G23                                    
  22290184.53949 117135709.47349     14194.81249        50.000  
  21451796.23449 112729947.65249    -16899.71549        49.000  
  21358461.50049 112239470.85949    -11656.43049        49.000  
  22350220.82849 117451203.31249     -2749.03549        50.000  
 16 04 02 12 41 59.7000000  0  4G29G26G04G23                                    
  22289914.45349 117134290.11749     14192.23449        50.000  
  21452117.86749 112731637.83649    -16903.75449        49.000  
  21358683.35949 112240636.73049    -11660.79749        49.000  
  22350273.19549 117451478.48049     -2754.53149        50.000  
 16 04 02 12 41 59.8000000  0  4G29G26G04G23                                    
  22289644.41449 117132871.04749     14189.23049        50.000  
  21452439.57849 112733328.44149    -16908.18049        49.000  
  21358905.30549 112241803.05949    -11665.43049        49.000  
  22350325.67249 117451754.23449     -2760.48449        50.000  
 16 04 02 12 41 59.9000000  0  4G29G26G04G23                                    
  22289374.43849 117131452.33249     14185.51649        50.000  
  21452761.38349 112735019.54349    -16913.23049        49.000  
  21359127.35249 112242969.89149    -11670.63349        49.000  
  22350378.26649 117452030.63749     -2767.20349        50.000  
 16 04 02 12 42  0.0000000  0  4G29G26G04G23                                    
  22289104.51649 117130033.88749     14182.74649        50.000  
  21453083.25849 112736711.07049    -16917.48049        49.000  
  21359349.47749 112244137.19549    -11675.32849        49.000  
  22350430.97749 117452307.62549     -2773.03149        50.000  
 16 04 02 12 42  0.1000000  0  4G29G26G04G23                                    
  22288834.66449 117128615.76649     14179.53949        50.000  
  21453405.23449 112738403.05549    -16922.07849        49.000  
  21359571.70349 112245304.96949    -11680.10949        49.000  
  22350483.79749 117452585.21549     -2779.20749        50.000  
 16 04 02 12 42  0.2000000  0  4G29G26G04G23                                    
  22288564.86749 117127197.96949     14176.48049        50.000  
  21453727.30549 112740095.51649    -16926.71149        49.000  
  21359794.01649 112246473.23849    -11684.83249        49.000  
  22350536.74249 117452863.42649     -2785.11349        50.000  
 16 04 02 12 42  0.3000000  0  4G29G26G04G23                                    
  22288295.12549 117125780.47349     14173.39549        50.000  
  21454049.45349 112741788.41849    -16931.09049        49.000  
  21360016.42249 112247641.97749    -11689.60549        49.000  
  22350589.79749 117453142.24649     -2791.25049        50.000  
 16 04 02 12 42  0.4000000  0  4G29G26G04G23                                    
  22288025.44549 117124363.28549     14170.39549        50.000  
  21454371.69549 112743481.77349    -16935.60249        49.000  
  21360238.91449 112248811.19549    -11694.40649        49.000  
  22350642.96949 117453421.66449     -2797.15649        50.000  
 16 04 02 12 42  0.5000000  0  4G29G26G04G23                                    
  22287755.80549 117122946.33649     14167.92649        50.000  
  21454694.00049 112745175.50449    -16939.46949        49.000  
  21360461.49249 112249980.81649    -11698.46549        49.000  
  22350696.25049 117453701.62949     -2802.71149        50.000  
 16 04 02 12 42  0.6000000  0  4G29G26G04G23                                    
  22287486.23449 117121529.73049     14164.54749        50.000  
  21455016.40649 112746869.72349    -16944.18849        49.000  
  21360684.15649 112251150.94949    -11703.49249        49.000  
  22350749.64849 117453982.22349     -2808.93449        50.000  
 16 04 02 12 42  0.7000000  0  4G29G26G04G23                                    
  22287216.71949 117120113.36749     14162.30149        50.000  
  21455338.88349 112748564.34049    -16948.07449        49.000  
  21360906.90649 112252321.49249    -11707.41849        49.000  
  22350803.14149 117454263.36349     -2814.18849        50.000  
 16 04 02 12 42  0.8000000  0  4G29G26G04G23                                    
  22286947.25049 117118697.28549     14159.37549        50.000  
  21455661.43049 112750259.36749    -16952.31249        49.000  
  21361129.73449 112253492.48849    -11712.04349        49.000  
  22350856.75049 117454545.08649     -2820.12549        50.000  
 16 04 02 12 42  0.9000000  0  4G29G26G04G23                                    
  22286677.83649 117117281.54349     14156.00049        50.000  
  21455984.07049 112751954.87149    -16957.07049        49.000  
  21361352.65649 112254663.98049    -11717.01649        49.000  
  22350910.48449 117454827.42649     -2826.50449        50.000  
 16 04 02 12 42  1.0000000  0  4G29G26G04G23                                    
  22286408.48449 117115866.11349     14152.79749        50.000  
  21456306.80549 112753650.84849    -16961.79749        49.000  
  21361575.68049 112255835.96549    -11722.03549        49.000  
  22350964.32849 117455110.39149     -2832.46949        50.000  
 16 04 02 12 42  1.1000000  0  4G29G26G04G23                                    
  22286139.17249 117114450.85549     14150.82849        50.000  
  21456629.60249 112755347.14149    -16965.13349        49.000  
  21361798.77349 112257008.29749    -11725.64149        49.000  
  22351018.26649 117455393.83649     -2837.57449        50.000  
 16 04 02 12 42  1.2000000  0  4G29G26G04G23                                    
  22285869.93849 117113036.01249     14147.10949        50.000  
  21456952.50849 112757043.97749    -16970.31249        49.000  
  21362021.96149 112258181.18449    -11730.85949        49.000  
  22351072.33649 117455677.97349     -2844.11749        50.000  
 16 04 02 12 42  1.3000000  0  4G29G26G04G23                                    
  22285600.75049 117111621.41449     14144.35249        50.000  
  21457275.47749 112758741.21549    -16974.58649        49.000  
  21362245.23449 112259354.50449    -11735.47349        49.000  
  22351126.50849 117455962.66849     -2850.04749        50.000  
 16 04 02 12 42  1.4000000  0  4G29G26G04G23                                    
  22285331.62549 117110207.15249     14141.00449        50.000  
  21457598.54749 112760438.91449    -16979.21149        49.000  
  21362468.60249 112260528.33249    -11740.59049        49.000  
  22351180.80549 117456247.98449     -2856.23449        50.000  
 16 04 02 12 42  1.5000000  0  4G29G26G04G23                                    
  22285062.58649 117108793.26249     14137.57449        50.000  
  21457921.71149 112762137.13749    -16984.23849        49.000  
  21362692.07849 112261702.67649    -11745.53149        49.000  
  22351235.21949 117456533.96549     -2862.71149        50.000  
 16 04 02 12 42  1.6000000  0  4G29G26G04G23                                    
  22284793.56249 117107379.55949     14135.50049        50.000  
  21458244.93849 112763835.69149    -16987.69949        49.000  
  21362915.61749 112262877.39149    -11749.32049        49.000  
  22351289.73449 117456820.44549     -2867.75049        50.000  
 16 04 02 12 42  1.7000000  0  4G29G26G04G23                                    
  22284524.61749 117105966.22349     14131.71949        50.000  
  21458568.25849 112765534.75849    -16992.80549        49.000  
  21363139.25849 112264052.64849    -11754.80549        49.000  
  22351344.38349 117457107.59449     -2874.44949        50.000  
 16 04 02 12 42  1.8000000  0  4G29G26G04G23                                    
  22284255.71149 117104553.11749     14129.62149        50.000  
  21458891.65649 112767234.19549    -16996.40649        49.000  
  21363362.97749 112265228.28549    -11758.55149        49.000  
  22351399.12549 117457395.25049     -2879.55149        50.000  
 16 04 02 12 42  1.9000000  0  4G29G26G04G23                                    
  22283986.86749 117103140.32849     14126.38749        50.000  
  21459215.14149 112768934.08649    -17000.94549        49.000  
  21363586.78949 112266404.40249    -11763.23449        49.000  
  22351453.97749 117457683.52749     -2885.68049        50.000  
 16 04 02 12 42  2.0000000  0  4G29G26G04G23                                    
  22283718.08649 117101727.89149     14122.99649        50.000  
  21459538.70349 112770634.48049    -17005.96949        49.000  
  21363810.69549 112267581.05949    -11768.60249        49.000  
  22351508.96149 117457972.46149     -2892.22749        50.000  
 16 04 02 12 42  2.1000000  0  4G29G26G04G23                                    
  22283449.35249 117100315.66049     14120.72749        50.000  
  21459862.34449 112772335.21149    -17009.43049        49.000  
  21364034.67249 112268758.08249    -11772.46549        49.000  
  22351564.03949 117458261.89549     -2897.34449        50.000  
 16 04 02 12 42  2.2000000  0  4G29G26G04G23                                    
  22283180.66449 117098903.69149     14118.27049        50.000  
  21460186.06249 112774036.36349    -17013.44949        49.000  
  21364258.73449 112269935.53549    -11776.62949        49.000  
  22351619.22749 117458551.89149     -2902.84849        50.000  
 16 04 02 12 42  2.3000000  0  4G29G26G04G23                                    
  22282912.04749 117097492.08249     14114.68049        50.000  
  21460509.87549 112775738.00049    -17018.30949        49.000  
  21364482.89149 112271113.50049    -11781.78149        49.000  
  22351674.53149 117458842.52749     -2909.20749        50.000  
 16 04 02 12 42  2.4000000  0  4G29G26G04G23                                    
  22282643.46949 117096080.71549     14111.99649        50.000  
  21460833.75849 112777440.03149    -17022.54749        49.000  
  21364707.13349 112272291.89849    -11786.34849        49.000  
  22351729.94549 117459133.71949     -2915.07449        50.000  
 16 04 02 12 42  2.5000000  0  4G29G26G04G23                                    
  22282374.96149 117094669.68449     14108.82049        50.000  
  21461157.73449 112779142.53949    -17027.14149        49.000  
  21364931.47749 112273470.78149    -11791.06249        49.000  
  22351785.47749 117459425.53949     -2921.19149        50.000  
 16 04 02 12 42  2.6000000  0  4G29G26G04G23                                    
  22282106.50849 117093258.96149     14105.69949        50.000  
  21461481.79749 112780845.50449    -17031.73849        49.000  
  21365155.89849 112274650.14849    -11795.82449        49.000  
  22351841.12549 117459717.97349     -2927.34449        50.000  
 16 04 02 12 42  2.7000000  0  4G29G26G04G23                                    
  22281838.11749 117091848.54349     14102.54349        50.000  
  21461805.93849 112782548.89149    -17036.11349        49.000  
  21365380.41449 112275829.98449    -11800.73449        49.000  
  22351896.88349 117460010.98849     -2933.28149        50.000  
 16 04 02 12 42  2.8000000  0  4G29G26G04G23                                    
  22281569.78149 117090438.42249     14099.73849        50.000  
  21462130.18049 112784252.74249    -17040.44149        49.000  
  21365605.01649 112277010.27749    -11805.12949        49.000  
  22351952.75849 117460304.60949     -2939.15649        50.000  
 16 04 02 12 42  2.9000000  0  4G29G26G04G23                                    
  22281301.48449 117089028.54349     14097.28949        50.000  
  21462454.48449 112785956.97749    -17044.38749        49.000  
  21365829.70349 112278190.99249    -11809.30949        49.000  
  22352008.73449 117460598.77349     -2944.67249        50.000  
 16 04 02 12 42  3.0000000  0  4G29G26G04G23                                    
  22281033.25849 117087619.01649     14094.05549        50.000  
  21462778.87549 112787661.69149    -17049.02749        49.000  
  21366054.48449 112279372.21149    -11814.16449        49.000  
  22352064.83649 117460893.57849     -2950.80949        50.000  
 16 04 02 12 42  3.1000000  0  4G29G26G04G23                                    
  22280765.07849 117086209.70749     14091.57049        50.000  
  21463103.34449 112789366.77749    -17052.93849        49.000  
  21366279.34449 112280553.82449    -11818.29749        49.000  
  22352121.03149 117461188.90649     -2956.18449        50.000  
 16 04 02 12 42  3.2000000  0  4G29G26G04G23                                    
  22280496.96149 117084800.74249     14088.09449        50.000  
  21463427.90649 112791072.34049    -17057.72749        49.000  
  21366504.29749 112281735.94549    -11823.33249        49.000  
  22352177.35249 117461484.86349     -2962.59849        50.000  
 16 04 02 12 42  3.3000000  0  4G29G26G04G23                                    
  22280228.90649 117083392.10949     14084.84849        50.000  
  21463752.55549 112792778.37149    -17062.37949        49.000  
  21366729.33649 112282918.56249    -11828.37149        49.000  
  22352233.78949 117461781.45349     -2968.88749        50.000  
 16 04 02 12 42  3.4000000  0  4G29G26G04G23                                    
  22279960.89849 117081983.74249     14082.00449        50.000  
  21464077.28149 112794484.82049    -17066.73049        49.000  
  21366954.46949 112284101.61749    -11832.90649        49.000  
  22352290.33649 117462078.60549     -2974.68449        50.000  
 16 04 02 12 42  3.5000000  0  4G29G26G04G23                                    
  22279692.96149 117080575.68449     14079.07049        50.000  
  21464402.09449 112796191.71949    -17071.09449        49.000  
  21367179.68049 112285285.14549    -11837.50049        49.000  
  22352346.99249 117462376.36349     -2980.55149        50.000  
 16 04 02 12 42  3.6000000  0  4G29G26G04G23                                    
  22279425.07049 117079167.91449     14076.31649        50.000  
  21464726.98449 112797899.03949    -17075.22349        49.000  
  21367404.98449 112286469.11349    -11841.85549        49.000  
  22352403.76649 117462674.70749     -2986.27749        50.000  
 16 04 02 12 42  3.7000000  0  4G29G26G04G23                                    
  22279157.21949 117077760.37949     14073.78549        50.000  
  21465051.94549 112799606.73849    -17079.06249        49.000  
  21367630.35949 112287653.50449    -11846.05949        49.000  
  22352460.64149 117462973.58649     -2991.79749        50.000  
 16 04 02 12 42  3.8000000  0  4G29G26G04G23                                    
  22278889.44549 117076353.23849     14070.02749        50.000  
  21465377.02349 112801314.99249    -17084.50449        49.000  
  21367855.85249 112288838.45349    -11851.61749        49.000  
  22352517.64849 117463273.15249     -2998.59449        50.000  
 16 04 02 12 42  3.9000000  0  4G29G26G04G23                                    
  22278621.72749 117074946.36349     14067.19149        50.000  
  21465702.16449 112803023.62949    -17088.50449        49.000  
  21368081.41449 112290023.81249    -11855.85249        49.000  
  22352574.75849 117463573.28149     -3004.27349        50.000  
 16 04 02 12 42  4.0000000  0  4G29G26G04G23                                    
  22278354.05549 117073539.75049     14064.57449        50.000  
  21466027.38349 112804732.68049    -17092.65249        49.000  
  21368307.07049 112291209.62149    -11860.23449        49.000  
  22352631.97749 117463873.97349     -3009.97749        50.000  
 16 04 02 12 42  4.1000000  0  4G29G26G04G23                                    
  22278086.44549 117072133.43449     14061.75449        50.000  
  21466352.68849 112806442.16849    -17096.91449        49.000  
  21368532.80549 112292395.89849    -11864.95349        49.000  
  22352689.30549 117464175.24649     -3015.64849        50.000  
 16 04 02 12 42  4.2000000  0  4G29G26G04G23                                    
  22277818.88349 117070727.41049     14058.96549        50.000  
  21466678.07049 112808152.08249    -17101.03949        49.000  
  21368758.63349 112293582.60549    -11869.16049        49.000  
  22352746.75049 117464477.11749     -3021.54749        50.000  
 16 04 02 12 42  4.3000000  0  4G29G26G04G23                                    
  22277551.38349 117069321.66849     14055.77749        50.000  
  21467003.53949 112809862.42249    -17105.60949        49.000  
  21368984.53149 112294769.77049    -11873.90649        49.000  
  22352804.30549 117464779.56249     -3027.61749        50.000  
 16 04 02 12 42  4.4000000  0  4G29G26G04G23                                    
  22277283.93849 117067916.24649     14052.72749        50.000  
  21467329.09449 112811573.22749    -17110.11349        49.000  
  21369210.53949 112295957.44149    -11878.84049        49.000  
  22352861.97749 117465082.62949     -3033.57849        50.000  
 16 04 02 12 42  4.5000000  0  4G29G26G04G23                                    
  22277016.55549 117066511.14149     14049.63349        50.000  
  21467654.73449 112813284.48849    -17114.69549        49.000  
  21369436.63349 112297145.57849    -11883.52349        49.000  
  22352919.76649 117465386.30949     -3039.76249        50.000  
 16 04 02 12 42  4.6000000  0  4G29G26G04G23                                    
  22276749.21949 117065106.30149     14046.65249        50.000  
  21467980.46149 112814996.16049    -17119.01649        49.000  
  21369662.81249 112298334.15249    -11888.19549        49.000  
  22352977.65649 117465690.53949     -3045.60949        50.000  
 16 04 02 12 42  4.7000000  0  4G29G26G04G23                                    
  22276481.93849 117063701.75849     14044.09449        50.000  
  21468306.25849 112816708.26249    -17122.97749        49.000  
  21369889.07849 112299523.18849    -11892.42649        49.000  
  22353035.66449 117465995.37149     -3051.12149        50.000  
 16 04 02 12 42  4.8000000  0  4G29G26G04G23                                    
  22276214.71949 117062297.50449     14041.20749        50.000  
  21468632.15649 112818420.79749    -17127.31249        49.000  
  21370115.43049 112300712.66449    -11896.79749        49.000  
  22353093.78149 117466300.78549     -3057.01249        50.000  
 16 04 02 12 42  4.9000000  0  4G29G26G04G23                                    
  22275947.56249 117060893.57449     14037.82849        50.000  
  21468958.12549 112820133.79749    -17132.12949        49.000  
  21370341.87549 112301902.65249    -11902.07049        49.000  
  22353152.02349 117466606.82849     -3063.43849        50.000  
 16 04 02 12 42  5.0000000  0  4G29G26G04G23                                    
  22275680.45349 117059489.91049     14035.16849        50.000  
  21469284.17249 112821847.19549    -17136.07849        49.000  
  21370568.40649 112303093.05949    -11906.29349        49.000  
  22353210.36749 117466913.42249     -3068.98849        50.000  
 16 04 02 12 42  5.1000000  0  4G29G26G04G23                                    
  22275413.40649 117058086.55549     14032.13349        50.000  
  21469610.31249 112823561.05149    -17140.51649        49.000  
  21370795.02349 112304283.94149    -11910.88749        49.000  
  22353268.82849 117467220.62149     -3074.86349        50.000  
 16 04 02 12 42  5.2000000  0  4G29G26G04G23                                    
  22275146.40649 117056683.44149     14029.63749        50.000  
  21469936.52349 112825275.29749    -17144.55149        49.000  
  21371021.71949 112305475.23049    -11915.02049        49.000  
  22353327.39149 117467528.37149     -3080.48049        50.000  
 16 04 02 12 42  5.3000000  0  4G29G26G04G23                                    
  22274879.46949 117055280.68449     14026.18849        50.000  
  21470262.82049 112826990.02349    -17149.34449        49.000  
  21371248.52349 112306667.04349    -11920.22749        49.000  
  22353386.07049 117467836.75849     -3086.79349        50.000  
 16 04 02 12 42  5.4000000  0  4G29G26G04G23                                    
  22274612.57849 117053878.14549     14023.86349        50.000  
  21470589.18849 112828705.10949    -17152.88749        49.000  
  21371475.39149 112307859.23449    -11924.02749        49.000  
  22353444.85249 117468145.66449     -3092.02049        50.000  
 16 04 02 12 42  5.5000000  0  4G29G26G04G23                                    
  22274345.74249 117052475.93849     14020.62549        50.000  
  21470915.64849 112830420.66849    -17157.48849        49.000  
  21371702.35249 112309051.92649    -11928.98049        49.000  
  22353503.75849 117468455.20349     -3098.27749        50.000  
 16 04 02 12 42  5.6000000  0  4G29G26G04G23                                    
  22274078.96949 117051074.01249     14017.63349        50.000  
  21471242.18849 112832136.66449    -17162.08649        49.000  
  21371929.39849 112310245.07449    -11933.69549        49.000  
  22353562.77349 117468765.32449     -3104.39149        50.000  
 16 04 02 12 42  5.7000000  0  4G29G26G04G23                                    
  22273812.26649 117049672.44949     14014.15249        50.000  
  21471568.82849 112833853.15649    -17167.03549        49.000  
  21372156.54749 112311438.73849    -11938.84049        49.000  
  22353621.90649 117469076.08649     -3110.69149        50.000  
 16 04 02 12 42  5.8000000  0  4G29G26G04G23                                    
  22273545.60249 117048271.12949     14011.64849        50.000  
  21471895.53949 112835570.01649    -17170.78149        49.000  
  21372383.77349 112312632.81249    -11943.00449        49.000  
  22353681.14849 117469387.39849     -3116.12949        50.000  
 16 04 02 12 42  5.9000000  0  4G29G26G04G23                                    
  22273278.99249 117046870.08249     14008.94949        50.000  
  21472222.32849 112837287.30949    -17174.91049        49.000  
  21372611.07849 112313827.32849    -11947.31649        49.000  
  22353740.50049 117469699.28549     -3121.84049        50.000  
 16 04 02 12 42  6.0000000  0  4G29G26G04G23                                    
  22273012.44549 117045469.37549     14005.73449        50.000  
  21472549.20349 112839005.06649    -17179.59049        49.000  
  21372838.47749 112315022.34449    -11952.21949        49.000  
  22353799.96949 117470011.79749     -3128.07049        50.000  
 16 04 02 12 42  6.1000000  0  4G29G26G04G23                                    
  22272745.94549 117044068.91049     14003.10949        50.000  
  21472876.15649 112840723.21549    -17183.52749        49.000  
  21373065.96149 112316217.77349    -11956.46549        49.000  
  22353859.53949 117470324.84049     -3133.48049        50.000  
 16 04 02 12 42  6.2000000  0  4G29G26G04G23                                    
  22272479.51649 117042668.82449     13999.65249        50.000  
  21473203.20349 112842441.87549    -17188.51249        49.000  
  21373293.54749 112317413.73849    -11961.64149        49.000  
  22353919.23449 117470638.57049     -3139.98449        50.000  
 16 04 02 12 42  6.3000000  0  4G29G26G04G23                                    
  22272213.13349 117041268.98049     13996.76249        50.000  
  21473530.32849 112844160.92649    -17192.71549        49.000  
  21373521.21149 112318610.10949    -11966.03149        49.000  
  22353979.04749 117470952.84849     -3145.96149        50.000  
 16 04 02 12 42  6.4000000  0  4G29G26G04G23                                    
  22271946.81249 117039869.42649     13994.21149        50.000  
  21473857.53949 112845880.39849    -17196.66449        49.000  
  21373748.96149 112319806.94949    -11970.37549        49.000  
  22354038.96149 117471267.69149     -3151.31649        50.000  
 16 04 02 12 42  6.5000000  0  4G29G26G04G23                                    
  22271680.53949 117038470.16849     13991.18049        50.000  
  21474184.82849 112847600.31249    -17201.14149        49.000  
  21373976.80549 112321004.23049    -11974.94149        49.000  
  22354098.99249 117471583.12949     -3157.28149        50.000  
 16 04 02 12 42  6.6000000  0  4G29G26G04G23                                    
  22271414.32849 117037071.22749     13987.78549        50.000  
  21474512.20349 112849320.66849    -17205.72749        49.000  
  21374204.72749 112322201.99649    -11979.80549        49.000  
  22354159.13349 117471899.18049     -3163.59849        50.000  
 16 04 02 12 42  6.7000000  0  4G29G26G04G23                                    
  22271148.18049 117035672.57849     13984.73049        50.000  
  21474839.65649 112851041.47749    -17210.36749        49.000  
  21374432.74249 112323400.24249    -11984.80949        49.000  
  22354219.39149 117472215.82849     -3169.75049        50.000  
 16 04 02 12 42  6.8000000  0  4G29G26G04G23                                    
  22270882.09449 117034274.28149     13981.50049        50.000  
  21475167.20349 112852762.75449    -17214.77049        49.000  
  21374660.85949 112324598.98049    -11989.46549        49.000  
  22354279.76649 117472533.11749     -3175.74649        50.000  
 16 04 02 12 42  6.9000000  0  4G29G26G04G23                                    
  22270616.04749 117032876.18849     13979.37549        50.000  
  21475494.82049 112854484.39849    -17218.47749        49.000  
  21374889.04749 112325798.09449    -11993.33249        49.000  
  22354340.24249 117472850.91449     -3181.01649        50.000  
 16 04 02 12 42  7.0000000  0  4G29G26G04G23                                    
  22270350.06249 117031478.43449     13976.16449        50.000  
  21475822.53149 112856206.50449    -17222.98849        49.000  
  21375117.32049 112326997.70749    -11998.16849        49.000  
  22354400.83649 117473169.32849     -3187.02749        50.000  
 16 04 02 12 42  7.1000000  0  4G29G26G04G23                                    
  22270084.12549 117030080.91449     13973.92649        50.000  
  21476150.31249 112857928.99249    -17226.72349        49.000  
  21375345.68049 112328197.73049    -12002.24649        49.000  
  22354461.52349 117473488.28949     -3192.32449        50.000  
 16 04 02 12 42  7.2000000  0  4G29G26G04G23                                    
  22269818.24249 117028683.70349     13970.65649        50.000  
  21476478.17249 112859651.92649    -17231.35949        49.000  
  21375574.12549 112329398.21549    -12006.96149        49.000  
  22354522.33649 117473807.84849     -3198.55149        50.000  
 16 04 02 12 42  7.3000000  0  4G29G26G04G23                                    
  22269552.42249 117027286.80149     13967.56649        50.000  
  21476806.12549 112861375.30549    -17235.84849        49.000  
  21375802.65649 112330599.18849    -12011.82449        49.000  
  22354583.25849 117474128.01649     -3204.67249        50.000  
 16 04 02 12 42  7.4000000  0  4G29G26G04G23                                    
  22269286.65649 117025890.21549     13964.32849        50.000  
  21477134.15649 112863099.14849    -17240.57849        49.000  
  21376031.28149 112331800.62549    -12016.62149        49.000  
  22354644.29749 117474448.78149     -3210.69949        50.000  
 16 04 02 12 42  7.5000000  0  4G29G26G04G23                                    
  22269020.95349 117024493.92249     13961.35549        50.000  
  21477462.27349 112864823.40649    -17244.79349        49.000  
  21376259.99249 112333002.53549    -12021.41049        49.000  
  22354705.45349 117474770.15249     -3216.77349        50.000  
 16 04 02 12 42  7.6000000  0  4G29G26G04G23                                    
  22268755.30549 117023097.91449     13958.68449        50.000  
  21477790.47749 112866548.09049    -17248.77349        49.000  
  21376488.78949 112334204.86349    -12025.40249        49.000  
  22354766.71949 117475092.08649     -3222.27349        50.000  
 16 04 02 12 42  7.7000000  0  4G29G26G04G23                                    
  22268489.70349 117021702.14849     13956.16849        50.000  
  21478118.75049 112868273.17249    -17252.79749        49.000  
  21376717.66449 112335407.62549    -12029.59849        49.000  
  22354828.07849 117475414.57049     -3227.73849        50.000  
 16 04 02 12 42  7.8000000  0  4G29G26G04G23                                    
  22268224.14849 117020306.67249     13953.21149        50.000  
  21478447.10249 112869998.67649    -17257.09049        49.000  
  21376946.62549 112336610.84049    -12034.38349        49.000  
  22354889.56249 117475737.64149     -3233.74249        50.000  
 16 04 02 12 42  7.9000000  0  4G29G26G04G23                                    
  22267958.68049 117018911.59849     13949.07849        50.000  
  21478775.55549 112871724.71549    -17262.53949        49.000  
  21377175.69549 112337814.60949    -12039.88349        49.000  
  22354951.16449 117476061.39849     -3240.72349        50.000  
 16 04 02 12 42  8.0000000  0  4G29G26G04G23                                    
  22267693.25849 117017516.81249     13946.43849        50.000  
  21479104.08649 112873451.17249    -17266.61749        49.000  
  21377404.85249 112339018.84049    -12044.55149        49.000  
  22355012.88349 117476385.73849     -3246.37149        50.000  
 16 04 02 12 42  8.1000000  0  4G29G26G04G23                                    
  22267427.88349 117016122.27349     13943.73849        50.000  
  21479432.70349 112875178.03549    -17270.75849        49.000  
  21377634.08649 112340223.47749    -12048.69549        49.000  
  22355074.71149 117476710.62949     -3252.06649        50.000  
 16 04 02 12 42  8.2000000  0  4G29G26G04G23                                    
  22267162.57849 117014728.07849     13940.53549        50.000  
  21479761.40649 112876905.36749    -17275.37549        49.000  
  21377863.41449 112341428.62149    -12053.56649        49.000  
  22355136.65649 117477036.15249     -3258.05949        50.000  
 16 04 02 12 42  8.3000000  0  4G29G26G04G23                                    
  22266897.31249 117013334.12549     13937.99649        50.000  
  21480090.18049 112878633.08649    -17279.27749        49.000  
  21378092.82849 112342634.18049    -12057.92649        49.000  
  22355198.70349 117477362.21949     -3263.70749        50.000  
 16 04 02 12 42  8.4000000  0  4G29G26G04G23                                    
  22266632.11749 117011940.52049     13934.79749        50.000  
  21480419.03949 112880361.27749    -17283.68449        49.000  
  21378322.33649 112343840.23449    -12062.70749        49.000  
  22355260.87549 117477688.92249     -3269.76649        50.000  
 16 04 02 12 42  8.5000000  0  4G29G26G04G23                                    
  22266366.97749 117010547.19549     13931.47749        50.000  
  21480747.98449 112882089.89849    -17288.41449        49.000  
  21378551.92249 112345046.72749    -12067.27049        49.000  
  22355323.15649 117478016.20749     -3276.03549        50.000  
 16 04 02 12 42  8.6000000  0  4G29G26G04G23                                    
  22266101.88349 117009154.11749     13929.43449        50.000  
  21481077.00849 112883818.91049    -17291.96949        49.000  
  21378781.59449 112346253.65249    -12071.27049        49.000  
  22355385.53949 117478344.03549     -3281.06249        50.000  
 16 04 02 12 42  8.7000000  0  4G29G26G04G23                                    
  22265836.83649 117007761.26649     13927.21949        50.000  
  21481406.09449 112885548.28149    -17295.56649        49.000  
  21379011.32849 112347460.95349    -12074.99649        49.000  
  22355448.02349 117478672.37949     -3286.28149        50.000  
 16 04 02 12 42  8.8000000  0  4G29G26G04G23                                    
  22265571.84449 117006368.71549     13924.15249        50.000  
  21481735.27349 112887278.09849    -17300.03149        49.000  
  21379241.16449 112348668.74249    -12079.89849        49.000  
  22355510.61749 117479001.32049     -3292.26249        50.000  
 16 04 02 12 42  8.9000000  0  4G29G26G04G23                                    
  22265306.91449 117004976.50449     13920.59049        50.000  
  21482064.53149 112889008.38349    -17304.94549        49.000  
  21379471.08649 112349877.00449    -12084.85249        49.000  
  22355573.33649 117479330.90649     -3298.91049        50.000  
 16 04 02 12 42  9.0000000  0  4G29G26G04G23                                    
  22265042.04749 117003584.61349     13917.34849        50.000  
  21482393.87549 112890739.12949    -17309.63349        49.000  
  21379701.10949 112351085.76649    -12089.84849        49.000  
  22355636.16449 117479661.09049     -3304.91849        50.000  
 16 04 02 12 42  9.1000000  0  4G29G26G04G23                                    
  22264777.22749 117002192.94949     13915.15649        50.000  
  21482723.29749 112892470.23049    -17312.96949        49.000  
  21379931.20349 112352294.90649    -12093.65249        49.000  
  22355699.10249 117479991.80549     -3310.06649        50.000  
 16 04 02 12 42  9.2000000  0  4G29G26G04G23                                    
  22264512.45349 117000801.57849     13912.27749        50.000  
  21483052.79749 112894201.77749    -17317.47349        49.000  
  21380161.38349 112353504.51249    -12098.21149        49.000  
  22355762.14149 117480323.10249     -3315.94949        50.000  
 16 04 02 12 42  9.3000000  0  4G29G26G04G23                                    
  22264247.75849 116999410.57049     13908.66849        50.000  
  21483382.39149 112895933.81649    -17322.41049        49.000  
  21380391.66449 112354714.64149    -12103.39549        49.000  
  22355825.31249 117480655.05949     -3322.48049        50.000  
 16 04 02 12 42  9.4000000  0  4G29G26G04G23                                    
  22263983.11749 116998019.88349     13905.07849        50.000  
  21483712.07849 112897666.32049    -17327.34049        49.000  
  21380622.03949 112355925.25449    -12108.57449        49.000  
  22355888.60249 117480987.62949     -3329.00049        50.000  
 16 04 02 12 42  9.5000000  0  4G29G26G04G23                                    
  22263718.53149 116996629.50049     13901.98849        50.000  
  21484041.85249 112899399.26649    -17331.84849        49.000  
  21380852.50049 112357136.33649    -12113.27049        49.000  
  22355952.00049 117481320.81249     -3335.12149        50.000  
 16 04 02 12 42  9.6000000  0  4G29G26G04G23                                    
  22263454.01649 116995239.45749     13899.00449        50.000  
  21484371.71149 112901132.67649    -17336.19149        49.000  
  21381083.05549 112358347.92249    -12117.96149        49.000  
  22356015.52349 117481654.61749     -3340.95349        50.000  
 16 04 02 12 42  9.7000000  0  4G29G26G04G23                                    
  22263189.54749 116993849.65249     13896.66049        50.000  
  21484701.64149 112902866.48049    -17339.98049        49.000  
  21381313.69549 112359559.91049    -12121.94149        49.000  
  22356079.14849 117481988.96149     -3346.27049        50.000  
 16 04 02 12 42  9.8000000  0  4G29G26G04G23                                    
  22262925.14149 116992460.19549     13893.03549        50.000  
  21485031.65649 112904600.75049    -17344.79749        49.000  
  21381544.42249 112360772.40249    -12127.13349        49.000  
  22356142.89149 117482323.94149     -3352.74649        50.000  
 16 04 02 12 42  9.9000000  0  4G29G26G04G23                                    
  22262660.78149 116991070.97349     13890.59049        50.000  
  21485361.75049 112906335.39849    -17348.63349        49.000  
  21381775.22749 112361985.28549    -12131.10949        49.000  
  22356206.73449 117482659.45349     -3358.23049        50.000  
 16 04 02 12 42 10.0000000  0  4G29G26G04G23                                    
  22262396.46949 116989682.02349     13888.11349        50.000  
  21485691.92249 112908070.46949    -17352.54349        49.000  
  21382006.11749 112363198.62549    -12135.41849        49.000  
  22356270.68849 117482995.53949     -3363.77349        50.000  
 16 04 02 12 42 10.1000000  0  4G29G26G04G23                                    
  22262132.21949 116988293.36749     13885.07849        50.000  
  21486022.18049 112909805.96549    -17356.92649        49.000  
  21382237.10249 112364412.41449    -12140.02049        49.000  
  22356334.75849 117483332.21149     -3369.77049        50.000  
 16 04 02 12 42 10.2000000  0  4G29G26G04G23                                    
  22261868.03949 116986905.09049     13881.35949        50.000  
  21486352.53149 112911541.97349    -17362.03149        49.000  
  21382468.18049 112365626.73449    -12145.34049        49.000  
  22356398.95349 117483669.55149     -3376.47349        50.000  
 16 04 02 12 42 10.3000000  0  4G29G26G04G23                                    
  22261603.90649 116985517.06249     13878.78949        50.000  
  21486682.95349 112913278.37149    -17366.06649        49.000  
  21382699.32849 112366841.47349    -12149.52349        49.000  
  22356463.24249 117484007.43049     -3381.86349        50.000  
 16 04 02 12 42 10.4000000  0  4G29G26G04G23                                    
  22261339.82049 116984129.30549     13876.22749        50.000  
  21487013.46149 112915015.16449    -17369.91049        49.000  
  21382930.57049 112368056.64549    -12153.77049        49.000  
  22356527.64849 117484345.87949     -3387.39849        50.000  
 16 04 02 12 42 10.5000000  0  4G29G26G04G23                                    
  22261075.81249 116982741.91049     13872.55949        50.000  
  21487344.05549 112916752.46549    -17374.88349        49.000  
  21383161.91449 112369272.33649    -12159.05149        49.000  
  22356592.18849 117484684.98849     -3394.05949        50.000  
 16 04 02 12 42 10.6000000  0  4G29G26G04G23                                    
  22260811.84449 116981354.72749     13870.22749        50.000  
  21487674.71949 112918490.11749    -17378.53949        49.000  
  21383393.32049 112370488.41449    -12162.98849        49.000  
  22356656.81249 117485024.60249     -3399.23449        50.000  
 16 04 02 12 42 10.7000000  0  4G29G26G04G23                                    
  22260547.93849 116979967.89149     13867.00049        50.000  
  21488005.47749 112920228.25449    -17383.30949        49.000  
  21383624.82849 112371704.98849    -12167.91449        49.000  
  22356721.55549 117485364.84849     -3405.33249        50.000  
 16 04 02 12 42 10.8000000  0  4G29G26G04G23                                    
  22260284.08649 116978581.35249     13863.81249        50.000  
  21488336.31249 112921966.81649    -17387.68049        49.000  
  21383856.41449 112372922.01649    -12172.48049        49.000  
  22356786.41449 117485705.69149     -3411.40249        50.000  
 16 04 02 12 42 10.9000000  0  4G29G26G04G23                                    
  22260020.29749 116977195.12549     13860.71949        50.000  
  21488667.24249 112923705.85249    -17392.43849        49.000  
  21384088.10949 112374139.53949    -12177.44949        49.000  
  22356851.39149 117486047.15249     -3417.70749        50.000  
 16 04 02 12 42 11.0000000  0  4G29G26G04G23                                    
  22259756.54749 116975809.12149     13858.47349        50.000  
  21488998.22749 112925445.21549    -17395.83649        49.000  
  21384319.86749 112375357.44149    -12181.25049        49.000  
  22356916.46949 117486389.12149     -3422.77049        50.000  
 16 04 02 12 42 11.1000000  0  4G29G26G04G23                                    
  22259492.85249 116974423.41449     13855.72749        50.000  
  21489329.30549 112927185.03149    -17400.03149        49.000  
  21384551.71149 112376575.80149    -12185.64149        49.000  
  22356981.65649 117486731.68449     -3428.52049        50.000  
 16 04 02 12 42 11.2000000  0  4G29G26G04G23                                    
  22259229.22749 116973038.02349     13852.21549        50.000  
  21489660.46149 112928925.30149    -17404.96949        49.000  
  21384783.64849 112377794.64149    -12190.80149        49.000  
  22357046.96149 117487074.85549     -3434.96949        50.000  
 16 04 02 12 42 11.3000000  0  4G29G26G04G23                                    
  22258965.66449 116971653.01249     13848.83249        50.000  
  21489991.71949 112930666.06249    -17409.62149        49.000  
  21385015.69549 112379014.00449    -12195.77349        49.000  
  22357112.38349 117487418.68849     -3441.19949        50.000  
 16 04 02 12 42 11.4000000  0  4G29G26G04G23                                    
  22258702.14149 116970268.19149     13846.75049        50.000  
  21490323.03949 112932407.18449    -17413.27049        49.000  
  21385247.80549 112380233.74249    -12199.55549        49.000  
  22357177.91449 117487763.02749     -3446.35549        50.000  
 16 04 02 12 42 11.5000000  0  4G29G26G04G23                                    
  22258438.68049 116968883.70749     13843.30149        50.000  
  21490654.45349 112934148.76249    -17417.91049        49.000  
  21385480.00849 112381453.96949    -12204.48049        49.000  
  22357243.55549 117488107.98849     -3452.68849        50.000  
 16 04 02 12 42 11.6000000  0  4G29G26G04G23                                    
  22258175.28149 116967499.53549     13840.38349        50.000  
  21490985.94549 112935890.78549    -17422.27049        49.000  
  21385712.29749 112382674.67649    -12209.21149        49.000  
  22357309.31249 117488453.54749     -3458.49649        50.000  
 16 04 02 12 42 11.7000000  0  4G29G26G04G23                                    
  22257911.93049 116966115.61349     13837.82849        50.000  
  21491317.51649 112937633.20349    -17426.21949        49.000  
  21385944.67249 112383895.78549    -12213.23849        49.000  
  22357375.17249 117488799.66049     -3464.03549        50.000  
 16 04 02 12 42 11.8000000  0  4G29G26G04G23                                    
  22257648.64149 116964732.00049     13834.58649        50.000  
  21491649.17249 112939376.06649    -17430.72749        49.000  
  21386177.13349 112385117.38749    -12218.21549        49.000  
  22357441.15649 117489146.38349     -3470.18849        50.000  
 16 04 02 12 42 11.9000000  0  4G29G26G04G23                                    
  22257385.41449 116963348.70349     13831.62549        50.000  
  21491980.91449 112941119.37149    -17434.97349        49.000  
  21386409.68049 112386339.43449    -12222.56249        49.000  
  22357507.25049 117489493.69549     -3475.96549        50.000  
 16 04 02 12 42 12.0000000  0  4G29G26G04G23                                    
  22257122.23449 116961965.70349     13828.29749        50.000  
  21492312.72749 112942863.10949    -17439.59049        49.000  
  21386642.32049 112387561.94949    -12227.48849        49.000  
  22357573.45349 117489841.60949     -3482.34449        50.000  
 16 04 02 12 42 12.1000000  0  4G29G26G04G23                                    
  22256859.11749 116960582.98049     13825.91049        50.000  
  21492644.63349 112944607.27049    -17443.50049        49.000  
  21386875.03949 112388784.92249    -12231.72749        49.000  
  22357639.76649 117490190.09449     -3487.73049        50.000  
 16 04 02 12 42 12.2000000  0  4G29G26G04G23                                    
  22256596.04749 116959200.56249     13822.59449        50.000  
  21492976.61749 112946351.87149    -17448.06649        49.000  
  21387107.85249 112390008.34449    -12236.50449        49.000  
  22357706.19549 117490539.18449     -3493.88749        50.000  
 16 04 02 12 42 12.3000000  0  4G29G26G04G23                                    
  22256333.04749 116957818.47749     13819.37949        50.000  
  21493308.69549 112948096.94149    -17452.80949        49.000  
  21387340.75849 112391232.26649    -12241.40249        49.000  
  22357772.74249 117490888.89549     -3500.09449        50.000  
 16 04 02 12 42 12.4000000  0  4G29G26G04G23                                    
  22256070.10249 116956436.67649     13816.52049        50.000  
  21493640.85249 112949842.41849    -17456.91849        49.000  
  21387573.75049 112392456.62149    -12245.79749        49.000  
  22357839.39849 117491239.17649     -3505.78949        50.000  
 16 04 02 12 42 12.5000000  0  4G29G26G04G23                                    
  22255807.19549 116955055.10549     13814.23049        50.000  
  21493973.07849 112951588.26249    -17460.50849        49.000  
  21387806.81249 112393681.37549    -12249.66049        49.000  
  22357906.14849 117491589.98849     -3511.04349        50.000  
 16 04 02 12 42 12.6000000  0  4G29G26G04G23                                    
  22255544.36749 116953673.91449     13810.16849        50.000  
  21494305.39849 112953334.64549    -17465.91849        49.000  
  21388039.98449 112394906.69149    -12255.41049        49.000  
  22357973.03949 117491941.48849     -3518.16849        50.000  
 16 04 02 12 42 12.7000000  0  4G29G26G04G23                                    
  22255281.58649 116952292.99249     13807.73449        50.000  
  21494637.79749 112955081.41449    -17469.78549        49.000  
  21388273.23449 112396132.42249    -12259.55549        49.000  
  22358040.03149 117492293.52749     -3523.41049        50.000  
 16 04 02 12 42 12.8000000  0  4G29G26G04G23                                    
  22255018.85949 116950912.32849     13805.18849        50.000  
  21494970.28149 112956828.58249    -17473.78549        49.000  
  21388506.56249 112397358.56249    -12263.55549        49.000  
  22358107.12549 117492646.12549     -3528.91849        50.000  
 16 04 02 12 42 12.9000000  0  4G29G26G04G23                                    
  22254756.18049 116949531.94549     13802.44949        50.000  
  21495302.82849 112958576.16049    -17477.79349        49.000  
  21388739.97749 112398585.14849    -12267.97749        49.000  
  22358174.33649 117492999.30549     -3534.68049        50.000  
 16 04 02 12 42 13.0000000  0  4G29G26G04G23                                    
  22254493.57049 116948151.91049     13798.87549        50.000  
  21495635.47749 112960324.21949    -17482.60949        49.000  
  21388973.48449 112399812.25449    -12273.14549        49.000  
  22358241.66449 117493353.11749     -3541.07849        50.000  
 16 04 02 12 42 13.1000000  0  4G29G26G04G23                                    
  22254231.00049 116946772.09849     13796.54349        50.000  
  21495968.18849 112962072.65249    -17486.43449        49.000  
  21389207.06249 112401039.73449    -12276.98049        49.000  
  22358309.10249 117493707.45749     -3546.35249        50.000  
 16 04 02 12 42 13.2000000  0  4G29G26G04G23                                    
  22253968.49249 116945392.61749     13793.32049        50.000  
  21496300.99249 112963821.54749    -17491.00849        49.000  
  21389440.74249 112402267.72749    -12282.11349        49.000  
  22358376.64849 117494062.41849     -3552.56649        50.000  
 16 04 02 12 42 13.3000000  0  4G29G26G04G23                                    
  22253706.03149 116944013.39849     13790.80549        50.000  
  21496633.86749 112965570.82449    -17494.75049        49.000  
  21389674.49249 112403496.11349    -12285.99649        49.000  
  22358444.29749 117494417.93049     -3557.94949        50.000  
 16 04 02 12 42 13.4000000  0  4G29G26G04G23                                    
  22253443.64849 116942634.57449     13786.70749        50.000  
  21496966.85249 112967320.64549    -17500.27749        49.000  
  21389908.35249 112404725.06649    -12291.69149        49.000  
  22358512.08649 117494774.13349     -3565.09449        50.000  
 16 04 02 12 42 13.5000000  0  4G29G26G04G23                                    
  22253181.33649 116941256.08649     13783.21149        50.000  
  21497299.91449 112969070.93049    -17505.12949        49.000  
  21390142.31249 112405954.51649    -12296.81649        49.000  
  22358579.98449 117495130.95349     -3571.40249        50.000  
 16 04 02 12 42 13.6000000  0  4G29G26G04G23                                    
  22252919.06249 116939877.84049     13780.78149        50.000  
  21497633.05549 112970821.59849    -17508.91449        49.000  
  21390376.34449 112407184.37549    -12300.97349        49.000  
  22358647.99249 117495488.33649     -3576.95749        50.000  
 16 04 02 12 42 13.7000000  0  4G29G26G04G23                                    
  22252656.85249 116938499.91849     13777.87149        50.000  
  21497966.28149 112972572.72349    -17513.14149        49.000  
  21390610.46949 112408414.71149    -12305.43849        49.000  
  22358716.10949 117495846.31249     -3582.71149        50.000  
 16 04 02 12 42 13.8000000  0  4G29G26G04G23                                    
  22252394.70349 116937122.29749     13774.77749        50.000  
  21498299.59449 112974324.27349    -17517.56249        49.000  
  21390844.68849 112409645.51249    -12310.13349        49.000  
  22358784.34449 117496204.88749     -3588.70349        50.000  
 16 04 02 12 42 13.9000000  0  4G29G26G04G23                                    
  22252132.60949 116935744.94949     13772.01249        50.000  
  21498632.97749 112976076.24649    -17521.69549        49.000  
  21391078.97749 112410876.74649    -12314.44949        49.000  
  22358852.68849 117496564.03549     -3594.40249        50.000  
 16 04 02 12 42 14.0000000  0  4G29G26G04G23                                    
  22251870.54749 116934367.83249     13769.72349        50.000  
  21498966.43849 112977828.57849    -17525.37149        49.000  
  21391313.35249 112412108.36749    -12318.34849        49.000  
  22358921.13349 117496923.70749     -3599.68449        50.000  
 16 04 02 12 42 14.1000000  0  4G29G26G04G23                                    
  22251608.55549 116932991.05549     13766.29749        50.000  
  21499299.99249 112979581.39149    -17530.13749        49.000  
  21391547.82049 112413340.50449    -12323.37949        49.000  
  22358989.69549 117497284.02049     -3606.03549        50.000  
 16 04 02 12 42 14.2000000  0  4G29G26G04G23                                    
  22251346.62549 116931614.59849     13763.21549        50.000  
  21499633.62549 112981334.65249    -17534.56249        49.000  
  21391782.37549 112414573.10549    -12328.11349        49.000  
  22359058.37549 117497644.92649     -3612.02049        50.000  
 16 04 02 12 42 14.3000000  0  4G29G26G04G23                                    
  22251084.73449 116930238.39549     13760.43849        50.000  
  21499967.33649 112983088.30149    -17538.64549        49.000  
  21392017.00849 112415806.12949    -12332.55949        49.000  
  22359127.15649 117498006.38749     -3617.75049        50.000  
 16 04 02 12 42 14.4000000  0  4G29G26G04G23                                    
  22250822.91449 116928862.53549     13757.07449        50.000  
  21500301.13349 112984842.42649    -17543.33649        49.000  
  21392251.74249 112417039.64549    -12337.34849        49.000  
  22359196.06249 117498368.48449     -3624.03949        50.000  
 16 04 02 12 42 14.5000000  0  4G29G26G04G23                                    
  22250561.15649 116927486.96949     13754.10549        50.000  
  21500635.01649 112986596.98449    -17547.65249        49.000  
  21392486.56249 112418273.63749    -12342.05949        49.000  
  22359265.07049 117498731.16849     -3629.76649        50.000  
 16 04 02 12 42 14.6000000  0  4G29G26G04G23                                    
  22250299.44549 116926111.67649     13751.50849        50.000  
  21500968.96949 112988351.94549    -17551.58249        49.000  
  21392721.46149 112419508.03949    -12346.18849        49.000  
  22359334.19549 117499094.42249     -3635.32849        50.000  
 16 04 02 12 42 14.7000000  0  4G29G26G04G23                                    
  22250037.79749 116924736.65649     13748.68849        50.000  
  21501303.00849 112990107.32449    -17555.79749        49.000  
  21392956.44549 112420742.89149    -12350.63349        49.000  
  22359403.43049 117499458.25049     -3641.25449        50.000  
 16 04 02 12 42 14.8000000  0  4G29G26G04G23                                    
  22249776.19549 116923361.94549     13745.61349        50.000  
  21501637.12549 112991863.13749    -17560.13749        49.000  
  21393191.51649 112421978.20349    -12355.26249        49.000  
  22359472.77349 117499822.66449     -3647.10249        50.000  
 16 04 02 12 42 14.9000000  0  4G29G26G04G23                                    
  22249514.65649 116921987.57049     13742.23849        50.000  
  21501971.33649 112993619.42249    -17564.89149        49.000  
  21393426.68849 112423214.02049    -12360.36349        49.000  
  22359542.24249 117500187.71949     -3653.49249        50.000  
 16 04 02 12 42 15.0000000  0  4G29G26G04G23                                    
  22249253.18049 116920613.48449     13739.09449        50.000  
  21502305.62549 112995376.12949    -17569.23849        49.000  
  21393661.93849 112424450.27349    -12364.93449        49.000  
  22359611.81249 117500553.34449     -3659.43849        50.000  
 16 04 02 12 42 15.1000000  0  4G29G26G04G23                                    
  22248991.76649 116919239.72749     13736.17249        50.000  
  21502640.00849 112997133.29749    -17573.70349        49.000  
  21393897.28149 112425687.01249    -12369.45349        49.000  
  22359681.51649 117500919.59849     -3665.40249        50.000  
 16 04 02 12 42 15.2000000  0  4G29G26G04G23                                    
  22248730.39149 116917866.19949     13733.75449        50.000  
  21502974.46149 112998890.84049    -17577.50449        49.000  
  21394132.70349 112426924.15649    -12373.64549        49.000  
  22359751.31249 117501286.38349     -3670.84849        50.000  
 16 04 02 12 42 15.3000000  0  4G29G26G04G23                                    
  22248469.07849 116916493.00449     13730.47349        50.000  
  21503308.99249 113000648.82449    -17581.81249        49.000  
  21394368.21149 112428161.78149    -12378.38349        49.000  
  22359821.22749 117501653.77349     -3676.90249        50.000  
 16 04 02 12 42 15.4000000  0  4G29G26G04G23                                    
  22248207.82049 116915120.07049     13727.79749        50.000  
  21503643.60949 113002407.23849    -17586.09849        49.000  
  21394603.80549 112429399.84049    -12382.68449        49.000  
  22359891.25049 117502021.74649     -3682.66849        50.000  
 16 04 02 12 42 15.5000000  0  4G29G26G04G23                                    
  22247946.61749 116913747.45349     13724.77749        50.000  
  21503978.30549 113004166.07849    -17590.40249        49.000  
  21394839.49249 112430638.36349    -12387.33649        49.000  
  22359961.38349 117502390.30149     -3688.47749        50.000  
 16 04 02 12 42 15.6000000  0  4G29G26G04G23                                    
  22247685.46149 116912375.07449     13722.35249        50.000  
  21504313.07049 113005925.29749    -17594.09049        49.000  
  21395075.25049 112431877.28549    -12391.32449        49.000  
  22360031.61749 117502759.39849     -3693.87549        50.000  
 16 04 02 12 42 15.7000000  0  4G29G26G04G23                                    
  22247424.35949 116911002.99249     13719.31249        50.000  
  21504647.92249 113007684.94549    -17598.50049        49.000  
  21395311.09449 112433116.66849    -12395.91449        49.000  
  22360101.96149 117503129.08249     -3699.81649        50.000  
 16 04 02 12 42 15.8000000  0  4G29G26G04G23                                    
  22247163.32049 116909631.22349     13716.25449        50.000  
  21504982.85949 113009445.04349    -17603.03149        49.000  
  21395547.03149 112434356.52749    -12400.70349        49.000  
  22360172.43049 117503499.37949     -3705.97749        50.000  
 16 04 02 12 42 15.9000000  0  4G29G26G04G23                                    
  22246902.35249 116908259.78949     13712.75049        50.000  
  21505317.87549 113011205.60249    -17607.68849        49.000  
  21395783.06249 112435596.86749    -12405.65249        49.000  
  22360243.00849 117503870.29349     -3712.26249        50.000  
 16 04 02 12 42 16.0000000  0  4G29G26G04G23                                    
  22246641.43049 116906888.64149     13709.99249        50.000  
  21505652.98449 113012966.58649    -17611.91449        49.000  
  21396019.18049 112436837.66849    -12410.17649        49.000  
  22360313.70349 117504241.79349     -3717.98049        50.000  
 16 04 02 12 42 16.1000000  0  4G29G26G04G23                                    
  22246380.57049 116905517.83249     13706.51249        50.000  
  21505988.18049 113014728.04749    -17616.77349        49.000  
  21396255.38349 112438078.96149    -12415.24649        49.000  
  22360384.51649 117504613.93049     -3724.50449        50.000  
 16 04 02 12 42 16.2000000  0  4G29G26G04G23                                    
  22246119.76649 116904147.27049     13704.23449        50.000  
  21506323.43849 113016489.87549    -17620.28149        49.000  
  21396491.67249 112439320.65649    -12419.11749        49.000  
  22360455.43849 117504986.59449     -3729.63349        50.000  
 16 04 02 12 42 16.3000000  0  4G29G26G04G23                                    
  22245859.00849 116902776.98849     13701.43049        50.000  
  21506658.78149 113018252.12949    -17624.41049        49.000  
  21396728.04749 112440562.80149    -12423.41849        49.000  
  22360526.46149 117505359.83649     -3735.26649        50.000  
 16 04 02 12 42 16.4000000  0  4G29G26G04G23                                    
  22245598.30549 116901406.98049     13698.66849        50.000  
  21506994.20349 113020014.78549    -17628.57849        49.000  
  21396964.50049 112441805.36749    -12427.77749        49.000  
  22360597.59449 117505733.64549     -3740.93049        50.000  
 16 04 02 12 42 16.5000000  0  4G29G26G04G23                                    
  22245337.66449 116900037.28549     13695.48449        50.000  
  21507329.71149 113021777.87949    -17632.97349        49.000  
  21397201.04749 112443048.40649    -12432.49249        49.000  
  22360668.84449 117506108.05949     -3747.03149        50.000  
 16 04 02 12 42 16.6000000  0  4G29G26G04G23                                    
  22245077.07049 116898667.86749     13692.69149        50.000  
  21507665.30549 113023541.39849    -17637.21149        49.000  
  21397437.67249 112444291.88749    -12436.89549        49.000  
  22360740.20349 117506483.05149     -3752.92249        50.000  
 16 04 02 12 42 16.7000000  0  4G29G26G04G23                                    
  22244816.52349 116897298.72749     13689.95349        50.000  
  21508000.96149 113025305.32049    -17641.24249        49.000  
  21397674.37549 112445535.80949    -12441.32049        49.000  
  22360811.66449 117506858.59049     -3758.43049        50.000  
 16 04 02 12 42 16.8000000  0  4G29G26G04G23                                    
  22244556.03949 116895929.87549     13687.17649        50.000  
  21508336.71149 113027069.66449    -17645.34049        49.000  
  21397911.17249 112446780.16449    -12445.62149        49.000  
  22360883.24249 117507234.72749     -3764.15649        50.000  
 16 04 02 12 42 16.9000000  0  4G29G26G04G23                                    
  22244295.60949 116894561.30949     13683.96949        50.000  
  21508672.53949 113028834.43849    -17649.90249        49.000  
  21398148.05549 112448024.98449    -12450.44149        49.000  
  22360954.93049 117507611.44549     -3770.30949        50.000  
 16 04 02 12 42 17.0000000  0  4G29G26G04G23                                    
  22244035.25049 116893193.09049     13680.82849        50.000  
  21509008.44549 113030599.66849    -17654.27749        49.000  
  21398385.02349 112449270.28549    -12455.06649        49.000  
  22361026.73449 117507988.79349     -3776.32849        50.000  
 16 04 02 12 42 17.1000000  0  4G29G26G04G23                                    
  22243774.93049 116891825.06249     13678.75049        50.000  
  21509344.42249 113032365.23049    -17657.66049        49.000  
  21398622.07049 112450515.95349    -12458.76649        49.000  
  22361098.63349 117508366.62549     -3781.27749        50.000  
 16 04 02 12 42 17.2000000  0  4G29G26G04G23                                    
  22243514.66449 116890457.38349     13675.32449        50.000  
  21509680.49249 113034131.28949    -17662.45349        49.000  
  21398859.21149 112451762.12549    -12463.79749        49.000  
  22361170.65649 117508745.10949     -3787.72349        50.000  
 16 04 02 12 42 17.3000000  0  4G29G26G04G23                                    
  22243254.46949 116889090.03949     13671.83649        50.000  
  21510016.64849 113035897.80149    -17667.30549        49.000  
  21399096.44549 112453008.79349    -12468.96549        49.000  
  22361242.79749 117509124.21149     -3794.09449        50.000  
 16 04 02 12 42 17.4000000  0  4G29G26G04G23                                    
  22242994.31249 116887722.93849     13669.52349        50.000  
  21510352.88349 113037664.68849    -17670.89149        49.000  
  21399333.75849 112454255.85549    -12472.80549        49.000  
  22361315.03949 117509503.84849     -3799.33249        50.000  
 16 04 02 12 42 17.5000000  0  4G29G26G04G23                                    
  22242734.21949 116886356.11749     13666.69949        50.000  
  21510689.18849 113039432.00049    -17675.16449        49.000  
  21399571.14849 112455503.36349    -12477.16049        49.000  
  22361387.39149 117509884.05949     -3805.08649        50.000  
 16 04 02 12 42 17.6000000  0  4G29G26G04G23                                    
  22242474.18049 116884989.59449     13663.80149        50.000  
  21511025.57849 113041199.72749    -17679.21149        49.000  
  21399808.62549 112456751.32849    -12481.66849        49.000  
  22361459.85949 117510264.86349     -3810.89849        50.000  
 16 04 02 12 42 17.7000000  0  4G29G26G04G23                                    
  22242214.19549 116883623.39849     13660.44149        50.000  
  21511362.05549 113042967.93049    -17684.05149        49.000  
  21400046.19549 112457999.77749    -12486.60949        49.000  
  22361532.43849 117510646.28549     -3817.12949        50.000  
 16 04 02 12 42 17.8000000  0  4G29G26G04G23                                    
  22241954.26649 116882257.44549     13658.03149        50.000  
  21511698.60249 113044736.48449    -17687.50849        49.000  
  21400283.84449 112459248.62549    -12490.57849        49.000  
  22361605.11749 117511028.24249     -3822.55149        50.000  
 16 04 02 12 42 17.9000000  0  4G29G26G04G23                                    
  22241694.39149 116880891.81649     13654.91449        50.000  
  21512035.23449 113046505.52349    -17692.22749        49.000  
  21400521.57849 112460497.96549    -12495.52349        49.000  
  22361677.92249 117511410.82049     -3828.62549        50.000  
 16 04 02 12 42 18.0000000  0  4G29G26G04G23                                    
  22241434.57849 116879526.49249     13651.64149        50.000  
  21512371.95349 113048274.98449    -17696.80149        49.000  
  21400759.40649 112461747.75049    -12500.08249        49.000  
  22361750.83649 117511793.97749     -3834.65649        50.000  
 16 04 02 12 42 18.1000000  0  4G29G26G04G23                                    
  22241174.82049 116878161.47749     13648.52049        50.000  
  21512708.75849 113050044.88349    -17701.23049        49.000  
  21400997.32849 112462998.01249    -12504.91049        49.000  
  22361823.86749 117512177.75049     -3840.77049        50.000  
 16 04 02 12 42 18.2000000  0  4G29G26G04G23                                    
  22240915.10949 116876796.68449     13646.30149        50.000  
  21513045.61749 113051815.13349    -17704.57449        49.000  
  21401235.31249 112464248.66049    -12508.72749        49.000  
  22361896.99249 117512562.03549     -3845.95749        50.000  
 16 04 02 12 42 18.3000000  0  4G29G26G04G23                                    
  22240655.47749 116875432.25449     13643.03149        50.000  
  21513382.57849 113053585.89149    -17709.26649        49.000  
  21401473.40649 112465499.82049    -12513.58649        49.000  
  22361970.24249 117512946.96949     -3852.05549        50.000  
 16 04 02 12 42 18.4000000  0  4G29G26G04G23                                    
  22240395.88349 116874068.09849     13639.91049        50.000  
  21513719.62549 113055357.05549    -17713.75049        49.000  
  21401711.57849 112466751.41849    -12518.19949        49.000  
  22362043.60949 117513332.48449     -3858.25449        50.000  
 16 04 02 12 42 18.5000000  0  4G29G26G04G23                                    
  22240136.35949 116872704.28949     13636.49249        50.000  
  21514056.75849 113057128.69149    -17718.63749        49.000  
  21401949.84449 112468003.52049    -12523.33249        49.000  
  22362117.08649 117513718.62549     -3864.51649        50.000  
 16 04 02 12 42 18.6000000  0  4G29G26G04G23                                    
  22239876.89149 116871340.73849     13634.05549        50.000  
  21514393.96149 113058900.71949    -17722.43449        49.000  
  21402188.18849 112469256.03549    -12527.28949        49.000  
  22362190.67249 117514105.31649     -3869.90249        50.000  
 16 04 02 12 42 18.7000000  0  4G29G26G04G23                                    
  22239617.46949 116869977.48849     13631.02049        50.000  
  21514731.25049 113060673.17649    -17726.58249        49.000  
  21402426.62549 112470509.01249    -12531.93449        49.000  
  22362264.37549 117514492.60249     -3875.87149        50.000  
 16 04 02 12 42 18.8000000  0  4G29G26G04G23                                    
  22239358.10949 116868614.53149     13628.12949        50.000  
  21515068.61749 113062446.06649    -17730.90649        49.000  
  21402665.14149 112471762.44149    -12536.38749        49.000  
  22362338.18049 117514880.47749     -3881.65249        50.000  
 16 04 02 12 42 18.9000000  0  4G29G26G04G23                                    
  22239098.80549 116867251.89549     13624.94949        50.000  
  21515406.07049 113064219.39549    -17735.30149        49.000  
  21402903.75049 112473016.34049    -12541.11749        49.000  
  22362412.10949 117515268.94949     -3887.68049        50.000  
 16 04 02 12 42 19.0000000  0  4G29G26G04G23                                    
  22238839.54749 116865889.50049     13622.33649        50.000  
  21515743.59449 113065993.10249    -17739.17649        49.000  
  21403142.43849 112474270.65249    -12545.34449        49.000  
  22362486.14149 117515657.97349     -3893.18049        50.000  
 16 04 02 12 42 19.1000000  0  4G29G26G04G23                                    
  22238580.35949 116864527.40649     13619.56249        50.000  
  21516081.19549 113067767.24649    -17743.40649        49.000  
  21403381.21149 112475525.41049    -12549.62949        49.000  
  22362560.28149 117516047.59049     -3899.00849        50.000  
 16 04 02 12 42 19.2000000  0  4G29G26G04G23                                    
  22238321.21149 116863165.58249     13616.84449        50.000  
  21516418.88349 113069541.79349    -17747.41849        49.000  
  21403620.07049 112476780.59449    -12553.85549        49.000  
  22362634.52349 117516437.75449     -3904.57049        50.000  
 16 04 02 12 42 19.3000000  0  4G29G26G04G23                                    
  22238062.13349 116861804.09849     13613.36749        50.000  
  21516756.65649 113071316.80149    -17752.09849        49.000  
  21403859.01649 112478036.28949    -12559.02349        49.000  
  22362708.89149 117516828.56249     -3911.03949        50.000  
 16 04 02 12 42 19.4000000  0  4G29G26G04G23                                    
  22237803.10949 116860442.90249     13610.41849        50.000  
  21517094.50849 113073092.24249    -17756.52349        49.000  
  21404098.04749 112479292.42649    -12563.60949        49.000  
  22362783.37549 117517219.94549     -3916.87149        50.000  
 16 04 02 12 42 19.5000000  0  4G29G26G04G23                                    
  22237544.13349 116859082.00849     13607.38349        50.000  
  21517432.43849 113074868.10249    -17760.72749        49.000  
  21404337.17249 112480549.01649    -12568.11749        49.000  
  22362857.96149 117517611.90249     -3922.71949        50.000  
 16 04 02 12 42 19.6000000  0  4G29G26G04G23                                    
  22237285.21949 116857721.40249     13604.45749        50.000  
  21517770.45349 113076644.39149    -17765.03549        49.000  
  21404576.38349 112481806.05549    -12572.61749        49.000  
  22362932.66449 117518004.47749     -3928.71549        50.000  
 16 04 02 12 42 19.7000000  0  4G29G26G04G23                                    
  22237026.36749 116856361.14849     13601.09049        50.000  
  21518108.55549 113078421.15249    -17769.67249        49.000  
  21404815.68049 112483063.60249    -12577.59849        49.000  
  22363007.48449 117518397.66449     -3934.86749        50.000  
 16 04 02 12 42 19.8000000  0  4G29G26G04G23                                    
  22236767.56249 116855001.11749     13598.79349        50.000  
  21518446.73449 113080198.27749    -17773.31249        49.000  
  21405055.06249 112484321.53549    -12581.48449        49.000  
  22363082.40649 117518791.38749     -3940.13749        50.000  
 16 04 02 12 42 19.9000000  0  4G29G26G04G23                                    
  22236508.82049 116853641.41049     13595.65249        50.000  
  21518785.00049 113081975.85549    -17777.77749        49.000  
  21405294.53149 112485579.94149    -12586.20349        49.000  
  22363157.44549 117519185.70749     -3946.13749        50.000  
 16 04 02 12 42 20.0000000  0  4G29G26G04G23                                    
  22236250.12549 116852281.95349     13593.17649        50.000  
  21519123.32849 113083753.81649    -17781.47749        49.000  
  21405534.07849 112486838.75849    -12590.23849        49.000  
  22363232.58649 117519580.57849     -3951.51249        50.000  
 16 04 02 12 42 20.1000000  0  4G29G26G04G23                                    
  22235991.47749 116850922.79749     13590.07049        50.000  
  21519461.75049 113085532.20749    -17785.93449        49.000  
  21405773.70349 112488098.02749    -12594.73449        49.000  
  22363307.83649 117519976.04749     -3957.60549        50.000  
 16 04 02 12 42 20.2000000  0  4G29G26G04G23                                    
  22235732.90649 116849563.97349     13586.87149        50.000  
  21519800.25049 113087311.06649    -17790.54749        49.000  
  21406013.43049 112489357.80149    -12599.73049        49.000  
  22363383.21149 117520372.12949     -3963.76249        50.000  
 16 04 02 12 42 20.3000000  0  4G29G26G04G23                                    
  22235474.37549 116848205.40649     13583.99649        50.000  
  21520138.82849 113089090.30149    -17794.56649        49.000  
  21406253.22749 112490617.97349    -12603.99249        49.000  
  22363458.68849 117520768.76249     -3969.41449        50.000  
 16 04 02 12 42 20.4000000  0  4G29G26G04G23                                    
  22235215.90649 116846847.14849     13581.10549        50.000  
  21520477.49249 113090869.98849    -17798.91449        49.000  
  21406493.12549 112491878.62549    -12608.66849        49.000  
  22363534.28149 117521166.00449     -3975.39549        50.000  
 16 04 02 12 42 20.5000000  0  4G29G26G04G23                                    
  22234957.50049 116845489.22349     13577.96149        50.000  
  21520816.24249 113092650.11749    -17803.23049        49.000  
  21406733.10249 112493139.75049    -12613.25449        49.000  
  22363609.99249 117521563.85949     -3981.39549        50.000  
 16 04 02 12 42 20.6000000  0  4G29G26G04G23                                    
  22234699.14149 116844131.53549     13575.19149        50.000  
  21521155.07049 113094430.63349    -17807.31249        49.000  
  21406973.16449 112494401.27349    -12617.43849        49.000  
  22363685.80549 117521962.23449     -3986.91449        50.000  
 16 04 02 12 42 20.7000000  0  4G29G26G04G23                                    
  22234440.85249 116842774.23049     13571.67649        50.000  
  21521493.98449 113096211.65649    -17812.19149        49.000  
  21407213.32049 112495663.34849    -12622.79349        49.000  
  22363761.75049 117522361.30149     -3993.45749        50.000  
 16 04 02 12 42 20.8000000  0  4G29G26G04G23                                    
  22234182.60949 116841417.15249     13569.11349        50.000  
  21521832.97749 113097993.04749    -17816.16449        49.000  
  21407453.56249 112496925.80149    -12626.85549        49.000  
  22363837.78149 117522760.87949     -3998.93049        50.000  
 16 04 02 12 42 20.9000000  0  4G29G26G04G23                                    
  22233924.41449 116840060.33249     13566.76249        50.000  
  21522172.03949 113099774.80949    -17819.60949        49.000  
  21407693.87549 112498188.66449    -12630.69949        49.000  
  22363913.93049 117523161.00849     -4004.20749        50.000  
 16 04 02 12 42 21.0000000  0  4G29G26G04G23                                    
  22233666.28149 116838703.84049     13563.46549        50.000  
  21522511.18049 113101557.03549    -17824.21149        49.000  
  21407934.28949 112499452.01649    -12635.60949        49.000  
  22363990.18849 117523561.75449     -4010.49649        50.000  
 16 04 02 12 42 21.1000000  0  4G29G26G04G23                                    
  22233408.21149 116837347.66449     13560.17649        50.000  
  21522850.41449 113103339.71549    -17828.89149        49.000  
  21408174.78149 112500715.84449    -12640.48449        49.000  
  22364066.56249 117523963.10949     -4016.55549        50.000  
 16 04 02 12 42 21.2000000  0  4G29G26G04G23                                    
  22233150.18849 116835991.73049     13557.98849        50.000  
  21523189.71149 113105122.75449    -17832.33649        49.000  
  21408415.35949 112501980.06249    -12644.29749        49.000  
  22364143.03949 117524364.99649     -4021.73849        50.000  
 16 04 02 12 42 21.3000000  0  4G29G26G04G23                                    
  22232892.22749 116834636.13749     13554.43049        50.000  
  21523529.10949 113106906.27349    -17837.20349        49.000  
  21408656.02349 112503244.78149    -12649.35549        49.000  
  22364219.63349 117524767.51649     -4028.18049        50.000  
 16 04 02 12 42 21.4000000  0  4G29G26G04G23                                    
  22232634.32049 116833280.82049     13551.61349        50.000  
  21523868.57849 113108690.19949    -17841.31649        49.000  
  21408896.77349 112504509.93449    -12653.77049        49.000  
  22364296.33649 117525170.59449     -4033.80549        50.000  
 16 04 02 12 42 21.5000000  0  4G29G26G04G23                                    
  22232376.45349 116831925.75449     13549.21149        50.000  
  21524208.12549 113110474.50849    -17845.12549        49.000  
  21409137.60249 112505775.49649    -12657.71149        49.000  
  22364373.14849 117525574.23049     -4039.23449        50.000  
 16 04 02 12 42 21.6000000  0  4G29G26G04G23                                    
  22232118.65649 116830571.00449     13546.18849        50.000  
  21524547.75049 113112259.26249    -17849.47349        49.000  
  21409378.52349 112507041.53149    -12662.37949        49.000  
  22364450.07049 117525978.46549     -4045.21149        50.000  
 16 04 02 12 42 21.7000000  0  4G29G26G04G23                                    
  22231860.92249 116829216.61349     13542.44949        50.000  
  21524887.46949 113114044.49649    -17854.39149        49.000  
  21409619.53949 112508308.07849    -12667.60249        49.000  
  22364527.11749 117526383.34849     -4051.78149        50.000  
 16 04 02 12 42 21.8000000  0  4G29G26G04G23                                    
  22231603.24249 116827862.49249     13539.81249        50.000  
  21525227.26649 113115830.12949    -17858.27349        49.000  
  21409860.63349 112509575.03949    -12671.69949        49.000  
  22364604.26649 117526788.78549     -4057.21949        50.000  
 16 04 02 12 42 21.9000000  0  4G29G26G04G23                                    
  22231345.60949 116826508.62149     13537.21549        50.000  
  21525567.13349 113117616.15249    -17862.27349        49.000  
  21410101.80549 112510842.42249    -12675.93449        49.000  
  22364681.52349 117527194.77349     -4062.86349        50.000  
 16 04 02 12 42 22.0000000  0  4G29G26G04G23                                    
  22231088.03149 116825155.02749     13534.53549        50.000  
  21525907.07849 113119402.57449    -17866.20349        49.000  
  21410343.06249 112512110.23449    -12680.18849        49.000  
  22364758.89149 117527601.33249     -4068.50449        50.000  
 16 04 02 12 42 22.1000000  0  4G29G26G04G23                                    
  22230830.51649 116823801.75049     13531.31649        50.000  
  21526247.10949 113121189.44949    -17870.80149        49.000  
  21410584.41449 112513378.52749    -12685.08249        49.000  
  22364836.36749 117528008.49249     -4074.59849        50.000  
 16 04 02 12 42 22.2000000  0  4G29G26G04G23                                    
  22230573.06249 116822448.84449     13527.35549        50.000  
  21526587.23449 113122976.82049    -17875.79749        49.000  
  21410825.85949 112514647.33249    -12690.30149        49.000  
  22364913.97749 117528416.30949     -4081.28949        50.000  
 16 04 02 12 42 22.3000000  0  4G29G26G04G23                                    
  22230315.65649 116821096.16849     13525.23049        50.000  
  21526927.43049 113124764.54349    -17879.26249        49.000  
  21411067.38349 112515916.53949    -12694.15249        49.000  
  22364991.68049 117528824.66049     -4086.43849        50.000  
 16 04 02 12 42 22.4000000  0  4G29G26G04G23                                    
  22230058.31249 116819743.80549     13522.29349        50.000  
  21527267.70349 113126552.72749    -17883.72749        49.000  
  21411308.99249 112517186.20349    -12698.77049        49.000  
  22365069.50049 117529233.60249     -4092.28149        50.000  
 16 04 02 12 42 22.5000000  0  4G29G26G04G23                                    
  22229801.00849 116818391.66849     13519.93449        50.000  
  21527608.05549 113128341.25849    -17887.30549        49.000  
  21411550.68049 112518456.25049    -12702.51649        49.000  
  22365147.42249 117529643.07449     -4097.57049        50.000  
 16 04 02 12 42 22.6000000  0  4G29G26G04G23                                    
  22229543.76649 116817039.88749     13516.43049        50.000  
  21527948.48449 113130130.26649    -17892.03549        49.000  
  21411792.46149 112519726.81649    -12707.64549        49.000  
  22365225.46149 117530053.18049     -4103.95349        50.000  
 16 04 02 12 42 22.7000000  0  4G29G26G04G23                                    
  22229286.58649 116815688.37549     13513.50449        50.000  
  21528289.00049 113131919.67649    -17896.22749        49.000  
  21412034.31249 112520997.79349    -12712.03949        49.000  
  22365303.60949 117530463.84849     -4109.80549        50.000  
 16 04 02 12 42 22.8000000  0  4G29G26G04G23                                    
  22229029.46149 116814337.17249     13510.64549        50.000  
  21528629.59449 113133709.53149    -17900.49249        49.000  
  21412276.26649 112522269.25049    -12716.60949        49.000  
  22365381.86749 117530875.11749     -4115.56649        50.000  
 16 04 02 12 42 22.9000000  0  4G29G26G04G23                                    
  22228772.38349 116812986.19149     13508.28149        50.000  
  21528970.25849 113135499.72749    -17904.05549        49.000  
  21412518.28949 112523541.07449    -12720.42649        49.000  
  22365460.22749 117531286.90249     -4120.90649        50.000  
 16 04 02 12 42 23.0000000  0  4G29G26G04G23                                    
  22228515.35949 116811635.54749     13505.10949        50.000  
  21529311.01649 113137290.40249    -17908.59049        49.000  
  21412760.40649 112524813.39149    -12725.07449        49.000  
  22365538.70349 117531699.30949     -4126.86349        50.000  
 16 04 02 12 42 23.1000000  0  4G29G26G04G23                                    
  22228258.39149 116810285.16049     13502.53949        50.000  
  21529651.83649 113139081.44149    -17912.32449        49.000  
  21413002.59449 112526086.12549    -12729.32449        49.000  
  22365617.28949 117532112.26249     -4132.32849        50.000  
 16 04 02 12 42 23.2000000  0  4G29G26G04G23                                    
  22228001.46949 116808935.04349     13499.72749        50.000  
  21529992.74249 113140872.89849    -17916.48449        49.000  
  21413244.86749 112527359.28149    -12733.66049        49.000  
  22365695.98449 117532525.77749     -4138.07449        50.000  
 16 04 02 12 42 23.3000000  0  4G29G26G04G23                                    
  22227744.60249 116807585.19949     13496.98449        50.000  
  21530333.71949 113142664.75449    -17920.50849        49.000  
  21413487.21949 112528632.87149    -12737.95749        49.000  
  22365774.78149 117532939.86349     -4143.77049        50.000  
 16 04 02 12 42 23.4000000  0  4G29G26G04G23                                    
  22227487.78949 116806235.64549     13494.25049        50.000  
  21530674.77349 113144457.02049    -17924.43849        49.000  
  21413729.66449 112529906.90649    -12742.24649        49.000  
  22365853.68849 117533354.52749     -4149.41049        50.000  
 16 04 02 12 42 23.5000000  0  4G29G26G04G23                                    
  22227231.03149 116804886.37549     13491.29349        50.000  
  21531015.91449 113146249.70749    -17928.85249        49.000  
  21413972.18049 112531181.37949    -12746.85249        49.000  
  22365932.70349 117533769.75449     -4155.20349        50.000  
 16 04 02 12 42 23.6000000  0  4G29G26G04G23                                    
  22226974.34449 116803537.44949     13487.54349        50.000  
  21531357.14149 113148042.85949    -17933.69949        49.000  
  21414214.80549 112532456.34449    -12751.96549        49.000  
  22366011.84449 117534185.62549     -4161.87149        50.000  
 16 04 02 12 42 23.7000000  0  4G29G26G04G23                                    
  22226717.71149 116802188.84049     13484.40249        50.000  
  21531698.45349 113149836.47349    -17938.31249        49.000  
  21414457.50849 112533731.79749    -12756.78549        49.000  
  22366091.09449 117534602.10249     -4167.89849        50.000  
 16 04 02 12 42 23.8000000  0  4G29G26G04G23                                    
  22226461.13349 116800840.50849     13481.82849        50.000  
  21532039.83649 113151630.47749    -17942.08249        49.000  
  21414700.29749 112535007.66049    -12760.78949        49.000  
  22366170.45349 117535019.13749     -4173.34849        50.000  
 16 04 02 12 42 23.9000000  0  4G29G26G04G23                                    
  22226204.60249 116799492.43849     13479.26249        50.000  
  21532381.29749 113153424.87149    -17946.03149        49.000  
  21414943.17249 112536283.95749    -12765.11349        49.000  
  22366249.92249 117535436.74249     -4178.95349        50.000  
 16 04 02 12 42 24.0000000  0  4G29G26G04G23                                    
  22225948.14149 116798144.70749     13475.91049        50.000  
  21532722.85949 113155219.74249    -17950.64149        49.000  
  21415186.13349 112537560.73849    -12769.86749        49.000  
  22366329.50849 117535854.96949     -4185.19549        50.000  
 16 04 02 12 42 24.1000000  0  4G29G26G04G23                                    
  22225691.72749 116796797.24649     13473.19949        50.000  
  21533064.48449 113157015.00449    -17954.64149        49.000  
  21415429.18049 112538837.94949    -12774.14149        49.000  
  22366409.19549 117536273.74249     -4190.71949        50.000  
 16 04 02 12 42 24.2000000  0  4G29G26G04G23                                    
  22225435.36749 116795450.05549     13470.40249        50.000  
  21533406.18849 113158810.66449    -17958.70349        49.000  
  21415672.30549 112540115.58649    -12778.52749        49.000  
  22366488.99249 117536693.09049     -4196.44549        50.000  
 16 04 02 12 42 24.3000000  0  4G29G26G04G23                                    
  22225179.05549 116794103.14849     13467.57049        50.000  
  21533747.96949 113160606.73849    -17962.73849        49.000  
  21415915.50849 112541393.66049    -12782.87149        49.000  
  22366568.90649 117537113.00849     -4202.16849        50.000  
 16 04 02 12 42 24.4000000  0  4G29G26G04G23                                    
  22224922.79749 116792756.52349     13464.71549        50.000  
  21534089.83649 113162403.23049    -17966.95749        49.000  
  21416158.80549 112542672.17249    -12787.21149        49.000  
  22366648.92249 117537533.50049     -4207.84849        50.000  
 16 04 02 12 42 24.5000000  0  4G29G26G04G23                                    
  22224666.60949 116791410.24649     13461.21949        50.000  
  21534431.78149 113164200.17649    -17971.64849        49.000  
  21416402.18849 112543951.18449    -12792.32049        49.000  
  22366729.05549 117537954.62149     -4214.29349        50.000  
 16 04 02 12 42 24.6000000  0  4G29G26G04G23                                    
  22224410.47749 116790064.29749     13457.86349        50.000  
  21534773.82049 113165997.59449    -17976.26249        49.000  
  21416645.66449 112545230.66849    -12797.06649        49.000  
  22366809.31249 117538376.37149     -4220.63349        50.000  
 16 04 02 12 42 24.7000000  0  4G29G26G04G23                                    
  22224154.39849 116788718.58249     13455.65249        50.000  
  21535115.92249 113167795.36749    -17979.71549        49.000  
  21416889.21949 112546510.56649    -12800.98849        49.000  
  22366889.66449 117538798.64149     -4225.58249        50.000  
 16 04 02 12 42 24.8000000  0  4G29G26G04G23                                    
  22223898.36749 116787373.11749     13453.31649        50.000  
  21535458.10949 113169593.53549    -17983.44549        49.000  
  21417132.85249 112547790.85949    -12804.94949        49.000  
  22366970.12549 117539221.45749     -4230.98049        50.000  
 16 04 02 12 42 24.9000000  0  4G29G26G04G23                                    
  22223642.38349 116786027.95349     13450.24249        50.000  
  21535800.35949 113171392.10949    -17987.68849        49.000  
  21417376.57049 112549071.59049    -12809.39549        49.000  
  22367050.69549 117539644.84849     -4236.85549        50.000  
 16 04 02 12 42 25.0000000  0  4G29G26G04G23                                    
  22223386.47749 116784683.13749     13446.62149        50.000  
  21536142.71949 113173191.17249    -17992.69949        49.000  
  21417620.39149 112550352.85249    -12814.74249        49.000  
  22367131.39149 117540068.89549     -4243.49249        50.000  
 16 04 02 12 42 25.1000000  0  4G29G26G04G23                                    
  22223130.62549 116783338.61349     13443.82849        50.000  
  21536485.14849 113174990.64849    -17996.79349        49.000  
  21417864.28949 112551634.54349    -12819.10949        49.000  
  22367212.18849 117540493.50849     -4249.05949        50.000  
 16 04 02 12 42 25.2000000  0  4G29G26G04G23                                    
  22222874.82049 116781994.34849     13441.05949        50.000  
  21536827.65649 113176790.52049    -18000.86749        49.000  
  21418108.26649 112552916.64849    -12823.29349        49.000  
  22367293.09449 117540918.68049     -4254.82849        50.000  
 16 04 02 12 42 25.3000000  0  4G29G26G04G23                                    
  22222619.07049 116780650.37149     13438.49249        50.000  
  21537170.23449 113178590.80149    -18004.73049        49.000  
  21418352.32849 112554199.20349    -12827.55549        49.000  
  22367374.11749 117541344.43049     -4260.27049        50.000  
 16 04 02 12 42 25.4000000  0  4G29G26G04G23                                    
  22222363.38349 116779306.71549     13435.08249        50.000  
  21537512.91449 113180391.52749    -18009.35949        49.000  
  21418596.47749 112555482.21949    -12832.28949        49.000  
  22367455.25049 117541770.78149     -4266.48449        50.000  
 16 04 02 12 42 25.5000000  0  4G29G26G04G23                                    
  22222107.74249 116777963.33249     13432.21949        50.000  
  21537855.65649 113182192.65249    -18013.32849        49.000  
  21418840.70349 112556765.67249    -12836.74249        49.000  
  22367536.48449 117542197.69949     -4272.31649        50.000  
 16 04 02 12 42 25.6000000  0  4G29G26G04G23                                    
  22221852.16449 116776620.25049     13429.35949        50.000  
  21538198.48449 113183994.20749    -18017.48849        49.000  
  21419085.02349 112558049.57849    -12841.16049        49.000  
  22367617.84449 117542625.20749     -4278.04349        50.000  
 16 04 02 12 42 25.7000000  0  4G29G26G04G23                                    
  22221596.63349 116775277.43449     13426.69149        50.000  
  21538541.38349 113185796.16449    -18021.55949        49.000  
  21419329.42249 112559333.90249    -12845.37549        49.000  
  22367699.29749 117543053.27049     -4283.61349        50.000  
 16 04 02 12 42 25.8000000  0  4G29G26G04G23                                    
  22221341.15649 116773934.89149     13424.07849        50.000  
  21538884.35949 113187598.51649    -18025.43449        49.000  
  21419573.90649 112560618.66449    -12849.68049        49.000  
  22367780.86749 117543481.90249     -4289.14549        50.000  
 16 04 02 12 42 25.9000000  0  4G29G26G04G23                                    
  22221085.73449 116772592.64849     13420.81649        50.000  
  21539227.42249 113189401.30149    -18029.95349        49.000  
  21419818.47749 112561903.87549    -12854.31249        49.000  
  22367862.54749 117543911.12149     -4295.23049        50.000  
 16 04 02 12 42 26.0000000  0  4G29G26G04G23                                    
  22220830.38349 116771250.76249     13417.37549        50.000  
  21539570.57049 113191204.55549    -18034.56249        49.000  
  21420063.14149 112563189.58649    -12859.28949        49.000  
  22367944.34449 117544340.97749     -4301.51249        50.000  
 16 04 02 12 42 26.1000000  0  4G29G26G04G23                                    
  22220575.07849 116769909.11749     13414.90249        50.000  
  21539913.78949 113193008.18449    -18038.41849        49.000  
  21420307.87549 112564475.70349    -12863.39149        49.000  
  22368026.24249 117544771.37949     -4307.06649        50.000  
 16 04 02 12 42 26.2000000  0  4G29G26G04G23                                    
  22220319.82049 116768567.73449     13412.42649        50.000  
  21540257.08649 113194812.20749    -18042.16049        49.000  
  21420552.69549 112565762.23449    -12867.37549        49.000  
  22368108.25049 117545202.32449     -4312.39849        50.000  
 16 04 02 12 42 26.3000000  0  4G29G26G04G23                                    
  22220064.61749 116767226.63749     13409.48849        50.000  
  21540600.45349 113196616.63749    -18046.35249        49.000  
  21420797.60249 112567049.19949    -12871.80549        49.000  
  22368190.36749 117545633.83649     -4318.12149        50.000  
 16 04 02 12 42 26.4000000  0  4G29G26G04G23                                    
  22219809.48449 116765885.89149     13406.08249        50.000  
  21540943.92249 113198421.54749    -18051.01249        49.000  
  21421042.59449 112568336.66849    -12876.72349        49.000  
  22368272.60249 117546065.99649     -4324.41449        50.000  
 16 04 02 12 42 26.5000000  0  4G29G26G04G23                                    
  22219554.38349 116764545.38349     13403.62949        50.000  
  21541287.45349 113200226.81649    -18054.62949        49.000  
  21421287.66449 112569624.53149    -12880.65649        49.000  
  22368354.93849 117546498.69149     -4329.83649        50.000  
 16 04 02 12 42 26.6000000  0  4G29G26G04G23                                    
  22219299.35249 116763205.15649     13400.84049        50.000  
  21541631.06249 113202032.50049    -18058.76249        49.000  
  21421532.82049 112570912.83249    -12885.03149        49.000  
  22368437.38349 117546931.94549     -4335.43049        50.000  
 16 04 02 12 42 26.7000000  0  4G29G26G04G23                                    
  22219044.38349 116761865.28149     13397.09449        50.000  
  21541974.76649 113203838.66049    -18063.69149        49.000  
  21421778.07849 112572201.64549    -12890.43049        49.000  
  22368519.95349 117547365.84849     -4342.12949        50.000  
 16 04 02 12 42 26.8000000  0  4G29G26G04G23                                    
  22218789.46949 116760525.68849     13394.44949        50.000  
  21542318.54749 113205645.22749    -18067.66449        49.000  
  21422023.40649 112573490.88349    -12894.51649        49.000  
  22368602.63349 117547800.31649     -4347.61749        50.000  
 16 04 02 12 42 26.9000000  0  4G29G26G04G23                                    
  22218534.60949 116759186.37149     13391.78549        50.000  
  21542662.39849 113207452.19949    -18071.64549        49.000  
  21422268.82849 112574780.55149    -12898.68049        49.000  
  22368685.41449 117548235.35549     -4353.21949        50.000  
 16 04 02 12 42 27.0000000  0  4G29G26G04G23                                    
  22218279.80549 116757847.36749     13388.52349        50.000  
  21543006.33649 113209259.60949    -18076.10949        49.000  
  21422514.32849 112576070.68049    -12903.46149        49.000  
  22368768.31249 117548670.98849     -4359.39849        50.000  
 16 04 02 12 42 27.1000000  0  4G29G26G04G23                                    
  22218025.05549 116756508.66449     13385.59049        50.000  
  21543350.35949 113211067.44549    -18080.30149        49.000  
  21422759.93049 112577361.28549    -12908.11749        49.000  
  22368851.32049 117549107.21549     -4365.17249        50.000  
 16 04 02 12 42 27.2000000  0  4G29G26G04G23                                    
  22217770.35949 116755170.23449     13382.87549        50.000  
  21543694.45349 113212875.68849    -18084.44549        49.000  
  21423005.59449 112578652.29349    -12912.24649        49.000  
  22368934.43849 117549544.00849     -4370.80149        50.000  
 16 04 02 12 42 27.3000000  0  4G29G26G04G23                                    
  22217515.72749 116753832.11349     13379.80149        50.000  
  21544038.62549 113214684.35249    -18088.59449        49.000  
  21423251.35949 112579943.77749    -12916.92649        49.000  
  22369017.67249 117549981.39549     -4376.77349        50.000  
 16 04 02 12 42 27.4000000  0  4G29G26G04G23                                    
  22217261.14849 116752494.28549     13376.71949        50.000  
  21544382.88349 113216493.45349    -18093.06649        49.000  
  21423497.20349 112581235.70349    -12921.49649        49.000  
  22369101.01649 117550419.36749     -4382.77049        50.000  
 16 04 02 12 42 27.5000000  0  4G29G26G04G23                                    
  22217006.63349 116751156.78149     13373.58249        50.000  
  21544727.22749 113218302.98049    -18097.29749        49.000  
  21423743.13349 112582528.09849    -12926.07449        49.000  
  22369184.47749 117550857.94149     -4388.78949        50.000  
 16 04 02 12 42 27.6000000  0  4G29G26G04G23                                    
  22216752.17249 116749819.57449     13370.69549        50.000  
  21545071.65649 113220112.96149    -18101.66449        49.000  
  21423989.15649 112583820.95349    -12930.59849        49.000  
  22369268.04749 117551297.12149     -4394.62949        50.000  
 16 04 02 12 42 27.7000000  0  4G29G26G04G23                                    
  22216497.77349 116748482.67649     13367.50049        50.000  
  21545416.16449 113221923.35249    -18106.06649        49.000  
  21424235.26649 112585114.26649    -12935.34049        49.000  
  22369351.72749 117551736.87949     -4400.69549        50.000  
 16 04 02 12 42 27.8000000  0  4G29G26G04G23                                    
  22216243.42249 116747146.06249     13364.52049        50.000  
  21545760.75049 113223734.16049    -18110.22749        49.000  
  21424481.46149 112586408.02049    -12939.77349        49.000  
  22369435.52349 117552177.21949     -4406.46149        50.000  
 16 04 02 12 42 27.9000000  0  4G29G26G04G23                                    
  22215989.14149 116745809.78149     13361.44149        50.000  
  21546105.42249 113225545.42649    -18114.59849        49.000  
  21424727.74249 112587702.23849    -12944.25049        49.000  
  22369519.43849 117552618.17649     -4412.42249        50.000  
 16 04 02 12 42 28.0000000  0  4G29G26G04G23                                    
  22215734.89849 116744473.75849     13358.78149        50.000  
  21546450.16449 113227357.07849    -18118.52749        49.000  
  21424974.10249 112588996.90249    -12948.69149        49.000  
  22369603.45349 117553059.68049     -4417.90649        50.000  
 16 04 02 12 42 28.1000000  0  4G29G26G04G23                                    
  22215480.71949 116743138.03149     13355.82049        50.000  
  21546794.99249 113229169.14849    -18122.65249        49.000  
  21425220.54749 112590291.99249    -12952.97749        49.000  
  22369687.57849 117553501.77349     -4423.85249        50.000  
 16 04 02 12 42 28.2000000  0  4G29G26G04G23                                    
  22215226.58649 116741802.55149     13353.42249        50.000  
  21547139.88349 113230981.59849    -18126.41849        49.000  
  21425467.07049 112591587.48849    -12957.04749        49.000  
  22369771.80549 117553944.40249     -4429.13749        50.000  
 16 04 02 12 42 28.3000000  0  4G29G26G04G23                                    
  22214972.50049 116740467.33649     13350.77049        50.000  
  21547484.85249 113232794.42649    -18130.25449        49.000  
  21425713.68049 112592883.39849    -12961.14549        49.000  
  22369856.14149 117554387.57849     -4434.59449        50.000  
 16 04 02 12 42 28.4000000  0  4G29G26G04G23                                    
  22214718.47749 116739132.42649     13347.71149        50.000  
  21547829.90649 113234607.70349    -18134.71549        49.000  
  21425960.36749 112594179.77349    -12965.80149        49.000  
  22369940.58649 117554831.35549     -4440.56249        50.000  
 16 04 02 12 42 28.5000000  0  4G29G26G04G23                                    
  22214464.50849 116737797.83649     13344.52049        50.000  
  21548175.04749 113236421.40649    -18139.00049        49.000  
  21426207.14849 112595476.61349    -12970.48449        49.000  
  22370025.15649 117555275.74649     -4446.81249        50.000  
 16 04 02 12 42 28.6000000  0  4G29G26G04G23                                    
  22214210.60249 116736463.55949     13341.09849        50.000  
  21548520.27349 113238235.55149    -18143.62149        49.000  
  21426454.01649 112596773.92249    -12975.35249        49.000  
  22370109.82849 117555720.72349     -4452.98449        50.000  
 16 04 02 12 42 28.7000000  0  4G29G26G04G23                                    
  22213956.75849 116735129.61749     13337.83649        50.000  
  21548865.57849 113240050.16849    -18148.18049        49.000  
  21426700.98449 112598071.71149    -12980.10249        49.000  
  22370194.62549 117556166.33249     -4459.12549        50.000  
 16 04 02 12 42 28.8000000  0  4G29G26G04G23                                    
  22213702.96149 116733795.92249     13335.52349        50.000  
  21549210.96149 113241865.14149    -18151.76249        49.000  
  21426948.01649 112599369.90649    -12984.02749        49.000  
  22370279.52349 117556612.47349     -4464.32849        50.000  
 16 04 02 12 42 28.9000000  0  4G29G26G04G23                                    
  22213449.21949 116732462.48049     13333.03149        50.000  
  21549556.41449 113243680.50849    -18155.59849        49.000  
  21427195.13349 112600668.51249    -12988.09849        49.000  
  22370364.53149 117557059.16449     -4469.82449        50.000  
 16 04 02 12 42 29.0000000  0  4G29G26G04G23                                    
  22213195.53149 116731129.37549     13329.42649        50.000  
  21549901.95349 113245496.32849    -18160.28949        49.000  
  21427442.34449 112601967.60249    -12993.07849        49.000  
  22370449.64849 117557506.47749     -4476.20349        50.000  
 16 04 02 12 42 29.1000000  0  4G29G26G04G23                                    
  22212941.90649 116729796.54749     13326.71149        50.000  
  21550247.57049 113247312.55149    -18164.25849        49.000  
  21427689.63349 112603267.11349    -12997.24249        49.000  
  22370534.87549 117557954.34449     -4481.73049        50.000  
 16 04 02 12 42 29.2000000  0  4G29G26G04G23                                    
  22212688.33649 116728464.04749     13323.69549        50.000  
  21550593.27349 113249129.23049    -18168.65649        49.000  
  21427937.01649 112604567.11749    -13002.00849        49.000  
  22370620.22749 117558402.84449     -4487.73449        50.000  
 16 04 02 12 42 29.3000000  0  4G29G26G04G23                                    
  22212434.80549 116727131.73049     13321.64149        50.000  
  21550939.03149 113250946.21149    -18171.87149        49.000  
  21428184.46149 112605867.45749    -13005.58249        49.000  
  22370705.65649 117558851.80949     -4492.61349        50.000  
 16 04 02 12 42 29.4000000  0  4G29G26G04G23                                    
  22212181.35249 116725799.81649     13317.85249        50.000  
  21551284.89849 113252763.72349    -18176.90649        49.000  
  21428432.00849 112607168.33649    -13010.77749        49.000  
  22370791.22749 117559301.45749     -4499.30949        50.000  
 16 04 02 12 42 29.5000000  0  4G29G26G04G23                                    
  22211927.95349 116724468.16049     13315.05149        50.000  
  21551630.82849 113254581.61749    -18180.98449        49.000  
  21428679.64149 112608469.63749    -13015.06249        49.000  
  22370876.89149 117559751.66049     -4505.00849        50.000  
 16 04 02 12 42 29.6000000  0  4G29G26G04G23                                    
  22211674.60249 116723136.82049     13311.99649        50.000  
  21551976.84449 113256399.95749    -18185.32449        49.000  
  21428927.35949 112609771.39849    -13019.62549        49.000  
  22370962.68049 117560202.46949     -4510.98849        50.000  
 16 04 02 12 42 29.7000000  0  4G29G26G04G23                                    
  22211421.32049 116721805.78149     13308.91849        50.000  
  21552322.94549 113258218.72749    -18189.75049        49.000  
  21429175.16449 112611073.62549    -13024.35249        49.000  
  22371048.57049 117560653.86349     -4516.96149        50.000  
 16 04 02 12 42 29.8000000  0  4G29G26G04G23                                    
  22211168.08649 116720475.02749     13306.02749        50.000  
  21552669.12549 113260037.88749    -18193.72749        49.000  
  21429423.04749 112612376.27349    -13028.55949        49.000  
  22371134.57849 117561105.82049     -4522.59849        50.000  
 16 04 02 12 42 29.9000000  0  4G29G26G04G23                                    
  22210914.90649 116719144.61349     13302.71149        50.000  
  21553015.39149 113261857.52049    -18198.25849        49.000  
  21429671.03149 112613679.42649    -13033.53949        49.000  
  22371220.70349 117561558.41849     -4528.84449        50.000  
 16 04 02 12 42 30.0000000  0  4G29G26G04G23                                    
  22210661.78149 116717814.44549     13300.31249        50.000  
  21553361.73449 113263677.53549    -18202.15649        49.000  
  21429919.08649 112614982.97349    -13037.54749        49.000  
  22371306.93049 117562011.55149     -4534.14849        50.000  
 16 04 02 12 42 30.1000000  0  4G29G26G04G23                                    
  22210408.72749 116716484.61349     13296.81249        50.000  
  21553708.15649 113265497.99649    -18206.71149        49.000  
  21430167.24249 112616287.00049    -13042.41849        49.000  
  22371393.28149 117562465.30149     -4540.46549        50.000  
 16 04 02 12 42 30.2000000  0  4G29G26G04G23                                    
  22210155.71949 116715155.05549     13294.02749        50.000  
  21554054.65649 113267318.84849    -18210.48049        49.000  
  21430415.46949 112617591.45749    -13046.71949        49.000  
  22371479.73449 117562919.61749     -4546.10949        50.000  
 16 04 02 12 42 30.3000000  0  4G29G26G04G23                                    
  22209902.75049 116713825.69949     13292.19149        50.000  
  21554401.21949 113269140.05549    -18213.95749        49.000  
  21430663.76649 112618896.27349    -13050.11749        49.000  
  22371566.28149 117563374.42649     -4550.85549        50.000  
 16 04 02 12 42 30.4000000  0  4G29G26G04G23                                    
  22209649.84449 116712496.68049     13288.75449        50.000  
  21554747.87549 113270961.70749    -18218.55149        49.000  
  21430912.15649 112620201.57449    -13055.06649        49.000  
  22371652.94549 117563829.85549     -4557.24249        50.000  
 16 04 02 12 42 30.5000000  0  4G29G26G04G23                                    
  22209397.01649 116711168.02749     13285.02049        50.000  
  21555094.60949 113272783.84449    -18223.41449        49.000  
  21431160.64849 112621507.39549    -13060.40249        49.000  
  22371739.73449 117564285.94549     -4563.87949        50.000  
 16 04 02 12 42 30.6000000  0  4G29G26G04G23                                    
  22209144.22749 116709839.64549     13282.30149        50.000  
  21555441.43849 113274606.37949    -18227.43049        49.000  
  21431409.21949 112622813.62949    -13064.65249        49.000  
  22371826.63349 117564742.57849     -4569.36749        50.000  
 16 04 02 12 42 30.7000000  0  4G29G26G04G23                                    
  22208891.49249 116708511.51649     13279.92249        50.000  
  21555788.32049 113276429.29749    -18231.13749        49.000  
  21431657.86749 112624120.27749    -13068.44149        49.000  
  22371913.63349 117565199.77049     -4574.75049        50.000  
 16 04 02 12 42 30.8000000  0  4G29G26G04G23                                    
  22208638.82049 116707183.72749     13276.43449        50.000  
  21556135.29749 113278252.66449    -18235.66849        49.000  
  21431906.60949 112625427.40249    -13073.34849        49.000  
  22372000.75049 117565657.58249     -4581.14549        50.000  
 16 04 02 12 42 30.9000000  0  4G29G26G04G23                                    
  22208386.20349 116705856.21149     13273.73849        50.000  
  21556482.35249 113280076.44549    -18239.69149        49.000  
  21432155.43049 112626734.97749    -13077.79749        49.000  
  22372087.97749 117566115.94949     -4586.55949        50.000  
 16 04 02 12 42 31.0000000  0  4G29G26G04G23                                    
  22208133.64849 116704529.02049     13270.46149        50.000  
  21556829.49249 113281900.66449    -18244.14549        49.000  
  21432404.33649 112628042.99649    -13082.37549        49.000  
  22372175.31249 117566574.93049     -4592.71149        50.000  
 16 04 02 12 42 31.1000000  0  4G29G26G04G23                                    
  22207881.14849 116703202.10949     13267.47349        50.000  
  21557176.71149 113283725.29749    -18248.49649        49.000  
  21432653.33649 112629351.46949    -13086.95349        49.000  
  22372262.76649 117567034.48849     -4598.66049        50.000  
 16 04 02 12 42 31.2000000  0  4G29G26G04G23                                    
  22207628.69549 116701875.46149     13265.09049        50.000  
  21557523.99249 113285550.30949    -18252.10949        49.000  
  21432902.40649 112630660.35549    -13090.90649        49.000  
  22372350.32049 117567494.59449     -4603.94149        50.000  
 16 04 02 12 42 31.3000000  0  4G29G26G04G23                                    
  22207376.28949 116700549.10249     13261.94949        50.000  
  21557871.35949 113287375.73849    -18256.43049        49.000  
  21433151.56249 112631969.66849    -13095.43449        49.000  
  22372437.99249 117567955.27049     -4609.88749        50.000  
 16 04 02 12 42 31.4000000  0  4G29G26G04G23                                    
  22207123.96149 116699223.10949     13258.53149        50.000  
  21558218.82049 113289201.64549    -18261.03549        49.000  
  21433400.82049 112633279.50049    -13100.29349        49.000  
  22372525.78149 117568416.60549     -4616.17649        50.000  
 16 04 02 12 42 31.5000000  0  4G29G26G04G23                                    
  22206871.68849 116697897.39549     13255.64149        50.000  
  21558566.35949 113291027.96549    -18265.18049        49.000  
  21433650.15649 112634589.77749    -13104.89149        49.000  
  22372613.68049 117568878.50849     -4622.04749        50.000  
 16 04 02 12 42 31.6000000  0  4G29G26G04G23                                    
  22206619.46949 116696571.96949     13252.80149        50.000  
  21558913.97749 113292854.69549    -18269.27049        49.000  
  21433899.57049 112635900.47349    -13109.12949        49.000  
  22372701.68049 117569340.98049     -4627.66449        50.000  
 16 04 02 12 42 31.7000000  0  4G29G26G04G23                                    
  22206367.29749 116695246.81249     13250.04349        50.000  
  21559261.66449 113294681.81249    -18273.24249        49.000  
  21434149.07049 112637211.59849    -13113.40649        49.000  
  22372789.79749 117569804.00849     -4633.26249        50.000  
 16 04 02 12 42 31.8000000  0  4G29G26G04G23                                    
  22206115.18849 116693921.96949     13246.82849        50.000  
  21559609.43849 113296509.37549    -18277.72349        49.000  
  21434398.65649 112638523.19549    -13118.21549        49.000  
  22372878.02349 117570267.64149     -4639.40649        50.000  
 16 04 02 12 42 31.9000000  0  4G29G26G04G23                                    
  22205863.13349 116692597.42649     13243.77749        50.000  
  21559957.28949 113298337.35549    -18281.93849        49.000  
  21434648.32849 112639835.22749    -13122.56649        49.000  
  22372966.35949 117570731.86749     -4645.37149        50.000  
 16 04 02 12 42 32.0000000  0  4G29G26G04G23                                    
  22205611.12549 116691273.14849     13241.30149        50.000  
  21560305.21149 113300165.72749    -18285.76649        49.000  
  21434898.08649 112641147.68449    -13126.62149        49.000  
  22373054.80549 117571196.63749     -4650.56249        50.000  
 16 04 02 12 42 32.1000000  0  4G29G26G04G23                                    
  22205359.18049 116689949.16449     13238.27049        50.000  
  21560653.21949 113301994.50849    -18289.89849        49.000  
  21435147.92249 112642460.58649    -13131.14849        49.000  
  22373143.35949 117571661.98849     -4656.57449        50.000  
 16 04 02 12 42 32.2000000  0  4G29G26G04G23                                    
  22205107.30549 116688625.55549     13234.51649        50.000  
  21561001.32049 113303823.79349    -18294.90649        49.000  
  21435397.85249 112643774.01249    -13136.44949        49.000  
  22373232.03949 117572128.00849     -4663.18849        50.000  
 16 04 02 12 42 32.3000000  0  4G29G26G04G23                                    
  22204855.46949 116687302.18449     13232.28949        50.000  
  21561349.49249 113305653.44149    -18298.46949        49.000  
  21435647.86749 112645087.82049    -13140.20749        49.000  
  22373320.82049 117572594.54749     -4668.27749        50.000  
 16 04 02 12 42 32.4000000  0  4G29G26G04G23                                    
  22204603.68849 116685979.07849     13229.48849        50.000  
  21561697.73449 113307483.47349    -18302.36749        49.000  
  21435897.96149 112646402.05949    -13144.57049        49.000  
  22373409.70349 117573061.63749     -4673.92649        50.000  
 16 04 02 12 42 32.5000000  0  4G29G26G04G23                                    
  22204351.96149 116684656.27749     13226.44149        50.000  
  21562046.05549 113309313.93049    -18306.58649        49.000  
  21436148.12549 112647716.73449    -13148.94549        49.000  
  22373498.70349 117573529.33249     -4679.85949        50.000  
 16 04 02 12 42 32.6000000  0  4G29G26G04G23                                    
  22204100.29749 116683333.75049     13223.86749        50.000  
  21562394.45349 113311144.79749    -18310.55549        49.000  
  21436398.38349 112649031.84849    -13153.15249        49.000  
  22373587.81249 117573997.57849     -4685.29749        50.000  
 16 04 02 12 42 32.7000000  0  4G29G26G04G23                                    
  22203848.68049 116682011.49649     13221.28949        50.000  
  21562742.93049 113312976.05149    -18314.43849        49.000  
  21436648.71949 112650347.38349    -13157.43849        49.000  
  22373677.02349 117574466.38349     -4690.84849        50.000  
 16 04 02 12 42 32.8000000  0  4G29G26G04G23                                    
  22203597.11749 116680689.53149     13218.17249        50.000  
  21563091.49249 113314807.70749    -18318.55549        49.000  
  21436899.14149 112651663.35249    -13161.80149        49.000  
  22373766.34449 117574935.77049     -4696.76649        50.000  
 16 04 02 12 42 32.9000000  0  4G29G26G04G23                                    
  22203345.63349 116679367.95349     13214.29749        50.000  
  21563440.14849 113316639.88749    -18323.72749        49.000  
  21437149.66449 112652979.85949    -13167.24649        49.000  
  22373855.78949 117575405.82849     -4703.52749        50.000  
 16 04 02 12 42 33.0000000  0  4G29G26G04G23                                    
  22203094.18849 116678046.62149     13211.58249        50.000  
  21563788.86749 113318472.42649    -18327.64149        49.000  
  21437400.26649 112654296.76249    -13171.44549        49.000  
  22373945.34449 117575876.41449     -4709.01649        50.000  
 16 04 02 12 42 33.1000000  0  4G29G26G04G23                                    
  22202842.80549 116676725.60249     13208.82849        50.000  
  21564137.66449 113320305.40649    -18331.71549        49.000  
  21437650.95349 112655614.11749    -13175.54349        49.000  
  22374035.00849 117576347.60549     -4714.73049        50.000  
 16 04 02 12 42 33.2000000  0  4G29G26G04G23                                    
  22202591.46949 116675404.79749     13206.64549        50.000  
  21564486.53149 113322138.71949    -18335.07049        49.000  
  21437901.71149 112656931.85949    -13179.40649        49.000  
  22374124.76649 117576819.30549     -4719.89549        50.000  
 16 04 02 12 42 33.3000000  0  4G29G26G04G23                                    
  22202340.18849 116674084.34849     13203.10249        50.000  
  21564835.49249 113323972.51649    -18339.90249        49.000  
  21438152.56249 112658250.09449    -13184.37949        49.000  
  22374214.65649 117577291.63349     -4726.20749        50.000  
 16 04 02 12 42 33.4000000  0  4G29G26G04G23                                    
  22202088.97749 116672764.21549     13199.89849        50.000  
  21565184.53149 113325806.73849    -18344.16449        49.000  
  21438403.50049 112659568.78549    -13188.84449        49.000  
  22374304.64849 117577764.56249     -4732.18849        50.000  
 16 04 02 12 42 33.5000000  0  4G29G26G04G23                                    
  22201837.81249 116671444.34049     13197.25849        50.000  
  21565533.64849 113327641.35249    -18348.10949        49.000  
  21438654.51649 112660887.89849    -13193.18449        49.000  
  22374394.75049 117578238.05549     -4737.82449        50.000  
 16 04 02 12 42 33.6000000  0  4G29G26G04G23                                    
  22201586.70349 116670124.73449     13194.72749        50.000  
  21565882.84449 113329476.35549    -18351.91049        49.000  
  21438905.61749 112662207.42649    -13197.28549        49.000  
  22374484.95349 117578712.09049     -4743.23449        50.000  
 16 04 02 12 42 33.7000000  0  4G29G26G04G23                                    
  22201335.65649 116668805.46549     13191.15249        50.000  
  21566232.11749 113331311.81249    -18356.52749        49.000  
  21439156.80549 112663527.44549    -13202.35949        49.000  
  22374575.28149 117579186.74249     -4749.51249        50.000  
 16 04 02 12 42 33.8000000  0  4G29G26G04G23                                    
  22201084.65649 116667486.48449     13188.22349        50.000  
  21566581.47749 113333147.69149    -18360.85549        49.000  
  21439408.07849 112664847.89149    -13206.63749        49.000  
  22374665.71949 117579661.98449     -4755.42649        50.000  
 16 04 02 12 42 33.9000000  0  4G29G26G04G23                                    
  22200833.72749 116666167.82049     13185.13749        50.000  
  21566930.91449 113334983.99249    -18365.00049        49.000  
  21439659.44549 112666168.80549    -13211.24249        49.000  
  22374756.26649 117580137.82449     -4761.35249        50.000  
 16 04 02 12 42 34.0000000  0  4G29G26G04G23                                    
  22200582.84449 116664849.43049     13182.29349        50.000  
  21567280.43049 113336820.71149    -18369.29349        49.000  
  21439910.89149 112667490.16049    -13215.79749        49.000  
  22374846.92249 117580614.22749     -4767.13749        50.000  
 16 04 02 12 42 34.1000000  0  4G29G26G04G23                                    
  22200332.00849 116663531.29349     13179.79749        50.000  
  21567630.00849 113338657.77349    -18372.71549        49.000  
  21440162.40649 112668811.89549    -13219.60549        49.000  
  22374937.68049 117581091.16449     -4772.37949        50.000  
 16 04 02 12 42 34.2000000  0  4G29G26G04G23                                    
  22200081.24249 116662213.46949     13176.79349        50.000  
  21567979.68049 113340495.29749    -18377.09849        49.000  
  21440414.01649 112670134.10249    -13224.10949        49.000  
  22375028.55549 117581568.70749     -4778.30549        50.000  
 16 04 02 12 42 34.3000000  0  4G29G26G04G23                                    
  22199830.53149 116660896.00849     13173.09849        50.000  
  21568329.43849 113342333.29749    -18382.08249        49.000  
  21440665.71949 112671456.82449    -13229.36349        49.000  
  22375119.54749 117582046.89849     -4784.79749        50.000  
 16 04 02 12 42 34.4000000  0  4G29G26G04G23                                    
  22199579.87549 116659578.78149     13170.65649        50.000  
  21568679.26649 113344171.65249    -18385.62949        49.000  
  21440917.49249 112672779.92249    -13233.19549        49.000  
  22375210.64849 117582525.60949     -4790.15649        50.000  
 16 04 02 12 42 34.5000000  0  4G29G26G04G23                                    
  22199329.25849 116658261.81649     13168.09049        50.000  
  21569029.17249 113346010.39149    -18389.39849        49.000  
  21441169.35249 112674103.43049    -13237.15649        49.000  
  22375301.84449 117583004.86349     -4795.48449        50.000  
 16 04 02 12 42 34.6000000  0  4G29G26G04G23                                    
  22199078.71149 116656945.16049     13165.18049        50.000  
  21569379.14849 113347849.56249    -18393.63349        49.000  
  21441421.29749 112675427.40649    -13241.79349        49.000  
  22375393.15649 117583484.71949     -4801.45349        50.000  
 16 04 02 12 42 34.7000000  0  4G29G26G04G23                                    
  22198828.21149 116655628.79349     13162.26649        50.000  
  21569729.21149 113349689.14149    -18397.76249        49.000  
  21441673.32049 112676751.81649    -13246.14549        49.000  
  22375484.57849 117583965.14849     -4807.21149        50.000  
 16 04 02 12 42 34.8000000  0  4G29G26G04G23                                    
  22198577.76649 116654312.69549     13159.36349        50.000  
  21570079.35249 113351529.10949    -18401.80949        49.000  
  21441925.42249 112678076.63349    -13250.30149        49.000  
  22375576.10949 117584446.13349     -4812.89849        50.000  
 16 04 02 12 42 34.9000000  0  4G29G26G04G23                                    
  22198327.38349 116652996.91849     13156.37949        50.000  
  21570429.57049 113353369.51649    -18406.06649        49.000  
  21442177.61749 112679401.93049    -13255.03549        49.000  
  22375667.75849 117584927.72749     -4818.81249        50.000  
 16 04 02 12 42 35.0000000  0  4G29G26G04G23                                    
  22198077.05549 116651681.41049     13153.52749        50.000  
  21570779.86749 113355210.32449    -18410.12149        49.000  
  21442429.89149 112680727.64849    -13259.31649        49.000  
  22375759.50849 117585409.87149     -4824.37949        50.000  
 16 04 02 12 42 35.1000000  0  4G29G26G04G23                                    
  22197826.77349 116650366.19949     13150.63749        50.000  
  21571130.23449 113357051.54349    -18414.11349        49.000  
  21442682.25049 112682053.81249    -13263.70749        49.000  
  22375851.36749 117585892.61349     -4830.32449        50.000  
 16 04 02 12 42 35.2000000  0  4G29G26G04G23                                    
  22197576.55549 116649051.29349     13147.53549        50.000  
  21571480.68849 113358893.18449    -18418.47349        49.000  
  21442934.69549 112683380.42249    -13268.28549        49.000  
  22375943.33649 117586375.92249     -4836.12549        50.000  
 16 04 02 12 42 35.3000000  0  4G29G26G04G23                                    
  22197326.39849 116647736.70349     13144.31649        50.000  
  21571831.22749 113360735.27349    -18422.99649        49.000  
  21443187.22749 112684707.50849    -13273.10949        49.000  
  22376035.43049 117586859.85949     -4842.39549        50.000  
 16 04 02 12 42 35.4000000  0  4G29G26G04G23                                    
  22197076.29749 116646422.43049     13141.34849        50.000  
  21572181.84449 113362577.78549    -18427.07449        49.000  
  21443439.85249 112686035.04349    -13277.44549        49.000  
  22376127.63349 117587344.37549     -4848.08249        50.000  
 16 04 02 12 42 35.5000000  0  4G29G26G04G23                                    
  22196826.24249 116645108.40649     13138.76249        50.000  
  21572532.53949 113364420.68049    -18430.88749        49.000  
  21443692.54749 112687362.98849    -13281.57849        49.000  
  22376219.93849 117587829.44149     -4853.60949        50.000  
 16 04 02 12 42 35.6000000  0  4G29G26G04G23                                    
  22196576.25849 116643794.72749     13135.25049        50.000  
  21572883.31249 113366264.02349    -18435.39849        49.000  
  21443945.34449 112688691.42249    -13286.50049        49.000  
  22376312.35949 117588315.13349     -4859.92649        50.000  
 16 04 02 12 42 35.7000000  0  4G29G26G04G23                                    
  22196326.32049 116642481.29749     13132.79749        50.000  
  21573234.16449 113368107.76649    -18439.29749        49.000  
  21444198.21149 112690020.25849    -13290.52349        49.000  
  22376404.88349 117588801.36749     -4865.28149        50.000  
 16 04 02 12 42 35.8000000  0  4G29G26G04G23                                    
  22196076.43049 116641168.12549     13130.34849        50.000  
  21573585.08649 113369951.85549    -18442.79349        49.000  
  21444451.15649 112691349.48449    -13294.33249        49.000  
  22376497.50849 117589288.12549     -4870.42649        50.000  
 16 04 02 12 42 35.9000000  0  4G29G26G04G23                                    
  22195826.60949 116639855.30149     13126.69549        50.000  
  21573936.10249 113371796.44549    -18447.87949        49.000  
  21444704.19549 112692679.23049    -13299.62149        49.000  
  22376590.26649 117589775.54749     -4877.21949        50.000  
 16 04 02 12 42 36.0000000  0  4G29G26G04G23                                    
  22195576.83649 116638542.74249     13124.12549        50.000  
  21574287.18049 113373641.39149    -18451.52049        49.000  
  21444957.31249 112694009.37149    -13303.51649        49.000  
  22376683.11749 117590263.49249     -4882.35949        50.000  
 16 04 02 12 42 36.1000000  0  4G29G26G04G23                                    
  22195327.12549 116637230.50049     13120.93449        50.000  
  21574638.34449 113375486.79349    -18456.07849        49.000  
  21445210.52349 112695339.98849    -13308.32049        49.000  
  22376776.08649 117590752.06649     -4888.77749        50.000  
 16 04 02 12 42 36.2000000  0  4G29G26G04G23                                    
  22195077.47749 116635918.58249     13117.59849        50.000  
  21574989.59449 113377332.63749    -18460.54749        49.000  
  21445463.81249 112696671.06649    -13313.00049        49.000  
  22376869.17249 117591241.22749     -4894.70749        50.000  
 16 04 02 12 42 36.3000000  0  4G29G26G04G23                                    
  22194827.87549 116634606.91049     13115.32049        50.000  
  21575340.91449 113379178.83249    -18463.89549        49.000  
  21445717.18849 112698002.54749    -13316.83249        49.000  
  22376962.35949 117591730.93049     -4899.85949        50.000  
 16 04 02 12 42 36.4000000  0  4G29G26G04G23                                    
  22194578.32849 116633295.54749     13112.27049        50.000  
  21575692.31249 113381025.47349    -18468.28949        49.000  
  21445970.64849 112699334.48849    -13321.39849        49.000  
  22377055.66449 117592221.23449     -4905.87149        50.000  
 16 04 02 12 42 36.5000000  0  4G29G26G04G23                                    
  22194328.85249 116631984.52049     13108.78549        50.000  
  21576043.80549 113382872.56649    -18472.91049        49.000  
  21446224.20349 112700666.90249    -13326.25049        49.000  
  22377149.07849 117592712.14149     -4911.99649        50.000  
 16 04 02 12 42 36.6000000  0  4G29G26G04G23                                    
  22194079.41449 116630673.73849     13106.12549        50.000  
  21576395.36749 113384720.02349    -18476.65249        49.000  
  21446477.82849 112701999.71949    -13330.34049        49.000  
  22377242.59449 117593203.59849     -4917.61349        50.000  
 16 04 02 12 42 36.7000000  0  4G29G26G04G23                                    
  22193830.06249 116629363.32849     13102.58649        50.000  
  21576747.01649 113386567.96949    -18481.44949        49.000  
  21446731.55549 112703333.05149    -13335.42249        49.000  
  22377336.24249 117593695.70749     -4924.05949        50.000  
 16 04 02 12 42 36.8000000  0  4G29G26G04G23                                    
  22193580.74249 116628053.18049     13099.99649        50.000  
  21577098.74249 113388416.29749    -18485.30549        49.000  
  21446985.35949 112704666.79349    -13339.57849        49.000  
  22377429.99249 117594188.35949     -4929.54349        50.000  
 16 04 02 12 42 36.9000000  0  4G29G26G04G23                                    
  22193331.48449 116626743.28949     13097.43449        50.000  
  21577450.53949 113390265.00449    -18489.11349        49.000  
  21447239.23449 112706000.94549    -13343.60249        49.000  
  22377523.84449 117594681.55949     -4934.94949        50.000  
 16 04 02 12 42 37.0000000  0  4G29G26G04G23                                    
  22193082.28149 116625433.71149     13094.42249        50.000  
  21577802.42249 113392114.15249    -18493.28949        49.000  
  21447493.20349 112707335.55949    -13348.15649        49.000  
  22377617.81249 117595175.35549     -4940.76649        50.000  
 16 04 02 12 42 37.1000000  0  4G29G26G04G23                                    
  22192833.10949 116624124.33649     13092.48049        50.000  
  21578154.36749 113393963.60949    -18496.36349        49.000  
  21447747.24249 112708670.50449    -13351.48449        49.000  
  22377711.86749 117595669.63749     -4945.52749        50.000  
 16 04 02 12 42 37.2000000  0  4G29G26G04G23                                    
  22192584.00849 116622815.27349     13089.22349        50.000  
  21578506.39149 113395813.50449    -18500.80949        49.000  
  21448001.35949 112710005.93049    -13356.21949        49.000  
  22377806.03949 117596164.51649     -4951.61749        50.000  
 16 04 02 12 42 37.3000000  0  4G29G26G04G23                                    
  22192334.96149 116621506.53149     13085.87149        50.000  
  21578858.49249 113397663.84449    -18505.43449        49.000  
  21448255.57049 112711341.81249    -13360.99649        49.000  
  22377900.32849 117596660.00849     -4957.90249        50.000  
 16 04 02 12 42 37.4000000  0  4G29G26G04G23                                    
  22192085.97749 116620198.08249     13083.01249        50.000  
  21579210.68849 113399514.59049    -18509.52749        49.000  
  21448509.86749 112712678.14149    -13365.44149        49.000  
  22377994.72749 117597156.07049     -4963.55549        50.000  
 16 04 02 12 42 37.5000000  0  4G29G26G04G23                                    
  22191837.03949 116618889.92649     13080.03149        50.000  
  21579562.95349 113401365.75449    -18513.66449        49.000  
  21448764.25049 112714014.90649    -13369.77349        49.000  
  22378089.23449 117597652.72349     -4969.51649        50.000  
 16 04 02 12 42 37.6000000  0  4G29G26G04G23                                    
  22191588.15649 116617582.05549     13077.27049        50.000  
  21579915.29749 113403217.32049    -18517.57449        49.000  
  21449018.71149 112715352.10949    -13374.06249        49.000  
  22378183.85249 117598149.94549     -4975.13749        50.000  
 16 04 02 12 42 37.7000000  0  4G29G26G04G23                                    
  22191339.34449 116616274.51249     13073.87149        50.000  
  21580267.71949 113405069.32449    -18522.09449        49.000  
  21449273.25849 112716689.77749    -13378.87549        49.000  
  22378278.58649 117598647.76249     -4981.26249        50.000  
 16 04 02 12 42 37.8000000  0  4G29G26G04G23                                    
  22191090.58649 116614967.28949     13070.77049        50.000  
  21580620.23449 113406921.77749    -18526.49249        49.000  
  21449527.90649 112718027.92649    -13383.57049        49.000  
  22378373.43849 117599146.20349     -4987.26249        50.000  
 16 04 02 12 42 37.9000000  0  4G29G26G04G23                                    
  22190841.87549 116613660.30949     13068.27749        50.000  
  21580972.81249 113408774.59849    -18530.18049        49.000  
  21449782.61749 112719366.46149    -13387.43849        49.000  
  22378468.38349 117599645.16849     -4992.60249        50.000  
 16 04 02 12 42 38.0000000  0  4G29G26G04G23                                    
  22190593.22749 116612353.65249     13064.98849        50.000  
  21581325.47749 113410627.85249    -18534.68449        49.000  
  21450037.42249 112720705.46549    -13392.24649        49.000  
  22378563.45349 117600144.74249     -4998.83249        50.000  
 16 04 02 12 42 38.1000000  0  4G29G26G04G23                                    
  22190344.63349 116611047.28949     13062.20749        50.000  
  21581678.21949 113412481.51649    -18538.59449        49.000  
  21450292.31249 112722044.89849    -13396.39849        49.000  
  22378658.62549 117600644.88749     -5004.35249        50.000  
 16 04 02 12 42 38.2000000  0  4G29G26G04G23                                    
  22190096.08649 116609741.16049     13059.98449        50.000  
  21582031.03149 113414335.55549    -18542.21549        49.000  
  21450547.27349 112723384.73449    -13400.33649        49.000  
  22378753.89849 117601145.56249     -5009.56249        50.000  
 16 04 02 12 42 38.3000000  0  4G29G26G04G23                                    
  22189847.59449 116608435.29749     13057.27049        50.000  
  21582383.91449 113416189.95749    -18545.93849        49.000  
  21450802.31249 112724724.97349    -13404.42649        49.000  
  22378849.28149 117601646.78149     -5015.02749        50.000  
 16 04 02 12 42 38.4000000  0  4G29G26G04G23                                    
  22189599.16449 116607129.82049     13053.30149        50.000  
  21582736.89149 113418044.86349    -18551.08249        49.000  
  21451057.45349 112726065.74249    -13409.80549        49.000  
  22378944.78949 117602148.68049     -5021.96149        50.000  
 16 04 02 12 42 38.5000000  0  4G29G26G04G23                                    
  22189350.78949 116605824.58249     13050.88749        50.000  
  21583089.93849 113419900.13749    -18554.82049        49.000  
  21451312.67249 112727406.89849    -13413.72749        49.000  
  22379040.39149 117602651.09449     -5027.20349        50.000  
 16 04 02 12 42 38.6000000  0  4G29G26G04G23                                    
  22189102.48449 116604519.70349     13047.37149        50.000  
  21583443.07849 113421755.87949    -18559.38749        49.000  
  21451567.97749 112728748.54749    -13418.56249        49.000  
  22379136.11749 117603154.14849     -5033.49649        50.000  
 16 04 02 12 42 38.7000000  0  4G29G26G04G23                                    
  22188854.21949 116603215.09449     13044.57049        50.000  
  21583796.28949 113423612.01649    -18563.35949        49.000  
  21451823.36749 112730090.63349    -13422.90649        49.000  
  22379231.95349 117603657.76249     -5039.06249        50.000  
 16 04 02 12 42 38.8000000  0  4G29G26G04G23                                    
  22188606.03149 116601910.83649     13041.05549        50.000  
  21584149.59449 113425468.62149    -18568.10549        49.000  
  21452078.85249 112731433.21149    -13427.92249        49.000  
  22379327.91449 117604162.02049     -5045.61349        50.000  
 16 04 02 12 42 38.9000000  0  4G29G26G04G23                                    
  22188357.89849 116600606.91049     13037.75049        50.000  
  21584502.97749 113427325.68049    -18572.51249        49.000  
  21452334.42249 112732776.26649    -13432.66449        49.000  
  22379423.98449 117604666.87549     -5051.55149        50.000  
 16 04 02 12 42 39.0000000  0  4G29G26G04G23                                    
  22188109.80549 116599303.17649     13035.77049        50.000  
  21584856.42249 113429183.05149    -18575.81249        49.000  
  21452590.06249 112734119.66049    -13436.10949        49.000  
  22379520.14849 117605172.22749     -5056.49249        50.000  
