     2.10           OBSERVATION DATA    G (GPS)             RINEX VERSION / TYPE
Convert v1.8.0                          09-Jun-2016 15:03   PGM / RUN BY / DATE 
Signal Strength values S1,S2 are in dBHz                    COMMENT             
                                                            MARKER NAME         
                                                            MARKER NUMBER       
                                                            OBSERVER / AGENCY   
                    NovAtel GPSCard                         REC # / TYPE / VERS 
                                                            ANT # / TYPE        
0.0000        0.0000        0.0000                          APPROX POSITION XYZ 
        0.0000        0.0000        0.0000                  ANTENNA: DELTA H/E/N
     1     0                                                WAVELENGTH FACT L1/2
     1     0     1   G27                                    WAVELENGTH FACT L1/2
                                                            COMMENT             
                                                            COMMENT             
                                                            COMMENT             
                                                            COMMENT             
                                                            COMMENT             
                                                            COMMENT             
     4    C1    L1    D1    S1                              # / TYPES OF OBSERV 
     0.100                                                  INTERVAL            
  2016    04    02    14    01    13.7000000    GPS         TIME OF FIRST OBS   
  2016    04    02    14    01    24.9000000    GPS         TIME OF LAST OBS    
Leap Seconds Unknown                                        COMMENT             
                                                            END OF HEADER       
 16 04 02 14 01 13.7000000  0  1G27                                             
  18185828.28949  95567172.18059      6317.25449        49.000  
 16 04 02 14 01 13.8000000  0  1G27                                             
  18185708.12549  95566540.71549      6312.68849        49.000  
 16 04 02 14 01 13.9000000  0  1G27                                             
  18185588.07049  95565909.64149      6308.75849        49.000  
 16 04 02 14 01 14.0000000  0  1G27                                             
  18185468.07049  95565279.01249      6304.43449        49.000  
 16 04 02 14 01 14.1000000  0  1G27                                             
  18185348.12549  95564648.74249      6300.81649        49.000  
 16 04 02 14 01 14.2000000  0  1G27                                             
  18185228.26649  95564018.85249      6297.15649        49.000  
 16 04 02 14 01 14.3000000  0  1G27                                             
  18185108.53949  95563389.46949      6291.83649        49.000  
 16 04 02 14 01 14.4000000  0  1G27                                             
  18184988.83649  95562760.43049      6288.39149        49.000  
 16 04 02 14 01 14.5000000  0  1G27                                             
  18184869.22749  95562131.77749      6284.69149        49.000  
 16 04 02 14 01 14.6000000  0  1G27                                             
  18184749.68849  95561503.58649      6280.03549        49.000  
 16 04 02 14 01 14.7000000  0  1G27                                             
  18184630.24249  95560875.80149      6276.02349        49.000  
 16 04 02 14 01 14.8000000  0  1G27                                             
  18184510.85949  95560248.40249      6272.08249        49.000  
 16 04 02 14 01 14.9000000  0  1G27                                             
  18184391.51649  95559621.37549      6268.39849        49.000  
 16 04 02 14 01 15.0000000  0  1G27                                             
  18184272.28149  95558994.80549      6263.98449        49.000  
 16 04 02 14 01 15.1000000  0  1G27                                             
  18184153.12549  95558368.60949      6260.04349        49.000  
 16 04 02 14 01 15.2000000  0  1G27                                             
  18184034.04749  95557742.81249      6256.01249        49.000  
 16 04 02 14 01 15.3000000  0  1G27                                             
  18183915.05549  95557117.42249      6252.07049        49.000  
 16 04 02 14 01 15.4000000  0  1G27                                             
  18183796.12549  95556492.46149      6247.77749        49.000  
 16 04 02 14 01 15.5000000  0  1G27                                             
  18183677.30549  95555867.90649      6243.46149        49.000  
 16 04 02 14 01 15.6000000  0  1G27                                             
  18183558.53149  95555243.72349      6239.91049        49.000  
 16 04 02 14 01 15.7000000  0  1G27                                             
  18183439.85949  95554619.96149      6235.75849        49.000  
 16 04 02 14 01 15.8000000  0  1G27                                             
  18183321.23449  95553996.58649      6231.88349        49.000  
 16 04 02 14 01 15.9000000  0  1G27                                             
  18183202.68849  95553373.66049      6227.45349        49.000  
 16 04 02 14 01 16.0000000  0  1G27                                             
  18183084.21949  95552751.09449      6223.72749        49.000  
 16 04 02 14 01 16.1000000  0  1G27                                             
  18182965.82849  95552128.95749      6219.50449        49.000  
 16 04 02 14 01 16.2000000  0  1G27                                             
  18182847.50849  95551507.20349      6215.58249        49.000  
 16 04 02 14 01 16.3000000  0  1G27                                             
  18182729.28149  95550885.87149      6211.43049        49.000  
 16 04 02 14 01 16.4000000  0  1G27                                             
  18182611.12549  95550264.97749      6206.91849        49.000  
 16 04 02 14 01 16.5000000  0  1G27                                             
  18182493.02349  95549644.46949      6203.20749        49.000  
 16 04 02 14 01 16.6000000  0  1G27                                             
  18182375.02349  95549024.37549      6198.98049        49.000  
 16 04 02 14 01 16.7000000  0  1G27                                             
  18182257.10949  95548404.77049      6194.19949        49.000  
 16 04 02 14 01 16.8000000  0  1G27                                             
  18182139.26649  95547785.52749      6190.48849        49.000  
 16 04 02 14 01 16.9000000  0  1G27                                             
  18182021.47749  95547166.63349      6187.02749        49.000  
 16 04 02 14 01 17.0000000  0  1G27                                             
  18181903.79749  95546548.19149      6182.56249        49.000  
 16 04 02 14 01 17.1000000  0  1G27                                             
  18181786.18849  95545930.20349      6178.07449        49.000  
 16 04 02 14 01 17.2000000  0  1G27                                             
  18181668.64849  95545312.50849      6174.98449        49.000  
 16 04 02 14 01 17.3000000  0  1G27                                             
  18181551.17249  95544695.28949      6170.30149        49.000  
 16 04 02 14 01 17.4000000  0  1G27                                             
  18181433.80549  95544078.48049      6166.24249        49.000  
 16 04 02 14 01 17.5000000  0  1G27                                             
  18181316.47749  95543461.97749      6163.20749        49.000  
 16 04 02 14 01 17.6000000  0  1G27                                             
  18181199.25849  95542846.00849      6157.74649        49.000  
 16 04 02 14 01 17.7000000  0  1G27                                             
  18181082.10949  95542230.40649      6153.97749        49.000  
 16 04 02 14 01 17.8000000  0  1G27                                             
  18180965.03949  95541615.20749      6150.10949        49.000  
 16 04 02 14 01 17.9000000  0  1G27                                             
  18180848.03149  95541000.33249      6146.91049        49.000  
 16 04 02 14 01 18.0000000  0  1G27                                             
  18180731.10949  95540385.88749      6142.56249        49.000  
 16 04 02 14 01 18.1000000  0  1G27                                             
  18180614.27349  95539771.90649      6138.05149        49.000  
 16 04 02 14 01 18.2000000  0  1G27                                             
  18180497.50049  95539158.25049      6134.49649        49.000  
 16 04 02 14 01 18.3000000  0  1G27                                             
  18180380.77349  95538544.96949      6131.04349        49.000  
 16 04 02 14 01 18.4000000  0  1G27                                             
  18180264.15649  95537932.16049      6126.28949        49.000  
 16 04 02 14 01 18.5000000  0  1G27                                             
  18180147.64149  95537319.77049      6121.96549        49.000  
 16 04 02 14 01 18.6000000  0  1G27                                             
  18180031.18049  95536707.76649      6118.12549        49.000  
 16 04 02 14 01 18.7000000  0  1G27                                             
  18179914.77349  95536096.18049      6113.96949        49.000  
 16 04 02 14 01 18.8000000  0  1G27                                             
  18179798.47749  95535485.01249      6109.84849        49.000  
 16 04 02 14 01 18.9000000  0  1G27                                             
  18179682.22749  95534874.25449      6105.67649        49.000  
 16 04 02 14 01 19.0000000  0  1G27                                             
  18179566.07849  95534263.89549      6101.56249        49.000  
 16 04 02 14 01 19.1000000  0  1G27                                             
  18179450.00049  95533653.97349      6097.30549        49.000  
 16 04 02 14 01 19.2000000  0  1G27                                             
  18179334.00849  95533044.44549      6093.42249        49.000  
 16 04 02 14 01 19.3000000  0  1G27                                             
  18179218.07849  95532435.27749      6089.57449        49.000  
 16 04 02 14 01 19.4000000  0  1G27                                             
  18179102.24249  95531826.57449      6085.11349        49.000  
 16 04 02 14 01 19.5000000  0  1G27                                             
  18178986.48449  95531218.30949      6080.69549        49.000  
 16 04 02 14 01 19.6000000  0  1G27                                             
  18178870.79749  95530610.36349      6077.45749        49.000  
 16 04 02 14 01 19.7000000  0  1G27                                             
  18178755.21149  95530002.85249      6073.35549        49.000  
 16 04 02 14 01 19.8000000  0  1G27                                             
  18178639.68849  95529395.77349      6068.79349        49.000  
 16 04 02 14 01 19.9000000  0  1G27                                             
  18178524.24249  95528789.12549      6064.53549        49.000  
 16 04 02 14 01 20.0000000  0  1G27                                             
  18178408.87549  95528182.86349      6060.63349        49.000  
 16 04 02 14 01 20.1000000  0  1G27                                             
  18178293.57849  95527576.99649      6056.75049        49.000  
 16 04 02 14 01 20.2000000  0  1G27                                             
  18178178.35949  95526971.52349      6052.84049        49.000  
 16 04 02 14 01 20.3000000  0  1G27                                             
  18178063.23449  95526366.45749      6048.79349        49.000  
 16 04 02 14 01 20.4000000  0  1G27                                             
  18177948.17249  95525761.77049      6045.12949        49.000  
 16 04 02 14 01 20.5000000  0  1G27                                             
  18177833.19549  95525157.57049      6040.09449        49.000  
 16 04 02 14 01 20.6000000  0  1G27                                             
  18177718.28949  95524553.76649      6036.03949        49.000  
 16 04 02 14 01 20.7000000  0  1G27                                             
  18177603.48449  95523950.35949      6032.11749        49.000  
 16 04 02 14 01 20.8000000  0  1G27                                             
  18177488.73449  95523347.35249      6028.30149        49.000  
 16 04 02 14 01 20.9000000  0  1G27                                             
  18177374.05549  95522744.75849      6024.08649        49.000  
 16 04 02 14 01 21.0000000  0  1G27                                             
  18177259.45349  95522142.53949      6020.20749        49.000  
 16 04 02 14 01 21.1000000  0  1G27                                             
  18177144.96149  95521540.80149      6015.41049        49.000  
 16 04 02 14 01 21.2000000  0  1G27                                             
  18177030.52349  95520939.43849      6011.73049        49.000  
 16 04 02 14 01 21.3000000  0  1G27                                             
  18176916.14849  95520338.41449      6008.36749        49.000  
 16 04 02 14 01 21.4000000  0  1G27                                             
  18176801.85949  95519737.80949      6004.20349        49.000  
 16 04 02 14 01 21.5000000  0  1G27                                             
  18176687.62549  95519137.59049      6000.37149        49.000  
 16 04 02 14 01 21.6000000  0  1G27                                             
  18176573.49249  95518537.81249      5995.78949        49.000  
 16 04 02 14 01 21.7000000  0  1G27                                             
  18176459.43849  95517938.46149      5991.53149        49.000  
 16 04 02 14 01 21.8000000  0  1G27                                             
  18176345.46149  95517339.53549      5987.32049        49.000  
 16 04 02 14 01 21.9000000  0  1G27                                             
  18176231.57049  95516740.99649      5983.39849        49.000  
 16 04 02 14 01 22.0000000  0  1G27                                             
  18176117.75849  95516142.89549      5979.08649        49.000  
 16 04 02 14 01 22.1000000  0  1G27                                             
  18176004.00049  95515545.15649      5975.38749        49.000  
 16 04 02 14 01 22.2000000  0  1G27                                             
  18175890.33649  95514947.86349      5970.92249        49.000  
 16 04 02 14 01 22.3000000  0  1G27                                             
  18175776.75849  95514350.99249      5966.68849        49.000  
 16 04 02 14 01 22.4000000  0  1G27                                             
  18175663.25049  95513754.51249      5962.89149        49.000  
 16 04 02 14 01 22.5000000  0  1G27                                             
  18175549.84449  95513158.43449      5958.90249        49.000  
 16 04 02 14 01 22.6000000  0  1G27                                             
  18175436.48449  95512562.71949      5955.31649        49.000  
 16 04 02 14 01 22.7000000  0  1G27                                             
  18175323.21149  95511967.45749      5950.71149        49.000  
 16 04 02 14 01 22.8000000  0  1G27                                             
  18175210.01649  95511372.59849      5946.49649        49.000  
 16 04 02 14 01 22.9000000  0  1G27                                             
  18175096.89149  95510778.21549      5941.77749        49.000  
 16 04 02 14 01 23.0000000  0  1G27                                             
  18174983.87549  95510184.29749      5937.14849        49.000  
 16 04 02 14 01 23.1000000  0  1G27                                             
  18174870.91449  95509590.67249      5934.34049        49.000  
 16 04 02 14 01 23.2000000  0  1G27                                             
  18174758.03149  95508997.47749      5930.25049        49.000  
 16 04 02 14 01 23.3000000  0  1G27                                             
  18174645.24249  95508404.76649      5925.23849        49.000  
 16 04 02 14 01 23.4000000  0  1G27                                             
  18174532.51649  95507812.38749      5921.94149        49.000  
 16 04 02 14 01 23.5000000  0  1G27                                             
  18174419.85249  95507220.38349      5918.16849        49.000  
 16 04 02 14 01 23.6000000  0  1G27                                             
  18174307.28149  95506628.81649      5913.83249        49.000  
 16 04 02 14 01 23.7000000  0  1G27                                             
  18174194.78149  95506037.64849      5909.68449        49.000  
 16 04 02 14 01 23.8000000  0  1G27                                             
  18174082.36749  95505446.91849      5905.30549        49.000  
 16 04 02 14 01 23.9000000  0  1G27                                             
  18173970.03149  95504856.57049      5901.53949        49.000  
 16 04 02 14 01 24.0000000  0  1G27                                             
  18173857.77349  95504266.67649      5897.04749        49.000  
 16 04 02 14 01 24.1000000  0  1G27                                             
  18173745.59449  95503677.16049      5893.23049        49.000  
 16 04 02 14 01 24.2000000  0  1G27                                             
  18173633.49249  95503088.06249      5889.16449        49.000  
 16 04 02 14 01 24.3000000  0  1G27                                             
  18173521.46149  95502499.36749      5885.07449        49.000  
 16 04 02 14 01 24.4000000  0  1G27                                             
  18173409.51649  95501911.08249      5881.00449        49.000  
 16 04 02 14 01 24.5000000  0  1G27                                             
  18173297.64149  95501323.23449      5876.59449        49.000  
 16 04 02 14 01 24.6000000  0  1G27                                             
  18173185.84449  95500735.72349      5873.14149        49.000  
 16 04 02 14 01 24.7000000  0  1G27                                             
  18173074.14149  95500148.69149      5868.42249        49.000  
 16 04 02 14 01 24.8000000  0  1G27                                             
  18172962.50849  95499562.05549      5864.39549        49.000  
 16 04 02 14 01 24.9000000  0  1G27                                             
  18172850.93849  95498975.87149      5859.96549        49.000  
