     2.10           OBSERVATION DATA    G (GPS)             RINEX VERSION / TYPE
Convert v1.8.0                          09-Jun-2016 15:01   PGM / RUN BY / DATE 
Signal Strength values S1,S2 are in dBHz                    COMMENT             
                                                            MARKER NAME         
                                                            MARKER NUMBER       
                                                            OBSERVER / AGENCY   
                    NovAtel GPSCard                         REC # / TYPE / VERS 
                                                            ANT # / TYPE        
0.0000        0.0000        0.0000                          APPROX POSITION XYZ 
        0.0000        0.0000        0.0000                  ANTENNA: DELTA H/E/N
     1     0                                                WAVELENGTH FACT L1/2
     1     0     4   G04   G16   G26   G31                  WAVELENGTH FACT L1/2
                                                            COMMENT             
                                                            COMMENT             
                                                            COMMENT             
                                                            COMMENT             
                                                            COMMENT             
                                                            COMMENT             
     4    C1    L1    D1    S1                              # / TYPES OF OBSERV 
     0.100                                                  INTERVAL            
  2016    04    02    12    31     7.2000000    GPS         TIME OF FIRST OBS   
  2016    04    02    12    33    23.7000000    GPS         TIME OF LAST OBS    
Leap Seconds Unknown                                        COMMENT             
                                                            END OF HEADER       
 16 04 02 12 31  7.2000000  0  1G16                                             
  22356520.81249 117484309.71959      1146.81649        49.000  
 16 04 02 12 31  7.3000000  0  1G16                                             
  22356499.01649 117484195.18449      1143.14849        49.000  
 16 04 02 12 31  7.4000000  0  1G16                                             
  22356477.29749 117484081.05949      1139.28549        49.000  
 16 04 02 12 31  7.5000000  0  1G16                                             
  22356455.66449 117483967.39549      1134.51249        49.000  
 16 04 02 12 31  7.6000000  0  1G16                                             
  22356434.11749 117483854.16049      1130.05149        49.000  
 16 04 02 12 31  7.7000000  0  1G16                                             
  22356412.66449 117483741.42649      1125.11749        49.000  
 16 04 02 12 31  7.8000000  0  1G16                                             
  22356391.26649 117483629.02349      1121.84449        49.000  
 16 04 02 12 31  7.9000000  0  1G16                                             
  22356369.97749 117483517.13349      1116.60249        49.000  
 16 04 02 12 31  8.0000000  0  1G16                                             
  22356348.76649 117483405.69549      1112.43049        49.000  
 16 04 02 12 31  8.1000000  0  1G16                                             
  22356327.62549 117483294.61749      1108.67649        49.000  
 16 04 02 12 31  8.2000000  0  1G16                                             
  22356306.59449 117483184.04749      1103.48049        49.000  
 16 04 02 12 31  8.3000000  0  1G16                                             
  22356285.64149 117483073.96149      1098.37149        49.000  
 16 04 02 12 31  8.4000000  0  1G16                                             
  22356264.78149 117482964.34449      1093.96549        49.000  
 16 04 02 12 31  8.5000000  0  1G16                                             
  22356244.00049 117482855.14849      1089.79749        49.000  
 16 04 02 12 31  8.6000000  0  1G16                                             
  22356223.29749 117482746.36349      1085.57449        49.000  
 16 04 02 12 31  8.7000000  0  1G16                                             
  22356202.69549 117482638.07849      1080.69149        49.000  
 16 04 02 12 31  8.8000000  0  1G16                                             
  22356182.17249 117482530.23049      1076.11349        49.000  
 16 04 02 12 31  8.9000000  0  1G16                                             
  22356161.74249 117482422.84449      1071.61749        49.000  
 16 04 02 12 31  9.0000000  0  1G16                                             
  22356141.38349 117482315.89549      1067.25049        49.000  
 16 04 02 12 31  9.1000000  0  1G16                                             
  22356121.11749 117482209.36749      1063.02349        49.000  
 16 04 02 12 31  9.2000000  0  1G16                                             
  22356100.93849 117482103.24249      1059.29749        49.000  
 16 04 02 12 31  9.3000000  0  1G16                                             
  22356080.82049 117481997.55949      1054.62949        49.000  
 16 04 02 12 31  9.4000000  0  1G16                                             
  22356060.80549 117481892.37149      1049.55549        49.000  
 16 04 02 12 31  9.5000000  0  1G16                                             
  22356040.88349 117481787.68049      1044.37149        49.000  
 16 04 02 12 31  9.6000000  0  1G16                                             
  22356021.04749 117481683.42249      1040.16449        49.000  
 16 04 02 12 31  9.7000000  0  1G16                                             
  22356001.29749 117481579.64549      1035.32849        49.000  
 16 04 02 12 31  9.8000000  0  1G16                                             
  22355981.63349 117481476.30549      1031.16849        49.000  
 16 04 02 12 31  9.9000000  0  1G16                                             
  22355962.04749 117481373.39149      1026.91849        49.000  
 16 04 02 12 31 10.0000000  0  1G16                                             
  22355942.55549 117481270.95749      1022.21149        49.000  
 16 04 02 12 31 10.1000000  0  1G16                                             
  22355923.13349 117481168.88749      1018.44149        49.000  
 16 04 02 12 31 10.2000000  0  1G16                                             
  22355903.80549 117481067.27049      1013.97349        49.000  
 16 04 02 12 31 10.3000000  0  1G16                                             
  22355884.54749 117480966.05549      1009.96549        49.000  
 16 04 02 12 31 10.4000000  0  1G16                                             
  22355865.36749 117480865.25849      1005.71549        49.000  
 16 04 02 12 31 10.5000000  0  1G16                                             
  22355846.28149 117480764.95349      1000.83649        49.000  
 16 04 02 12 31 10.6000000  0  1G16                                             
  22355827.28149 117480665.10249       996.23449        49.000  
 16 04 02 12 31 10.7000000  0  1G16                                             
  22355808.35949 117480565.66049       992.10549        49.000  
 16 04 02 12 31 10.8000000  0  1G16                                             
  22355789.53149 117480466.71149       987.20749        49.000  
 16 04 02 12 31 10.9000000  0  1G16                                             
  22355770.78149 117480368.18449       983.09449        49.000  
 16 04 02 12 31 11.0000000  0  1G16                                             
  22355752.12549 117480270.09849       978.69549        49.000  
 16 04 02 12 31 11.1000000  0  1G16                                             
  22355733.54749 117480172.45349       974.11349        49.000  
 16 04 02 12 31 11.2000000  0  1G16                                             
  22355715.04749 117480075.30149       969.40249        49.000  
 16 04 02 12 31 11.3000000  0  1G16                                             
  22355696.63349 117479978.50849       965.77349        49.000  
 16 04 02 12 31 11.4000000  0  1G16                                             
  22355678.31249 117479882.24649       960.07449        49.000  
 16 04 02 12 31 11.5000000  0  1G16                                             
  22355660.08649 117479786.46549       955.55549        49.000  
 16 04 02 12 31 11.6000000  0  1G16                                             
  22355641.94549 117479691.10549       951.27349        49.000  
 16 04 02 12 31 11.7000000  0  1G16                                             
  22355623.87549 117479596.14149       947.41049        49.000  
 16 04 02 12 31 11.8000000  0  1G16                                             
  22355605.88349 117479501.60549       943.34449        49.000  
 16 04 02 12 31 11.9000000  0  1G16                                             
  22355587.97749 117479407.50049       938.77749        49.000  
 16 04 02 12 31 12.0000000  0  1G16                                             
  22355570.14849 117479313.84449       934.14549        49.000  
 16 04 02 12 31 12.1000000  0  1G16                                             
  22355552.43049 117479220.72349       928.87549        49.000  
 16 04 02 12 31 12.2000000  0  1G16                                             
  22355534.78149 117479127.99249       924.94149        49.000  
 16 04 02 12 31 12.3000000  0  1G16                                             
  22355517.21949 117479035.69549       920.68849        49.000  
 16 04 02 12 31 12.4000000  0  1G16                                             
  22355499.72749 117478943.83649       916.41849        49.000  
 16 04 02 12 31 12.5000000  0  1G16                                             
  22355482.32849 117478852.39849       912.28149        49.000  
 16 04 02 12 31 12.6000000  0  1G16                                             
  22355465.02349 117478761.44949       907.19949        49.000  
 16 04 02 12 31 12.7000000  0  1G16                                             
  22355447.79749 117478670.90249       903.25049        49.000  
 16 04 02 12 31 12.8000000  0  1G16                                             
  22355430.66449 117478580.84849       898.11349        49.000  
 16 04 02 12 31 12.9000000  0  1G16                                             
  22355413.60949 117478491.21949       894.23049        49.000  
 16 04 02 12 31 13.0000000  0  1G16                                             
  22355396.64149 117478402.03549       889.58649        49.000  
 16 04 02 12 31 13.1000000  0  1G16                                             
  22355379.75849 117478313.32049       884.73049        49.000  
 16 04 02 12 31 13.2000000  0  1G16                                             
  22355362.96949 117478225.06649       880.08649        49.000  
 16 04 02 12 31 13.3000000  0  1G16                                             
  22355346.25849 117478137.25449       875.97749        49.000  
 16 04 02 12 31 13.4000000  0  1G16                                             
  22355329.63349 117478049.88749       871.35949        49.000  
 16 04 02 12 31 13.5000000  0  1G16                                             
  22355313.09449 117477962.95749       867.11749        49.000  
 16 04 02 12 31 13.6000000  0  1G16                                             
  22355296.63349 117477876.47749       862.54749        49.000  
 16 04 02 12 31 13.7000000  0  1G16                                             
  22355280.25849 117477790.43449       858.14549        49.000  
 16 04 02 12 31 13.8000000  0  1G16                                             
  22355263.96149 117477704.78949       854.23449        49.000  
 16 04 02 12 31 13.9000000  0  1G16                                             
  22355247.75849 117477619.62949       849.43849        49.000  
 16 04 02 12 31 14.0000000  0  1G16                                             
  22355231.64149 117477534.88749       845.10949        49.000  
 16 04 02 12 31 14.1000000  0  1G16                                             
  22355215.60249 117477450.57849       840.75049        49.000  
 16 04 02 12 31 14.2000000  0  1G16                                             
  22355199.63349 117477366.71549       836.46949        49.000  
 16 04 02 12 31 14.3000000  0  1G16                                             
  22355183.76649 117477283.34049       831.57049        49.000  
 16 04 02 12 31 14.4000000  0  1G16                                             
  22355167.99249 117477200.40249       827.14149        49.000  
 16 04 02 12 31 14.5000000  0  1G16                                             
  22355152.28149 117477117.84449       823.34849        49.000  
 16 04 02 12 31 14.6000000  0  1G16                                             
  22355136.67249 117477035.78149       818.27749        49.000  
 16 04 02 12 31 14.7000000  0  1G16                                             
  22355121.14849 117476954.22349       813.46549        49.000  
 16 04 02 12 31 14.8000000  0  1G16                                             
  22355105.71949 117476873.07849       809.10549        49.000  
 16 04 02 12 31 14.9000000  0  1G16                                             
  22355090.35249 117476792.34849       804.92249        49.000  
 16 04 02 12 31 15.0000000  0  1G16                                             
  22355075.09449 117476712.11749       799.99649        49.000  
 16 04 02 12 31 15.1000000  0  1G16                                             
  22355059.91449 117476632.35249       795.22749        49.000  
 16 04 02 12 31 15.2000000  0  1G16                                             
  22355044.81249 117476553.02749       790.94549        49.000  
 16 04 02 12 31 15.3000000  0  1G16                                             
  22355029.79749 117476474.10949       786.77349        49.000  
 16 04 02 12 31 15.4000000  0  1G16                                             
  22355014.89149 117476395.74249       781.52349        49.000  
 16 04 02 12 31 15.5000000  0  1G16                                             
  22355000.04749 117476317.74249       777.59049        49.000  
 16 04 02 12 31 15.6000000  0  1G16                                             
  22354985.29749 117476240.19149       773.29749        49.000  
 16 04 02 12 31 15.7000000  0  1G16                                             
  22354970.62549 117476163.12549       768.42649        49.000  
 16 04 02 12 31 15.8000000  0  1G16                                             
  22354956.04749 117476086.47349       763.98449        49.000  
 16 04 02 12 31 15.9000000  0  1G16                                             
  22354941.54749 117476010.28149       759.75449        49.000  
 16 04 02 12 31 16.0000000  0  1G16                                             
  22354927.11749 117475934.48049       755.92649        49.000  
 16 04 02 12 31 16.1000000  0  1G16                                             
  22354912.76649 117475859.09449       751.67649        49.000  
 16 04 02 12 31 16.2000000  0  1G16                                             
  22354898.51649 117475784.19149       746.92249        49.000  
 16 04 02 12 31 16.3000000  0  1G16                                             
  22354884.34449 117475709.71149       742.64149        49.000  
 16 04 02 12 31 16.4000000  0  1G16                                             
  22354870.24249 117475635.67249       738.07049        49.000  
 16 04 02 12 31 16.5000000  0  1G16                                             
  22354856.25049 117475562.13349       733.09049        49.000  
 16 04 02 12 31 16.6000000  0  1G16                                             
  22354842.34449 117475489.01249       728.74649        49.000  
 16 04 02 12 31 16.7000000  0  1G16                                             
  22354828.53149 117475416.41849       723.72349        49.000  
 16 04 02 12 31 16.8000000  0  1G16                                             
  22354814.79749 117475344.22349       719.48849        49.000  
 16 04 02 12 31 16.9000000  0  1G16                                             
  22354801.14849 117475272.50449       715.10249        49.000  
 16 04 02 12 31 17.0000000  0  1G16                                             
  22354787.57849 117475201.22749       710.50449        49.000  
 16 04 02 12 31 17.1000000  0  1G16                                             
  22354774.08649 117475130.32049       706.82449        49.000  
 16 04 02 12 31 17.2000000  0  1G16                                             
  22354760.70349 117475059.93849       701.67249        49.000  
 16 04 02 12 31 17.3000000  0  1G16                                             
  22354747.38349 117474989.94949       697.56249        49.000  
 16 04 02 12 31 17.4000000  0  1G16                                             
  22354734.15649 117474920.49249       692.33249        49.000  
 16 04 02 12 31 17.5000000  0  1G16                                             
  22354721.00849 117474851.41449       688.54749        49.000  
 16 04 02 12 31 17.6000000  0  1G16                                             
  22354707.93849 117474782.77349       684.20749        49.000  
 16 04 02 12 31 17.7000000  0  1G16                                             
  22354694.96149 117474714.55949       680.14549        49.000  
 16 04 02 12 31 17.8000000  0  1G16                                             
  22354682.05549 117474646.75849       675.73849        49.000  
 16 04 02 12 31 17.9000000  0  1G16                                             
  22354669.25049 117474579.47349       670.57849        49.000  
 16 04 02 12 31 18.0000000  0  1G16                                             
  22354656.53149 117474512.60949       666.23049        49.000  
 16 04 02 12 31 18.1000000  0  1G16                                             
  22354643.89149 117474446.19149       661.73049        49.000  
 16 04 02 12 31 18.2000000  0  1G16                                             
  22354631.33649 117474380.24649       657.18449        49.000  
 16 04 02 12 31 18.3000000  0  1G16                                             
  22354618.87549 117474314.73449       652.88349        49.000  
 16 04 02 12 31 18.4000000  0  1G16                                             
  22354606.48449 117474249.64849       648.85949        49.000  
 16 04 02 12 31 18.5000000  0  1G16                                             
  22354594.18049 117474184.98049       644.28949        49.000  
 16 04 02 12 31 18.6000000  0  1G16                                             
  22354581.96949 117474120.78949       639.66849        49.000  
 16 04 02 12 31 18.7000000  0  1G16                                             
  22354569.83649 117474057.05549       635.15249        49.000  
 16 04 02 12 31 18.8000000  0  1G16                                             
  22354557.79749 117473993.76649       630.61749        49.000  
 16 04 02 12 31 18.9000000  0  1G16                                             
  22354545.82849 117473930.88349       626.67249        49.000  
 16 04 02 12 31 19.0000000  0  1G16                                             
  22354533.95349 117473868.46149       621.98849        49.000  
 16 04 02 12 31 19.1000000  0  1G16                                             
  22354522.15649 117473806.46549       617.73849        49.000  
 16 04 02 12 31 19.2000000  0  1G16                                             
  22354510.44549 117473744.91049       613.07849        49.000  
 16 04 02 12 31 19.3000000  0  1G16                                             
  22354498.82049 117473683.81249       608.84449        49.000  
 16 04 02 12 31 19.4000000  0  1G16                                             
  22354487.26649 117473623.12149       604.84049        49.000  
 16 04 02 12 31 19.5000000  0  1G16                                             
  22354475.80549 117473562.87949       599.94549        49.000  
 16 04 02 12 31 19.6000000  0  1G16                                             
  22354464.43049 117473503.10549       595.43049        49.000  
 16 04 02 12 31 19.7000000  0  1G16                                             
  22354453.14149 117473443.78149       590.96949        49.000  
 16 04 02 12 31 19.8000000  0  1G16                                             
  22354441.94549 117473384.91049       586.52349        49.000  
 16 04 02 12 31 19.9000000  0  1G16                                             
  22354430.81249 117473326.43049       582.61349        49.000  
 16 04 02 12 31 20.0000000  0  1G16                                             
  22354419.78149 117473268.44149       577.53949        49.000  
 16 04 02 12 31 20.1000000  0  1G16                                             
  22354408.82049 117473210.85249       573.46949        49.000  
 16 04 02 12 31 20.2000000  0  1G16                                             
  22354397.96149 117473153.75449       568.75849        49.000  
 16 04 02 12 31 20.3000000  0  1G16                                             
  22354387.18049 117473097.09849       564.21549        49.000  
 16 04 02 12 31 20.4000000  0  1G16                                             
  22354376.47749 117473040.85549       560.21149        49.000  
 16 04 02 12 31 20.5000000  0  1G16                                             
  22354365.85949 117472985.06649       555.67249        49.000  
 16 04 02 12 31 20.6000000  0  1G16                                             
  22354355.32849 117472929.73049       551.07049        49.000  
 16 04 02 12 31 20.7000000  0  1G16                                             
  22354344.87549 117472874.79349       547.34049        49.000  
 16 04 02 12 31 20.8000000  0  1G16                                             
  22354334.48449 117472820.21949       543.59049        49.000  
 16 04 02 12 31 20.9000000  0  1G16                                             
  22354324.18849 117472766.11349       538.77049        49.000  
 16 04 02 12 31 21.0000000  0  1G16                                             
  22354313.99249 117472712.54749       533.28149        49.000  
 16 04 02 12 31 21.1000000  0  1G16                                             
  22354303.88349 117472659.39549       529.04349        49.000  
 16 04 02 12 31 21.2000000  0  1G16                                             
  22354293.85249 117472606.70749       524.49649        49.000  
 16 04 02 12 31 21.3000000  0  1G16                                             
  22354283.91449 117472554.48049       519.80549        49.000  
 16 04 02 12 31 21.4000000  0  1G16                                             
  22354274.05549 117472502.69949       515.62949        49.000  
 16 04 02 12 31 21.5000000  0  1G16                                             
  22354264.26649 117472451.25449       512.41049        49.000  
 16 04 02 12 31 21.6000000  0  1G16                                             
  22354254.56249 117472400.22749       508.25449        49.000  
 16 04 02 12 31 21.7000000  0  1G16                                             
  22354244.93049 117472349.64149       503.67649        49.000  
 16 04 02 12 31 21.8000000  0  1G16                                             
  22354235.39849 117472299.52349       499.01649        49.000  
 16 04 02 12 31 21.9000000  0  1G16                                             
  22354225.95349 117472249.86349       494.09449        49.000  
 16 04 02 12 31 22.0000000  0  1G16                                             
  22354216.57049 117472200.61749       490.25849        49.000  
 16 04 02 12 31 22.1000000  0  1G16                                             
  22354207.28149 117472151.81249       485.68449        49.000  
 16 04 02 12 31 22.2000000  0  1G16                                             
  22354198.09449 117472103.52049       480.62949        49.000  
 16 04 02 12 31 22.3000000  0  1G16                                             
  22354188.97749 117472055.62549       476.64149        49.000  
 16 04 02 12 31 22.4000000  0  1G16                                             
  22354179.95349 117472008.19149       472.18049        49.000  
 16 04 02 12 31 22.5000000  0  1G16                                             
  22354171.00849 117471961.17249       468.12949        49.000  
 16 04 02 12 31 22.6000000  0  1G16                                             
  22354162.14149 117471914.55549       463.94149        49.000  
 16 04 02 12 31 22.7000000  0  1G16                                             
  22354153.36749 117471868.43449       458.97749        49.000  
 16 04 02 12 31 22.8000000  0  1G16                                             
  22354144.67249 117471822.72349       454.77049        49.000  
 16 04 02 12 31 22.9000000  0  1G16                                             
  22354136.04749 117471777.41049       451.13349        49.000  
 16 04 02 12 31 23.0000000  0  1G16                                             
  22354127.51649 117471732.57049       446.48449        49.000  
 16 04 02 12 31 23.1000000  0  1G16                                             
  22354119.05549 117471688.13349       442.07049        49.000  
 16 04 02 12 31 23.2000000  0  1G16                                             
  22354110.68049 117471644.13349       437.58649        49.000  
 16 04 02 12 31 23.3000000  0  1G16                                             
  22354102.40649 117471600.64849       432.53149        49.000  
 16 04 02 12 31 23.4000000  0  1G16                                             
  22354094.21949 117471557.59449       428.35949        49.000  
 16 04 02 12 31 23.5000000  0  1G16                                             
  22354086.10249 117471514.92649       424.34049        49.000  
 16 04 02 12 31 23.6000000  0  1G16                                             
  22354078.07849 117471472.77349       419.35249        49.000  
 16 04 02 12 31 23.7000000  0  1G16                                             
  22354070.13349 117471430.99249       415.50049        49.000  
 16 04 02 12 31 23.8000000  0  1G16                                             
  22354062.28149 117471389.73449       410.36749        49.000  
 16 04 02 12 31 23.9000000  0  1G16                                             
  22354054.50049 117471348.84849       406.58649        49.000  
 16 04 02 12 31 24.0000000  0  1G16                                             
  22354046.82049 117471308.47349       401.58249        49.000  
 16 04 02 12 31 24.1000000  0  1G16                                             
  22354039.21949 117471268.53149       397.10949        49.000  
 16 04 02 12 31 24.2000000  0  1G16                                             
  22354031.68849 117471228.97349       393.38749        49.000  
 16 04 02 12 31 24.3000000  0  1G16                                             
  22354024.24249 117471189.83249       389.38749        49.000  
 16 04 02 12 31 24.4000000  0  1G16                                             
  22354016.87549 117471151.16849       384.49649        49.000  
 16 04 02 12 31 24.5000000  0  1G16                                             
  22354009.60949 117471112.99649       379.28549        49.000  
 16 04 02 12 31 24.6000000  0  1G16                                             
  22354002.43849 117471075.26649       374.91049        49.000  
 16 04 02 12 31 24.7000000  0  1G16                                             
  22353995.32849 117471037.93449       371.20349        49.000  
 16 04 02 12 31 24.8000000  0  1G16                                             
  22353988.32049 117471001.05549       366.61749        49.000  
 16 04 02 12 31 24.9000000  0  1G16                                             
  22353981.37549 117470964.57849       362.57849        49.000  
 16 04 02 12 31 25.0000000  0  1G16                                             
  22353974.52349 117470928.57849       357.78549        49.000  
 16 04 02 12 31 25.1000000  0  1G16                                             
  22353967.75849 117470893.04349       353.03949        49.000  
 16 04 02 12 31 25.2000000  0  1G16                                             
  22353961.08649 117470857.94149       348.66849        49.000  
 16 04 02 12 31 25.3000000  0  1G16                                             
  22353954.48449 117470823.27749       344.39849        49.000  
 16 04 02 12 31 25.4000000  0  1G16                                             
  22353947.97749 117470789.07849       339.75849        49.000  
 16 04 02 12 31 25.5000000  0  1G16                                             
  22353941.55549 117470755.32449       335.30949        49.000  
 16 04 02 12 31 25.6000000  0  1G16                                             
  22353935.20349 117470721.97349       331.15249        49.000  
 16 04 02 12 31 25.7000000  0  2G26G16                                          
  21883966.09449 115001016.99659     13957.99249        49.000  
  22353928.94549 117470689.09049       326.56249        49.000  
 16 04 02 12 31 25.8000000  0  3G26G31G16                                       
  21883700.53149 114999621.43849     13953.25049        49.000  
  22469244.58649 118076676.65259     13151.47749        50.000  
  22353922.77349 117470656.63749       322.25849        49.000  
 16 04 02 12 31 25.9000000  0  3G26G31G16                                       
  21883435.07049 114998226.33249     13948.84849        49.000  
  22468994.36749 118075361.75049     13146.40649        50.000  
  22353916.68049 117470624.63349       317.91049        49.000  
 16 04 02 12 31 26.0000000  0  3G26G31G16                                       
  21883169.68049 114996831.66849     13944.40649        49.000  
  22468744.28149 118074047.33649     13141.51249        50.000  
  22353910.67249 117470593.02349       313.93449        49.000  
 16 04 02 12 31 26.1000000  0  3G26G31G16                                       
  21882904.37549 114995437.48049     13939.62949        49.000  
  22468494.25849 118072733.46149     13136.14149        50.000  
  22353904.74249 117470561.87149       309.37949        49.000  
 16 04 02 12 31 26.2000000  0  3G26G31G16                                       
  21882639.16449 114994043.77749     13934.66849        49.000  
  22468244.35249 118071420.11749     13130.62149        50.000  
  22353898.89849 117470531.17249       304.68449        49.000  
 16 04 02 12 31 26.3000000  0  3G26G31G16                                       
  21882374.03149 114992650.59849     13929.39149        49.000  
  22467994.54749 118070107.35949     13124.85949        50.000  
  22353893.14849 117470500.96949       299.70749        49.000  
 16 04 02 12 31 26.4000000  0  3G26G31G16                                       
  21882109.00849 114991257.89149     13924.77349        49.000  
  22467744.82849 118068795.12949     13119.60249        50.000  
  22353887.49249 117470471.21549       295.29749        49.000  
 16 04 02 12 31 26.5000000  0  3G26G31G16                                       
  21881844.07049 114989865.62549     13920.43049        49.000  
  22467495.21149 118067483.39849     13114.69949        50.000  
  22353881.90649 117470441.86749       291.31649        49.000  
 16 04 02 12 31 26.6000000  0  3G26G31G16                                       
  21881579.20349 114988473.77049     13916.38349        49.000  
  22467245.68849 118066172.12549     13110.18049        50.000  
  22353876.39149 117470412.89149       287.58249        49.000  
 16 04 02 12 31 26.7000000  0  3G26G31G16                                       
  21881314.41449 114987082.39549     13911.53149        49.000  
  22466996.26649 118064861.40649     13104.64849        50.000  
  22353870.96949 117470384.39149       282.80549        49.000  
 16 04 02 12 31 26.8000000  0  3G26G31G16                                       
  21881049.75049 114985691.56649     13905.89549        49.000  
  22466746.93849 118063551.27749     13098.55949        50.000  
  22353865.64149 117470356.39149       277.73449        49.000  
 16 04 02 12 31 26.9000000  0  3G26G31G16                                       
  21880785.15649 114984301.15649     13901.66049        49.000  
  22466497.72749 118062241.62949     13093.65649        50.000  
  22353860.38349 117470328.78949       273.69949        49.000  
 16 04 02 12 31 27.0000000  0  3G26G31G16                                       
  21880520.65649 114982911.19149     13897.28949        49.000  
  22466248.59449 118060932.47349     13088.77049        50.000  
  22353855.21949 117470301.60249       269.56649        49.000  
 16 04 02 12 31 27.1000000  0  3G26G31G16                                       
  21880256.25849 114981521.73849     13892.29749        49.000  
  22465999.58649 118059623.89849     13083.17649        50.000  
  22353850.13349 117470274.90249       264.88749        49.000  
 16 04 02 12 31 27.2000000  0  3G26G31G16                                       
  21879991.93849 114980132.74649     13887.41049        49.000  
  22465750.65649 118058315.82849     13077.66849        50.000  
  22353845.14149 117470248.62949       260.18849        49.000  
 16 04 02 12 31 27.3000000  0  3G26G31G16                                       
  21879727.71949 114978744.25449     13882.64849        49.000  
  22465501.84449 118057008.32449     13072.38749        50.000  
  22353840.23449 117470222.83649       255.74649        49.000  
 16 04 02 12 31 27.4000000  0  3G26G31G16                                       
  21879463.57849 114977356.19149     13878.32049        49.000  
  22465253.14849 118055701.29749     13067.56249        50.000  
  22353835.39849 117470197.43449       251.80949        49.000  
 16 04 02 12 31 27.5000000  0  3G26G31G16                                       
  21879199.51649 114975968.59449     13873.69949        49.000  
  22465004.53149 118054394.79749     13062.36349        50.000  
  22353830.64849 117470172.47749       247.44549        49.000  
 16 04 02 12 31 27.6000000  0  3G26G31G16                                       
  21878935.55549 114974581.45749     13869.05949        49.000  
  22464756.01649 118053088.81249     13057.18849        50.000  
  22353825.97749 117470147.95349       243.05549        49.000  
 16 04 02 12 31 27.7000000  0  3G26G31G16                                       
  21878671.68849 114973194.79749     13864.34449        49.000  
  22464507.59449 118051783.35549     13051.89549        50.000  
  22353821.39149 117470123.86749       238.66449        49.000  
 16 04 02 12 31 27.8000000  0  3G26G31G16                                       
  21878407.92249 114971808.68849     13858.74249        49.000  
  22464259.28949 118050478.51249     13045.74649        50.000  
  22353816.91449 117470100.30549       233.34849        49.000  
 16 04 02 12 31 27.9000000  0  3G26G31G16                                       
  21878144.25049 114970423.00849     13854.34849        49.000  
  22464011.07849 118049174.15249     13040.80549        50.000  
  22353812.50849 117470077.14849       229.30949        49.000  
 16 04 02 12 31 28.0000000  0  3G26G31G16                                       
  21877880.65649 114969037.80149     13849.86749        49.000  
  22463762.96949 118047870.32049     13035.68449        50.000  
  22353808.18849 117470054.45349       224.84849        49.000  
 16 04 02 12 31 28.1000000  0  3G26G31G16                                       
  21877617.14149 114967653.08649     13844.87549        49.000  
  22463514.96149 118046567.04349     13030.11749        50.000  
  22353803.95349 117470032.19149       220.27049        49.000  
 16 04 02 12 31 28.2000000  0  3G26G31G16                                       
  21877353.73449 114966268.87549     13839.82449        49.000  
  22463267.07849 118045264.32449     13024.51249        50.000  
  22353799.80549 117470010.42249       215.50449        49.000  
 16 04 02 12 31 28.3000000  0  3G26G31G16                                       
  21877090.42249 114964885.01649     13836.35249        49.000  
  22463019.25849 118043962.00849     13020.55149        50.000  
  22353795.72749 117469988.97349       212.38349        49.000  
 16 04 02 12 31 28.4000000  0  3G26G31G16                                       
  21876827.18049 114963501.67649     13831.05149        49.000  
  22462771.54749 118042660.26649     13014.74249        50.000  
  22353791.73449 117469968.01249       207.35549        49.000  
 16 04 02 12 31 28.5000000  0  3G26G31G16                                       
  21876564.03949 114962118.80149     13826.63349        49.000  
  22462523.93049 118041359.05149     13009.64849        50.000  
  22353787.82849 117469947.48849       203.16449        49.000  
 16 04 02 12 31 28.6000000  0  3G26G31G16                                       
  21876300.96949 114960736.37549     13821.87549        49.000  
  22462276.41449 118040058.33649     13004.39149        50.000  
  22353784.00049 117469927.38749       198.75049        49.000  
 16 04 02 12 31 28.7000000  0  3G26G31G16                                       
  21876037.98449 114959354.41449     13817.35249        49.000  
  22462029.00049 118038758.14549     12999.30949        50.000  
  22353780.25849 117469907.71549       194.49649        49.000  
 16 04 02 12 31 28.8000000  0  3G26G31G16                                       
  21875775.08649 114957972.88349     13813.09849        49.000  
  22461781.68049 118037458.44549     12994.42249        50.000  
  22353776.60249 117469888.45749       190.41449        49.000  
 16 04 02 12 31 28.9000000  0  3G26G31G16                                       
  21875512.26649 114956591.83649     13808.09049        49.000  
  22461534.45349 118036159.26649     12989.02749        50.000  
  22353773.01649 117469869.63349       185.90649        49.000  
 16 04 02 12 31 29.0000000  0  3G26G31G16                                       
  21875249.55549 114955211.28549     13803.21949        49.000  
  22461287.35949 118034860.66849     12983.37949        50.000  
  22353769.53149 117469851.29749       181.21149        49.000  
 16 04 02 12 31 29.1000000  0  3G26G31G16                                       
  21874986.95349 114953831.19149     13798.57449        49.000  
  22461040.33649 118033562.56249     12978.25849        50.000  
  22353766.11749 117469833.38749       176.85549        49.000  
 16 04 02 12 31 29.2000000  0  3G26G31G16                                       
  21874724.43049 114952451.63349     13793.14149        49.000  
  22460793.46149 118032265.06249     12972.18849        50.000  
  22353762.81249 117469815.97749       171.69149        49.000  
 16 04 02 12 31 29.3000000  0  3G26G31G16                                       
  21874462.01649 114951072.61749     13787.82849        49.000  
  22460546.66449 118030968.14849     12966.47349        50.000  
  22353759.59449 117469799.08649       166.63349        49.000  
 16 04 02 12 31 29.4000000  0  3G26G31G16                                       
  21874199.66449 114949693.93849     13784.41849        49.000  
  22460299.95349 118029671.63349     12962.33649        50.000  
  22353756.43849 117469782.49649       163.47349        49.000  
 16 04 02 12 31 29.5000000  0  3G26G31G16                                       
  21873937.42249 114948315.80949     13779.00449        49.000  
  22460053.35249 118028375.72749     12956.32849        50.000  
  22353753.38349 117469766.43049       158.45349        49.000  
 16 04 02 12 31 29.6000000  0  3G26G31G16                                       
  21873675.25049 114946938.10249     13775.00049        49.000  
  22459806.82849 118027080.28949     12951.93849        50.000  
  22353750.39149 117469750.75849       154.73449        49.000  
 16 04 02 12 31 29.7000000  0  3G26G31G16                                       
  21873413.18049 114945560.86349     13770.17649        49.000  
  22459560.41449 118025785.38749     12946.49649        50.000  
  22353747.49249 117469735.52749       150.19149        49.000  
 16 04 02 12 31 29.8000000  0  3G26G31G16                                       
  21873151.18849 114944184.07449     13765.64149        49.000  
  22459314.07849 118024490.98449     12941.43849        50.000  
  22353744.67249 117469720.71149       145.98449        49.000  
 16 04 02 12 31 29.9000000  0  3G26G31G16                                       
  21872889.26649 114942807.72349     13761.31249        49.000  
  22459067.85249 118023197.06649     12936.59049        50.000  
  22353741.93049 117469706.30149       141.94549        49.000  
 16 04 02 12 31 30.0000000  0  3G26G31G16                                       
  21872627.44549 114941431.85949     13756.36749        49.000  
  22458821.71949 118021903.71949     12930.85249        50.000  
  22353739.27349 117469692.36749       137.16849        49.000  
 16 04 02 12 31 30.1000000  0  3G26G31G16                                       
  21872365.74249 114940056.52049     13750.93849        49.000  
  22458575.70349 118020610.92249     12925.07449        50.000  
  22353736.71149 117469678.91049       132.16049        49.000  
 16 04 02 12 31 30.2000000  0  3G26G31G16                                       
  21872104.10949 114938681.63349     13746.52349        49.000  
  22458329.76649 118019318.65649     12919.93849        50.000  
  22353734.23449 117469665.88749       127.89849        49.000  
 16 04 02 12 31 30.3000000  0  3G26G31G16                                       
  21871842.58649 114937307.17649     13742.28549        49.000  
  22458083.94549 118018026.85949     12915.29749        50.000  
  22353731.83649 117469653.25849       124.09449        49.000  
 16 04 02 12 31 30.4000000  0  3G26G31G16                                       
  21871581.14149 114935933.25449     13736.97349        49.000  
  22457838.23449 118016735.66449     12909.34049        50.000  
  22353729.53149 117469641.13749       119.03149        49.000  
 16 04 02 12 31 30.5000000  0  3G26G31G16                                       
  21871319.76649 114934559.74249     13732.89149        49.000  
  22457592.61749 118015444.93049     12904.80149        50.000  
  22353727.28949 117469629.39549       115.32049        49.000  
 16 04 02 12 31 30.6000000  0  3G26G31G16                                       
  21871058.47749 114933186.65249     13728.60949        49.000  
  22457347.10249 118014154.68049     12899.79749        50.000  
  22353725.13349 117469618.05149       111.17649        49.000  
 16 04 02 12 31 30.7000000  0  3G26G31G16                                       
  21870797.28949 114931814.08249     13723.43449        49.000  
  22457101.68049 118012864.99649     12894.20349        50.000  
  22353723.07049 117469607.18849       106.45349        49.000  
 16 04 02 12 31 30.8000000  0  3G26G31G16                                       
  21870536.18049 114930441.94949     13719.02349        49.000  
  22456856.35249 118011575.81249     12889.21549        50.000  
  22353721.07849 117469596.73849       102.32049        49.000  
 16 04 02 12 31 30.9000000  0  3G26G31G16                                       
  21870275.15649 114929070.27749     13714.37949        49.000  
  22456611.12549 118010287.14549     12884.00449        50.000  
  22353719.17249 117469586.72749        97.85249        49.000  
 16 04 02 12 31 31.0000000  0  3G26G31G16                                       
  21870014.21949 114927699.06649     13709.94949        49.000  
  22456366.00849 118008999.00049     12878.96149        50.000  
  22353717.34449 117469577.14149        93.76249        49.000  
 16 04 02 12 31 31.1000000  0  3G26G31G16                                       
  21869753.39849 114926328.39549     13704.35249        49.000  
  22456120.99249 118007711.43449     12872.91849        50.000  
  22353715.61749 117469568.06249        88.50049        49.000  
 16 04 02 12 31 31.2000000  0  3G26G31G16                                       
  21869492.65649 114924958.16449     13699.96549        49.000  
  22455876.08649 118006424.39149     12867.80949        50.000  
  22353713.96949 117469559.41049        84.28549        49.000  
 16 04 02 12 31 31.3000000  0  3G26G31G16                                       
  21869232.00049 114923588.35249     13695.85949        49.000  
  22455631.25049 118005137.80149     12863.25849        50.000  
  22353712.39149 117469551.12549        80.65649        49.000  
 16 04 02 12 31 31.4000000  0  3G26G31G16                                       
  21868971.43049 114922219.03949     13690.92649        49.000  
  22455386.53149 118003851.77349     12857.70349        50.000  
  22353710.91449 117469543.32049        75.92249        49.000  
 16 04 02 12 31 31.5000000  0  3G26G31G16                                       
  21868710.92249 114920850.15249     13686.73849        49.000  
  22455141.89849 118002566.22749     12852.98449        50.000  
  22353709.50049 117469535.91449        72.00849        49.000  
 16 04 02 12 31 31.6000000  0  3G26G31G16                                       
  21868450.52349 114919481.75849     13681.52749        49.000  
  22454897.37549 118001281.22749     12847.14849        50.000  
  22353708.18049 117469528.96549        67.14849        49.000  
 16 04 02 12 31 31.7000000  0  3G26G31G16                                       
  21868190.22749 114918113.87549     13676.46949        49.000  
  22454652.95349 117999996.80149     12841.52749        50.000  
  22353706.94549 117469522.50849        62.34449        49.000  
 16 04 02 12 31 31.8000000  0  3G26G31G16                                       
  21867930.01649 114916746.45749     13671.86749        49.000  
  22454408.65649 117998712.88749     12836.37149        50.000  
  22353705.80549 117469516.47349        58.05149        49.000  
 16 04 02 12 31 31.9000000  0  3G26G31G16                                       
  21867669.89149 114915379.50049     13667.14149        49.000  
  22454164.43849 117997429.49649     12831.10549        50.000  
  22353704.74249 117469510.87549        53.57849        49.000  
 16 04 02 12 31 32.0000000  0  3G26G31G16                                       
  21867409.86749 114914013.08249     13661.76249        49.000  
  22453920.35249 117996146.70349     12825.09849        50.000  
  22353703.77349 117469505.79349        48.49249        49.000  
 16 04 02 12 31 32.1000000  0  3G26G31G16                                       
  21867149.93049 114912647.09049     13657.57049        49.000  
  22453676.32849 117994864.38349     12820.53949        50.000  
  22353702.88349 117469501.09849        44.71149        49.000  
 16 04 02 12 31 32.2000000  0  3G26G31G16                                       
  21866890.07849 114911281.56249     13652.91449        49.000  
  22453432.42249 117993582.59849     12815.01249        50.000  
  22353702.07049 117469496.84449        40.27749        49.000  
 16 04 02 12 31 32.3000000  0  3G26G31G16                                       
  21866630.32049 114909916.53949     13647.91449        49.000  
  22453188.60949 117992301.34849     12809.82849        50.000  
  22353701.35249 117469493.05549        35.65649        49.000  
 16 04 02 12 31 32.4000000  0  3G26G31G16                                       
  21866370.64149 114908551.93049     13643.77349        49.000  
  22452944.87549 117991020.59049     12804.85549        50.000  
  22353700.71149 117469489.65649        31.71549        49.000  
 16 04 02 12 31 32.5000000  0  3G26G31G16                                       
  21866111.06249 114907187.85949     13638.62149        49.000  
  22452701.26649 117989740.42249     12799.26649        50.000  
  22353700.15649 117469486.77349        26.73049        49.000  
 16 04 02 12 31 32.6000000  0  3G26G31G16                                       
  21865851.57049 114905824.20349     13634.15649        49.000  
  22452457.74249 117988460.71949     12794.22349        50.000  
  22353699.67249 117469484.27049        22.66049        49.000  
 16 04 02 12 31 32.7000000  0  3G26G31G16                                       
  21865592.18849 114904461.07449     13628.92649        49.000  
  22452214.33649 117987181.59849     12788.46149        50.000  
  22353699.28949 117469482.25049        17.90249        49.000  
 16 04 02 12 31 32.8000000  0  3G26G31G16                                       
  21865332.86749 114903098.32849     13625.19949        49.000  
  22451971.01649 117985902.93049     12784.10249        50.000  
  22353698.97749 117469480.60549        14.34449        49.000  
 16 04 02 12 31 32.9000000  0  3G26G31G16                                       
  21865073.64149 114901736.11749     13619.88349        49.000  
  22451727.80549 117984624.84449     12778.19549        50.000  
  22353698.75849 117469479.44949         9.41449        49.000  
 16 04 02 12 31 33.0000000  0  3G26G31G16                                       
  21864814.51649 114900374.38349     13615.12549        49.000  
  22451484.69549 117983347.28549     12773.00049        50.000  
  22353698.62549 117469478.75449         4.89149        49.000  
 16 04 02 12 31 33.1000000  0  3G26G31G16                                       
  21864555.46949 114899013.04749     13610.94949        49.000  
  22451241.67249 117982070.18449     12768.23049        50.000  
  22353698.55549 117469478.41449         1.06249        49.000  
 16 04 02 12 31 33.2000000  0  3G26G31G16                                       
  21864296.50849 114897652.17249     13606.35249        49.000  
  22450998.73449 117980793.59449     12763.09049        50.000  
  22353698.57849 117469478.50849        -3.27049        49.000  
 16 04 02 12 31 33.3000000  0  3G26G31G16                                       
  21864037.62549 114896291.85549     13600.99249        49.000  
  22450755.93049 117979517.63349     12757.08249        50.000  
  22353698.70349 117469479.13749        -8.32049        49.000  
 16 04 02 12 31 33.4000000  0  3G26G31G16                                       
  21863778.85249 114894931.98449     13596.32449        49.000  
  22450513.21949 117978242.16849     12751.87549        50.000  
  22353698.89849 117469480.17649       -12.66449        49.000  
 16 04 02 12 31 33.5000000  0  3G26G31G16                                       
  21863520.15649 114893572.53549     13592.16849        49.000  
  22450270.59449 117976967.17249     12747.23049        50.000  
  22353699.16449 117469481.60549       -16.52749        49.000  
 16 04 02 12 31 33.6000000  0  3G26G31G16                                       
  21863261.55549 114892213.56649     13587.41849        49.000  
  22450028.07849 117975692.72749     12741.84449        50.000  
  22353699.52349 117469483.49249       -21.07049        49.000  
 16 04 02 12 31 33.7000000  0  3G26G31G16                                       
  21863003.05549 114890855.09049     13582.48849        49.000  
  22449785.66449 117974418.82449     12736.34449        50.000  
  22353699.96949 117469485.84049       -25.72349        49.000  
 16 04 02 12 31 33.8000000  0  3G26G31G16                                       
  21862744.62549 114889497.04749     13578.09449        49.000  
  22449543.35249 117973145.40649     12731.44949        50.000  
  22353700.49249 117469488.57849       -29.57449        49.000  
 16 04 02 12 31 33.9000000  0  3G26G31G16                                       
  21862486.29749 114888139.46549     13573.57849        49.000  
  22449301.12549 117971872.51249     12726.40649        50.000  
  22353701.10249 117469491.76249       -33.94149        49.000  
 16 04 02 12 31 34.0000000  0  3G26G31G16                                       
  21862228.04749 114886782.36349     13568.83249        49.000  
  22449058.99249 117970600.14549     12721.02349        50.000  
  22353701.78949 117469495.39549       -38.43849        49.000  
 16 04 02 12 31 34.1000000  0  3G26G31G16                                       
  21861969.87549 114885425.77349     13563.44549        49.000  
  22448816.97749 117969328.35549     12715.04749        50.000  
  22353702.57849 117469499.50449       -43.47349        49.000  
 16 04 02 12 31 34.2000000  0  3G26G31G16                                       
  21861711.82049 114884069.66849     13558.69949        49.000  
  22448575.06249 117968057.09049     12709.89849        50.000  
  22353703.44549 117469504.05949       -47.88749        49.000  
 16 04 02 12 31 34.3000000  0  3G26G31G16                                       
  21861453.86749 114882714.03149     13553.86349        49.000  
  22448333.25849 117966786.36749     12704.41449        50.000  
  22353704.39849 117469509.07049       -52.52049        49.000  
 16 04 02 12 31 34.4000000  0  3G26G31G16                                       
  21861195.97749 114881358.80949     13549.87949        49.000  
  22448091.52349 117965516.10249     12699.90649        50.000  
  22353705.42249 117469514.44949       -56.12149        49.000  
 16 04 02 12 31 34.5000000  0  3G26G31G16                                       
  21860938.17249 114880004.09049     13545.08249        49.000  
  22447849.91449 117964246.42249     12694.32049        50.000  
  22353706.53949 117469520.32049       -60.71149        49.000  
 16 04 02 12 31 34.6000000  0  3G26G31G16                                       
  21860680.47749 114878649.89549     13539.64549        49.000  
  22447608.40649 117962977.28949     12688.54349        50.000  
  22353707.75049 117469526.66849       -65.75849        49.000  
 16 04 02 12 31 34.7000000  0  3G26G31G16                                       
  21860422.85949 114877296.12949     13535.35949        49.000  
  22447366.99249 117961708.65649     12683.67249        50.000  
  22353709.03149 117469533.41849       -69.75049        49.000  
 16 04 02 12 31 34.8000000  0  3G26G31G16                                       
  21860165.33649 114875942.84449     13530.64149        49.000  
  22447125.66449 117960440.55949     12678.33649        50.000  
  22353710.40649 117469540.62549       -74.22349        49.000  
 16 04 02 12 31 34.9000000  0  3G26G31G16                                       
  21859907.89849 114874590.01649     13525.94549        49.000  
  22446884.45349 117959172.96949     12673.08249        50.000  
  22353711.85949 117469548.24249       -78.48849        49.000  
 16 04 02 12 31 35.0000000  0  3G26G31G16                                       
  21859650.55549 114873237.67649     13521.16049        49.000  
  22446643.35249 117957905.93049     12667.81249        50.000  
  22353713.39849 117469556.33649       -83.07449        49.000  
 16 04 02 12 31 35.1000000  0  3G26G31G16                                       
  21859393.28949 114871885.79749     13516.43049        49.000  
  22446402.33649 117956639.40249     12662.53949        50.000  
  22353715.01649 117469564.85549       -87.52049        49.000  
 16 04 02 12 31 35.2000000  0  3G26G31G16                                       
  21859136.13349 114870534.40249     13511.68049        49.000  
  22446161.42249 117955373.42649     12657.11749        50.000  
  22353716.72749 117469573.82449       -91.85949        49.000  
 16 04 02 12 31 35.3000000  0  3G26G31G16                                       
  21858879.06249 114869183.52049     13506.54349        49.000  
  22445920.61749 117954108.00049     12651.59449        50.000  
  22353718.52349 117469583.27349       -96.66049        49.000  
 16 04 02 12 31 35.4000000  0  3G26G31G16                                       
  21858622.07849 114867833.05949     13502.16049        49.000  
  22445679.89849 117952843.06249     12646.57049        50.000  
  22353720.39149 117469593.12149      -100.85549        49.000  
 16 04 02 12 31 35.5000000  0  3G26G31G16                                       
  21858365.17249 114866483.08649     13497.53149        49.000  
  22445439.29749 117951578.67249     12641.37549        50.000  
  22353722.35249 117469603.42249      -105.11349        49.000  
 16 04 02 12 31 35.6000000  0  3G26G31G16                                       
  21858108.35949 114865133.56249     13493.03949        49.000  
  22445198.78949 117950314.78549     12636.21949        50.000  
  22353724.39149 117469614.13749      -109.32049        49.000  
 16 04 02 12 31 35.7000000  0  3G26G31G16                                       
  21857851.64149 114863784.50049     13488.38349        49.000  
  22444958.37549 117949051.41449     12631.07849        50.000  
  22353726.51649 117469625.29349      -113.77049        49.000  
 16 04 02 12 31 35.8000000  0  3G26G31G16                                       
  21857595.03949 114862436.02349     13482.52349        49.000  
  22444718.08649 117947788.67649     12624.79349        50.000  
  22353728.74249 117469636.98849      -119.07849        49.000  
 16 04 02 12 31 35.9000000  0  3G26G31G16                                       
  21857338.50049 114861087.91849     13478.55949        49.000  
  22444477.88349 117946526.37949     12620.08249        50.000  
  22353731.03149 117469649.03949      -122.87549        49.000  
 16 04 02 12 31 36.0000000  0  3G26G31G16                                       
  21857082.04749 114859740.25849     13474.25049        49.000  
  22444237.78949 117945264.56649     12615.31249        50.000  
  22353733.39849 117469661.50049      -126.92649        49.000  
 16 04 02 12 31 36.1000000  0  3G26G31G16                                       
  21856825.70349 114858393.10249     13469.47349        49.000  
  22443997.78149 117944003.33249     12609.87549        50.000  
  22353735.85949 117469674.43449      -131.32449        49.000  
 16 04 02 12 31 36.2000000  0  3G26G31G16                                       
  21856569.43849 114857046.41849     13464.64849        49.000  
  22443757.85949 117942742.61349     12604.54749        50.000  
  22353738.40649 117469687.81249      -136.00849        49.000  
 16 04 02 12 31 36.3000000  0  3G26G31G16                                       
  21856313.26649 114855700.20749     13459.68849        49.000  
  22443518.04749 117941482.41849     12599.19949        50.000  
  22353741.03149 117469701.62149      -140.48049        49.000  
 16 04 02 12 31 36.4000000  0  3G26G31G16                                       
  21856057.17249 114854354.42649     13455.62949        49.000  
  22443278.33649 117940222.72349     12594.43849        50.000  
  22353743.73449 117469715.82849      -144.22349        49.000  
 16 04 02 12 31 36.5000000  0  3G26G31G16                                       
  21855801.16449 114853009.10949     13450.93449        49.000  
  22443038.71949 117938963.54349     12589.21949        50.000  
  22353746.52349 117469730.48049      -148.60549        49.000  
 16 04 02 12 31 36.6000000  0  3G26G31G16                                       
  21855545.25049 114851664.25849     13446.15649        49.000  
  22442799.21949 117937704.88749     12583.83649        50.000  
  22353749.39849 117469745.57449      -153.21949        49.000  
 16 04 02 12 31 36.7000000  0  3G26G31G16                                       
  21855289.40649 114850319.85949     13441.68049        49.000  
  22442559.80549 117936446.73049     12578.87149        50.000  
  22353752.34449 117469761.06249      -157.13349        49.000  
 16 04 02 12 31 36.8000000  0  3G26G31G16                                       
  21855033.67249 114848975.94549     13436.85949        49.000  
  22442320.48449 117935189.11349     12573.52349        50.000  
  22353755.38349 117469777.02749      -161.87149        49.000  
 16 04 02 12 31 36.9000000  0  3G26G31G16                                       
  21854778.03149 114847632.53549     13431.63349        49.000  
  22442081.28149 117933932.07449     12567.60949        50.000  
  22353758.50849 117469793.45749      -166.68849        49.000  
 16 04 02 12 31 37.0000000  0  3G26G31G16                                       
  21854522.46949 114846289.53149     13427.66849        49.000  
  22441842.17249 117932675.48449     12563.13349        50.000  
  22353761.70349 117469810.25849      -170.32849        49.000  
 16 04 02 12 31 37.1000000  0  3G26G31G16                                       
  21854266.99249 114844947.00849     13422.93449        49.000  
  22441603.15649 117931419.43849     12557.75049        50.000  
  22353764.99249 117469827.52349      -174.89149        49.000  
 16 04 02 12 31 37.2000000  0  3G26G31G16                                       
  21854011.60949 114843604.98449     13418.03149        49.000  
  22441364.23449 117930163.93849     12552.37549        50.000  
  22353768.35949 117469845.24649      -179.35949        49.000  
 16 04 02 12 31 37.3000000  0  3G26G31G16                                       
  21853756.32849 114842263.39849     13413.47349        49.000  
  22441125.41449 117928908.92649     12547.30949        50.000  
  22353771.81249 117469863.36749      -183.48449        49.000  
 16 04 02 12 31 37.4000000  0  3G26G31G16                                       
  21853501.13349 114840922.33649     13408.35949        49.000  
  22440886.69549 117927654.50449     12541.52049        50.000  
  22353775.35249 117469881.99249      -188.48049        49.000  
 16 04 02 12 31 37.5000000  0  3G26G31G16                                       
  21853246.01649 114839581.72349     13403.97349        49.000  
  22440648.08649 117926400.59049     12536.57849        50.000  
  22353778.97749 117469901.03549      -192.53549        49.000  
 16 04 02 12 31 37.6000000  0  3G26G31G16                                       
  21852990.98449 114838241.55949     13399.46149        49.000  
  22440409.57049 117925147.16849     12531.68049        50.000  
  22353782.68049 117469920.49249      -196.71949        49.000  
 16 04 02 12 31 37.7000000  0  3G26G31G16                                       
  21852736.04749 114836901.85949     13394.71549        49.000  
  22440171.14849 117923894.27049     12526.24249        50.000  
  22353786.46149 117469940.37949      -201.16049        49.000  
 16 04 02 12 31 37.8000000  0  3G26G31G16                                       
  21852481.21149 114835562.69549     13389.35949        49.000  
  22439932.83649 117922641.96949     12520.46949        50.000  
  22353790.34449 117469960.77349      -206.03549        49.000  
 16 04 02 12 31 37.9000000  0  3G26G31G16                                       
  21852226.45349 114834223.89849     13385.73049        49.000  
  22439694.60949 117921390.09449     12516.19149        50.000  
  22353794.28949 117469981.51249      -209.55549        49.000  
 16 04 02 12 31 38.0000000  0  3G26G31G16                                       
  21851971.78149 114832885.57449     13380.96549        49.000  
  22439456.49249 117920138.74649     12510.72749        50.000  
  22353798.32049 117470002.68849      -214.02049        49.000  
 16 04 02 12 31 38.1000000  0  3G26G31G16                                       
  21851717.21149 114831547.82449     13375.25449        49.000  
  22439218.49249 117918888.02049     12504.68449        50.000  
  22353802.45349 117470024.40649      -219.33649        49.000  
 16 04 02 12 31 38.2000000  0  3G26G31G16                                       
  21851462.73449 114830210.52049     13370.80549        49.000  
  22438980.57049 117917637.78949     12499.66449        50.000  
  22353806.66449 117470046.52349      -223.36349        49.000  
 16 04 02 12 31 38.3000000  0  3G26G31G16                                       
  21851208.32049 114828873.59049     13366.96549        49.000  
  22438742.75049 117916388.02049     12494.93049        50.000  
  22353810.93849 117470069.01249      -227.21549        49.000  
 16 04 02 12 31 38.4000000  0  3G26G31G16                                       
  21850954.00849 114827537.18049     13361.92249        49.000  
  22438505.02349 117915138.78149     12489.78549        50.000  
  22353815.30549 117470091.95349      -231.60549        49.000  
 16 04 02 12 31 38.5000000  0  3G26G31G16                                       
  21850699.78149 114826201.21949     13357.36349        49.000  
  22438267.40649 117913890.08649     12484.32049        50.000  
  22353819.75849 117470115.34849      -236.10949        49.000  
 16 04 02 12 31 38.6000000  0  3G26G31G16                                       
  21850445.65649 114824865.78549     13352.12949        49.000  
  22438029.89849 117912641.95349     12478.74249        50.000  
  22353824.29749 117470139.21549      -240.77749        49.000  
 16 04 02 12 31 38.7000000  0  3G26G31G16                                       
  21850191.63349 114823530.82049     13347.23049        49.000  
  22437792.48449 117911394.34849     12473.31649        50.000  
  22353828.92249 117470163.52749      -245.46549        49.000  
 16 04 02 12 31 38.8000000  0  3G26G31G16                                       
  21849937.68849 114822196.31249     13342.78149        49.000  
  22437555.17249 117910147.26649     12468.16449        50.000  
  22353833.62549 117470188.25849      -249.53149        49.000  
 16 04 02 12 31 38.9000000  0  3G26G31G16                                       
  21849683.81249 114820862.27749     13337.95349        49.000  
  22437317.95349 117908900.70349     12462.86349        50.000  
  22353838.42249 117470213.44549      -254.15249        49.000  
 16 04 02 12 31 39.0000000  0  3G26G31G16                                       
  21849430.04749 114819528.71549     13333.44149        49.000  
  22437080.83649 117907654.67249     12457.68049        50.000  
  22353843.29749 117470239.06249      -258.23849        49.000  
 16 04 02 12 31 39.1000000  0  3G26G31G16                                       
  21849176.37549 114818195.61349     13328.89549        49.000  
  22436843.82049 117906409.15649     12452.73849        50.000  
  22353848.25049 117470265.10549      -262.43049        49.000  
 16 04 02 12 31 39.2000000  0  3G26G31G16                                       
  21848922.77349 114816862.95349     13324.31249        49.000  
  22436606.91449 117905164.12949     12447.57449        50.000  
  22353853.28949 117470291.56649      -266.77749        49.000  
 16 04 02 12 31 39.3000000  0  3G26G31G16                                       
  21848669.28149 114815530.81649     13318.86749        49.000  
  22436370.10249 117903919.69149     12441.54349        50.000  
  22353858.41449 117470318.51249      -271.84049        49.000  
 16 04 02 12 31 39.4000000  0  3G26G31G16                                       
  21848415.87549 114814199.14849     13314.28149        49.000  
  22436133.39849 117902675.77349     12436.38349        50.000  
  22353863.62549 117470345.90249      -276.19549        49.000  
 16 04 02 12 31 39.5000000  0  3G26G31G16                                       
  21848162.54749 114812867.90649     13310.19149        49.000  
  22435896.78149 117901432.34049     12431.70349        50.000  
  22353868.91449 117470373.68049      -279.98849        49.000  
 16 04 02 12 31 39.6000000  0  3G26G31G16                                       
  21847909.31249 114811537.14149     13305.21549        49.000  
  22435660.25849 117900189.43849     12426.22749        50.000  
  22353874.28949 117470401.91049      -284.70349        49.000  
 16 04 02 12 31 39.7000000  0  3G26G31G16                                       
  21847656.17249 114810206.91449     13299.97349        49.000  
  22435423.85249 117898947.12549     12420.48449        50.000  
  22353879.75849 117470430.64149      -289.54349        49.000  
 16 04 02 12 31 39.8000000  0  3G26G31G16                                       
  21847403.13349 114808877.16849     13294.87149        49.000  
  22435187.55549 117897705.36349     12414.64149        50.000  
  22353885.30549 117470459.82049      -294.35549        49.000  
 16 04 02 12 31 39.9000000  0  3G26G31G16                                       
  21847150.20349 114807547.94549     13289.82849        49.000  
  22434951.35949 117896464.16449     12409.20349        50.000  
  22353890.95349 117470489.48849      -298.93449        49.000  
 16 04 02 12 31 40.0000000  0  3G26G31G16                                       
  21846897.33649 114806219.12549     13285.83249        49.000  
  22434715.25049 117895223.43449     12404.55149        50.000  
  22353896.67249 117470519.53549      -302.73449        49.000  
 16 04 02 12 31 40.1000000  0  3G26G31G16                                       
  21846644.55549 114804890.80549     13280.92249        49.000  
  22434479.25849 117893983.25449     12399.16449        50.000  
  22353902.47749 117470550.05149      -307.35249        49.000  
 16 04 02 12 31 40.2000000  0  3G26G31G16                                       
  21846391.85949 114803562.90249     13276.72349        49.000  
  22434243.33649 117892743.53949     12394.50449        50.000  
  22353908.35949 117470580.93449      -311.05549        49.000  
 16 04 02 12 31 40.3000000  0  3G26G31G16                                       
  21846139.25849 114802235.46549     13272.18449        49.000  
  22434007.53149 117891504.36349     12389.21149        50.000  
  22353914.32049 117470612.27749      -315.48449        49.000  
 16 04 02 12 31 40.4000000  0  3G26G31G16                                       
  21845886.75049 114800908.53149     13267.12149        49.000  
  22433771.82049 117890265.73849     12383.62549        50.000  
  22353920.37549 117470644.07449      -320.12149        49.000  
 16 04 02 12 31 40.5000000  0  3G26G31G16                                       
  21845634.31249 114799582.01649     13262.98049        49.000  
  22433536.21149 117889027.59449     12378.91049        50.000  
  22353926.50049 117470676.26249      -324.00849        49.000  
 16 04 02 12 31 40.6000000  0  3G26G31G16                                       
  21845381.97749 114798255.98449     13257.89849        49.000  
  22433300.70349 117887789.97349     12373.33649        50.000  
  22353932.71949 117470708.90649      -328.84049        49.000  
 16 04 02 12 31 40.7000000  0  3G26G31G16                                       
  21845129.73449 114796930.45749     13253.01649        49.000  
  22433065.29749 117886552.92649     12367.92249        50.000  
  22353939.01649 117470742.00849      -333.15249        49.000  
 16 04 02 12 31 40.8000000  0  3G26G31G16                                       
  21844877.58649 114795605.39149     13248.36749        49.000  
  22432829.99249 117885316.38749     12362.67649        50.000  
  22353945.39849 117470775.55149      -337.64149        49.000  
 16 04 02 12 31 40.9000000  0  3G26G31G16                                       
  21844625.54749 114794280.87549     13242.84849        49.000  
  22432594.80549 117884080.45349     12356.66449        50.000  
  22353951.87549 117470809.61349      -342.81649        49.000  
 16 04 02 12 31 41.0000000  0  3G26G31G16                                       
  21844373.57849 114792956.77049     13238.84449        49.000  
  22432359.69549 117882844.99649     12352.09849        50.000  
  22353958.42249 117470844.04749      -346.43049        49.000  
 16 04 02 12 31 41.1000000  0  3G26G31G16                                       
  21844121.68049 114791633.05149     13234.85249        49.000  
  22432124.68049 117881609.97749     12347.54349        50.000  
  22353965.04749 117470878.83649      -350.05949        49.000  
 16 04 02 12 31 41.2000000  0  3G26G31G16                                       
  21843869.89149 114790309.89849     13229.23449        49.000  
  22431889.77349 117880375.57449     12341.32849        50.000  
  22353971.76649 117470914.16449      -355.44549        49.000  
 16 04 02 12 31 41.3000000  0  3G26G31G16                                       
  21843618.18049 114788987.19549     13224.57849        49.000  
  22431654.97749 117879141.68449     12336.02049        50.000  
  22353978.57049 117470949.91449      -359.93849        49.000  
 16 04 02 12 31 41.4000000  0  3G26G31G16                                       
  21843366.57049 114787664.95349     13220.11749        49.000  
  22431420.28149 117877908.29349     12331.16849        50.000  
  22353985.45349 117470986.07449      -363.93049        49.000  
 16 04 02 12 31 41.5000000  0  3G26G31G16                                       
  21843115.03949 114786343.16849     13215.51649        49.000  
  22431185.67249 117876675.43449     12325.80949        50.000  
  22353992.41449 117471022.66849      -368.25449        49.000  
 16 04 02 12 31 41.6000000  0  3G26G31G16                                       
  21842863.60949 114785021.90649     13210.28549        49.000  
  22430951.16449 117875443.14849     12320.10949        50.000  
  22353999.47749 117471059.76649      -373.21949        49.000  
 16 04 02 12 31 41.7000000  0  3G26G31G16                                       
  21842612.27349 114783701.06649     13206.21549        49.000  
  22430716.75849 117874211.34049     12315.50049        50.000  
  22354006.60949 117471097.23449      -376.92249        49.000  
 16 04 02 12 31 41.8000000  0  3G26G31G16                                       
  21842361.01649 114782380.72349     13201.21149        49.000  
  22430482.47749 117872980.08649     12309.84449        50.000  
  22354013.82849 117471135.16849      -381.52749        49.000  
 16 04 02 12 31 41.9000000  0  3G26G31G16                                       
  21842109.85249 114781060.86349     13196.21149        49.000  
  22430248.27349 117871749.35549     12304.56649        50.000  
  22354021.13349 117471173.55549      -386.11349        49.000  
 16 04 02 12 31 42.0000000  0  3G26G31G16                                       
  21841858.78149 114779741.47349     13191.49249        49.000  
  22430014.18049 117870519.16849     12299.15649        50.000  
  22354028.52349 117471212.38349      -390.51649        49.000  
 16 04 02 12 31 42.1000000  0  3G26G31G16                                       
  21841607.80549 114778422.59849     13186.32849        49.000  
  22429780.18849 117869289.53549     12293.57449        50.000  
  22354036.00049 117471251.68849      -395.35549        49.000  
 16 04 02 12 31 42.2000000  0  3G26G31G16                                       
  21841356.91449 114777104.13349     13182.35249        49.000  
  22429546.30549 117868060.39549     12288.85549        50.000  
  22354043.55549 117471291.38749      -399.12149        49.000  
 16 04 02 12 31 42.3000000  0  3G26G31G16                                       
  21841106.11749 114775786.19949     13177.03549        49.000  
  22429312.51649 117866831.82449     12282.96549        50.000  
  22354051.20349 117471331.57049      -404.01649        49.000  
 16 04 02 12 31 42.4000000  0  3G26G31G16                                       
  21840855.39849 114774468.68449     13172.84049        49.000  
  22429078.79749 117865603.72349     12278.36749        50.000  
  22354058.91449 117471372.14149      -407.86749        49.000  
 16 04 02 12 31 42.5000000  0  3G26G31G16                                       
  21840604.78949 114773151.66449     13167.96949        49.000  
  22428845.20349 117864376.18449     12272.77049        50.000  
  22354066.72749 117471413.18449      -412.42649        49.000  
 16 04 02 12 31 42.6000000  0  3G26G31G16                                       
  21840354.26649 114771835.15249     13162.71149        49.000  
  22428611.71949 117863149.19949     12266.98449        50.000  
  22354074.62549 117471454.69149      -417.52049        49.000  
 16 04 02 12 31 42.7000000  0  3G26G31G16                                       
  21840103.83649 114770519.11749     13158.07049        49.000  
  22428378.32849 117861922.74249     12261.88749        50.000  
  22354082.60249 117471496.64149      -421.72749        49.000  
 16 04 02 12 31 42.8000000  0  3G26G31G16                                       
  21839853.48449 114769203.52349     13153.43849        49.000  
  22428145.04749 117860696.80149     12256.57849        50.000  
  22354090.67249 117471539.00449      -425.97349        49.000  
 16 04 02 12 31 42.9000000  0  3G26G31G16                                       
  21839603.22749 114767888.38749     13149.21149        49.000  
  22427911.85249 117859471.35949     12251.89149        50.000  
  22354098.81249 117471581.79349      -429.91449        49.000  
 16 04 02 12 31 43.0000000  0  3G26G31G16                                       
  21839353.05549 114766573.73449     13144.12549        49.000  
  22427678.75849 117858246.45749     12246.20349        50.000  
  22354107.03949 117471625.03549      -434.73449        49.000  
 16 04 02 12 31 43.1000000  0  3G26G31G16                                       
  21839102.96949 114765259.57449     13139.41849        49.000  
  22427445.77349 117857022.10249     12240.95349        50.000  
  22354115.35249 117471668.73049      -439.03549        49.000  
 16 04 02 12 31 43.2000000  0  3G26G31G16                                       
  21838852.96149 114763945.80149     13135.41449        49.000  
  22427212.87549 117855798.19149     12236.46149        50.000  
  22354123.73449 117471712.77749      -442.64549        49.000  
 16 04 02 12 31 43.3000000  0  3G26G31G16                                       
  21838603.04749 114762632.49649     13130.87949        49.000  
  22426980.07049 117854574.80949     12231.32049        50.000  
  22354132.20349 117471757.26649      -446.95349        49.000  
 16 04 02 12 31 43.4000000  0  3G26G31G16                                       
  21838353.22749 114761319.68049     13125.87149        49.000  
  22426747.37549 117853351.96149     12225.81249        50.000  
  22354140.75049 117471802.21149      -451.57049        49.000  
 16 04 02 12 31 43.5000000  0  3G26G31G16                                       
  21838103.49249 114760007.31649     13121.08649        49.000  
  22426514.77349 117852129.62949     12220.50049        50.000  
  22354149.38349 117471847.57049      -456.08649        49.000  
 16 04 02 12 31 43.6000000  0  3G26G31G16                                       
  21837853.85249 114758695.44149     13116.55549        49.000  
  22426282.28149 117850907.84449     12215.30549        50.000  
  22354158.10249 117471893.39549      -460.32849        49.000  
 16 04 02 12 31 43.7000000  0  3G26G31G16                                       
  21837604.30549 114757384.05949     13111.23449        49.000  
  22426049.88349 117849686.59849     12209.52749        50.000  
  22354166.91449 117471939.67649      -465.30949        49.000  
 16 04 02 12 31 43.8000000  0  3G26G31G16                                       
  21837354.85949 114756073.19549     13106.28149        49.000  
  22425817.59449 117848465.93049     12203.96149        50.000  
  22354175.81249 117471986.43049      -469.79749        49.000  
 16 04 02 12 31 43.9000000  0  3G26G31G16                                       
  21837105.50049 114754762.77049     13102.02049        49.000  
  22425585.39849 117847245.75449     12199.11349        50.000  
  22354184.78949 117472033.60549      -473.83649        49.000  
 16 04 02 12 31 44.0000000  0  3G26G31G16                                       
  21836856.22749 114753452.82849     13097.28149        49.000  
  22425353.31249 117846026.12149     12193.89149        50.000  
  22354193.84449 117472081.21949      -478.09849        49.000  
 16 04 02 12 31 44.1000000  0  3G26G31G16                                       
  21836607.00849 114752143.22349     13093.82049        49.000  
  22425121.29749 117844806.87949     12189.91849        50.000  
  22354202.96949 117472129.14849      -481.39549        49.000  
 16 04 02 12 31 44.2000000  0  3G26G31G16                                       
  21836357.88349 114750834.08649     13089.21549        49.000  
  22424889.39849 117843588.16849     12184.47749        50.000  
  22354212.17249 117472177.51249      -485.82049        49.000  
 16 04 02 12 31 44.3000000  0  3G26G31G16                                       
  21836108.85949 114749525.46149     13084.02349        49.000  
  22424657.58649 117842370.01249     12178.89849        50.000  
  22354221.46149 117472226.34449      -490.54749        49.000  
 16 04 02 12 31 44.4000000  0  3G26G31G16                                       
  21835859.93049 114748217.30949     13079.29349        49.000  
  22424425.86749 117841152.38749     12173.55149        50.000  
  22354230.84449 117472275.60949      -494.89849        49.000  
 16 04 02 12 31 44.5000000  0  3G26G31G16                                       
  21835611.07849 114746909.62149     13074.61349        49.000  
  22424194.25849 117839935.28149     12168.40249        50.000  
  22354240.30549 117472325.32849      -499.30549        49.000  
 16 04 02 12 31 44.6000000  0  3G26G31G16                                       
  21835362.31249 114745602.36349     13070.13749        49.000  
  22423962.75049 117838718.65649     12163.44149        50.000  
  22354249.82849 117472375.42249      -503.30549        49.000  
 16 04 02 12 31 44.7000000  0  3G26G31G16                                       
  21835113.64849 114744295.62149     13064.99649        49.000  
  22423731.34449 117837502.61349     12157.66049        50.000  
  22354259.46149 117472426.01649      -508.23049        49.000  
 16 04 02 12 31 44.8000000  0  3G26G31G16                                       
  21834865.09449 114742989.42249     13059.57849        49.000  
  22423500.05549 117836287.16849     12151.59849        50.000  
  22354269.18049 117472477.10949      -513.29349        49.000  
 16 04 02 12 31 44.9000000  0  3G26G31G16                                       
  21834616.60949 114741683.62949     13055.56649        49.000  
  22423268.85249 117835072.17649     12147.16049        50.000  
  22354278.97749 117472528.58249      -517.00049        49.000  
 16 04 02 12 31 45.0000000  0  3G26G31G16                                       
  21834368.22749 114740378.34049     13050.63749        49.000  
  22423037.74249 117833857.75049     12141.64849        50.000  
  22354288.86749 117472580.52349      -521.60949        49.000  
 16 04 02 12 31 45.1000000  0  3G26G31G16                                       
  21834119.91449 114739073.46949     13046.53149        49.000  
  22422806.74249 117832643.79749     12136.91449        50.000  
  22354298.82049 117472632.85249      -525.44549        49.000  
 16 04 02 12 31 45.2000000  0  3G26G31G16                                       
  21833871.70349 114737769.10549     13041.45349        49.000  
  22422575.82849 117831430.39149     12131.55549        50.000  
  22354308.85949 117472685.63349      -529.89149        49.000  
 16 04 02 12 31 45.3000000  0  3G26G31G16                                       
  21833623.57849 114736465.19949     13036.66849        49.000  
  22422345.02349 117830217.51649     12126.06649        50.000  
  22354318.98449 117472738.86349      -534.52749        49.000  
 16 04 02 12 31 45.4000000  0  3G26G31G16                                       
  21833375.54749 114735161.78549     13031.68849        49.000  
  22422114.32849 117829005.18849     12120.44949        50.000  
  22354329.19549 117472792.54749      -539.21949        49.000  
 16 04 02 12 31 45.5000000  0  3G26G31G16                                       
  21833127.60949 114733858.83649     13027.19549        49.000  
  22421883.72749 117827793.37549     12115.53549        50.000  
  22354339.49249 117472846.65249      -543.21949        49.000  
 16 04 02 12 31 45.6000000  0  3G26G31G16                                       
  21832879.76649 114732556.38349     13022.03949        49.000  
  22421653.23449 117826582.10549     12109.86749        50.000  
  22354349.88349 117472901.23049      -548.14549        49.000  
 16 04 02 12 31 45.7000000  0  3G26G31G16                                       
  21832632.00849 114731254.41449     13017.35549        49.000  
  22421422.84449 117825371.39849     12104.48049        50.000  
  22354360.35249 117472956.25449      -552.42249        49.000  
 16 04 02 12 31 45.8000000  0  3G26G31G16                                       
  21832384.33649 114729952.90649     13012.78149        49.000  
  22421192.54749 117824161.18849     12099.44549        50.000  
  22354370.90649 117473011.70749      -556.74249        49.000  
 16 04 02 12 31 45.9000000  0  3G26G31G16                                       
  21832136.75849 114728651.84049     13008.32449        49.000  
  22420962.35249 117822951.48049     12094.46149        50.000  
  22354381.53149 117473067.56249      -560.75849        49.000  
 16 04 02 12 31 46.0000000  0  3G26G31G16                                       
  21831889.26649 114727351.27749     13003.30549        49.000  
  22420732.26649 117821742.34049     12088.77049        50.000  
  22354392.25049 117473123.90249      -565.57449        49.000  
 16 04 02 12 31 46.1000000  0  3G26G31G16                                       
  21831641.86749 114726051.15249     12998.92249        49.000  
  22420502.26649 117820533.68449     12083.75849        50.000  
  22354403.04749 117473180.64149      -569.72749        49.000  
 16 04 02 12 31 46.2000000  0  3G26G31G16                                       
  21831394.55549 114724751.51649     12994.20349        49.000  
  22420272.38349 117819325.57449     12078.56249        50.000  
  22354413.93049 117473237.83249      -574.04749        49.000  
 16 04 02 12 31 46.3000000  0  3G26G31G16                                       
  21831147.32849 114723452.33249     12989.51649        49.000  
  22420042.58649 117818117.95749     12073.44149        50.000  
  22354424.89149 117473295.42649      -578.25049        49.000  
 16 04 02 12 31 46.4000000  0  3G26G31G16                                       
  21830900.20349 114722153.64549     12984.49249        49.000  
  22419812.89849 117816910.91849     12067.61749        50.000  
  22354435.94549 117473353.50049      -583.01249        49.000  
 16 04 02 12 31 46.5000000  0  3G26G31G16                                       
  21830653.15649 114720855.42249     12979.74249        49.000  
  22419583.30549 117815704.38349     12062.50449        50.000  
  22354447.07849 117473412.00049      -587.32049        49.000  
 16 04 02 12 31 46.6000000  0  3G26G31G16                                       
  21830406.21149 114719557.70749     12974.72349        49.000  
  22419353.81249 117814498.41049     12056.94149        50.000  
  22354458.29749 117473470.98449      -592.12549        49.000  
 16 04 02 12 31 46.7000000  0  3G26G31G16                                       
  21830159.34449 114718260.44549     12970.35949        49.000  
  22419124.42249 117813292.95749     12051.88349        50.000  
  22354469.60249 117473530.37549      -596.15649        49.000  
 16 04 02 12 31 46.8000000  0  3G26G31G16                                       
  21829912.57849 114716963.64849     12965.66449        49.000  
  22418895.12549 117812088.00449     12046.87549        50.000  
  22354480.98449 117473590.19949      -600.42649        49.000  
 16 04 02 12 31 46.9000000  0  3G26G31G16                                       
  21829665.89849 114715667.31249     12960.92249        49.000  
  22418665.93049 117810883.58649     12041.48849        50.000  
  22354492.45349 117473650.44549      -604.72349        49.000  
 16 04 02 12 31 47.0000000  0  3G26G31G16                                       
  21829419.31249 114714371.49649     12955.64849        49.000  
  22418436.84449 117809679.73849     12035.64549        50.000  
  22354504.00849 117473711.18849      -609.70749        49.000  
 16 04 02 12 31 47.1000000  0  3G26G31G16                                       
  21829172.81249 114713076.12149     12951.34449        49.000  
  22418207.85249 117808476.37949     12030.77749        50.000  
  22354515.64149 117473772.33649      -613.77049        49.000  
 16 04 02 12 31 47.2000000  0  3G26G31G16                                       
  21828926.40649 114711781.26249     12946.38749        49.000  
  22417978.96949 117807273.59849     12025.31649        50.000  
  22354527.37549 117473833.95749      -618.21949        49.000  
 16 04 02 12 31 47.3000000  0  3G26G31G16                                       
  21828680.07849 114710486.79349     12942.39849        49.000  
  22417750.17249 117806071.26649     12020.71949        50.000  
  22354539.16449 117473895.94149      -622.10949        49.000  
 16 04 02 12 31 47.4000000  0  3G26G31G16                                       
  21828433.85249 114709192.84449     12937.20349        49.000  
  22417521.48449 117804869.50849     12014.94949        50.000  
  22354551.05549 117473958.41449      -626.82449        49.000  
 16 04 02 12 31 47.5000000  0  3G26G31G16                                       
  21828187.70349 114707899.37549     12932.23449        49.000  
  22417292.89849 117803668.27349     12009.53149        50.000  
  22354563.02349 117474021.32449      -631.38749        49.000  
 16 04 02 12 31 47.6000000  0  3G26G31G16                                       
  21827941.64849 114706606.35949     12927.85549        49.000  
  22417064.40649 117802467.57049     12004.34449        50.000  
  22354575.07849 117474084.66849      -635.63349        49.000  
 16 04 02 12 31 47.7000000  0  3G26G31G16                                       
  21827695.69549 114705313.82449     12923.05549        49.000  
  22416836.01649 117801267.37949     11999.28949        50.000  
  22354587.21149 117474148.44949      -639.94549        49.000  
 16 04 02 12 31 47.8000000  0  3G26G31G16                                       
  21827449.82849 114704021.77349     12918.09049        49.000  
  22416607.74249 117800067.73449     11993.67249        50.000  
  22354599.43049 117474212.66849      -644.51649        49.000  
 16 04 02 12 31 47.9000000  0  3G26G31G16                                       
  21827204.03149 114702730.19149     12913.32049        49.000  
  22416379.55549 117798868.62549     11988.35549        50.000  
  22354611.73449 117474277.34849      -649.02749        49.000  
 16 04 02 12 31 48.0000000  0  3G26G31G16                                       
  21826958.32849 114701439.03949     12909.28949        49.000  
  22416151.46149 117797669.99649     11983.59849        50.000  
  22354624.12549 117474342.41049      -652.87549        49.000  
 16 04 02 12 31 48.1000000  0  3G26G31G16                                       
  21826712.73449 114700148.40249     12904.05549        49.000  
  22415923.47749 117796471.92649     11978.08249        50.000  
  22354636.59449 117474407.94149      -657.55949        49.000  
 16 04 02 12 31 48.2000000  0  3G26G31G16                                       
  21826467.21149 114698858.18449     12899.97349        49.000  
  22415695.58649 117795274.33649     11973.19949        50.000  
  22354649.14849 117474473.87949      -661.52049        49.000  
 16 04 02 12 31 48.3000000  0  3G26G31G16                                       
  21826221.78949 114697568.45349     12895.15249        49.000  
  22415467.79749 117794077.29749     11967.82849        50.000  
  22354661.77349 117474540.25449      -665.91849        49.000  
 16 04 02 12 31 48.4000000  0  3G26G31G16                                       
  21825976.44549 114696279.17649     12890.47349        49.000  
  22415240.10249 117792880.74649     11962.82049        50.000  
  22354674.49249 117474607.05149      -670.10949        49.000  
 16 04 02 12 31 48.5000000  0  3G26G31G16                                       
  21825731.19549 114694990.37149     12885.73849        49.000  
  22415012.50849 117791684.74249     11957.44549        50.000  
  22354687.28149 117474674.28549      -674.54749        49.000  
 16 04 02 12 31 48.6000000  0  3G26G31G16                                       
  21825486.03149 114693702.03149     12880.84449        49.000  
  22414785.02349 117790489.25049     11952.02349        50.000  
  22354700.16449 117474741.95349      -679.15649        49.000  
 16 04 02 12 31 48.7000000  0  3G26G31G16                                       
  21825240.97749 114692414.25049     12875.37549        49.000  
  22414557.64149 117789294.38349     11946.01649        50.000  
  22354713.14149 117474810.15249      -684.34049        49.000  
 16 04 02 12 31 48.8000000  0  3G26G31G16                                       
  21824996.01649 114691126.97349     12870.25849        49.000  
  22414330.36749 117788100.06649     11940.27749        50.000  
  22354726.20349 117474878.81249      -689.03549        49.000  
 16 04 02 12 31 48.9000000  0  3G26G31G16                                       
  21824751.13349 114689840.13749     12866.16049        49.000  
  22414103.18849 117786906.23849     11935.80549        50.000  
  22354739.34449 117474947.88349      -692.76649        49.000  
 16 04 02 12 31 49.0000000  0  3G26G31G16                                       
  21824506.33649 114688553.71949     12861.78149        49.000  
  22413876.10949 117785712.89549     11930.73049        50.000  
  22354752.56249 117475017.32449      -696.64849        49.000  
 16 04 02 12 31 49.1000000  0  3G26G31G16                                       
  21824261.62549 114687267.83249     12856.69549        49.000  
  22413649.14149 117784520.13749     11925.05149        50.000  
  22354765.87549 117475087.27749      -701.63749        49.000  
 16 04 02 12 31 49.2000000  0  3G26G31G16                                       
  21824017.02349 114685982.40649     12851.79349        49.000  
  22413422.25049 117783327.89549     11919.59849        50.000  
  22354779.27349 117475157.66049      -706.14849        49.000  
 16 04 02 12 31 49.3000000  0  3G26G31G16                                       
  21823772.50849 114684697.48049     12847.13749        49.000  
  22413195.47749 117782136.20749     11914.35249        50.000  
  22354792.75049 117475228.49649      -710.50449        49.000  
 16 04 02 12 31 49.4000000  0  3G26G31G16                                       
  21823528.07049 114683412.97349     12842.68049        49.000  
  22412968.79749 117780944.99249     11909.30549        50.000  
  22354806.30549 117475299.71549      -714.54749        49.000  
 16 04 02 12 31 49.5000000  0  3G26G31G16                                       
  21823283.72749 114682128.98849     12837.60249        49.000  
  22412742.22749 117779754.35549     11903.60549        50.000  
  22354819.95349 117475371.43049      -719.32449        49.000  
 16 04 02 12 31 49.6000000  0  3G26G31G16                                       
  21823039.48449 114680845.45749     12832.89849        49.000  
  22412515.75049 117778564.22349     11898.51249        50.000  
  22354833.67249 117475443.55549      -723.65249        49.000  
 16 04 02 12 31 49.7000000  0  3G26G31G16                                       
  21822795.32849 114679562.43049     12828.05549        49.000  
  22412289.38349 117777374.65249     11893.17649        50.000  
  22354847.49249 117475516.16049      -728.11349        49.000  
 16 04 02 12 31 49.8000000  0  3G26G31G16                                       
  21822551.26649 114678279.85949     12823.41049        49.000  
  22412063.10949 117776185.59449     11887.91449        50.000  
  22354861.38349 117475589.17249      -732.30549        49.000  
 16 04 02 12 31 49.9000000  0  3G26G31G16                                       
  21822307.27349 114676997.67649     12819.39849        49.000  
  22411836.93049 117774996.98449     11883.20749        50.000  
  22354875.35249 117475662.55949      -736.14849        49.000  
 16 04 02 12 31 50.0000000  0  3G26G31G16                                       
  21822063.38349 114675716.02349     12814.34849        49.000  
  22411610.85249 117773808.95349     11877.70349        50.000  
  22354889.40649 117475736.42649      -740.82049        49.000  
 16 04 02 12 31 50.1000000  0  3G26G31G16                                       
  21821819.57849 114674434.84449     12809.38749        49.000  
  22411384.87549 117772621.44549     11872.27349        50.000  
  22354903.54749 117475810.73449      -745.33249        49.000  
 16 04 02 12 31 50.2000000  0  3G26G31G16                                       
  21821575.86749 114673154.12949     12804.82049        49.000  
  22411159.00049 117771434.46949     11867.02349        50.000  
  22354917.76649 117475885.47349      -749.68049        49.000  
 16 04 02 12 31 50.3000000  0  3G26G31G16                                       
  21821332.25849 114671873.91049     12799.90649        49.000  
  22410933.22749 117770248.03549     11861.60949        50.000  
  22354932.07849 117475960.66849      -754.15649        49.000  
 16 04 02 12 31 50.4000000  0  3G26G31G16                                       
  21821088.71149 114670594.07049     12795.94549        49.000  
  22410707.53949 117769062.03549     11857.15249        50.000  
  22354946.44549 117476036.21549      -757.83249        49.000  
 16 04 02 12 31 50.5000000  0  3G26G31G16                                       
  21820845.27349 114669314.78549     12790.59049        49.000  
  22410481.96149 117767876.64549     11851.18849        50.000  
  22354960.92249 117476112.27049      -762.81649        49.000  
 16 04 02 12 31 50.6000000  0  3G26G31G16                                       
  21820601.91449 114668035.94549     12786.09849        49.000  
  22410256.48449 117766691.76649     11846.11749        50.000  
  22354975.46949 117476188.74249      -766.93849        49.000  
 16 04 02 12 31 50.7000000  0  3G26G31G16                                       
  21820358.64849 114666757.59849     12781.21949        49.000  
  22410031.10949 117765507.43449     11840.66449        50.000  
  22354990.10949 117476265.69549      -771.62149        49.000  
 16 04 02 12 31 50.8000000  0  3G26G31G16                                       
  21820115.47749 114665479.69949     12776.62949        49.000  
  22409805.82849 117764323.59049     11835.71549        50.000  
  22355004.82849 117476343.02049      -775.57049        49.000  
 16 04 02 12 31 50.9000000  0  3G26G31G16                                       
  21819872.39149 114664202.26249     12772.21949        49.000  
  22409580.64849 117763140.26649     11830.71149        50.000  
  22355019.63349 117476420.79349      -779.74649        49.000  
 16 04 02 12 31 51.0000000  0  3G26G31G16                                       
  21819629.37549 114662925.23449     12768.01649        49.000  
  22409355.56249 117761957.41849     11825.88749        50.000  
  22355034.49249 117476498.94149      -783.66049        49.000  
 16 04 02 12 31 51.1000000  0  3G26G31G16                                       
  21819386.46949 114661648.73449     12762.65649        49.000  
  22409130.58649 117760775.14549     11820.02049        50.000  
  22355049.46149 117476577.57849      -788.59849        49.000  
 16 04 02 12 31 51.2000000  0  3G26G31G16                                       
  21819143.64849 114660372.73449     12757.71149        49.000  
  22408905.70349 117759593.42249     11814.54749        50.000  
  22355064.50849 117476656.67649      -793.18849        49.000  
 16 04 02 12 31 51.3000000  0  3G26G31G16                                       
  21818900.91449 114659097.18449     12753.14149        49.000  
  22408680.93049 117758412.22349     11809.19949        50.000  
  22355079.64149 117476736.20349      -797.57049        49.000  
 16 04 02 12 31 51.4000000  0  3G26G31G16                                       
  21818658.28949 114657822.16849     12747.86749        49.000  
  22408456.27349 117757231.59049     11803.63749        50.000  
  22355094.86749 117476816.20749      -802.27749        49.000  
 16 04 02 12 31 51.5000000  0  3G26G31G16                                       
  21818415.73449 114656547.53949     12744.10549        49.000  
  22408231.69549 117756051.41049     11799.23449        50.000  
  22355110.16449 117476896.58649      -805.83249        49.000  
 16 04 02 12 31 51.6000000  0  3G26G31G16                                       
  21818173.27349 114655273.40249     12739.11749        49.000  
  22408007.21149 117754871.77349     11793.75049        50.000  
  22355125.53149 117476977.40249      -810.30549        49.000  
 16 04 02 12 31 51.7000000  0  3G26G31G16                                       
  21817930.89849 114653999.70349     12734.78949        49.000  
  22407782.83649 117753692.64149     11788.74649        50.000  
  22355140.99249 117477058.63349      -814.40249        49.000  
 16 04 02 12 31 51.8000000  0  3G26G31G16                                       
  21817688.61749 114652726.51249     12729.66449        49.000  
  22407558.55549 117752514.05949     11783.16849        50.000  
  22355156.53949 117477140.33249      -819.11749        49.000  
 16 04 02 12 31 51.9000000  0  3G26G31G16                                       
  21817446.43049 114651453.78549     12724.85949        49.000  
  22407334.38349 117751336.00449     11777.80949        50.000  
  22355172.17249 117477222.46149      -823.60949        49.000  
 16 04 02 12 31 52.0000000  0  3G26G31G16                                       
  21817204.32849 114650181.53549     12720.15649        49.000  
  22407110.29749 117750158.48049     11772.46149        50.000  
  22355187.88349 117477305.03149      -827.97749        49.000  
 16 04 02 12 31 52.1000000  0  3G26G31G16                                       
  21816962.31249 114648909.75049     12715.60549        49.000  
  22406886.32049 117748981.46549     11767.52349        50.000  
  22355203.67249 117477388.02749      -832.07849        49.000  
 16 04 02 12 31 52.2000000  0  3G26G31G16                                       
  21816720.39149 114647638.43049     12710.89149        49.000  
  22406662.44549 117747804.99249     11762.00849        50.000  
  22355219.55549 117477471.46949      -836.69149        49.000  
 16 04 02 12 31 52.3000000  0  3G26G31G16                                       
  21816478.56249 114646367.64849     12705.61749        49.000  
  22406438.68049 117746629.09049     11756.31249        50.000  
  22355235.52349 117477555.39549      -841.50049        49.000  
 16 04 02 12 31 52.4000000  0  3G26G31G16                                       
  21816236.82849 114645097.33249     12700.87949        49.000  
  22406215.01649 117745453.71949     11751.15649        50.000  
  22355251.57849 117477639.75049      -845.72349        49.000  
 16 04 02 12 31 52.5000000  0  3G26G31G16                                       
  21815995.17249 114643827.40249     12696.95349        49.000  
  22405991.43849 117744278.79349     11746.50849        50.000  
  22355267.69549 117477724.47749      -849.53949        49.000  
 16 04 02 12 31 52.6000000  0  3G26G31G16                                       
  21815753.61749 114642558.03949     12691.44149        49.000  
  22405767.96949 117743104.46949     11740.60949        50.000  
  22355283.92249 117477809.70349      -854.44549        49.000  
 16 04 02 12 31 52.7000000  0  3G26G31G16                                       
  21815512.16449 114641289.15649     12686.36749        49.000  
  22405544.60949 117741930.69549     11734.93049        50.000  
  22355300.22749 117477895.39549      -859.25849        49.000  
 16 04 02 12 31 52.8000000  0  3G26G31G16                                       
  21815270.78949 114640020.70349     12681.98849        49.000  
  22405321.34449 117740757.41849     11729.92249        50.000  
  22355316.60949 117477981.48849      -863.36749        49.000  
 16 04 02 12 31 52.9000000  0  3G26G31G16                                       
  21815029.50849 114638752.81249     12676.44549        49.000  
  22405098.18849 117739584.74649     11723.89849        50.000  
  22355333.09449 117478068.09449      -868.39149        49.000  
 16 04 02 12 31 53.0000000  0  3G26G31G16                                       
  21814788.32049 114637485.34849     12672.31249        49.000  
  22404875.13349 117738412.55549     11719.20749        50.000  
  22355349.64849 117478155.09849      -872.27049        49.000  
 16 04 02 12 31 53.1000000  0  3G26G31G16                                       
  21814547.21949 114636218.34049     12667.94149        49.000  
  22404652.16449 117737240.87549     11714.21949        50.000  
  22355366.28949 117478242.51649      -876.30549        49.000  
 16 04 02 12 31 53.2000000  0  3G26G31G16                                       
  21814306.19549 114634951.77349     12663.28549        49.000  
  22404429.29749 117736069.68849     11709.19949        50.000  
  22355383.00049 117478330.34049      -880.46949        49.000  
 16 04 02 12 31 53.3000000  0  3G26G31G16                                       
  21814065.27349 114633685.73449     12658.09049        49.000  
  22404206.53149 117734899.08249     11703.46149        50.000  
  22355399.80549 117478418.66049      -885.40249        49.000  
 16 04 02 12 31 53.4000000  0  3G26G31G16                                       
  21813824.44549 114632420.16049     12653.35549        49.000  
  22403983.88349 117733729.01249     11698.01249        50.000  
  22355416.70349 117478507.41049      -889.83649        49.000  
 16 04 02 12 31 53.5000000  0  3G26G31G16                                       
  21813583.71149 114631155.14149     12647.62149        49.000  
  22403761.34449 117732559.53149     11691.85249        50.000  
  22355433.68849 117478596.66849      -894.98449        49.000  
 16 04 02 12 31 53.6000000  0  3G26G31G16                                       
  21813343.07849 114629890.59849     12642.96149        49.000  
  22403538.89849 117731390.59449     11686.56649        50.000  
  22355450.75849 117478686.37949      -899.42249        49.000  
 16 04 02 12 31 53.7000000  0  3G26G31G16                                       
  21813102.52349 114628626.51249     12638.57449        49.000  
  22403316.55549 117730222.16449     11681.58649        50.000  
  22355467.90649 117478776.51249      -903.47749        49.000  
 16 04 02 12 31 53.8000000  0  3G26G31G16                                       
  21812862.07049 114627362.88749     12633.98049        49.000  
  22403094.32049 117729054.26249     11676.35249        50.000  
  22355485.13349 117478867.07049      -907.73449        49.000  
 16 04 02 12 31 53.9000000  0  3G26G31G16                                       
  21812621.71149 114626099.80549     12628.60949        49.000  
  22402872.18049 117727886.93849     11670.60549        50.000  
  22355502.46149 117478958.12549      -912.70749        49.000  
 16 04 02 12 31 54.0000000  0  3G26G31G16                                       
  21812381.42249 114624837.06249     12625.13749        49.000  
  22402650.11749 117726720.02049     11666.57049        50.000  
  22355519.85249 117479049.48849      -915.83249        49.000  
 16 04 02 12 31 54.1000000  0  3G26G31G16                                       
  21812141.22749 114623574.80949     12620.42249        49.000  
  22402428.16449 117725553.64549     11661.34049        50.000  
  22355537.32049 117479141.30949      -920.22749        49.000  
 16 04 02 12 31 54.2000000  0  3G26G31G16                                       
  21811901.11749 114622313.02749     12615.44949        49.000  
  22402206.31249 117724387.80149     11655.68049        50.000  
  22355554.87549 117479233.55949      -924.86749        49.000  
 16 04 02 12 31 54.3000000  0  3G26G31G16                                       
  21811661.10949 114621051.85249     12609.31249        49.000  
  22401984.58649 117723222.60949     11649.13349        50.000  
  22355572.53949 117479326.38349      -930.56649        49.000  
 16 04 02 12 31 54.4000000  0  3G26G31G16                                       
  21811421.18849 114619791.02749     12605.80949        49.000  
  22401762.93049 117722057.82849     11645.07049        50.000  
  22355590.26649 117479419.52749      -933.78149        49.000  
 16 04 02 12 31 54.5000000  0  3G26G31G16                                       
  21811181.36749 114618530.71149     12600.86749        49.000  
  22401541.39149 117720893.60249     11639.57849        50.000  
  22355608.07049 117479513.12949      -938.22749        49.000  
 16 04 02 12 31 54.6000000  0  3G26G31G16                                       
  21810941.62549 114617270.87949     12595.94149        49.000  
  22401319.94549 117719729.92649     11634.04749        50.000  
  22355625.97749 117479607.18849      -942.87149        49.000  
 16 04 02 12 31 54.7000000  0  3G26G31G16                                       
  21810701.97749 114616011.51649     12591.37549        49.000  
  22401098.60249 117718566.77349     11628.87949        50.000  
  22355643.95349 117479701.68049      -947.08649        49.000  
 16 04 02 12 31 54.8000000  0  3G26G31G16                                       
  21810462.40649 114614752.58649     12586.96949        49.000  
  22400877.35249 117717404.10949     11623.84049        50.000  
  22355662.01649 117479796.57049      -951.14549        49.000  
 16 04 02 12 31 54.9000000  0  3G26G31G16                                       
  21810222.93849 114613494.18049     12581.93849        49.000  
  22400656.21149 117716242.00849     11618.43449        50.000  
  22355680.16449 117479891.94149      -955.76649        49.000  
 16 04 02 12 31 55.0000000  0  3G26G31G16                                       
  21809983.56249 114612236.26649     12576.77049        49.000  
  22400435.18049 117715080.47349     11612.61349        50.000  
  22355698.39849 117479987.77349      -960.55549        49.000  
 16 04 02 12 31 55.1000000  0  3G26G31G16                                       
  21809744.28149 114610978.80949     12572.09849        49.000  
  22400214.24249 117713919.43849     11607.45349        50.000  
  22355716.71949 117480084.02749      -965.01649        49.000  
 16 04 02 12 31 55.2000000  0  3G26G31G16                                       
  21809505.08649 114609721.82849     12567.60549        49.000  
  22399993.41449 117712758.94149     11602.40649        50.000  
  22355735.11749 117480180.71149      -968.99249        49.000  
 16 04 02 12 31 55.3000000  0  3G26G31G16                                       
  21809265.98449 114608465.27349     12563.12149        49.000  
  22399772.67249 117711598.91449     11597.53949        50.000  
  22355753.59449 117480277.79749      -973.01649        49.000  
 16 04 02 12 31 55.4000000  0  3G26G31G16                                       
  21809026.96949 114607209.27049     12557.77349        49.000  
  22399552.03949 117710439.50049     11591.44549        50.000  
  22355772.16449 117480375.39149      -978.19149        49.000  
 16 04 02 12 31 55.5000000  0  3G26G31G16                                       
  21808788.03949 114605953.71549     12553.01249        49.000  
  22399331.50849 117709280.59449     11586.23849        50.000  
  22355790.81249 117480473.40649      -982.55549        49.000  
 16 04 02 12 31 55.6000000  0  3G26G31G16                                       
  21808549.20349 114604698.61749     12548.81249        49.000  
  22399111.07049 117708122.19549     11581.53949        50.000  
  22355809.54749 117480571.82849      -986.28149        49.000  
 16 04 02 12 31 55.7000000  0  3G26G31G16                                       
  21808310.45349 114603443.93849     12544.53949        49.000  
  22398890.72749 117706964.27349     11576.57049        50.000  
  22355828.34449 117480670.64149      -990.25849        49.000  
 16 04 02 12 31 55.8000000  0  3G26G31G16                                       
  21808071.78949 114602189.77349     12539.51649        49.000  
  22398670.50049 117705806.93449     11570.91849        50.000  
  22355847.24249 117480769.94149      -995.03949        49.000  
 16 04 02 12 31 55.9000000  0  3G26G31G16                                       
  21807833.20349 114600936.02049     12535.34449        49.000  
  22398450.35249 117704650.03549     11566.37949        50.000  
  22355866.21149 117480869.60249      -998.67649        49.000  
 16 04 02 12 31 56.0000000  0  3G26G31G16                                       
  21807594.71149 114599682.72349     12530.72349        49.000  
  22398230.30549 117703493.65649     11561.07849        50.000  
  22355885.25849 117480969.69149     -1003.04749        49.000  
 16 04 02 12 31 56.1000000  0  3G26G31G16                                       
  21807356.30549 114598429.93449     12525.73449        49.000  
  22398010.35949 117702337.84049     11555.58249        50.000  
  22355904.39149 117481070.23849     -1007.57049        49.000  
 16 04 02 12 31 56.2000000  0  3G26G31G16                                       
  21807118.00049 114597177.61349     12520.78549        49.000  
  22397790.52349 117701182.55149     11550.05549        50.000  
  22355923.60949 117481171.23449     -1012.27349        49.000  
 16 04 02 12 31 56.3000000  0  3G26G31G16                                       
  21806879.78949 114595925.80149     12515.89149        49.000  
  22397570.78149 117700027.80949     11544.89149        50.000  
  22355942.91449 117481272.68849     -1016.66449        49.000  
 16 04 02 12 31 56.4000000  0  3G26G31G16                                       
  21806641.66449 114594674.46949     12510.82049        49.000  
  22397351.14149 117698873.62549     11539.08249        50.000  
  22355962.30549 117481374.59049     -1021.36749        49.000  
 16 04 02 12 31 56.5000000  0  3G26G31G16                                       
  21806403.64849 114593423.62549     12506.07449        49.000  
  22397131.60949 117697719.97349     11533.76249        50.000  
  22355981.78149 117481476.93849     -1025.74649        49.000  
 16 04 02 12 31 56.6000000  0  3G26G31G16                                       
  21806165.71149 114592173.26249     12501.26249        49.000  
  22396912.18049 117696566.85549     11528.51249        50.000  
  22356001.34449 117481579.74249     -1030.24249        49.000  
 16 04 02 12 31 56.7000000  0  3G26G31G16                                       
  21805927.85249 114590923.37149     12496.55949        49.000  
  22396692.85249 117695414.27049     11523.22349        50.000  
  22356020.99249 117481682.97349     -1034.57849        49.000  
 16 04 02 12 31 56.8000000  0  3G26G31G16                                       
  21805690.10249 114589673.95749     12491.65249        49.000  
  22396473.62549 117694262.21149     11517.75049        50.000  
  22356040.71949 117481786.64849     -1039.03949        49.000  
 16 04 02 12 31 56.9000000  0  3G26G31G16                                       
  21805452.42249 114588424.97349     12487.70349        49.000  
  22396254.49249 117693110.64849     11513.19149        50.000  
  22356060.52349 117481890.72749     -1042.75849        49.000  
 16 04 02 12 31 57.0000000  0  3G26G31G16                                       
  21805214.83649 114587176.45749     12482.82449        49.000  
  22396035.45349 117691959.58649     11507.84449        50.000  
  22356080.41449 117481995.21949     -1047.27349        49.000  
 16 04 02 12 31 57.1000000  0  3G26G31G16                                       
  21804977.34449 114585928.43049     12477.92649        49.000  
  22395816.51649 117690809.09449     11502.27349        50.000  
  22356100.38349 117482100.16849     -1051.79349        49.000  
 16 04 02 12 31 57.2000000  0  3G26G31G16                                       
  21804739.94549 114584680.89849     12472.86349        49.000  
  22395597.68049 117689659.12949     11496.88749        50.000  
  22356120.44549 117482205.57449     -1056.37149        49.000  
 16 04 02 12 31 57.3000000  0  3G26G31G16                                       
  21804502.63349 114583433.78549     12468.74649        49.000  
  22395378.94549 117688509.65649     11491.96949        50.000  
  22356140.57849 117482311.37549     -1060.24649        49.000  
 16 04 02 12 31 57.4000000  0  3G26G31G16                                       
  21804265.41449 114582187.19549     12463.69549        49.000  
  22395160.31249 117687360.74649     11486.49249        50.000  
  22356160.79749 117482417.64149     -1064.77049        49.000  
 16 04 02 12 31 57.5000000  0  3G26G31G16                                       
  21804028.28949 114580941.05149     12459.00049        49.000  
  22394941.78149 117686212.34049     11481.25849        50.000  
  22356181.10249 117482524.33649     -1069.30149        49.000  
 16 04 02 12 31 57.6000000  0  3G26G31G16                                       
  21803791.25849 114579695.43849     12453.93049        49.000  
  22394723.35249 117685064.52049     11475.57049        50.000  
  22356201.49249 117482631.50449     -1073.85249        49.000  
 16 04 02 12 31 57.7000000  0  3G26G31G16                                       
  21803554.29749 114578450.21949     12449.70749        49.000  
  22394505.02349 117683917.16849     11470.53149        50.000  
  22356221.96149 117482739.05949     -1077.99649        49.000  
 16 04 02 12 31 57.8000000  0  3G26G31G16                                       
  21803317.44549 114577205.55949     12444.49649        49.000  
  22394286.79749 117682770.41049     11465.00849        50.000  
  22356242.52349 117482847.11349     -1082.65649        49.000  
 16 04 02 12 31 57.9000000  0  3G26G31G16                                       
  21803080.68049 114575961.32449     12439.97749        49.000  
  22394068.67249 117681624.12549     11460.07849        50.000  
  22356263.16449 117482955.55949     -1086.69949        49.000  
 16 04 02 12 31 58.0000000  0  3G26G31G16                                       
  21802844.00849 114574717.59849     12434.99649        49.000  
  22393850.64149 117680478.42249     11454.37949        50.000  
  22356283.88349 117483064.48049     -1091.50849        49.000  
 16 04 02 12 31 58.1000000  0  3G26G31G16                                       
  21802607.42249 114573474.36349     12430.11749        49.000  
  22393632.72749 117679333.25049     11449.01249        50.000  
  22356304.69549 117483173.84849     -1095.98849        49.000  
 16 04 02 12 31 58.2000000  0  3G26G31G16                                       
  21802370.93049 114572231.60549     12425.21549        49.000  
  22393414.91449 117678188.61749     11443.55549        50.000  
  22356325.59449 117483283.66449     -1100.44549        49.000  
 16 04 02 12 31 58.3000000  0  3G26G31G16                                       
  21802134.53149 114570989.31649     12420.72349        49.000  
  22393197.19549 117677044.50449     11438.51249        50.000  
  22356346.57049 117483393.90249     -1104.51249        49.000  
 16 04 02 12 31 58.4000000  0  3G26G31G16                                       
  21801898.21949 114569747.48449     12415.97749        49.000  
  22392979.56249 117675900.89549     11433.34449        50.000  
  22356367.63349 117483504.56249     -1108.89549        49.000  
 16 04 02 12 31 58.5000000  0  3G26G31G16                                       
  21801661.99249 114568506.12949     12411.12549        49.000  
  22392762.04749 117674757.83249     11427.98849        50.000  
  22356388.77349 117483615.66849     -1113.25049        49.000  
 16 04 02 12 31 58.6000000  0  3G26G31G16                                       
  21801425.86749 114567265.28949     12406.05949        49.000  
  22392544.63349 117673615.34049     11422.11349        50.000  
  22356410.00849 117483727.25449     -1118.11349        49.000  
 16 04 02 12 31 58.7000000  0  3G26G31G16                                       
  21801189.83649 114566024.94949     12401.02349        49.000  
  22392327.32849 117672473.38349     11416.86749        50.000  
  22356431.32849 117483839.29349     -1122.59849        49.000  
 16 04 02 12 31 58.8000000  0  3G26G31G16                                       
  21800953.88349 114564785.00449     12396.93049        49.000  
  22392110.10949 117671331.90649     11411.98449        50.000  
  22356452.71949 117483951.70349     -1126.45749        49.000  
 16 04 02 12 31 58.9000000  0  3G26G31G16                                       
  21800718.01649 114563545.51649     12392.78149        49.000  
  22391892.98449 117670190.91049     11407.36349        50.000  
  22356474.18849 117484064.51649     -1130.17249        49.000  
 16 04 02 12 31 59.0000000  0  3G26G31G16                                       
  21800482.24249 114562306.52049     12387.71149        49.000  
  22391675.97749 117669050.48049     11401.69149        50.000  
  22356495.75049 117484177.79349     -1134.83249        49.000  
 16 04 02 12 31 59.1000000  0  3G26G31G16                                       
  21800246.57049 114561068.03549     12382.35249        49.000  
  22391459.06249 117667910.60549     11395.90249        50.000  
  22356517.39149 117484291.54349     -1139.85549        49.000  
 16 04 02 12 31 59.2000000  0  3G26G31G16                                       
  21800010.98449 114559830.03149     12377.74649        49.000  
  22391242.25849 117666771.28549     11390.46949        50.000  
  22356539.12549 117484405.74649     -1144.19149        49.000  
 16 04 02 12 31 59.3000000  0  3G26G31G16                                       
  21799775.50049 114558592.49249     12373.00849        49.000  
  22391025.54749 117665632.46949     11385.36749        50.000  
  22356560.93849 117484520.37149     -1148.50849        49.000  
 16 04 02 12 31 59.4000000  0  3G26G31G16                                       
  21799540.08649 114557355.41049     12368.56649        49.000  
  22390808.93049 117664494.14849     11380.60249        50.000  
  22356582.82849 117484635.39549     -1152.46949        49.000  
 16 04 02 12 31 59.5000000  0  3G26G31G16                                       
  21799304.76649 114556118.78149     12364.03549        49.000  
  22390592.42249 117663356.35249     11375.38349        50.000  
  22356604.79749 117484750.85249     -1156.74249        49.000  
 16 04 02 12 31 59.6000000  0  3G26G31G16                                       
  21799069.52349 114554882.57449     12359.85549        49.000  
  22390376.00849 117662219.03949     11370.55149        50.000  
  22356626.84449 117484866.69549     -1160.52349        49.000  
 16 04 02 12 31 59.7000000  0  3G26G31G16                                       
  21798834.37549 114553646.88349     12354.85549        49.000  
  22390159.68849 117661082.30549     11364.75849        50.000  
  22356648.97749 117484983.02049     -1165.26649        49.000  
 16 04 02 12 31 59.8000000  0  3G26G31G16                                       
  21798599.33649 114552411.72349     12349.23049        49.000  
  22389943.48449 117659946.13749     11358.60249        50.000  
  22356671.20349 117485099.83249     -1170.55149        49.000  
 16 04 02 12 31 59.9000000  0  3G26G31G16                                       
  21798364.36749 114551176.98449     12345.14549        49.000  
  22389727.36749 117658810.44549     11354.11349        50.000  
  22356693.50849 117485217.02349     -1174.18049        49.000  
 16 04 02 12 32  0.0000000  0  3G26G31G16                                       
  21798129.49249 114549942.72349     12340.58249        49.000  
  22389511.35949 117657675.27749     11349.14149        50.000  
  22356715.89149 117485334.66049     -1178.30149        49.000  
 16 04 02 12 32  0.1000000  0  3G26G31G16                                       
  21797894.71949 114548708.93449     12335.58249        49.000  
  22389295.44549 117656540.64149     11343.83249        50.000  
  22356738.35949 117485452.71549     -1182.71149        49.000  
 16 04 02 12 32  0.2000000  0  3G26G31G16                                       
  21797660.01649 114547475.57049     12331.17649        49.000  
  22389079.62549 117655406.50049     11338.94949        50.000  
  22356760.89849 117485571.18449     -1186.78549        49.000  
 16 04 02 12 32  0.3000000  0  3G26G31G16                                       
  21797425.40649 114546242.67249     12326.67649        49.000  
  22388863.90649 117654272.90249     11333.39149        50.000  
  22356783.53149 117485690.09449     -1191.25449        49.000  
 16 04 02 12 32  0.4000000  0  3G26G31G16                                       
  21797190.89149 114545010.29749     12321.68849        49.000  
  22388648.28949 117653139.84049     11327.91449        50.000  
  22356806.25049 117485809.44549     -1195.66449        49.000  
 16 04 02 12 32  0.5000000  0  3G26G31G16                                       
  21796956.46949 114543778.39849     12316.55549        49.000  
  22388432.78149 117652007.30549     11322.57849        50.000  
  22356829.04749 117485929.24649     -1200.32049        49.000  
 16 04 02 12 32  0.6000000  0  3G26G31G16                                       
  21796722.14149 114542546.98449     12311.75449        49.000  
  22388217.36749 117650875.34449     11316.84449        50.000  
  22356851.93849 117486049.52049     -1204.99249        49.000  
 16 04 02 12 32  0.7000000  0  3G26G31G16                                       
  21796487.89849 114541316.05149     12307.08249        49.000  
  22388002.05549 117649743.87549     11311.89549        50.000  
  22356874.89849 117486170.20349     -1209.12149        49.000  
 16 04 02 12 32  0.8000000  0  3G26G31G16                                       
  21796253.74249 114540085.57449     12302.44949        49.000  
  22387786.85249 117648612.95749     11306.60249        50.000  
  22356897.95349 117486291.32449     -1213.34449        49.000  
 16 04 02 12 32  0.9000000  0  3G26G31G16                                       
  21796019.68849 114538855.60549     12297.28949        49.000  
  22387571.75049 117647482.56649     11301.14549        50.000  
  22356921.08649 117486412.91449     -1218.21549        49.000  
 16 04 02 12 32  1.0000000  0  3G26G31G16                                       
  21795785.71949 114537626.09449     12292.62549        49.000  
  22387356.74249 117646352.73449     11295.52349        50.000  
  22356944.31249 117486534.93049     -1222.51249        49.000  
 16 04 02 12 32  1.1000000  0  3G26G31G16                                       
  21795551.84449 114536397.11749     12287.43849        49.000  
  22387141.84449 117645223.43049     11290.41449        50.000  
  22356967.61749 117486657.41849     -1227.12949        49.000  
 16 04 02 12 32  1.2000000  0  3G26G31G16                                       
  21795318.06249 114535168.60549     12282.46949        49.000  
  22386927.05549 117644094.69949     11284.33649        50.000  
  22356991.01649 117486780.35949     -1231.95749        49.000  
 16 04 02 12 32  1.3000000  0  3G26G31G16                                       
  21795084.37549 114533940.58649     12277.81649        49.000  
  22386712.36749 117642966.50049     11279.14549        50.000  
  22357014.50049 117486903.75449     -1236.29349        49.000  
 16 04 02 12 32  1.4000000  0  3G26G31G16                                       
  21794850.78149 114532713.06249     12272.98049        49.000  
  22386497.78149 117641838.84849     11273.88749        50.000  
  22357038.05549 117487027.58249     -1240.40249        49.000  
 16 04 02 12 32  1.5000000  0  3G26G31G16                                       
  21794617.28149 114531485.97749     12268.46949        49.000  
  22386283.28949 117640711.67649     11269.00049        50.000  
  22357061.70349 117487151.83249     -1244.76249        49.000  
 16 04 02 12 32  1.6000000  0  3G26G31G16                                       
  21794383.86749 114530259.38749     12263.53549        49.000  
  22386068.89849 117639585.05949     11263.44549        50.000  
  22357085.43849 117487276.52749     -1249.30149        49.000  
 16 04 02 12 32  1.7000000  0  3G26G31G16                                       
  21794150.53949 114529033.29749     12258.58249        49.000  
  22385854.62549 117638459.02049     11257.78149        50.000  
  22357109.25049 117487401.69949     -1253.93449        49.000  
 16 04 02 12 32  1.8000000  0  3G26G31G16                                       
  21793917.30549 114527807.62549     12254.58249        49.000  
  22385640.43049 117637333.43449     11253.26249        50.000  
  22357133.14849 117487527.23049     -1257.43449        49.000  
 16 04 02 12 32  1.9000000  0  3G26G31G16                                       
  21793684.16449 114526582.47749     12249.13349        49.000  
  22385426.35249 117636208.42249     11247.46549        50.000  
  22357157.13349 117487653.26649     -1262.52049        49.000  
 16 04 02 12 32  2.0000000  0  3G26G31G16                                       
  21793451.10949 114525357.76249     12244.81249        49.000  
  22385212.35949 117635083.89549     11242.51249        50.000  
  22357181.18849 117487779.68449     -1266.44949        49.000  
 16 04 02 12 32  2.1000000  0  3G26G31G16                                       
  21793218.13349 114524133.50049     12240.38349        49.000  
  22384998.46949 117633959.87949     11237.61349        50.000  
  22357205.32049 117487906.52349     -1270.48049        49.000  
 16 04 02 12 32  2.2000000  0  3G26G31G16                                       
  21792985.25049 114522909.67249     12236.19549        49.000  
  22384784.67249 117632836.36349     11232.70349        50.000  
  22357229.53149 117488033.75849     -1274.39549        49.000  
 16 04 02 12 32  2.3000000  0  3G26G31G16                                       
  21792752.45349 114521686.32849     12231.32849        49.000  
  22384570.97749 117631713.39549     11227.19549        50.000  
  22357253.82849 117488161.43849     -1278.81649        49.000  
 16 04 02 12 32  2.4000000  0  3G26G31G16                                       
  21792519.75049 114520463.47749     12226.31249        49.000  
  22384357.37549 117630590.93849     11221.84449        50.000  
  22357278.21149 117488289.56649     -1283.43049        49.000  
 16 04 02 12 32  2.5000000  0  3G26G31G16                                       
  21792287.13349 114519241.08249     12221.71949        49.000  
  22384143.88349 117629469.01649     11216.62949        50.000  
  22357302.67249 117488418.11749     -1287.63749        49.000  
 16 04 02 12 32  2.6000000  0  3G26G31G16                                       
  21792054.62549 114518019.21949     12216.23449        49.000  
  22383930.50849 117628347.67649     11210.62949        50.000  
  22357327.22749 117488547.16449     -1292.73449        49.000  
 16 04 02 12 32  2.7000000  0  3G26G31G16                                       
  21791822.21149 114516797.87949     12211.08649        49.000  
  22383717.22749 117627226.90249     11205.04749        50.000  
  22357351.87549 117488676.68449     -1297.47349        49.000  
 16 04 02 12 32  2.8000000  0  3G26G31G16                                       
  21791589.87549 114515576.91849     12207.14149        49.000  
  22383504.03949 117626106.58249     11200.47749        50.000  
  22357376.58649 117488806.56649     -1301.17249        49.000  
 16 04 02 12 32  2.9000000  0  3G26G31G16                                       
  21791357.61749 114514356.44149     12202.66849        49.000  
  22383290.95349 117624986.79749     11195.26249        50.000  
  22357401.38349 117488936.87549     -1305.16449        49.000  
 16 04 02 12 32  3.0000000  0  3G26G31G16                                       
  21791125.46949 114513136.46549     12197.55949        49.000  
  22383077.96149 117623867.54349     11189.95749        50.000  
  22357426.27349 117489067.63749     -1309.72749        49.000  
 16 04 02 12 32  3.1000000  0  3G26G31G16                                       
  21790893.39149 114511916.92249     12192.89149        49.000  
  22382865.07849 117622748.80549     11184.65649        50.000  
  22357451.23449 117489198.82449     -1314.18449        49.000  
 16 04 02 12 32  3.2000000  0  3G26G31G16                                       
  21790661.42249 114510697.88349     12188.08249        49.000  
  22382652.28949 117621630.62149     11179.20349        50.000  
  22357476.28149 117489330.46549     -1318.59449        49.000  
 16 04 02 12 32  3.3000000  0  3G26G31G16                                       
  21790429.54749 114509479.33649     12183.26649        49.000  
  22382439.60249 117620512.97349     11173.82449        50.000  
  22357501.41449 117489462.55149     -1323.02049        49.000  
 16 04 02 12 32  3.4000000  0  3G26G31G16                                       
  21790197.76649 114508261.30149     12177.89849        49.000  
  22382227.03149 117619395.89549     11167.93449        50.000  
  22357526.64149 117489595.12149     -1328.07049        49.000  
 16 04 02 12 32  3.5000000  0  3G26G31G16                                       
  21789966.05549 114507043.67649     12173.94149        49.000  
  22382014.54749 117618279.29349     11163.33649        50.000  
  22357551.93849 117489728.05549     -1331.58249        49.000  
 16 04 02 12 32  3.6000000  0  3G26G31G16                                       
  21789734.44549 114505826.55549     12169.00049        49.000  
  22381802.16449 117617163.22749     11158.00049        50.000  
  22357577.32849 117489861.46149     -1336.17649        49.000  
 16 04 02 12 32  3.7000000  0  3G26G31G16                                       
  21789502.92249 114504609.90249     12164.26249        49.000  
  22381589.89149 117616047.69949     11152.58249        50.000  
  22357602.79749 117489995.29349     -1340.55949        49.000  
 16 04 02 12 32  3.8000000  0  3G26G31G16                                       
  21789271.50849 114503393.78149     12158.77749        49.000  
  22381377.71949 117614932.75049     11146.73049        50.000  
  22357628.35249 117490129.60549     -1345.50849        49.000  
 16 04 02 12 32  3.9000000  0  3G26G31G16                                       
  21789040.17249 114502178.12149     12154.36349        49.000  
  22381165.64849 117613818.31249     11141.78549        50.000  
  22357653.99249 117490264.34849     -1349.59449        49.000  
 16 04 02 12 32  4.0000000  0  3G26G31G16                                       
  21788808.92249 114500962.89149     12150.04749        49.000  
  22380953.68049 117612704.37549     11136.70749        50.000  
  22357679.70349 117490399.49649     -1353.61349        49.000  
 16 04 02 12 32  4.1000000  0  3G26G31G16                                       
  21788577.76649 114499748.14549     12145.42249        49.000  
  22380741.80549 117611590.97349     11131.69949        50.000  
  22357705.50849 117490535.07849     -1357.74649        49.000  
 16 04 02 12 32  4.2000000  0  3G26G31G16                                       
  21788346.68849 114498533.82849     12140.74249        49.000  
  22380530.02349 117610478.03949     11126.53949        50.000  
  22357731.37549 117490671.04749     -1362.02049        49.000  
 16 04 02 12 32  4.3000000  0  3G26G31G16                                       
  21788115.70349 114497320.02049     12135.89149        49.000  
  22380318.35249 117609365.68849     11120.98449        50.000  
  22357757.34449 117490807.49649     -1366.58649        49.000  
 16 04 02 12 32  4.4000000  0  3G26G31G16                                       
  21787884.81249 114496106.68849     12131.00449        49.000  
  22380106.77349 117608253.84449     11115.68049        50.000  
  22357783.39149 117490944.36749     -1370.97349        49.000  
 16 04 02 12 32  4.5000000  0  3G26G31G16                                       
  21787654.01649 114494893.80549     12126.61349        49.000  
  22379895.29749 117607142.52049     11110.73449        50.000  
  22357809.51649 117491081.66049     -1375.01249        49.000  
 16 04 02 12 32  4.6000000  0  3G26G31G16                                       
  21787423.29749 114493681.39149     12121.69949        49.000  
  22379683.91449 117606031.71549     11105.17249        50.000  
  22357835.72749 117491219.37549     -1379.54349        49.000  
 16 04 02 12 32  4.7000000  0  3G26G31G16                                       
  21787192.69549 114492469.57449     12115.73849        49.000  
  22379472.66449 117604921.56249     11098.76249        50.000  
  22357862.03949 117491357.65249     -1385.05149        49.000  
 16 04 02 12 32  4.8000000  0  3G26G31G16                                       
  21786962.18049 114491258.20749     12111.08649        49.000  
  22379261.50049 117603811.91849     11093.44149        50.000  
  22357888.43049 117491496.34449     -1389.37549        49.000  
 16 04 02 12 32  4.9000000  0  3G26G31G16                                       
  21786731.75849 114490047.31649     12106.56249        49.000  
  22379050.44549 117602702.80149     11088.39849        50.000  
  22357914.90649 117491635.47349     -1393.55549        49.000  
 16 04 02 12 32  5.0000000  0  3G26G31G16                                       
  21786501.41449 114488836.87949     12102.16049        49.000  
  22378839.47749 117601594.18449     11083.55949        50.000  
  22357941.46149 117491775.00449     -1397.49649        49.000  
 16 04 02 12 32  5.1000000  0  3G26G31G16                                       
  21786271.16449 114487626.91849     12097.20749        49.000  
  22378628.61749 117600486.10549     11078.05949        50.000  
  22357968.10249 117491914.99249     -1402.09849        49.000  
 16 04 02 12 32  5.2000000  0  3G26G31G16                                       
  21786041.02349 114486417.49649     12091.90649        49.000  
  22378417.86749 117599378.60549     11072.48049        50.000  
  22357994.82849 117492055.44949     -1406.67249        49.000  
 16 04 02 12 32  5.3000000  0  3G26G31G16                                       
  21785810.94549 114485208.46949     12087.79749        49.000  
  22378207.20349 117598271.57049     11067.73049        50.000  
  22358021.63349 117492196.28549     -1410.60249        49.000  
 16 04 02 12 32  5.4000000  0  3G26G31G16                                       
  21785580.97749 114483999.97349     12082.44549        49.000  
  22377996.64849 117597165.12549     11061.62549        50.000  
  22358048.52349 117492337.61349     -1415.67649        49.000  
 16 04 02 12 32  5.5000000  0  3G26G31G16                                       
  21785351.10949 114482792.00849     12077.13749        49.000  
  22377786.21149 117596059.27049     11055.59449        50.000  
  22358075.51649 117492479.43449     -1420.60549        49.000  
 16 04 02 12 32  5.6000000  0  3G26G31G16                                       
  21785121.32849 114481584.48449     12073.00449        49.000  
  22377575.85949 117594953.88749     11051.18449        50.000  
  22358102.57049 117492621.65249     -1424.36349        49.000  
 16 04 02 12 32  5.7000000  0  3G26G31G16                                       
  21784891.63349 114480377.42249     12068.37949        49.000  
  22377365.60949 117593849.03549     11045.80949        50.000  
  22358129.71149 117492764.29749     -1428.60949        49.000  
 16 04 02 12 32  5.8000000  0  3G26G31G16                                       
  21784662.03949 114479170.86749     12063.22749        49.000  
  22377155.47749 117592744.74249     11040.44149        50.000  
  22358156.94549 117492907.39849     -1433.10249        49.000  
 16 04 02 12 32  5.9000000  0  3G26G31G16                                       
  21784432.51649 114477964.72349     12059.13349        49.000  
  22376945.43049 117591640.91049     11035.53949        50.000  
  22358184.25049 117493050.88349     -1437.04749        49.000  
 16 04 02 12 32  6.0000000  0  3G26G31G16                                       
  21784203.08649 114476759.05949     12054.37949        49.000  
  22376735.47749 117590537.60549     11030.36749        50.000  
  22358211.64149 117493194.79749     -1441.32849        49.000  
 16 04 02 12 32  6.1000000  0  3G26G31G16                                       
  21783973.75049 114475553.88749     12049.34449        49.000  
  22376525.63349 117589434.87149     11024.65249        50.000  
  22358239.11749 117493339.18049     -1446.09849        49.000  
 16 04 02 12 32  6.2000000  0  3G26G31G16                                       
  21783744.50849 114474349.19149     12044.61749        49.000  
  22376315.88349 117588332.64849     11019.44149        50.000  
  22358266.67249 117493483.98849     -1450.35549        49.000  
 16 04 02 12 32  6.3000000  0  3G26G31G16                                       
  21783515.35249 114473144.97749     12039.93849        49.000  
  22376106.24249 117587230.96949     11014.23849        50.000  
  22358294.31249 117493629.24249     -1454.63349        49.000  
 16 04 02 12 32  6.4000000  0  3G26G31G16                                       
  21783286.28149 114471941.20749     12035.41449        49.000  
  22375896.68849 117586129.78149     11009.15649        50.000  
  22358322.02349 117493774.89849     -1458.78149        49.000  
 16 04 02 12 32  6.5000000  0  3G26G31G16                                       
  21783057.30549 114470737.91449     12030.71949        49.000  
  22375687.24249 117585029.13349     11003.93049        50.000  
  22358349.82849 117493920.99649     -1463.07049        49.000  
 16 04 02 12 32  6.6000000  0  3G26G31G16                                       
  21782828.43049 114469535.17649     12025.00849        49.000  
  22375477.90649 117583929.07449     10997.85549        50.000  
  22358377.72749 117494067.59049     -1468.18049        49.000  
 16 04 02 12 32  6.7000000  0  3G26G31G16                                       
  21782599.63349 114468332.84849     12020.83649        49.000  
  22375268.67249 117582829.51649     10992.86349        50.000  
  22358405.69549 117494214.59049     -1472.21549        49.000  
 16 04 02 12 32  6.8000000  0  3G26G31G16                                       
  21782370.93049 114467131.01249     12015.97349        49.000  
  22375059.52349 117581730.47349     10987.53149        50.000  
  22358433.75849 117494362.02349     -1476.72749        49.000  
 16 04 02 12 32  6.9000000  0  3G26G31G16                                       
  21782142.32049 114465929.65249     12011.28149        49.000  
  22374850.48449 117580631.96949     10982.34449        50.000  
  22358461.89149 117494509.88749     -1480.86349        49.000  
 16 04 02 12 32  7.0000000  0  3G26G31G16                                       
  21781913.81249 114464728.80949     12006.11749        49.000  
  22374641.56249 117579534.03549     10976.61349        50.000  
  22358490.12549 117494658.22749     -1485.69549        49.000  
 16 04 02 12 32  7.1000000  0  3G26G31G16                                       
  21781685.40649 114463528.52049     12000.37949        49.000  
  22374432.74249 117578436.71149     10970.37149        50.000  
  22358518.45349 117494807.09049     -1491.04749        49.000  
 16 04 02 12 32  7.2000000  0  3G26G31G16                                       
  21781457.09449 114462328.71149     11995.57849        49.000  
  22374224.03949 117577339.91849     10965.12149        50.000  
  22358546.85949 117494956.38349     -1495.23449        49.000  
 16 04 02 12 32  7.3000000  0  3G26G31G16                                       
  21781228.85949 114461129.30149     11991.88349        49.000  
  22374015.41449 117576243.58249     10960.77749        50.000  
  22358575.33649 117495106.05149     -1498.76249        49.000  
 16 04 02 12 32  7.4000000  0  3G26G31G16                                       
  21781000.69549 114459930.30149     11987.99649        49.000  
  22373806.87549 117575147.71149     10956.29349        50.000  
  22358603.89149 117495256.07849     -1502.15649        49.000  
 16 04 02 12 32  7.5000000  0  3G26G31G16                                       
  21780772.64849 114458731.87949     11982.03549        49.000  
  22373598.45349 117574052.46149     10950.07449        50.000  
  22358632.53949 117495406.64549     -1507.65249        49.000  
 16 04 02 12 32  7.6000000  0  3G26G31G16                                       
  21780544.67249 114457533.87549     11977.55949        49.000  
  22373390.13349 117572957.71149     10944.80949        50.000  
  22358661.26649 117495557.60549     -1511.83249        49.000  
 16 04 02 12 32  7.7000000  0  3G26G31G16                                       
  21780316.80549 114456336.38749     11972.56249        49.000  
  22373181.91449 117571863.51249     10939.19949        50.000  
  22358690.07849 117495709.02349     -1516.43849        49.000  
 16 04 02 12 32  7.8000000  0  3G26G31G16                                       
  21780089.02349 114455139.39149     11967.64149        49.000  
  22372973.80549 117570769.84849     10933.79349        50.000  
  22358718.97749 117495860.89549     -1521.01249        49.000  
 16 04 02 12 32  7.9000000  0  3G26G31G16                                       
  21779861.32049 114453942.84449     11963.10249        49.000  
  22372765.78149 117569676.69549     10928.84049        50.000  
  22358747.95349 117496013.17649     -1525.12149        49.000  
 16 04 02 12 32  8.0000000  0  3G26G31G16                                       
  21779633.71949 114452746.76649     11958.54349        49.000  
  22372557.85949 117568584.07449     10923.63349        50.000  
  22358777.00849 117496165.89149     -1529.19949        49.000  
 16 04 02 12 32  8.1000000  0  3G26G31G16                                       
  21779406.20349 114451551.18049     11953.35949        49.000  
  22372350.03949 117567491.99249     10918.01649        50.000  
  22358806.15649 117496319.05549     -1533.96149        49.000  
 16 04 02 12 32  8.2000000  0  3G26G31G16                                       
  21779178.78149 114450356.04349     11949.15249        49.000  
  22372142.32049 117566400.42649     10913.14849        50.000  
  22358835.38349 117496472.63749     -1537.93449        49.000  
 16 04 02 12 32  8.3000000  0  3G26G31G16                                       
  21778951.44549 114449161.39849     11944.05949        49.000  
  22371934.70349 117565309.38749     10907.62149        50.000  
  22358864.69549 117496626.66449     -1542.60549        49.000  
 16 04 02 12 32  8.4000000  0  3G26G31G16                                       
  21778724.21949 114447967.31649     11938.36349        49.000  
  22371727.20349 117564218.98049     10901.21149        50.000  
  22358894.10249 117496781.21149     -1547.85249        49.000  
 16 04 02 12 32  8.5000000  0  3G26G31G16                                       
  21778497.07049 114446773.65249     11934.19549        49.000  
  22371519.79749 117563129.03149     10896.66849        50.000  
  22358923.58649 117496936.13749     -1551.51649        49.000  
 16 04 02 12 32  8.6000000  0  3G26G31G16                                       
  21778270.02349 114445580.50849     11929.24249        49.000  
  22371312.50049 117562039.66049     10891.10949        50.000  
  22358953.15649 117497091.53949     -1556.18849        49.000  
 16 04 02 12 32  8.7000000  0  3G26G31G16                                       
  21778043.06249 114444387.83249     11924.41849        49.000  
  22371105.30549 117560950.82049     10885.67249        50.000  
  22358982.81249 117497247.37949     -1560.61749        49.000  
 16 04 02 12 32  8.8000000  0  3G26G31G16                                       
  21777816.19549 114443195.62949     11919.71149        49.000  
  22370898.20349 117559862.50449     10880.50849        50.000  
  22359012.54749 117497403.64549     -1564.81249        49.000  
 16 04 02 12 32  8.9000000  0  3G26G31G16                                       
  21777589.40649 114442003.85249     11915.56249        49.000  
  22370691.19549 117558774.66049     10875.89549        50.000  
  22359042.35949 117497560.29349     -1568.57049        49.000  
 16 04 02 12 32  9.0000000  0  3G26G31G16                                       
  21777362.71949 114440812.59049     11910.44949        49.000  
  22370484.29749 117557687.39549     10870.10949        50.000  
  22359072.25049 117497717.43049     -1573.48049        49.000  
 16 04 02 12 32  9.1000000  0  3G26G31G16                                       
  21777136.12549 114439621.80949     11905.44149        49.000  
  22370277.50049 117556600.65249     10864.61349        50.000  
  22359102.23449 117497874.99249     -1577.92649        49.000  
 16 04 02 12 32  9.2000000  0  3G26G31G16                                       
  21776909.62549 114438431.52349     11900.52049        49.000  
  22370070.81249 117555514.47749     10859.06649        50.000  
  22359132.30549 117498033.01649     -1582.42249        49.000  
 16 04 02 12 32  9.3000000  0  3G26G31G16                                       
  21776683.21149 114437241.71949     11895.74249        49.000  
  22369864.21949 117554428.81649     10853.91049        50.000  
  22359162.46149 117498191.48049     -1586.78549        49.000  
 16 04 02 12 32  9.4000000  0  3G26G31G16                                       
  21776456.88349 114436052.37149     11891.38349        49.000  
  22369657.72749 117553343.69149     10848.87149        50.000  
  22359192.70349 117498350.37149     -1590.91049        49.000  
 16 04 02 12 32  9.5000000  0  3G26G31G16                                       
  21776230.64849 114434863.48449     11886.45349        49.000  
  22369451.32849 117552259.05949     10843.51649        50.000  
  22359223.01649 117498509.66849     -1595.29749        49.000  
 16 04 02 12 32  9.6000000  0  3G26G31G16                                       
  21776004.50849 114433675.10249     11881.59049        49.000  
  22369245.03949 117551174.99649     10838.05949        50.000  
  22359253.41449 117498669.43849     -1599.75849        49.000  
 16 04 02 12 32  9.7000000  0  3G26G31G16                                       
  21775778.44549 114432487.16849     11877.07849        49.000  
  22369038.83649 117550091.42249     10833.12149        50.000  
  22359283.89149 117498829.60249     -1603.86349        49.000  
 16 04 02 12 32  9.8000000  0  3G26G31G16                                       
  21775552.47749 114431299.67649     11872.58649        49.000  
  22368832.73449 117549008.35949     10827.94549        50.000  
  22359314.45349 117498990.18449     -1607.94549        49.000  
 16 04 02 12 32  9.9000000  0  3G26G31G16                                       
  21775326.60949 114430112.69949     11867.51649        49.000  
  22368626.74249 117547925.86749     10822.29349        50.000  
  22359345.10249 117499151.23849     -1612.72749        49.000  
 16 04 02 12 32 10.0000000  0  3G26G31G16                                       
  21775100.82049 114428926.18449     11862.88749        49.000  
  22368420.85249 117546843.88349     10817.16449        50.000  
  22359375.82849 117499312.70749     -1616.85549        49.000  
 16 04 02 12 32 10.1000000  0  3G26G31G16                                       
  21774875.13349 114427740.18849     11857.57849        49.000  
  22368215.06249 117545762.46949     10811.35549        50.000  
  22359406.64849 117499474.65649     -1621.71549        49.000  
 16 04 02 12 32 10.2000000  0  3G26G31G16                                       
  21774649.54749 114426554.72749     11852.26649        49.000  
  22368009.38349 117544681.64849     10805.51249        50.000  
  22359437.55549 117499637.10249     -1626.76249        49.000  
 16 04 02 12 32 10.3000000  0  3G26G31G16                                       
  21774424.04749 114425369.70349     11847.79349        49.000  
  22367803.80549 117543601.32049     10800.50449        50.000  
  22359468.54749 117499799.93849     -1630.71149        49.000  
 16 04 02 12 32 10.4000000  0  3G26G31G16                                       
  21774198.63349 114424185.12549     11843.52749        49.000  
  22367598.32049 117542521.49249     10795.69549        50.000  
  22359499.60949 117499963.19149     -1634.59849        49.000  
 16 04 02 12 32 10.5000000  0  3G26G31G16                                       
  21773973.30549 114423001.01249     11838.87549        49.000  
  22367392.93849 117541442.17649     10790.54749        50.000  
  22359530.75849 117500126.84449     -1638.66849        49.000  
 16 04 02 12 32 10.6000000  0  3G26G31G16                                       
  21773748.06249 114421817.39149     11833.81249        49.000  
  22367187.65649 117540363.41449     10784.89149        50.000  
  22359561.98449 117500290.97749     -1643.52349        49.000  
 16 04 02 12 32 10.7000000  0  3G26G31G16                                       
  21773522.92249 114420634.25449     11829.07449        49.000  
  22366982.47749 117539285.19149     10779.62149        50.000  
  22359593.30549 117500455.54349     -1647.90249        49.000  
 16 04 02 12 32 10.8000000  0  3G26G31G16                                       
  21773297.86749 114419451.57849     11824.37949        49.000  
  22366777.39149 117538207.47749     10774.39849        50.000  
  22359624.70349 117500620.53149     -1652.16449        49.000  
 16 04 02 12 32 10.9000000  0  3G26G31G16                                       
  21773072.89849 114418269.38749     11819.58649        49.000  
  22366572.41449 117537130.30149     10769.05149        50.000  
  22359656.18049 117500785.96149     -1656.50449        49.000  
 16 04 02 12 32 11.0000000  0  3G26G31G16                                       
  21772848.02349 114417087.65649     11814.91849        49.000  
  22366367.52349 117536053.64149     10763.88749        50.000  
  22359687.74249 117500951.80949     -1660.79349        49.000  
 16 04 02 12 32 11.1000000  0  3G26G31G16                                       
  21772623.25049 114415906.43849     11809.98049        49.000  
  22366162.75049 117534977.55149     10758.34049        50.000  
  22359719.39149 117501118.12949     -1665.27049        49.000  
 16 04 02 12 32 11.2000000  0  3G26G31G16                                       
  21772398.56249 114414725.69149     11805.09049        49.000  
  22365958.07849 117533901.98049     10753.05149        50.000  
  22359751.12549 117501284.87949     -1669.71949        49.000  
 16 04 02 12 32 11.3000000  0  3G26G31G16                                       
  21772173.96149 114413545.39149     11800.63349        49.000  
  22365753.50049 117532826.91449     10747.91849        50.000  
  22359782.93049 117501452.03949     -1673.84449        49.000  
 16 04 02 12 32 11.4000000  0  3G26G31G16                                       
  21771949.45349 114412365.59049     11795.63749        49.000  
  22365549.01649 117531752.40649     10742.44949        50.000  
  22359814.82849 117501619.65249     -1678.35549        49.000  
 16 04 02 12 32 11.5000000  0  3G26G31G16                                       
  21771725.03149 114411186.25849     11791.12949        49.000  
  22365344.64849 117530678.41049     10737.34449        50.000  
  22359846.80549 117501787.69949     -1682.62549        49.000  
 16 04 02 12 32 11.6000000  0  3G26G31G16                                       
  21771500.69549 114410007.38749     11786.40649        49.000  
  22365140.36749 117529604.93849     10732.08649        50.000  
  22359878.86749 117501956.16449     -1686.87149        49.000  
 16 04 02 12 32 11.7000000  0  3G26G31G16                                       
  21771276.46149 114408829.06249     11780.91849        49.000  
  22364936.20349 117528532.05949     10726.10549        50.000  
  22359911.01649 117502125.12949     -1691.78549        49.000  
 16 04 02 12 32 11.8000000  0  3G26G31G16                                       
  21771052.32849 114407651.23049     11775.85949        49.000  
  22364732.14849 117527459.73449     10720.46149        50.000  
  22359943.25849 117502294.54349     -1696.52749        49.000  
 16 04 02 12 32 11.9000000  0  3G26G31G16                                       
  21770828.26649 114406473.77749     11772.48449        49.000  
  22364528.17249 117526387.83249     10716.59849        50.000  
  22359975.56249 117502464.30949     -1699.56249        49.000  
 16 04 02 12 32 12.0000000  0  3G26G31G16                                       
  21770604.29749 114405296.81649     11767.22349        49.000  
  22364324.29749 117525316.48849     10710.65649        50.000  
  22360007.95349 117502634.52049     -1704.45749        49.000  
 16 04 02 12 32 12.1000000  0  3G26G31G16                                       
  21770380.43849 114404120.40649     11761.92249        49.000  
  22364120.53949 117524245.73049     10705.08249        50.000  
  22360040.43849 117502805.23049     -1709.19949        49.000  
 16 04 02 12 32 12.2000000  0  3G26G31G16                                       
  21770156.64849 114402944.40249     11757.43849        49.000  
  22363916.87549 117523175.46149     10699.79349        50.000  
  22360073.00049 117502976.32049     -1713.35949        49.000  
 16 04 02 12 32 12.3000000  0  3G26G31G16                                       
  21769932.96949 114401768.94549     11752.28149        49.000  
  22363713.32049 117522105.77349     10694.12549        50.000  
  22360105.64849 117503147.91049     -1718.16849        49.000  
 16 04 02 12 32 12.4000000  0  3G26G31G16                                       
  21769709.36749 114400593.93049     11747.77749        49.000  
  22363509.85949 117521036.57449     10689.25849        50.000  
  22360138.38349 117503319.89849     -1722.13349        49.000  
 16 04 02 12 32 12.5000000  0  3G26G31G16                                       
  21769485.86749 114399419.41849     11742.80149        49.000  
  22363306.50849 117519967.95349     10683.65249        50.000  
  22360171.20349 117503492.35949     -1726.68049        49.000  
 16 04 02 12 32 12.6000000  0  3G26G31G16                                       
  21769262.46149 114398245.40649     11737.68849        49.000  
  22363103.25049 117518899.86349     10678.02349        50.000  
  22360204.10249 117503665.25849     -1731.41849        49.000  
 16 04 02 12 32 12.7000000  0  3G26G31G16                                       
  21769039.13349 114397071.84049     11733.34849        49.000  
  22362900.10249 117517832.28949     10673.06249        50.000  
  22360237.08649 117503838.58649     -1735.48849        49.000  
 16 04 02 12 32 12.8000000  0  3G26G31G16                                       
  21768815.90649 114395898.79749     11728.16449        49.000  
  22362697.05549 117516765.29349     10667.35549        50.000  
  22360270.15649 117504012.37949     -1740.06249        49.000  
 16 04 02 12 32 12.9000000  0  3G26G31G16                                       
  21768592.77349 114394726.23849     11723.12149        49.000  
  22362494.11749 117515698.82449     10661.75849        50.000  
  22360303.32049 117504186.62549     -1744.89549        49.000  
 16 04 02 12 32 13.0000000  0  3G26G31G16                                       
  21768369.73449 114393554.15649     11718.69949        49.000  
  22362291.27349 117514632.89149     10656.81649        50.000  
  22360336.55549 117504361.28949     -1748.81649        49.000  
 16 04 02 12 32 13.1000000  0  3G26G31G16                                       
  21768146.78149 114392382.49649     11714.24249        49.000  
  22362088.52349 117513567.42649     10651.86749        50.000  
  22360369.86749 117504536.35249     -1752.82449        49.000  
 16 04 02 12 32 13.2000000  0  3G26G31G16                                       
  21767923.91449 114391211.32849     11709.44549        49.000  
  22361885.87549 117512502.52349     10646.45749        50.000  
  22360403.26649 117504711.85949     -1757.12549        49.000  
 16 04 02 12 32 13.3000000  0  3G26G31G16                                       
  21767701.13349 114390040.60549     11704.95349        49.000  
  22361683.32049 117511438.09849     10641.64549        50.000  
  22360436.73449 117504887.76649     -1761.15649        49.000  
 16 04 02 12 32 13.4000000  0  3G26G31G16                                       
  21767478.43849 114388870.33249     11700.37149        49.000  
  22361480.86749 117510374.19549     10636.48049        50.000  
  22360470.29749 117505064.09049     -1765.41049        49.000  
 16 04 02 12 32 13.5000000  0  3G26G31G16                                       
  21767255.82849 114387700.55149     11695.63349        49.000  
  22361278.51649 117509310.83249     10631.11349        50.000  
  22360503.93049 117505240.85249     -1769.74649        49.000  
 16 04 02 12 32 13.6000000  0  3G26G31G16                                       
  21767033.31249 114386531.20349     11691.12549        49.000  
  22361076.26649 117508247.95749     10626.00049        50.000  
  22360537.64849 117505418.02349     -1774.06649        49.000  
 16 04 02 12 32 13.7000000  0  3G26G31G16                                       
  21766810.89849 114385362.44549     11685.23049        49.000  
  22360874.12549 117507185.72749     10619.58649        50.000  
  22360571.46149 117505595.71949     -1779.18849        49.000  
 16 04 02 12 32 13.8000000  0  3G26G31G16                                       
  21766588.57049 114384194.08649     11681.25849        49.000  
  22360672.07049 117506123.93449     10615.19149        50.000  
  22360605.35249 117505773.78149     -1782.75849        49.000  
 16 04 02 12 32 13.9000000  0  3G26G31G16                                       
  21766366.32049 114383026.17249     11676.79349        49.000  
  22360470.11749 117505062.65649     10610.08649        50.000  
  22360639.31249 117505952.26249     -1786.96549        49.000  
 16 04 02 12 32 14.0000000  0  3G26G31G16                                       
  21766144.18049 114381858.79349     11671.63349        49.000  
  22360268.27349 117504001.96949     10604.28149        50.000  
  22360673.36749 117506131.22349     -1791.74649        49.000  
 16 04 02 12 32 14.1000000  0  3G26G31G16                                       
  21765922.11749 114380691.87149     11666.95749        49.000  
  22360066.52349 117502941.77749     10599.28549        50.000  
  22360707.50049 117506310.60249     -1795.85549        49.000  
 16 04 02 12 32 14.2000000  0  3G26G31G16                                       
  21765700.16449 114379525.48849     11661.48849        49.000  
  22359864.89149 117501882.19949     10593.12149        50.000  
  22360741.73449 117506490.48049     -1801.02349        49.000  
 16 04 02 12 32 14.3000000  0  3G26G31G16                                       
  21765478.28949 114378359.52749     11657.09049        49.000  
  22359663.35249 117500823.08249     10588.28149        50.000  
  22360776.03149 117506670.74249     -1804.90249        49.000  
 16 04 02 12 32 14.4000000  0  3G26G31G16                                       
  21765256.51649 114377194.10549     11651.98449        49.000  
  22359461.92249 117499764.55949     10582.66049        50.000  
  22360810.43049 117506851.49249     -1809.64149        49.000  
 16 04 02 12 32 14.5000000  0  3G26G31G16                                       
  21765034.83649 114376029.15249     11647.18449        49.000  
  22359260.59449 117498706.55549     10577.37549        50.000  
  22360844.90649 117507032.66849     -1813.97349        49.000  
 16 04 02 12 32 14.6000000  0  3G26G31G16                                       
  21764813.24249 114374864.67649     11642.24249        49.000  
  22359059.35949 117497649.09049     10571.84049        50.000  
  22360879.46149 117507214.28149     -1818.43449        49.000  
 16 04 02 12 32 14.7000000  0  3G26G31G16                                       
  21764591.75049 114373700.71149     11637.29749        49.000  
  22358858.24249 117496592.18049     10566.36349        50.000  
  22360914.10949 117507396.37149     -1823.16849        49.000  
 16 04 02 12 32 14.8000000  0  3G26G31G16                                       
  21764370.33649 114372537.19549     11632.87149        49.000  
  22358657.21949 117495535.79349     10561.33649        50.000  
  22360948.83649 117507578.87149     -1827.17249        49.000  
 16 04 02 12 32 14.9000000  0  3G26G31G16                                       
  21764149.02349 114371374.14549     11628.31649        49.000  
  22358456.28949 117494479.90249     10556.44149        50.000  
  22360983.64849 117507761.78549     -1831.24249        49.000  
 16 04 02 12 32 15.0000000  0  3G26G31G16                                       
  21763927.78149 114370211.53549     11623.80549        49.000  
  22358255.46149 117493424.52049     10551.21949        50.000  
  22361018.52349 117507945.09849     -1835.28549        49.000  
 16 04 02 12 32 15.1000000  0  3G26G31G16                                       
  21763706.64149 114369049.41849     11618.99649        49.000  
  22358054.72749 117492369.67249     10545.95749        50.000  
  22361053.49249 117508128.86349     -1839.72349        49.000  
 16 04 02 12 32 15.2000000  0  3G26G31G16                                       
  21763485.57849 114367887.75449     11614.43849        49.000  
  22357854.10249 117491315.34449     10540.70349        50.000  
  22361088.53949 117508313.03949     -1843.92649        49.000  
 16 04 02 12 32 15.3000000  0  3G26G31G16                                       
  21763264.61749 114366726.57449     11609.46549        49.000  
  22357653.57049 117490261.55149     10535.26249        50.000  
  22361123.67249 117508497.66449     -1848.55549        49.000  
 16 04 02 12 32 15.4000000  0  3G26G31G16                                       
  21763043.75049 114365565.89549     11604.51649        49.000  
  22357453.14149 117489208.31649     10529.63749        50.000  
  22361158.89149 117508682.73449     -1852.86349        49.000  
 16 04 02 12 32 15.5000000  0  3G26G31G16                                       
  21762822.96949 114364405.69149     11599.68449        49.000  
  22357252.82049 117488155.59449     10524.48449        50.000  
  22361194.18849 117508868.24249     -1857.25049        49.000  
 16 04 02 12 32 15.6000000  0  3G26G31G16                                       
  21762602.28149 114363245.96549     11594.80149        49.000  
  22357052.59449 117487103.41049     10518.98849        50.000  
  22361229.57849 117509054.19149     -1861.75849        49.000  
 16 04 02 12 32 15.7000000  0  3G26G31G16                                       
  21762381.69549 114362086.73449     11589.90649        49.000  
  22356852.47749 117486051.78949     10513.48049        50.000  
  22361265.04749 117509240.59449     -1866.32449        49.000  
 16 04 02 12 32 15.8000000  0  3G26G31G16                                       
  21762161.19549 114360928.00849     11584.86349        49.000  
  22356652.45349 117485000.71149     10508.02349        50.000  
  22361300.60949 117509427.45749     -1870.91449        49.000  
 16 04 02 12 32 15.9000000  0  3G26G31G16                                       
  21761940.78949 114359769.74649     11580.17249        49.000  
  22356452.53949 117483950.14549     10502.76649        50.000  
  22361336.24249 117509614.73449     -1875.10949        49.000  
 16 04 02 12 32 16.0000000  0  3G26G31G16                                       
  21761720.47749 114358611.98049     11575.24649        49.000  
  22356252.73449 117482900.14849     10497.19149        50.000  
  22361371.96949 117509802.48449     -1879.80149        49.000  
 16 04 02 12 32 16.1000000  0  3G26G31G16                                       
  21761500.25049 114357454.71149     11570.53149        49.000  
  22356053.02349 117481850.69149     10491.98849        50.000  
  22361407.78149 117509990.67649     -1884.03149        49.000  
 16 04 02 12 32 16.2000000  0  3G26G31G16                                       
  21761280.11749 114356297.87149     11566.10549        49.000  
  22355853.40649 117480801.70749     10487.19149        50.000  
  22361443.66449 117510179.25049     -1888.01249        49.000  
 16 04 02 12 32 16.3000000  0  3G26G31G16                                       
  21761060.07049 114355141.52349     11561.15249        49.000  
  22355653.90649 117479753.28949     10481.51249        50.000  
  22361479.64149 117510368.28149     -1892.52049        49.000  
 16 04 02 12 32 16.4000000  0  3G26G31G16                                       
  21760840.11749 114353985.65649     11556.26249        49.000  
  22355454.50049 117478705.39549     10476.03549        50.000  
  22361515.69549 117510557.75049     -1897.08249        49.000  
 16 04 02 12 32 16.5000000  0  3G26G31G16                                       
  21760620.26649 114352830.30549     11551.14149        49.000  
  22355255.19549 117477658.06649     10470.41849        50.000  
  22361551.83649 117510747.68049     -1901.60549        49.000  
 16 04 02 12 32 16.6000000  0  3G26G31G16                                       
  21760400.49249 114351675.38349     11546.76249        49.000  
  22355055.99249 117476611.22349     10465.66449        50.000  
  22361588.05549 117510938.01249     -1905.53549        49.000  
 16 04 02 12 32 16.7000000  0  3G26G31G16                                       
  21760180.82049 114350521.00449     11541.39149        49.000  
  22354856.89849 117475564.98449     10459.55949        50.000  
  22361624.36749 117511128.84449     -1910.55149        49.000  
 16 04 02 12 32 16.8000000  0  3G26G31G16                                       
  21759961.22749 114349367.03549     11537.42649        49.000  
  22354657.89149 117474519.20349     10455.27749        50.000  
  22361660.75049 117511320.03949     -1913.98849        49.000  
 16 04 02 12 32 16.9000000  0  3G26G31G16                                       
  21759741.72749 114348213.55149     11532.65249        49.000  
  22354458.98449 117473473.95349     10449.79349        50.000  
  22361697.21949 117511511.67249     -1918.46149        49.000  
 16 04 02 12 32 17.0000000  0  3G26G31G16                                       
  21759522.32049 114347060.56649     11527.55949        49.000  
  22354260.18849 117472429.26649     10444.33249        50.000  
  22361733.77349 117511703.77349     -1923.16049        49.000  
 16 04 02 12 32 17.1000000  0  3G26G31G16                                       
  21759302.99249 114345908.03949     11522.94949        49.000  
  22354061.49249 117471385.09449     10439.08649        50.000  
  22361770.40649 117511896.29349     -1927.41849        49.000  
 16 04 02 12 32 17.2000000  0  3G26G31G16                                       
  21759083.78149 114344756.06649     11517.47349        49.000  
  22353862.90649 117470341.51649     10433.06249        50.000  
  22361807.14149 117512089.30149     -1932.25849        49.000  
 16 04 02 12 32 17.3000000  0  3G26G31G16                                       
  21758864.64849 114343604.49649     11513.32049        49.000  
  22353664.40649 117469298.39849     10428.40249        50.000  
  22361843.93849 117512282.69149     -1936.16049        49.000  
 16 04 02 12 32 17.4000000  0  3G26G31G16                                       
  21758645.60949 114342453.43849     11508.37549        49.000  
  22353466.02349 117468255.85949     10422.74649        50.000  
  22361880.82849 117512476.53549     -1940.64149        49.000  
 16 04 02 12 32 17.5000000  0  3G26G31G16                                       
  21758426.64849 114341302.77349     11504.52349        49.000  
  22353267.71149 117467213.75449     10418.53549        50.000  
  22361917.78149 117512670.74249     -1944.05949        49.000  
 16 04 02 12 32 17.6000000  0  3G26G31G16                                       
  21758207.78149 114340152.65249     11498.83249        49.000  
  22353069.52349 117466172.24649     10412.32849        50.000  
  22361954.83649 117512865.44549     -1949.21949        49.000  
 16 04 02 12 32 17.7000000  0  3G26G31G16                                       
  21757989.00049 114339002.96949     11494.37549        49.000  
  22352871.42249 117465131.23449     10407.34049        50.000  
  22361991.96149 117513060.54349     -1953.31249        49.000  
 16 04 02 12 32 17.8000000  0  3G26G31G16                                       
  21757770.32049 114337853.79349     11489.44149        49.000  
  22352673.43049 117464090.78149     10401.79349        50.000  
  22362029.18049 117513256.11349     -1957.89849        49.000  
 16 04 02 12 32 17.9000000  0  3G26G31G16                                       
  21757551.73449 114336705.11749     11484.48049        49.000  
  22352475.53949 117463050.87149     10396.44549        50.000  
  22362066.47749 117513452.12149     -1962.31649        49.000  
 16 04 02 12 32 18.0000000  0  3G26G31G16                                       
  21757333.22749 114335556.84449     11480.36749        49.000  
  22352277.74249 117462011.43049     10391.75849        50.000  
  22362103.85249 117513648.51249     -1966.05949        49.000  
 16 04 02 12 32 18.1000000  0  3G26G31G16                                       
  21757114.80549 114334409.05949     11475.54749        49.000  
  22352080.04749 117460972.52749     10386.35249        50.000  
  22362141.29749 117513845.32049     -1970.24249        49.000  
 16 04 02 12 32 18.2000000  0  3G26G31G16                                       
  21756896.48449 114333261.75449     11470.64149        49.000  
  22351882.45349 117459934.16049     10380.80549        50.000  
  22362178.83649 117514042.59449     -1974.99649        49.000  
 16 04 02 12 32 18.3000000  0  3G26G31G16                                       
  21756678.25049 114332114.94549     11465.79749        49.000  
  22351684.96149 117458896.34449     10375.69149        50.000  
  22362216.46149 117514240.31249     -1979.27349        49.000  
 16 04 02 12 32 18.4000000  0  3G26G31G16                                       
  21756460.10949 114330968.63349     11460.75049        49.000  
  22351487.57849 117457859.06649     10370.06249        50.000  
  22362254.17249 117514438.46949     -1983.79749        49.000  
 16 04 02 12 32 18.5000000  0  3G26G31G16                                       
  21756242.04749 114329822.72749     11456.79349        49.000  
  22351290.28149 117456822.27049     10365.30949        50.000  
  22362291.96149 117514637.02049     -1987.63749        49.000  
 16 04 02 12 32 18.6000000  0  3G26G31G16                                       
  21756024.09449 114328677.35249     11451.34449        49.000  
  22351093.09449 117455786.04349     10359.41049        50.000  
  22362329.82849 117514836.03949     -1992.46549        49.000  
 16 04 02 12 32 18.7000000  0  3G26G31G16                                       
  21755806.22749 114327532.48449     11446.42649        49.000  
  22350896.00849 117454750.35549     10354.26649        50.000  
  22362367.78949 117515035.50849     -1996.87149        49.000  
 16 04 02 12 32 18.8000000  0  3G26G31G16                                       
  21755588.45349 114326388.07449     11441.68449        49.000  
  22350699.03149 117453715.23049     10348.46549        50.000  
  22362405.82849 117515235.43049     -2001.48849        49.000  
 16 04 02 12 32 18.9000000  0  3G26G31G16                                       
  21755370.76649 114325244.09849     11437.59849        49.000  
  22350502.14149 117452680.56249     10344.08249        50.000  
  22362443.94549 117515435.71549     -2004.98049        49.000  
 16 04 02 12 32 19.0000000  0  3G26G31G16                                       
  21755153.16449 114324100.60949     11432.63349        49.000  
  22350305.35249 117451646.42249     10338.75049        50.000  
  22362482.14149 117515636.44149     -2009.38749        49.000  
 16 04 02 12 32 19.1000000  0  3G26G31G16                                       
  21754935.65649 114322957.63349     11427.27349        49.000  
  22350108.67249 117450612.87149     10332.68449        50.000  
  22362520.43049 117515837.64849     -2014.33249        49.000  
 16 04 02 12 32 19.2000000  0  3G26G31G16                                       
  21754718.25849 114321815.17649     11422.13349        49.000  
  22349912.10249 117449579.87949     10327.19149        50.000  
  22362558.81249 117516039.32849     -2019.05149        49.000  
 16 04 02 12 32 19.3000000  0  3G26G31G16                                       
  21754500.93849 114320673.12949     11417.89849        49.000  
  22349715.61749 117448547.36749     10322.19949        50.000  
  22362597.25849 117516241.39149     -2023.04349        49.000  
 16 04 02 12 32 19.4000000  0  3G26G31G16                                       
  21754283.71949 114319531.64849     11412.66849        49.000  
  22349519.26649 117447515.46549     10316.39849        50.000  
  22362635.80549 117516443.95349     -2027.82049        49.000  
 16 04 02 12 32 19.5000000  0  3G26G31G16                                       
  21754066.58649 114318390.57849     11408.32849        49.000  
  22349322.98449 117446484.02049     10311.77049        50.000  
  22362674.42249 117516646.89149     -2031.52749        49.000  
 16 04 02 12 32 19.6000000  0  3G26G31G16                                       
  21753849.52349 114317249.93849     11404.18049        49.000  
  22349126.80549 117445453.06649     10306.90249        50.000  
  22362713.11749 117516850.21549     -2035.41449        49.000  
 16 04 02 12 32 19.7000000  0  3G26G31G16                                       
  21753632.57049 114316109.84049     11398.48049        49.000  
  22348930.73449 117444422.69949     10300.70349        50.000  
  22362751.89849 117517054.03549     -2040.61749        49.000  
 16 04 02 12 32 19.8000000  0  3G26G31G16                                       
  21753415.71949 114314970.28949     11393.19149        49.000  
  22348734.78149 117443392.95349     10294.81249        50.000  
  22362790.78949 117517258.37149     -2045.53149        49.000  
 16 04 02 12 32 19.9000000  0  3G26G31G16                                       
  21753198.96149 114313831.15649     11388.93049        49.000  
  22348538.91449 117442363.65649     10290.17649        50.000  
  22362829.73449 117517463.07049     -2049.28949        49.000  
 16 04 02 12 32 20.0000000  0  3G26G31G16                                       
  21752982.27349 114312692.48449     11384.53549        49.000  
  22348343.14849 117441334.87549     10285.25049        50.000  
  22362868.77349 117517668.19549     -2053.31249        49.000  
 16 04 02 12 32 20.1000000  0  3G26G31G16                                       
  21752765.68849 114311554.26249     11379.86349        49.000  
  22348147.47749 117440306.61349     10279.88349        50.000  
  22362907.88349 117517873.71949     -2057.53949        49.000  
 16 04 02 12 32 20.2000000  0  3G26G31G16                                       
  21752549.18849 114310416.57849     11374.56249        49.000  
  22347951.91449 117439278.93049     10274.22349        50.000  
  22362947.08649 117518079.73849     -2062.37549        49.000  
 16 04 02 12 32 20.3000000  0  3G26G31G16                                       
  21752332.78949 114309279.34849     11369.93849        49.000  
  22347756.44549 117438251.76249     10268.99249        50.000  
  22362986.36749 117518286.17249     -2066.55949        49.000  
 16 04 02 12 32 20.4000000  0  3G26G31G16                                       
  21752116.46149 114308142.55949     11365.77349        49.000  
  22347561.07049 117437225.07849     10264.32449        50.000  
  22363025.72749 117518492.98849     -2070.18449        49.000  
 16 04 02 12 32 20.5000000  0  3G26G31G16                                       
  21751900.23449 114307006.25049     11360.61349        49.000  
  22347365.80549 117436198.93449     10258.63349        50.000  
  22363065.16449 117518700.26249     -2074.95349        49.000  
 16 04 02 12 32 20.6000000  0  3G26G31G16                                       
  21751684.10949 114305870.50049     11355.15649        49.000  
  22347170.65649 117435173.40649     10252.50449        50.000  
  22363104.71149 117518908.05549     -2080.18049        49.000  
 16 04 02 12 32 20.7000000  0  3G26G31G16                                       
  21751468.07849 114304735.29749     11349.60249        49.000  
  22346975.60949 117434148.46149     10246.63749        50.000  
  22363144.34449 117519116.32449     -2085.06249        49.000  
 16 04 02 12 32 20.8000000  0  3G26G31G16                                       
  21751252.13349 114303600.49649     11345.37549        49.000  
  22346780.66449 117433123.97749     10241.85949        50.000  
  22363184.04749 117519324.95749     -2088.85549        49.000  
 16 04 02 12 32 20.9000000  0  3G26G31G16                                       
  21751036.28149 114302466.16449     11340.94549        49.000  
  22346585.81249 117432100.04749     10236.57849        50.000  
  22363223.83649 117519534.04749     -2093.05949        49.000  
 16 04 02 12 32 21.0000000  0  3G26G31G16                                       
  21750820.53149 114301332.39549     11335.32449        49.000  
  22346391.07849 117431076.69149     10230.86749        50.000  
  22363263.71949 117519743.62949     -2098.05949        49.000  
 16 04 02 12 32 21.1000000  0  3G26G31G16                                       
  21750604.87549 114300199.10949     11330.48049        49.000  
  22346196.44549 117430053.89549     10225.25849        50.000  
  22363303.68849 117519953.65249     -2102.48449        49.000  
 16 04 02 12 32 21.2000000  0  3G26G31G16                                       
  21750389.30549 114299066.27349     11325.91849        49.000  
  22346001.91449 117429031.59449     10220.24649        50.000  
  22363343.72749 117520164.09049     -2106.63349        49.000  
 16 04 02 12 32 21.3000000  0  3G26G31G16                                       
  21750173.81249 114297933.84049     11322.02049        49.000  
  22345807.46149 117428009.75449     10215.82849        50.000  
  22363383.84449 117520374.88349     -2109.98449        49.000  
 16 04 02 12 32 21.4000000  0  3G26G31G16                                       
  21749958.41449 114296801.92649     11316.79349        49.000  
  22345613.11749 117426988.47749     10209.96149        50.000  
  22363424.03949 117520586.14149     -2114.86749        49.000  
 16 04 02 12 32 21.5000000  0  3G26G31G16                                       
  21749743.11749 114295670.54349     11311.61349        49.000  
  22345418.89149 117425967.79749     10204.25849        50.000  
  22363464.33649 117520797.90649     -2119.60249        49.000  
 16 04 02 12 32 21.6000000  0  3G26G31G16                                       
  21749527.89849 114294539.58649     11307.11749        49.000  
  22345224.75049 117424947.58649     10199.30149        50.000  
  22363504.70349 117521010.03949     -2123.64849        49.000  
 16 04 02 12 32 21.7000000  0  3G26G31G16                                       
  21749312.78149 114293409.11349     11302.36749        49.000  
  22345030.71149 117423927.91449     10194.02049        50.000  
  22363545.15649 117521222.62149     -2127.98449        49.000  
 16 04 02 12 32 21.8000000  0  3G26G31G16                                       
  21749097.74249 114292279.07449     11298.18049        49.000  
  22344836.76649 117422908.73849     10189.32049        50.000  
  22363585.68849 117521435.58249     -2131.62949        49.000  
 16 04 02 12 32 21.9000000  0  3G26G31G16                                       
  21748882.78149 114291149.50049     11293.60249        49.000  
  22344642.92249 117421890.07449     10184.03149        50.000  
  22363626.29749 117521648.98049     -2135.94949        49.000  
 16 04 02 12 32 22.0000000  0  3G26G31G16                                       
  21748667.93849 114290020.48049     11287.92649        49.000  
  22344449.19549 117420872.02349     10177.93049        50.000  
  22363667.00049 117521862.87549     -2141.10949        49.000  
 16 04 02 12 32 22.1000000  0  3G26G31G16                                       
  21748453.17249 114288891.87949     11283.60549        49.000  
  22344255.55549 117419854.43849     10172.97349        50.000  
  22363707.77349 117522077.15649     -2145.14549        49.000  
 16 04 02 12 32 22.2000000  0  3G26G31G16                                       
  21748238.51649 114287763.83249     11278.28149        49.000  
  22344062.03149 117418837.44549     10167.30149        50.000  
  22363748.64849 117522291.93849     -2149.87549        49.000  
 16 04 02 12 32 22.3000000  0  3G26G31G16                                       
  21748023.92249 114286636.17649     11274.23449        49.000  
  22343868.59449 117417820.91849     10162.55949        50.000  
  22363789.58649 117522507.05949     -2153.51649        49.000  
 16 04 02 12 32 22.4000000  0  3G26G31G16                                       
  21747809.43849 114285509.06649     11268.94949        49.000  
  22343675.26649 117416804.98449     10156.74249        50.000  
  22363830.61749 117522722.69949     -2158.47749        49.000  
 16 04 02 12 32 22.5000000  0  3G26G31G16                                       
  21747595.05549 114284382.45749     11263.59849        49.000  
  22343482.03949 117415789.60249     10150.96949        50.000  
  22363871.73449 117522938.78549     -2163.27349        49.000  
 16 04 02 12 32 22.6000000  0  3G26G31G16                                       
  21747380.75849 114283256.33249     11258.82049        49.000  
  22343288.92249 117414774.76249     10145.62149        50.000  
  22363912.94549 117523155.31649     -2167.53549        49.000  
 16 04 02 12 32 22.7000000  0  3G26G31G16                                       
  21747166.55549 114282130.69549     11254.01249        49.000  
  22343095.90649 117413760.46149     10140.27349        50.000  
  22363954.23449 117523372.28949     -2171.95349        49.000  
 16 04 02 12 32 22.8000000  0  3G26G31G16                                       
  21746952.44549 114281005.54349     11249.18849        49.000  
  22342902.99249 117412746.69149     10134.88349        50.000  
  22363995.60949 117523589.70349     -2176.37149        49.000  
 16 04 02 12 32 22.9000000  0  3G26G31G16                                       
  21746738.41449 114279880.84449     11244.71549        49.000  
  22342710.17249 117411733.43049     10129.88349        50.000  
  22364037.06249 117523807.52749     -2180.40249        49.000  
 16 04 02 12 32 23.0000000  0  3G26G31G16                                       
  21746524.48449 114278756.62949     11239.84449        49.000  
  22342517.46149 117410720.71149     10124.58649        50.000  
  22364078.59449 117524025.78949     -2184.75849        49.000  
 16 04 02 12 32 23.1000000  0  3G26G31G16                                       
  21746310.64149 114277632.86349     11235.34849        49.000  
  22342324.84449 117409708.49249     10119.53949        50.000  
  22364120.20349 117524244.45749     -2188.82849        49.000  
 16 04 02 12 32 23.2000000  0  3G26G31G16                                       
  21746096.89149 114276509.57849     11230.60549        49.000  
  22342132.32849 117408696.81649     10114.05949        50.000  
  22364161.89849 117524463.56249     -2193.22749        49.000  
 16 04 02 12 32 23.3000000  0  3G26G31G16                                       
  21745883.22749 114275386.78549     11225.58249        49.000  
  22341939.91449 117407685.66449     10108.84849        50.000  
  22364203.68049 117524683.11349     -2197.68049        49.000  
 16 04 02 12 32 23.4000000  0  3G26G31G16                                       
  21745669.66449 114274264.48049     11220.52749        49.000  
  22341747.60249 117406675.07449     10103.04749        50.000  
  22364245.53949 117524903.11349     -2202.40249        49.000  
 16 04 02 12 32 23.5000000  0  3G26G31G16                                       
  21745456.18049 114273142.61749     11216.26649        49.000  
  22341555.39149 117405664.97349     10098.21149        50.000  
  22364287.47749 117525123.50849     -2206.18449        49.000  
 16 04 02 12 32 23.6000000  0  3G26G31G16                                       
  21745242.79749 114272021.30149     11210.89849        49.000  
  22341363.28149 117404655.47349     10092.35249        50.000  
  22364329.51649 117525344.41049     -2211.20349        49.000  
 16 04 02 12 32 23.7000000  0  3G26G31G16                                       
  21745029.50849 114270900.44949     11206.14549        49.000  
  22341171.28149 117403646.48449     10087.22749        50.000  
  22364371.63349 117525565.71949     -2215.28549        49.000  
 16 04 02 12 32 23.8000000  0  3G26G31G16                                       
  21744816.29749 114269780.03149     11201.73049        49.000  
  22340979.36749 117402637.98049     10082.32049        50.000  
  22364413.82049 117525787.43049     -2219.34449        49.000  
 16 04 02 12 32 23.9000000  0  3G26G31G16                                       
  21744603.18049 114268660.10949     11196.92249        49.000  
  22340787.56249 117401630.03949     10076.75449        50.000  
  22364456.09449 117526009.58249     -2223.73049        49.000  
 16 04 02 12 32 24.0000000  0  3G26G31G16                                       
  21744390.16449 114267540.70749     11191.66849        49.000  
  22340595.86749 117400622.66849     10070.85249        50.000  
  22364498.46149 117526232.21549     -2228.60249        49.000  
 16 04 02 12 32 24.1000000  0  3G26G31G16                                       
  21744177.23449 114266421.75049     11187.17249        49.000  
  22340404.26649 117399615.77049     10066.12149        50.000  
  22364540.89849 117526455.24649     -2232.57849        49.000  
 16 04 02 12 32 24.2000000  0  3G26G31G16                                       
  21743964.40649 114265303.29749     11182.17649        49.000  
  22340212.76649 117398609.46149     10060.34049        50.000  
  22364583.43049 117526678.74649     -2237.32449        49.000  
 16 04 02 12 32 24.3000000  0  3G26G31G16                                       
  21743751.65649 114264185.29749     11177.80949        49.000  
  22340021.36749 117397603.64549     10055.53949        50.000  
  22364626.03949 117526902.64849     -2241.21549        49.000  
 16 04 02 12 32 24.4000000  0  3G26G31G16                                       
  21743539.00049 114263067.77349     11172.94949        49.000  
  22339830.06249 117396598.35549     10050.17649        50.000  
  22364668.72749 117527126.96549     -2245.27049        49.000  
 16 04 02 12 32 24.5000000  0  3G26G31G16                                       
  21743326.43849 114261950.76249     11167.76249        49.000  
  22339638.86749 117395593.62949     10044.62549        50.000  
  22364711.50049 117527351.77049     -2250.14549        49.000  
 16 04 02 12 32 24.6000000  0  3G26G31G16                                       
  21743113.96949 114260834.20749     11163.18449        49.000  
  22339447.77349 117394589.43049     10039.35249        50.000  
  22364754.35949 117527576.99249     -2254.44149        49.000  
 16 04 02 12 32 24.7000000  0  3G26G31G16                                       
  21742901.59449 114259718.15249     11158.14149        49.000  
  22339256.78149 117393585.75849     10033.89849        50.000  
  22364797.30549 117527802.64849     -2258.87549        49.000  
 16 04 02 12 32 24.8000000  0  3G26G31G16                                       
  21742689.30549 114258602.54749     11153.55549        49.000  
  22339065.89149 117392582.61349     10028.66049        50.000  
  22364840.32049 117528028.73449     -2263.19549        49.000  
 16 04 02 12 32 24.9000000  0  3G26G31G16                                       
  21742477.10249 114257487.43849     11149.06649        49.000  
  22338875.10249 117391580.00849     10023.61749        50.000  
  22364883.43049 117528255.25449     -2267.12949        49.000  
 16 04 02 12 32 25.0000000  0  3G26G31G16                                       
  21742264.98449 114256372.75449     11144.39849        49.000  
  22338684.39149 117390577.87149     10018.64149        50.000  
  22364926.60949 117528482.16049     -2271.39149        49.000  
 16 04 02 12 32 25.1000000  0  3G26G31G16                                       
  21742052.96149 114255258.52349     11140.06249        49.000  
  22338493.78949 117389576.25049     10013.72349        50.000  
  22364969.85949 117528709.46549     -2275.19149        49.000  
 16 04 02 12 32 25.2000000  0  3G26G31G16                                       
  21741841.03149 114254144.82449     11134.74249        49.000  
  22338303.29749 117388575.21549     10007.81249        50.000  
  22365013.21149 117528937.27349     -2280.25449        49.000  
 16 04 02 12 32 25.3000000  0  3G26G31G16                                       
  21741629.18049 114253031.57849     11130.12949        49.000  
  22338112.90649 117387574.68849     10002.52049        50.000  
  22365056.64149 117529165.48049     -2284.33649        49.000  
 16 04 02 12 32 25.4000000  0  3G26G31G16                                       
  21741417.44549 114251918.88349     11124.74649        49.000  
  22337922.62549 117386574.75849      9996.71149        50.000  
  22365100.16449 117529394.18449     -2289.12149        49.000  
 16 04 02 12 32 25.5000000  0  3G26G31G16                                       
  21741205.77349 114250806.57049     11120.64549        49.000  
  22337732.42249 117385575.25849      9992.07849        50.000  
  22365143.75049 117529623.24249     -2292.88349        49.000  
 16 04 02 12 32 25.6000000  0  3G26G31G16                                       
  21740994.19549 114249694.74649     11115.91049        49.000  
  22337542.33649 117384576.31249      9986.76249        50.000  
  22365187.42249 117529852.73449     -2297.14149        49.000  
 16 04 02 12 32 25.7000000  0  3G26G31G16                                       
  21740782.71949 114248583.41849     11111.08249        49.000  
  22337352.35249 117383577.93049      9981.30149        50.000  
  22365231.18049 117530082.69149     -2301.75049        49.000  
 16 04 02 12 32 25.8000000  0  3G26G31G16                                       
  21740571.33649 114247472.58249     11105.96149        49.000  
  22337162.46149 117382580.04349      9975.98849        50.000  
  22365275.02349 117530313.07049     -2306.15649        49.000  
 16 04 02 12 32 25.9000000  0  3G26G31G16                                       
  21740360.04749 114246362.24649     11101.02749        49.000  
  22336972.68049 117381582.75849      9970.25449        50.000  
  22365318.95349 117530543.92649     -2310.65249        49.000  
 16 04 02 12 32 26.0000000  0  3G26G31G16                                       
  21740148.85249 114245252.41449     11095.86349        49.000  
  22336783.00849 117380586.01249      9964.60949        50.000  
  22365362.96149 117530775.22349     -2315.37549        49.000  
 16 04 02 12 32 26.1000000  0  3G26G31G16                                       
  21739937.74249 114244143.03949     11091.35249        49.000  
  22336593.43049 117379589.77349      9959.59449        50.000  
  22365407.05549 117531006.94949     -2319.40249        49.000  
 16 04 02 12 32 26.2000000  0  3G26G31G16                                       
  21739726.72749 114243034.14149     11086.69549        49.000  
  22336403.95349 117378594.06649      9954.46149        50.000  
  22365451.23449 117531239.10249     -2323.61749        49.000  
 16 04 02 12 32 26.3000000  0  3G26G31G16                                       
  21739515.80549 114241925.74649     11081.69149        49.000  
  22336214.57849 117377598.91049      9948.95749        50.000  
  22365495.50049 117531471.69949     -2328.00049        49.000  
 16 04 02 12 32 26.4000000  0  3G26G31G16                                       
  21739304.96149 114240817.77049     11077.48049        49.000  
  22336025.30549 117376604.23849      9944.19149        50.000  
  22365539.83649 117531704.69149     -2331.94949        49.000  
 16 04 02 12 32 26.5000000  0  3G26G31G16                                       
  21739094.21949 114239710.28949     11072.49649        49.000  
  22335836.12549 117375610.10249      9938.57849        50.000  
  22365584.25849 117531938.13349     -2336.74249        49.000  
 16 04 02 12 32 26.6000000  0  3G26G31G16                                       
  21738883.56249 114238603.29749     11067.65649        49.000  
  22335647.04749 117374616.50849      9933.29349        50.000  
  22365628.75849 117532171.99249     -2340.76249        49.000  
 16 04 02 12 32 26.7000000  0  3G26G31G16                                       
  21738673.00049 114237496.77349     11062.80949        49.000  
  22335458.07849 117373623.45349      9927.68049        50.000  
  22365673.34449 117532406.30149     -2345.44149        49.000  
 16 04 02 12 32 26.8000000  0  3G26G31G16                                       
  21738462.53949 114236390.77349     11057.85949        49.000  
  22335269.21149 117372630.94949      9922.55149        50.000  
  22365718.01649 117532641.07849     -2349.75449        49.000  
 16 04 02 12 32 26.9000000  0  3G26G31G16                                       
  21738252.16449 114235285.22749     11053.09849        49.000  
  22335080.44549 117371638.97749      9916.96949        50.000  
  22365762.77349 117532876.26249     -2354.04349        49.000  
 16 04 02 12 32 27.0000000  0  3G26G31G16                                       
  21738041.86749 114234180.12549     11048.67249        49.000  
  22334891.77349 117370647.47349      9912.29749        50.000  
  22365807.60249 117533111.84449     -2357.97749        49.000  
 16 04 02 12 32 27.1000000  0  3G26G31G16                                       
  21737831.66449 114233075.49649     11044.05949        49.000  
  22334703.19549 117369656.52349      9906.97349        50.000  
  22365852.51649 117533347.86749     -2362.40249        49.000  
 16 04 02 12 32 27.2000000  0  3G26G31G16                                       
  21737621.55549 114231971.37149     11038.95349        49.000  
  22334514.72749 117368666.11349      9901.48049        50.000  
  22365897.50849 117533584.32849     -2366.78949        49.000  
 16 04 02 12 32 27.3000000  0  3G26G31G16                                       
  21737411.53949 114230867.74249     11033.84449        49.000  
  22334326.36749 117367676.26249      9895.80149        50.000  
  22365942.59449 117533821.25449     -2371.50449        49.000  
 16 04 02 12 32 27.4000000  0  3G26G31G16                                       
  21737201.60949 114229764.57449     11029.35249        49.000  
  22334138.09449 117366686.92649      9890.59449        50.000  
  22365987.75849 117534058.59049     -2375.57449        49.000  
 16 04 02 12 32 27.5000000  0  3G26G31G16                                       
  21736991.78149 114228661.91449     11024.28549        49.000  
  22333949.93849 117365698.13749      9885.09449        50.000  
  22366033.01649 117534296.39149     -2380.26249        49.000  
 16 04 02 12 32 27.6000000  0  3G26G31G16                                       
  21736782.04749 114227559.77349     11019.10949        49.000  
  22333761.89149 117364709.92249      9879.59449        50.000  
  22366078.35249 117534534.66049     -2384.85549        49.000  
 16 04 02 12 32 27.7000000  0  3G26G31G16                                       
  21736572.39849 114226458.07049     11014.42649        49.000  
  22333573.93049 117363722.20349      9874.19949        50.000  
  22366123.77349 117534773.32849     -2389.17649        49.000  
 16 04 02 12 32 27.8000000  0  3G26G31G16                                       
  21736362.85249 114225356.87149     11009.75849        49.000  
  22333386.08649 117362735.04749      9869.08249        50.000  
  22366169.27349 117535012.45349     -2393.24649        49.000  
 16 04 02 12 32 27.9000000  0  3G26G31G16                                       
  21736153.38349 114224256.15249     11004.73449        49.000  
  22333198.33649 117361748.41449      9863.54349        50.000  
  22366214.85949 117535252.02049     -2398.01649        49.000  
 16 04 02 12 32 28.0000000  0  3G26G31G16                                       
  21735944.01649 114223155.92249     10999.99249        49.000  
  22333010.68849 117360762.33249      9858.18049        50.000  
  22366260.53149 117535492.01649     -2402.12949        49.000  
 16 04 02 12 32 28.1000000  0  3G26G31G16                                       
  21735734.73449 114222056.14849     10995.42249        49.000  
  22332823.13349 117359776.75049      9853.17249        50.000  
  22366306.28149 117535732.43449     -2406.34049        49.000  
 16 04 02 12 32 28.2000000  0  3G26G31G16                                       
  21735525.53949 114220956.82849     10990.93449        49.000  
  22332635.68049 117358791.68849      9848.05149        50.000  
  22366352.10249 117535973.25049     -2410.33649        49.000  
 16 04 02 12 32 28.3000000  0  3G26G31G16                                       
  21735316.43049 114219857.91449     10987.03949        49.000  
  22332448.31249 117357807.06249      9843.74649        50.000  
  22366398.00049 117536214.43049     -2413.66049        49.000  
 16 04 02 12 32 28.4000000  0  3G26G31G16                                       
  21735107.41449 114218759.53549     10981.64549        49.000  
  22332261.06249 117356823.05149      9837.55149        50.000  
  22366443.98449 117536456.10549     -2418.75049        49.000  
 16 04 02 12 32 28.5000000  0  3G26G31G16                                       
  21734898.50049 114217661.66449     10976.30549        49.000  
  22332073.91449 117355839.58249      9831.92249        50.000  
  22366490.06249 117536698.23849     -2423.56649        49.000  
 16 04 02 12 32 28.6000000  0  3G26G31G16                                       
  21734689.68049 114216564.32849     10970.81649        49.000  
  22331886.87549 117354856.69949      9825.91849        50.000  
  22366536.23449 117536940.85549     -2428.56649        49.000  
 16 04 02 12 32 28.7000000  0  3G26G31G16                                       
  21734480.96149 114215467.47349     10966.05549        49.000  
  22331699.94549 117353874.35549      9820.61749        50.000  
  22366582.48449 117537183.91449     -2432.92649        49.000  
 16 04 02 12 32 28.8000000  0  3G26G31G16                                       
  21734272.32849 114214371.07849     10961.54749        49.000  
  22331513.10949 117352892.52749      9815.54749        50.000  
  22366628.81249 117537427.38749     -2436.95749        49.000  
 16 04 02 12 32 28.9000000  0  3G26G31G16                                       
  21734063.78149 114213275.18849     10956.50049        49.000  
  22331326.37549 117351911.25849      9809.96149        50.000  
  22366675.23449 117537671.32049     -2441.55149        49.000  
 16 04 02 12 32 29.0000000  0  3G26G31G16                                       
  21733855.32849 114212179.75449     10952.18849        49.000  
  22331139.74249 117350930.49649      9805.03149        50.000  
  22366721.72749 117537915.66449     -2445.51649        49.000  
 16 04 02 12 32 29.1000000  0  3G26G31G16                                       
  21733646.96949 114211084.81249     10947.10249        49.000  
  22330953.21149 117349950.27049      9799.63749        50.000  
  22366768.31249 117538160.44149     -2449.97749        49.000  
 16 04 02 12 32 29.2000000  0  3G26G31G16                                       
  21733438.68849 114209990.29749     10942.87149        49.000  
  22330766.78149 117348970.54349      9794.73849        50.000  
  22366814.96949 117538405.61749     -2453.82849        49.000  
 16 04 02 12 32 29.3000000  0  3G26G31G16                                       
  21733230.49249 114208896.22749     10938.36749        49.000  
  22330580.43049 117347991.28949      9789.80949        50.000  
  22366861.69549 117538651.16849     -2457.77749        49.000  
 16 04 02 12 32 29.4000000  0  3G26G31G16                                       
  21733022.39849 114207802.68849     10933.00849        49.000  
  22330394.19549 117347012.63349      9783.88749        50.000  
  22366908.51649 117538897.22749     -2462.71949        49.000  
 16 04 02 12 32 29.5000000  0  3G26G31G16                                       
  21732814.39849 114206709.60949     10928.28949        49.000  
  22330208.06249 117346034.50449      9778.44549        50.000  
  22366955.42249 117539143.70349     -2467.06649        49.000  
 16 04 02 12 32 29.6000000  0  3G26G31G16                                       
  21732606.48449 114205617.04749     10923.40649        49.000  
  22330022.03149 117345056.91449      9773.21149        50.000  
  22367002.40649 117539390.62549     -2471.31649        49.000  
 16 04 02 12 32 29.7000000  0  3G26G31G16                                       
  21732398.66449 114204524.94549     10918.65649        49.000  
  22329836.10249 117344079.85549      9767.94149        50.000  
  22367049.47749 117539637.98449     -2475.75049        49.000  
 16 04 02 12 32 29.8000000  0  3G26G31G16                                       
  21732190.93849 114203433.32849     10913.84449        49.000  
  22329650.27349 117343103.32449      9762.58649        50.000  
  22367096.63349 117539885.77049     -2480.07449        49.000  
 16 04 02 12 32 29.9000000  0  3G26G31G16                                       
  21731983.30549 114202342.18049     10909.19549        49.000  
  22329464.54749 117342127.32849      9757.24249        50.000  
  22367143.86749 117540133.98449     -2484.36349        49.000  
 16 04 02 12 32 30.0000000  0  3G26G31G16                                       
  21731775.75049 114201251.48449     10904.79349        49.000  
  22329278.91449 117341151.81649      9752.60949        50.000  
  22367191.17249 117540382.59849     -2488.21949        49.000  
 16 04 02 12 32 30.1000000  0  3G26G31G16                                       
  21731568.28949 114200161.26649     10899.86349        49.000  
  22329093.39149 117340176.85549      9747.10249        50.000  
  22367238.57049 117540631.65249     -2492.68849        49.000  
 16 04 02 12 32 30.2000000  0  3G26G31G16                                       
  21731360.91449 114199071.49649     10895.39149        49.000  
  22328907.95349 117339202.39149      9741.94949        50.000  
  22367286.03949 117540881.10249     -2496.77049        49.000  
 16 04 02 12 32 30.3000000  0  3G26G31G16                                       
  21731153.64149 114197982.29349     10889.47349        49.000  
  22328722.63349 117338228.53949      9735.62949        50.000  
  22367333.60249 117541131.06649     -2502.08249        49.000  
 16 04 02 12 32 30.4000000  0  3G26G31G16                                       
  21730946.47749 114196893.59849     10884.51249        49.000  
  22328537.43049 117337255.26249      9729.99249        50.000  
  22367381.26649 117541381.50849     -2506.58649        49.000  
 16 04 02 12 32 30.5000000  0  3G26G31G16                                       
  21730739.37549 114195805.29349     10880.51249        49.000  
  22328352.30549 117336282.40649      9725.56649        50.000  
  22367428.98449 117541632.28149     -2510.14149        49.000  
 16 04 02 12 32 30.6000000  0  3G26G31G16                                       
  21730532.38349 114194717.52749     10875.26249        49.000  
  22328167.28949 117335310.15649      9719.78949        50.000  
  22367476.80549 117541883.55549     -2514.89849        49.000  
 16 04 02 12 32 30.7000000  0  3G26G31G16                                       
  21730325.47749 114193630.21949     10870.77049        49.000  
  22327982.36749 117334338.41449      9714.82049        50.000  
  22367524.69549 117542135.24249     -2519.06649        49.000  
 16 04 02 12 32 30.8000000  0  3G26G31G16                                       
  21730118.66449 114192543.41849     10865.78549        49.000  
  22327797.56249 117333367.23049      9709.20749        50.000  
  22367572.68049 117542387.37549     -2523.44949        49.000  
 16 04 02 12 32 30.9000000  0  3G26G31G16                                       
  21729911.93049 114191457.05149     10861.30949        49.000  
  22327612.84449 117332396.53549      9704.24249        50.000  
  22367620.73449 117542639.91849     -2527.57449        49.000  
 16 04 02 12 32 31.0000000  0  3G26G31G16                                       
  21729705.28949 114190371.15649     10856.78949        49.000  
  22327428.22749 117331426.36349      9699.22349        50.000  
  22367668.87549 117542892.87149     -2531.68049        49.000  
 16 04 02 12 32 31.1000000  0  3G26G31G16                                       
  21729498.75049 114189285.74649     10851.80549        49.000  
  22327243.71149 117330456.73449      9693.71549        50.000  
  22367717.09449 117543146.26249     -2536.04349        49.000  
 16 04 02 12 32 31.2000000  0  3G26G31G16                                       
  21729292.29749 114188200.83649     10846.71149        49.000  
  22327059.30549 117329487.65249      9688.02349        50.000  
  22367765.39849 117543400.10949     -2540.74649        49.000  
 16 04 02 12 32 31.3000000  0  3G26G31G16                                       
  21729085.93849 114187116.43449     10841.48049        49.000  
  22326875.00849 117328519.13749      9682.25049        50.000  
  22367813.78949 117543654.42249     -2545.55149        49.000  
 16 04 02 12 32 31.4000000  0  3G26G31G16                                       
  21728879.68849 114186032.56649     10836.21549        49.000  
  22326690.81249 117327551.19949      9676.56249        50.000  
  22367862.28149 117543909.21949     -2550.28549        49.000  
 16 04 02 12 32 31.5000000  0  3G26G31G16                                       
  21728673.51649 114184949.13749     10832.02049        49.000  
  22326506.71149 117326583.75449      9671.75849        50.000  
  22367910.83649 117544164.40649     -2554.09049        49.000  
 16 04 02 12 32 31.6000000  0  3G26G31G16                                       
  21728467.43849 114183866.19149     10827.09449        49.000  
  22326322.71949 117325616.84849      9666.34449        50.000  
  22367959.48449 117544420.02749     -2558.39149        49.000  
 16 04 02 12 32 31.7000000  0  3G26G31G16                                       
  21728261.44549 114182783.72349     10822.44149        49.000  
  22326138.82049 117324650.46949      9661.09849        50.000  
  22368008.21149 117544676.08649     -2562.79349        49.000  
 16 04 02 12 32 31.8000000  0  4G26G31G04G16                                    
  21728055.54749 114181701.70349     10817.90649        49.000  
  22325955.02349 117323684.59849      9656.02349        50.000  
  22214028.78949 116735509.08659     15706.32849        49.000  
  22368057.01649 117544932.54749     -2566.81649        49.000  
 16 04 02 12 32 31.9000000  0  4G26G31G04G16                                    
  21727849.73449 114180620.16049     10813.24249        49.000  
  22325771.32849 117322719.25049      9650.87549        50.000  
  22213729.94549 116733938.67649     15701.94149        49.000  
  22368105.89849 117545189.43449     -2570.96149        49.000  
 16 04 02 12 32 32.0000000  0  4G26G31G04G16                                    
  21727644.01649 114179539.12149     10808.22349        49.000  
  22325587.72749 117321754.44949      9645.43449        50.000  
  22213431.18049 116732368.72749     15697.37549        49.000  
  22368154.86749 117545446.77349     -2575.49249        49.000  
 16 04 02 12 32 32.1000000  0  4G26G31G04G16                                    
  21727438.39849 114178458.55149     10803.26649        49.000  
  22325404.23449 117320790.19149      9639.87949        50.000  
  22213132.51649 116730799.21949     15692.76649        49.000  
  22368203.92249 117545704.54749     -2579.94949        49.000  
 16 04 02 12 32 32.2000000  0  4G26G31G04G16                                    
  21727232.85949 114177378.45349     10798.60249        49.000  
  22325220.84449 117319826.44149      9634.69149        50.000  
  22212833.92249 116729230.14149     15688.52049        49.000  
  22368253.04749 117545962.73049     -2584.07849        49.000  
 16 04 02 12 32 32.3000000  0  4G26G31G04G16                                    
  21727027.42249 114176298.84049     10793.72749        49.000  
  22325037.54749 117318863.23849      9629.19149        50.000  
  22212535.42249 116727661.51649     15683.88349        49.000  
  22368302.26649 117546221.37149     -2588.69149        49.000  
 16 04 02 12 32 32.4000000  0  4G26G31G04G16                                    
  21726822.07849 114175219.75049     10788.54749        49.000  
  22324854.36749 117317900.61349      9623.56249        50.000  
  22212237.03949 116726093.39149     15678.98049        49.000  
  22368351.57849 117546480.47749     -2593.25849        49.000  
 16 04 02 12 32 32.5000000  0  4G26G31G04G16                                    
  21726616.82849 114174141.15649     10783.39549        49.000  
  22324671.28949 117316938.52349      9618.01649        50.000  
  22211938.71949 116724525.70749     15674.36749        49.000  
  22368400.96949 117546740.03549     -2597.99649        49.000  
 16 04 02 12 32 32.6000000  0  4G26G31G04G16                                    
  21726411.66449 114173063.00449     10779.23049        49.000  
  22324488.30549 117315976.94149      9613.26249        50.000  
  22211640.49249 116722958.43849     15670.49649        49.000  
  22368450.43849 117546999.98449     -2601.65249        49.000  
 16 04 02 12 32 32.7000000  0  4G26G31G04G16                                    
  21726206.59449 114171985.36349     10774.03549        49.000  
  22324305.43049 117315015.91449      9607.53949        50.000  
  22211342.34449 116721391.64849     15665.62949        49.000  
  22368499.99249 117547260.40649     -2606.39549        49.000  
 16 04 02 12 32 32.8000000  0  4G26G31G04G16                                    
  21726001.61749 114170908.23049     10768.94149        49.000  
  22324122.66449 117314055.45749      9601.89149        50.000  
  22211044.30549 116719825.32449     15660.93449        49.000  
  22368549.63349 117547521.28149     -2611.00449        49.000  
 16 04 02 12 32 32.9000000  0  4G26G31G04G16                                    
  21725796.73449 114169831.57449     10764.08249        49.000  
  22323939.99249 117313095.51649      9596.52749        50.000  
  22210746.32849 116718259.44549     15656.32049        49.000  
  22368599.35949 117547782.58649     -2615.43449        49.000  
 16 04 02 12 32 33.0000000  0  4G26G31G04G16                                    
  21725591.94549 114168755.39549     10759.60249        49.000  
  22323757.42249 117312136.10549      9591.58649        50.000  
  22210448.43849 116716693.99249     15652.37949        49.000  
  22368649.16449 117548044.31649     -2619.34449        49.000  
 16 04 02 12 32 33.1000000  0  4G26G31G04G16                                    
  21725387.23449 114167679.61349     10755.58249        49.000  
  22323574.93849 117311177.14849      9586.99249        50.000  
  22210150.61749 116715128.91449     15648.74249        49.000  
  22368699.03949 117548306.40249     -2622.93049        49.000  
 16 04 02 12 32 33.2000000  0  4G26G31G04G16                                    
  21725182.60249 114166604.27749     10751.15649        49.000  
  22323392.54749 117310218.69549      9581.94149        50.000  
  22209852.85249 116713564.25449     15644.57849        49.000  
  22368748.98449 117548568.89149     -2627.00049        49.000  
 16 04 02 12 32 33.3000000  0  4G26G31G04G16                                    
  21724978.07849 114165529.50049     10745.50449        49.000  
  22323210.27349 117309260.84849      9575.88749        50.000  
  22209555.20349 116712000.10949     15639.23049        49.000  
  22368799.03149 117548831.88349     -2632.02049        49.000  
 16 04 02 12 32 33.4000000  0  4G26G31G04G16                                    
  21724773.63349 114164455.15249     10741.05549        49.000  
  22323028.09449 117308303.49249      9570.77049        50.000  
  22209257.63349 116710436.36749     15635.09449        49.000  
  22368849.14849 117549095.27049     -2636.13349        49.000  
 16 04 02 12 32 33.5000000  0  4G26G31G04G16                                    
  21724569.28149 114163381.27349     10736.55549        49.000  
  22322846.01649 117307346.64849      9565.75449        50.000  
  22208960.14149 116708873.05149     15631.00449        49.000  
  22368899.35249 117549359.06649     -2640.09049        49.000  
 16 04 02 12 32 33.6000000  0  4G26G31G04G16                                    
  21724365.03149 114162307.91849     10731.13349        49.000  
  22322664.03949 117306390.37549      9559.91049        50.000  
  22208662.73449 116707310.22349     15625.91449        49.000  
  22368949.64149 117549623.34849     -2645.18449        49.000  
 16 04 02 12 32 33.7000000  0  4G26G31G04G16                                    
  21724160.85949 114161235.01249     10726.77349        49.000  
  22322482.16449 117305434.61749      9554.96549        50.000  
  22208365.42249 116705747.81249     15621.87949        49.000  
  22369000.00849 117549888.02749     -2649.00449        49.000  
 16 04 02 12 32 33.8000000  0  4G26G31G04G16                                    
  21723956.78149 114160162.57849     10722.07449        49.000  
  22322300.39149 117304479.37549      9549.80949        50.000  
  22208068.20349 116704185.83249     15617.61349        49.000  
  22369050.46149 117550153.12949     -2653.13349        49.000  
 16 04 02 12 32 33.9000000  0  4G26G31G04G16                                    
  21723752.80549 114159090.63749     10717.05149        49.000  
  22322118.71949 117303524.67649      9544.23849        50.000  
  22207771.05549 116702624.30949     15612.90249        49.000  
  22369100.99249 117550418.67649     -2657.73449        49.000  
 16 04 02 12 32 34.0000000  0  4G26G31G04G16                                    
  21723548.91449 114158019.18849     10712.01249        49.000  
  22321937.14149 117302570.52349      9538.79749        50.000  
  22207474.01649 116701063.25449     15608.25849        49.000  
  22369151.60949 117550684.68049     -2662.30949        49.000  
 16 04 02 12 32 34.1000000  0  4G26G31G04G16                                    
  21723345.10949 114156948.17649     10707.71149        49.000  
  22321755.67249 117301616.86749      9533.84849        50.000  
  22207177.03949 116699502.59849     15604.34449        49.000  
  22369202.29749 117550951.06649     -2666.13349        49.000  
 16 04 02 12 32 34.2000000  0  4G26G31G04G16                                    
  21723141.40649 114155877.73049     10702.08249        49.000  
  22321574.31249 117300663.82849      9527.67249        50.000  
  22206880.14849 116697942.46149     15599.06649        49.000  
  22369253.08649 117551217.96149     -2671.18449        49.000  
 16 04 02 12 32 34.3000000  0  4G26G31G04G16                                    
  21722937.78949 114154807.69549     10698.00049        49.000  
  22321393.03949 117299711.24649      9523.04349        50.000  
  22206583.33649 116696382.70749     15595.36349        49.000  
  22369303.94549 117551485.22749     -2674.88349        49.000  
 16 04 02 12 32 34.4000000  0  4G26G31G04G16                                    
  21722734.25849 114153738.14149     10693.19149        49.000  
  22321211.87549 117298759.20349      9517.66049        50.000  
  22206286.60249 116694823.40649     15590.75849        49.000  
  22369354.89149 117551752.93849     -2679.27049        49.000  
 16 04 02 12 32 34.5000000  0  4G26G31G04G16                                    
  21722530.82849 114152669.11749     10687.94949        49.000  
  22321030.81249 117297807.72749      9512.07049        50.000  
  22205989.96949 116693264.58649     15585.98849        49.000  
  22369405.92249 117552021.10549     -2683.87549        49.000  
 16 04 02 12 32 34.6000000  0  4G26G31G04G16                                    
  21722327.49249 114151600.59849     10682.67649        49.000  
  22320849.85949 117296856.83249      9506.10249        50.000  
  22205693.43049 116691706.24249     15581.02749        49.000  
  22369457.03949 117552289.75849     -2688.82049        49.000  
 16 04 02 12 32 34.7000000  0  4G26G31G04G16                                    
  21722124.25849 114150532.55949     10677.93049        49.000  
  22320669.00849 117295906.44949      9500.94949        50.000  
  22205396.96949 116690148.35249     15576.53149        49.000  
  22369508.24249 117552558.82449     -2693.07049        49.000  
 16 04 02 12 32 34.8000000  0  4G26G31G04G16                                    
  21721921.10949 114149464.99249     10673.24249        49.000  
  22320488.25849 117294956.60249      9495.75449        50.000  
  22205100.59449 116688590.87949     15572.37549        49.000  
  22369559.52349 117552828.32449     -2697.26649        49.000  
 16 04 02 12 32 34.9000000  0  4G26G31G04G16                                    
  21721718.03949 114148397.84849     10669.08249        49.000  
  22320307.59449 117294007.22749      9491.10249        50.000  
  22204804.28949 116687033.81249     15568.50449        49.000  
  22369610.88349 117553098.19949     -2700.91449        49.000  
 16 04 02 12 32 35.0000000  0  4G26G31G04G16                                    
  21721515.07049 114147331.23449     10663.75849        49.000  
  22320127.04749 117293058.43049      9485.29349        50.000  
  22204508.10949 116685477.22749     15563.60949        49.000  
  22369662.32849 117553368.54349     -2705.57449        49.000  
 16 04 02 12 32 35.1000000  0  4G26G31G04G16                                    
  21721312.18049 114146265.06649     10659.31649        49.000  
  22319946.58649 117292110.14549      9480.21949        50.000  
  22204211.97749 116683921.06249     15559.48849        49.000  
  22369713.85249 117553639.30549     -2709.73449        49.000  
 16 04 02 12 32 35.2000000  0  4G26G31G04G16                                    
  21721109.39149 114145199.40649     10654.33249        49.000  
  22319766.24249 117291162.40649      9474.70349        50.000  
  22203915.93049 116682365.36349     15554.83649        49.000  
  22369765.46149 117553910.52049     -2714.30149        49.000  
 16 04 02 12 32 35.3000000  0  4G26G31G04G16                                    
  21720906.69549 114144134.23849     10649.34049        49.000  
  22319586.00049 117290215.21149      9469.33249        50.000  
  22203619.97749 116680810.12549     15550.17249        49.000  
  22369817.15649 117554182.17649     -2718.71549        49.000  
 16 04 02 12 32 35.4000000  0  4G26G31G04G16                                    
  21720704.08649 114143069.51649     10644.68049        49.000  
  22319405.85249 117289268.52349      9464.07449        50.000  
  22203324.10249 116679255.30149     15545.83649        49.000  
  22369868.93049 117554454.23449     -2722.91849        49.000  
 16 04 02 12 32 35.5000000  0  4G26G31G04G16                                    
  21720501.57049 114142005.27749     10640.18849        49.000  
  22319225.80549 117288322.37549      9458.91449        50.000  
  22203028.31249 116677700.91849     15541.66049        49.000  
  22369920.78149 117554726.73449     -2727.08249        49.000  
 16 04 02 12 32 35.6000000  0  4G26G31G04G16                                    
  21720299.14149 114140941.49649     10635.50049        49.000  
  22319045.85949 117287376.72749      9453.72349        50.000  
  22202732.59449 116676146.96949     15537.23049        49.000  
  22369972.71149 117554999.62949     -2731.22349        49.000  
 16 04 02 12 32 35.7000000  0  4G26G31G04G16                                    
  21720096.79749 114139878.19949     10630.80549        49.000  
  22318866.00849 117286431.61749      9448.52749        50.000  
  22202436.97749 116674593.45349     15533.05949        49.000  
  22370024.72749 117555272.96549     -2735.48049        49.000  
 16 04 02 12 32 35.8000000  0  4G26G31G04G16                                    
  21719894.55549 114138815.38749     10625.85949        49.000  
  22318686.26649 117285487.04749      9443.03949        50.000  
  22202141.43849 116673040.39149     15528.47749        49.000  
  22370076.82049 117555546.74649     -2739.89149        49.000  
 16 04 02 12 32 35.9000000  0  4G26G31G04G16                                    
  21719692.38349 114137752.99249     10621.64849        49.000  
  22318506.60949 117284542.94149      9438.36749        50.000  
  22201845.96949 116671487.72349     15524.37949        49.000  
  22370128.99249 117555820.88749     -2743.64149        49.000  
 16 04 02 12 32 36.0000000  0  4G26G31G04G16                                    
  21719490.32849 114136691.16049     10616.02749        49.000  
  22318327.07049 117283599.45349      9432.18849        50.000  
  22201550.60949 116669935.56249     15519.28549        49.000  
  22370181.25849 117556095.54749     -2748.74249        49.000  
 16 04 02 12 32 36.1000000  0  4G26G31G04G16                                    
  21719288.35249 114135629.76249     10611.49249        49.000  
  22318147.62549 117282656.44949      9427.24649        50.000  
  22201255.32049 116668383.81649     15515.12149        49.000  
  22370233.59449 117556370.59049     -2752.73049        49.000  
 16 04 02 12 32 36.2000000  0  4G26G31G04G16                                    
  21719086.46149 114134568.82849     10606.97349        49.000  
  22317968.27349 117281713.96549      9422.15249        50.000  
  22200960.10249 116666832.49649     15511.01649        49.000  
  22370286.00849 117556646.04749     -2756.71949        49.000  
 16 04 02 12 32 36.3000000  0  4G26G31G04G16                                    
  21718884.65649 114133508.36349     10602.34849        49.000  
  22317789.02349 117280772.00049      9417.00449        50.000  
  22200664.97749 116665281.60549     15506.73449        49.000  
  22370338.50849 117556921.93449     -2760.95749        49.000  
 16 04 02 12 32 36.4000000  0  4G26G31G04G16                                    
  21718682.96149 114132448.42249     10597.18849        49.000  
  22317609.88349 117279830.61749      9411.24649        50.000  
  22200369.95349 116663731.21149     15501.78549        49.000  
  22370391.10249 117557198.29349     -2765.73849        49.000  
 16 04 02 12 32 36.5000000  0  4G26G31G04G16                                    
  21718481.35249 114131388.97349     10592.16449        49.000  
  22317430.84449 117278889.77349      9405.71549        50.000  
  22200075.00849 116662181.27049     15497.23449        49.000  
  22370443.77349 117557475.09849     -2770.22749        49.000  
 16 04 02 12 32 36.6000000  0  4G26G31G04G16                                    
  21718279.82049 114130329.90649     10588.33649        49.000  
  22317251.89149 117277949.36349      9401.41849        50.000  
  22199780.12549 116660631.68049     15493.68449        49.000  
  22370496.51649 117557752.23449     -2773.49649        49.000  
 16 04 02 12 32 36.7000000  0  4G26G31G04G16                                    
  21718078.39149 114129271.39849     10582.69949        49.000  
  22317073.05549 117277009.55949      9395.30549        50.000  
  22199485.35249 116659082.60249     15488.46949        49.000  
  22370549.35249 117558029.88349     -2778.80949        49.000  
 16 04 02 12 32 36.8000000  0  4G26G31G04G16                                    
  21717877.06249 114128213.39149     10577.59049        49.000  
  22316894.32049 117276070.32049      9389.55149        50.000  
  22199190.66449 116657533.99649     15483.69149        49.000  
  22370602.27349 117558307.98449     -2783.35549        49.000  
 16 04 02 12 32 36.9000000  0  4G26G31G04G16                                    
  21717675.82049 114127155.87149     10572.92649        49.000  
  22316715.68849 117275131.61349      9384.42249        50.000  
  22198896.06249 116655985.84049     15479.41449        49.000  
  22370655.27349 117558586.52349     -2787.51649        49.000  
 16 04 02 12 32 37.0000000  0  4G26G31G04G16                                    
  21717474.67249 114126098.82449     10568.09049        49.000  
  22316537.16449 117274193.43449      9379.10249        50.000  
  22198601.53149 116654438.12949     15474.83249        49.000  
  22370708.35949 117558865.49249     -2791.91049        49.000  
 16 04 02 12 32 37.1000000  0  4G26G31G04G16                                    
  21717273.60249 114125042.19549     10563.97749        49.000  
  22316358.71949 117273255.72349      9374.48049        50.000  
  22198307.08649 116652890.80549     15471.02049        49.000  
  22370761.51649 117559144.82449     -2795.48449        49.000  
 16 04 02 12 32 37.2000000  0  4G26G31G04G16                                    
  21717072.62549 114123986.07049     10559.07849        49.000  
  22316180.38349 117272318.56649      9369.05949        50.000  
  22198012.74249 116651343.93449     15466.61749        49.000  
  22370814.75049 117559424.60949     -2799.86349        49.000  
 16 04 02 12 32 37.3000000  0  4G26G31G04G16                                    
  21716871.73449 114122930.36749     10554.74249        49.000  
  22316002.14149 117271381.88749      9364.16849        50.000  
  22197718.46149 116649797.45349     15462.57449        49.000  
  22370868.07049 117559704.77749     -2803.80549        49.000  
 16 04 02 12 32 37.4000000  0  4G26G31G04G16                                    
  21716670.94549 114121875.19549     10549.31649        49.000  
  22315824.00849 117270445.78949      9358.23449        50.000  
  22197424.24249 116648251.48049     15457.36349        49.000  
  22370921.47749 117559985.42249     -2808.66449        49.000  
 16 04 02 12 32 37.5000000  0  4G26G31G04G16                                    
  21716470.25049 114120820.53149     10544.30149        49.000  
  22315645.98449 117269510.25849      9352.64149        50.000  
  22197130.14149 116646705.96549     15452.90649        49.000  
  22370974.96949 117560266.53549     -2813.36749        49.000  
 16 04 02 12 32 37.6000000  0  4G26G31G04G16                                    
  21716269.64149 114119766.31649     10539.57849        49.000  
  22315468.04749 117268575.21949      9347.43049        50.000  
  22196836.11749 116645160.87549     15448.44149        49.000  
  22371028.53149 117560548.03549     -2817.50049        49.000  
 16 04 02 12 32 37.7000000  0  4G26G31G04G16                                    
  21716069.13349 114118712.62949     10534.44949        49.000  
  22315290.22749 117267640.76649      9341.82449        50.000  
  22196542.18849 116643616.27749     15443.73849        49.000  
  22371082.19549 117560830.02349     -2822.10949        49.000  
 16 04 02 12 32 37.8000000  0  4G26G31G04G16                                    
  21715868.70349 114117659.37149     10530.47349        49.000  
  22315112.49249 117266706.78949      9337.34449        50.000  
  22196248.35249 116642072.07449     15440.07049        49.000  
  22371135.93049 117561112.39549     -2825.60949        49.000  
 16 04 02 12 32 37.9000000  0  4G26G31G04G16                                    
  21715668.37549 114116606.62949     10525.08649        49.000  
  22314934.87549 117265773.37949      9331.30549        50.000  
  22195954.58649 116640528.34849     15434.85549        49.000  
  22371189.75049 117561395.21949     -2830.55549        49.000  
 16 04 02 12 32 38.0000000  0  4G26G31G04G16                                    
  21715468.12549 114115554.31649     10520.96549        49.000  
  22314757.34449 117264840.45749      9326.76649        50.000  
  22195660.92249 116638985.01249     15431.35549        49.000  
  22371243.64849 117561678.44149     -2834.18049        49.000  
 16 04 02 12 32 38.1000000  0  4G26G31G04G16                                    
  21715267.96149 114114502.44949     10516.46149        49.000  
  22314579.91449 117263908.03149      9321.69949        50.000  
  22195367.31249 116637442.08649     15427.13749        49.000  
  22371297.61749 117561962.05549     -2838.23449        49.000  
 16 04 02 12 32 38.2000000  0  4G26G31G04G16                                    
  21715067.89149 114113451.09049     10511.34449        49.000  
  22314402.58649 117262976.16049      9316.04749        50.000  
  22195073.79749 116635899.64549     15422.31649        49.000  
  22371351.67249 117562246.12949     -2842.91849        49.000  
 16 04 02 12 32 38.3000000  0  4G26G31G04G16                                    
  21714867.91449 114112400.21949     10506.33649        49.000  
  22314225.35949 117262044.83649      9310.58649        50.000  
  22194780.36749 116634357.65249     15417.66449        49.000  
  22371405.81249 117562530.63349     -2847.25049        49.000  
 16 04 02 12 32 38.4000000  0  4G26G31G04G16                                    
  21714668.03149 114111349.80949     10501.69149        49.000  
  22314048.23449 117261114.02749      9305.30949        50.000  
  22194487.03149 116632816.08249     15413.39849        49.000  
  22371460.03149 117562815.56649     -2851.61349        49.000  
 16 04 02 12 32 38.5000000  0  4G26G31G04G16                                    
  21714468.24249 114110299.93049     10496.48849        49.000  
  22313871.21949 117260183.78949      9299.73449        50.000  
  22194193.77349 116631275.00449     15408.60549        49.000  
  22371514.34449 117563100.96549     -2856.19949        49.000  
 16 04 02 12 32 38.6000000  0  4G26G31G04G16                                    
  21714268.53949 114109250.48049     10492.08249        49.000  
  22313694.29749 117259254.04349      9294.72349        50.000  
  22193900.58649 116629734.33649     15404.44549        49.000  
  22371568.73449 117563386.76249     -2860.22749        49.000  
 16 04 02 12 32 38.7000000  0  4G26G31G04G16                                    
  21714068.93849 114108201.55549     10486.99649        49.000  
  22313517.47749 117258324.86749      9289.05549        50.000  
  22193607.50049 116628194.14549     15399.66849        49.000  
  22371623.20349 117563673.02049     -2864.72749        49.000  
 16 04 02 12 32 38.8000000  0  4G26G31G04G16                                    
  21713869.41449 114107153.05149     10482.80549        49.000  
  22313340.75049 117257396.17249      9284.43449        50.000  
  22193314.50849 116626654.34449     15395.87149        49.000  
  22371677.75049 117563959.66049     -2868.49249        49.000  
 16 04 02 12 32 38.9000000  0  4G26G31G04G16                                    
  21713669.97749 114106104.98849     10478.36749        49.000  
  22313164.11749 117256467.96149      9279.48449        50.000  
  22193021.57049 116625114.94549     15391.80149        49.000  
  22371732.36749 117564246.68049     -2872.38349        49.000  
 16 04 02 12 32 39.0000000  0  4G26G31G04G16                                    
  21713470.64149 114105057.46549     10472.99249        49.000  
  22312987.60249 117255540.34449      9273.57849        50.000  
  22192728.73449 116623576.05549     15386.76249        49.000  
  22371787.07849 117564534.19949     -2877.23849        49.000  
 16 04 02 12 32 39.1000000  0  4G26G31G04G16                                    
  21713271.39149 114104010.40649     10468.24249        49.000  
  22312811.18049 117254613.25049      9268.27349        50.000  
  22192435.97749 116622037.59449     15382.41049        49.000  
  22371841.87549 117564822.13749     -2881.48449        49.000  
 16 04 02 12 32 39.2000000  0  4G26G31G04G16                                    
  21713072.23449 114102963.81649     10463.41849        49.000  
  22312634.85249 117253686.66849      9263.02349        50.000  
  22192143.27349 116620499.56649     15377.93849        49.000  
  22371896.74249 117565110.49249     -2885.81649        49.000  
 16 04 02 12 32 39.3000000  0  4G26G31G04G16                                    
  21712873.16449 114101917.72349     10458.76649        49.000  
  22312458.64149 117252760.64549      9257.69549        50.000  
  22191850.68849 116618962.00849     15373.46149        49.000  
  22371951.70349 117565399.29349     -2889.98049        49.000  
 16 04 02 12 32 39.4000000  0  4G26G31G04G16                                    
  21712674.18849 114100872.07049     10454.19549        49.000  
  22312282.51649 117251835.10949      9252.64849        50.000  
  22191558.18049 116617424.84049     15369.35549        49.000  
  22372006.73449 117565688.50049     -2894.27749        49.000  
 16 04 02 12 32 39.5000000  0  4G26G31G04G16                                    
  21712475.31249 114099826.97349     10448.62949        49.000  
  22312106.50849 117250910.17649      9246.58649        50.000  
  22191265.76649 116615888.20349     15364.11749        49.000  
  22372061.85949 117565978.19549     -2899.19549        49.000  
 16 04 02 12 32 39.6000000  0  4G26G31G04G16                                    
  21712276.53949 114098782.39149     10443.48049        49.000  
  22311930.60249 117249985.81649      9240.91049        50.000  
  22190973.46149 116614352.04349     15359.37949        49.000  
  22372117.07849 117566268.36349     -2903.85949        49.000  
 16 04 02 12 32 39.7000000  0  4G26G31G04G16                                    
  21712077.82849 114097738.18449     10439.56249        49.000  
  22311754.78949 117249061.88749      9236.38749        50.000  
  22190681.20349 116612816.23049     15355.72349        49.000  
  22372172.35949 117566558.85949     -2907.34049        49.000  
 16 04 02 12 32 39.8000000  0  4G26G31G04G16                                    
  21711879.23449 114096694.53149     10434.38749        49.000  
  22311579.08649 117248138.55149      9230.82449        50.000  
  22190389.03949 116611280.92649     15350.89149        49.000  
  22372227.73449 117566849.85949     -2912.02749        49.000  
 16 04 02 12 32 39.9000000  0  4G26G31G04G16                                    
  21711680.71149 114095651.28949     10430.22749        49.000  
  22311403.46949 117247215.68449      9226.10549        50.000  
  22190096.95349 116609746.00449     15347.06649        49.000  
  22372283.18049 117567141.21149     -2915.65249        49.000  
 16 04 02 12 32 40.0000000  0  4G26G31G04G16                                    
  21711482.28149 114094608.53949     10425.11749        49.000  
  22311227.96149 117246293.36749      9220.50449        50.000  
  22189804.93049 116608211.53149     15342.46549        49.000  
  22372338.70349 117567433.01249     -2920.09849        49.000  
 16 04 02 12 32 40.1000000  0  4G26G31G04G16                                    
  21711283.94549 114093566.26249     10420.36749        49.000  
  22311052.54749 117245371.57449      9215.07049        50.000  
  22189513.00849 116606677.50849     15337.97349        49.000  
  22372394.32049 117567725.25849     -2924.68049        49.000  
 16 04 02 12 32 40.2000000  0  4G26G31G04G16                                    
  21711085.68849 114092524.41449     10416.29349        49.000  
  22310877.22749 117244450.25849      9210.57049        50.000  
  22189221.18049 116605143.87549     15334.25449        49.000  
  22372449.99249 117568017.85249     -2928.00849        49.000  
 16 04 02 12 32 40.3000000  0  4G26G31G04G16                                    
  21710887.52349 114091483.06649     10411.28149        49.000  
  22310702.00849 117243529.49649      9204.98049        50.000  
  22188929.43049 116603610.71149     15329.47349        49.000  
  22372505.76649 117568310.92649     -2932.85549        49.000  
 16 04 02 12 32 40.4000000  0  4G26G31G04G16                                    
  21710689.44549 114090442.18849     10406.55949        49.000  
  22310526.89149 117242609.25049      9199.89849        50.000  
  22188637.77349 116602077.97749     15325.19149        49.000  
  22372561.60949 117568604.39849     -2936.85949        49.000  
 16 04 02 12 32 40.5000000  0  4G26G31G04G16                                    
  21710491.46149 114089401.76249     10401.91049        49.000  
  22310351.87549 117241689.51249      9194.65249        50.000  
  22188346.18049 116600545.65649     15320.91049        49.000  
  22372617.53149 117568898.27749     -2940.95349        49.000  
 16 04 02 12 32 40.6000000  0  4G26G31G04G16                                    
  21710293.57849 114088361.85249     10397.00449        49.000  
  22310176.96149 117240770.34449      9189.16449        50.000  
  22188054.68049 116599013.82049     15316.33649        49.000  
  22372673.54749 117569192.62549     -2945.45749        49.000  
 16 04 02 12 32 40.7000000  0  4G26G31G04G16                                    
  21710095.75849 114087322.34049     10392.77349        49.000  
  22310002.13349 117239851.62149      9184.51249        50.000  
  22187763.25049 116597482.35249     15312.47349        49.000  
  22372729.62549 117569487.32849     -2949.21149        49.000  
 16 04 02 12 32 40.8000000  0  4G26G31G04G16                                    
  21709898.06249 114086283.41449     10386.84449        49.000  
  22309827.43049 117238933.54349      9178.05949        50.000  
  22187471.93049 116595951.43449     15306.84049        49.000  
  22372785.81249 117569782.55949     -2954.60249        49.000  
 16 04 02 12 32 40.9000000  0  4G26G31G04G16                                    
  21709700.45349 114085244.95749     10382.14849        49.000  
  22309652.82049 117238015.97349      9172.94949        50.000  
  22187180.68849 116594420.93849     15302.62149        49.000  
  22372842.07049 117570078.20749     -2958.82049        49.000  
 16 04 02 12 32 41.0000000  0  4G26G31G04G16                                    
  21709502.91449 114084206.91049     10378.09449        49.000  
  22309478.30549 117237098.87949      9168.18049        50.000  
  22186889.51649 116592890.83249     15298.80149        49.000  
  22372898.39849 117570374.22749     -2962.43849        49.000  
 16 04 02 12 32 41.1000000  0  4G26G31G04G16                                    
  21709305.48449 114083169.40649     10372.85249        49.000  
  22309303.89849 117236182.37549      9162.43849        50.000  
  22186598.44549 116591361.22749     15293.91449        49.000  
  22372954.82849 117570670.73449     -2967.10549        49.000  
 16 04 02 12 32 41.2000000  0  4G26G31G04G16                                    
  21709108.14149 114082132.36749     10368.08649        49.000  
  22309129.59449 117235266.38349      9157.22349        50.000  
  22186307.45349 116589832.05549     15289.54349        49.000  
  22373011.32849 117570967.66449     -2971.43449        49.000  
 16 04 02 12 32 41.3000000  0  4G26G31G04G16                                    
  21708910.89149 114081095.79349     10363.33649        49.000  
  22308955.38349 117234350.91049      9151.87149        50.000  
  22186016.54749 116588303.31649     15284.97349        49.000  
  22373067.91449 117571265.00449     -2975.73849        49.000  
 16 04 02 12 32 41.4000000  0  4G26G31G04G16                                    
  21708713.72749 114080059.69949     10358.68449        49.000  
  22308781.27349 117233435.97349      9146.84049        50.000  
  22185725.71149 116586775.01649     15280.83249        49.000  
  22373124.57849 117571562.78149     -2979.86749        49.000  
 16 04 02 12 32 41.5000000  0  4G26G31G04G16                                    
  21708516.66449 114079024.13749     10353.18849        49.000  
  22308607.27349 117232521.62149      9140.72749        50.000  
  22185434.97749 116585247.21549     15275.73049        49.000  
  22373181.32849 117571861.02349     -2984.69149        49.000  
 16 04 02 12 32 41.6000000  0  4G26G31G04G16                                    
  21708319.68849 114077989.03949     10348.69549        49.000  
  22308433.38349 117231607.78549      9135.74249        50.000  
  22185144.34449 116583719.84449     15271.52749        49.000  
  22373238.16449 117572159.70349     -2988.83649        49.000  
 16 04 02 12 32 41.7000000  0  4G26G31G04G16                                    
  21708122.81249 114076954.43449     10343.71549        49.000  
  22308259.58649 117230694.48449      9130.23849        50.000  
  22184853.78949 116582192.93449     15266.85549        49.000  
  22373295.07849 117572458.79749     -2993.21949        49.000  
 16 04 02 12 32 41.8000000  0  4G26G31G04G16                                    
  21707926.02349 114075920.32449     10338.85949        49.000  
  22308085.89849 117229781.73449      9124.85249        50.000  
  22184563.31249 116580666.48449     15262.28949        49.000  
  22373352.08649 117572758.36749     -2997.77349        49.000  
 16 04 02 12 32 41.9000000  0  4G26G31G04G16                                    
  21707729.32849 114074886.64549     10334.45749        49.000  
  22307912.29749 117228869.47349      9119.98049        50.000  
  22184272.91449 116579140.43049     15258.25849        49.000  
  22373409.16449 117573058.30149     -3001.59049        49.000  
 16 04 02 12 32 42.0000000  0  4G26G31G04G16                                    
  21707532.71949 114073853.45749     10329.59449        49.000  
  22307738.80549 117227957.74249      9114.69149        50.000  
  22183982.61749 116577614.82049     15253.86749        49.000  
  22373466.32849 117573358.68849     -3005.95349        49.000  
 16 04 02 12 32 42.1000000  0  4G26G31G04G16                                    
  21707336.21149 114072820.78949     10324.27349        49.000  
  22307565.42249 117227046.59849      9108.71949        50.000  
  22183692.39849 116576089.71549     15248.77349        49.000  
  22373523.57049 117573659.53549     -3010.80949        49.000  
 16 04 02 12 32 42.2000000  0  4G26G31G04G16                                    
  21707139.78949 114071788.60249     10319.69949        49.000  
  22307392.13349 117226135.97749      9103.64849        50.000  
  22183402.25049 116574565.04349     15244.62949        49.000  
  22373580.90649 117573960.82049     -3014.85549        49.000  
 16 04 02 12 32 42.3000000  0  4G26G31G04G16                                    
  21706943.44549 114070756.79749     10315.60949        49.000  
  22307218.93049 117225225.80149      9099.00849        50.000  
  22183112.18049 116573040.72349     15240.88349        49.000  
  22373638.30549 117574262.43049     -3018.43449        49.000  
 16 04 02 12 32 42.4000000  0  4G26G31G04G16                                    
  21706747.20349 114069725.53549     10310.39849        49.000  
  22307045.84449 117224316.21149      9093.30949        50.000  
  22182822.21149 116571516.91049     15236.04349        49.000  
  22373695.78949 117574564.53149     -3023.07849        49.000  
 16 04 02 12 32 42.5000000  0  4G26G31G04G16                                    
  21706551.05549 114068694.77349     10305.35949        49.000  
  22306872.85949 117223407.17249      9087.69549        50.000  
  22182532.33649 116569993.57049     15231.19549        49.000  
  22373753.36749 117574867.10249     -3027.80149        49.000  
 16 04 02 12 32 42.6000000  0  4G26G31G04G16                                    
  21706354.99249 114067664.46549     10300.78149        49.000  
  22306699.96949 117222498.63349      9082.78149        50.000  
  22182242.53149 116568470.63749     15227.13749        49.000  
  22373811.02349 117575170.06249     -3031.80149        49.000  
 16 04 02 12 32 42.7000000  0  4G26G31G04G16                                    
  21706159.02349 114066634.65649     10295.85549        49.000  
  22306527.18849 117221590.65649      9077.27749        50.000  
  22181952.82049 116566948.17249     15222.51249        49.000  
  22373868.75849 117575473.46949     -3036.13349        49.000  
 16 04 02 12 32 42.8000000  0  4G26G31G04G16                                    
  21705963.14849 114065605.34049     10290.76649        49.000  
  22306354.50849 117220683.22749      9071.44949        50.000  
  22181663.21949 116565426.18049     15217.62949        49.000  
  22373926.57849 117575777.32849     -3040.84849        49.000  
 16 04 02 12 32 42.9000000  0  4G26G31G04G16                                    
  21705767.37549 114064576.54749     10285.55549        49.000  
  22306181.93849 117219776.35549      9065.93049        50.000  
  22181373.68049 116563904.65249     15212.94549        49.000  
  22373984.49249 117576081.64149     -3045.38349        49.000  
 16 04 02 12 32 43.0000000  0  4G26G31G04G16                                    
  21705571.68049 114063548.17249     10281.43849        49.000  
  22306009.46149 117218869.97749      9061.18849        50.000  
  22181084.21949 116562383.52749     15208.98849        49.000  
  22374042.47749 117576386.35549     -3049.19949        49.000  
 16 04 02 12 32 43.1000000  0  4G26G31G04G16                                    
  21705376.07849 114062520.27049     10276.82849        49.000  
  22305837.07849 117217964.10549      9056.12149        50.000  
  22180794.84449 116560862.83649     15204.84049        49.000  
  22374100.53949 117576691.46949     -3053.26249        49.000  
 16 04 02 12 32 43.2000000  0  4G26G31G04G16                                    
  21705180.57049 114061492.84849     10271.82849        49.000  
  22305664.79749 117217058.76649      9050.64849        50.000  
  22180505.54749 116559342.57849     15200.33249        49.000  
  22374158.68049 117576997.02049     -3057.74649        49.000  
 16 04 02 12 32 43.3000000  0  4G26G31G04G16                                    
  21704985.15649 114060465.91449     10267.07449        49.000  
  22305492.62549 117216153.97349      9045.29749        50.000  
  22180216.34449 116557822.78149     15195.77349        49.000  
  22374216.90649 117577303.00049     -3061.93449        49.000  
 16 04 02 12 32 43.4000000  0  4G26G31G04G16                                    
  21704789.82849 114059439.49249     10261.98849        49.000  
  22305320.55549 117215249.73849      9039.69149        50.000  
  22179927.22749 116556303.46549     15190.98049        49.000  
  22374275.21949 117577609.44949     -3066.53549        49.000  
 16 04 02 12 32 43.5000000  0  4G26G31G04G16                                    
  21704594.59449 114058413.50049     10257.53949        49.000  
  22305148.57049 117214345.98449      9034.79349        50.000  
  22179638.18849 116554784.53949     15186.97349        49.000  
  22374333.60949 117577916.27349     -3070.44949        49.000  
 16 04 02 12 32 43.6000000  0  4G26G31G04G16                                    
  21704399.45349 114057388.04349     10252.20749        49.000  
  22304976.71149 117213442.82049      9028.97749        50.000  
  22179349.24249 116553266.12549     15181.92649        49.000  
  22374392.09449 117578223.59449     -3075.42249        49.000  
 16 04 02 12 32 43.7000000  0  4G26G31G04G16                                    
  21704204.41449 114056363.10549     10246.82449        49.000  
  22304804.95349 117212540.23849      9022.92249        50.000  
  22179060.38349 116551748.18849     15176.88749        49.000  
  22374450.66449 117578531.38349     -3080.32849        49.000  
 16 04 02 12 32 43.8000000  0  4G26G31G04G16                                    
  21704009.46149 114055338.62149     10242.45749        49.000  
  22304633.28949 117211638.14149      9018.20349        50.000  
  22178771.62549 116550230.66449     15172.91449        49.000  
  22374509.30549 117578839.56649     -3084.10949        49.000  
 16 04 02 12 32 43.9000000  0  4G26G31G04G16                                    
  21703814.58649 114054314.56249     10238.33649        49.000  
  22304461.71949 117210736.53549      9013.48049        50.000  
  22178482.92249 116548713.54349     15169.02749        49.000  
  22374568.02349 117579148.12549     -3087.70349        49.000  
 16 04 02 12 32 44.0000000  0  4G26G31G04G16                                    
  21703619.80549 114053291.00049     10233.43049        49.000  
  22304290.25049 117209835.46549      9008.17249        50.000  
  22178194.30549 116547196.86749     15164.59449        49.000  
  22374626.82049 117579457.12549     -3091.92249        49.000  
 16 04 02 12 32 44.1000000  0  4G26G31G04G16                                    
  21703425.11749 114052267.90649     10228.56249        49.000  
  22304118.88349 117208934.93449      9002.72749        50.000  
  22177905.77349 116545680.64149     15160.02749        49.000  
  22374685.71149 117579766.57049     -3096.57049        49.000  
 16 04 02 12 32 44.2000000  0  4G26G31G04G16                                    
  21703230.52349 114051245.31249     10223.54349        49.000  
  22303947.61749 117208034.94149      8997.18849        50.000  
  22177617.33649 116544164.87949     15155.35949        49.000  
  22374744.67249 117580076.43849     -3100.91049        49.000  
 16 04 02 12 32 44.3000000  0  4G26G31G04G16                                    
  21703036.02349 114050223.21549     10218.62149        49.000  
  22303776.46149 117207135.50849      8991.67649        50.000  
  22177328.98449 116542649.57849     15150.79349        49.000  
  22374803.72749 117580386.78149     -3105.58649        49.000  
 16 04 02 12 32 44.4000000  0  4G26G31G04G16                                    
  21702841.61749 114049201.61349     10213.71949        49.000  
  22303605.40649 117206236.60549      8986.33249        50.000  
  22177040.72749 116541134.72749     15146.30549        49.000  
  22374862.85949 117580697.53949     -3109.86749        49.000  
 16 04 02 12 32 44.5000000  0  4G26G31G04G16                                    
  21702647.30549 114048180.49249     10208.69949        49.000  
  22303434.45349 117205338.23849      8980.85249        50.000  
  22176752.54749 116539620.33649     15141.48849        49.000  
  22374922.07849 117581008.73049     -3114.34849        49.000  
 16 04 02 12 32 44.6000000  0  4G26G31G04G16                                    
  21702453.07849 114047159.84449     10204.34449        49.000  
  22303263.60249 117204440.41049      8975.73849        50.000  
  22176464.45349 116538106.37949     15137.51249        49.000  
  22374981.38349 117581320.35949     -3118.32049        49.000  
 16 04 02 12 32 44.7000000  0  4G26G31G04G16                                    
  21702258.93849 114046139.62549     10199.98049        49.000  
  22303092.83649 117203543.05149      8971.08649        50.000  
  22176176.43049 116536592.81649     15133.52749        49.000  
  22375040.75049 117581632.35249     -3121.94949        49.000  
 16 04 02 12 32 44.8000000  0  4G26G31G04G16                                    
  21702064.89849 114045119.92249     10194.65649        49.000  
  22302922.18849 117202646.26649      8965.16049        50.000  
  22175888.50049 116535079.73049     15128.60949        49.000  
  22375100.21149 117581944.83249     -3126.94549        49.000  
 16 04 02 12 32 44.9000000  0  4G26G31G04G16                                    
  21701870.94549 114044100.70749     10189.89849        49.000  
  22302751.63349 117201750.00449      8960.00049        50.000  
  22175600.65649 116533567.10249     15124.15249        49.000  
  22375159.75849 117582257.72349     -3131.16449        49.000  
 16 04 02 12 32 45.0000000  0  4G26G31G04G16                                    
  21701677.07849 114043081.94949     10185.14149        49.000  
  22302581.18049 117200854.27049      8954.64849        50.000  
  22175312.89849 116532054.89849     15119.69949        49.000  
  22375219.37549 117582571.03549     -3135.41049        49.000  
 16 04 02 12 32 45.1000000  0  4G26G31G04G16                                    
  21701483.30549 114042063.66449     10180.46949        49.000  
  22302410.82849 117199959.05549      8949.41449        50.000  
  22175025.21949 116530543.13349     15115.43449        49.000  
  22375279.07849 117582884.76649     -3139.50849        49.000  
 16 04 02 12 32 45.2000000  0  4G26G31G04G16                                    
  21701289.62549 114041045.87549     10175.61749        49.000  
  22302240.57849 117199064.38349      8944.14549        50.000  
  22174737.63349 116529031.82449     15110.94149        49.000  
  22375338.86749 117583198.94549     -3143.84049        49.000  
 16 04 02 12 32 45.3000000  0  4G26G31G04G16                                    
  21701096.03949 114040028.53949     10170.89549        49.000  
  22302070.42249 117198170.20749      8938.98449        50.000  
  22174450.11749 116527520.93449     15106.62149        49.000  
  22375398.72749 117583513.52049     -3147.92649        49.000  
 16 04 02 12 32 45.4000000  0  4G26G31G04G16                                    
  21700902.53949 114039011.70349     10166.00049        49.000  
  22301900.37549 117197276.60949      8933.43449        50.000  
  22174162.71149 116526010.52349     15101.88749        49.000  
  22375458.68049 117583828.56649     -3152.64849        49.000  
 16 04 02 12 32 45.5000000  0  4G26G31G04G16                                    
  21700709.12549 114037995.32049     10161.52349        49.000  
  22301730.42249 117196383.50049      8928.44549        50.000  
  22173875.35949 116524500.51649     15097.87149        49.000  
  22375518.70349 117584143.99249     -3156.39549        49.000  
 16 04 02 12 32 45.6000000  0  4G26G31G04G16                                    
  21700515.80549 114036979.41849     10156.77049        49.000  
  22301560.57049 117195490.92249      8923.07849        50.000  
  22173588.11749 116522990.96549     15093.41049        49.000  
  22375578.81249 117584459.86349     -3160.77749        49.000  
 16 04 02 12 32 45.7000000  0  4G26G31G04G16                                    
  21700322.57849 114035964.02749     10151.60949        49.000  
  22301390.82849 117194598.90249      8917.55549        50.000  
  22173300.94549 116521481.87949     15088.58249        49.000  
  22375639.00049 117584776.17649     -3165.24649        49.000  
 16 04 02 12 32 45.8000000  0  4G26G31G04G16                                    
  21700129.43849 114034949.08249     10147.11349        49.000  
  22301221.18049 117193707.39549      8912.46949        50.000  
  22173013.85249 116519973.21949     15084.35949        49.000  
  22375699.27349 117585092.90249     -3169.35949        49.000  
 16 04 02 12 32 45.9000000  0  4G26G31G04G16                                    
  21699936.39149 114033934.60249     10142.50049        49.000  
  22301051.62549 117192816.39549      8907.24249        50.000  
  22172726.84449 116518464.97349     15080.22349        49.000  
  22375759.62549 117585410.03149     -3173.49249        49.000  
 16 04 02 12 32 46.0000000  0  4G26G31G04G16                                    
  21699743.43049 114032920.58249     10138.00849        49.000  
  22300882.17249 117191925.90649      8902.39849        50.000  
  22172439.91449 116516957.16849     15075.96549        49.000  
  22375820.04749 117585727.57449     -3177.38749        49.000  
 16 04 02 12 32 46.1000000  0  4G26G31G04G16                                    
  21699550.56249 114031907.04749     10133.03949        49.000  
  22300712.82049 117191035.94949      8896.88349        50.000  
  22172153.07849 116515449.80949     15071.35549        49.000  
  22375880.55549 117586045.55949     -3182.03149        49.000  
 16 04 02 12 32 46.2000000  0  4G26G31G04G16                                    
  21699357.78149 114030894.00449     10128.08249        49.000  
  22300543.57049 117190146.54349      8891.34449        50.000  
  22171866.32049 116513942.89849     15066.74249        49.000  
  22375941.14849 117586363.96149     -3186.30549        49.000  
 16 04 02 12 32 46.3000000  0  4G26G31G04G16                                    
  21699165.10249 114029881.48049     10122.79349        49.000  
  22300374.43049 117189257.70349      8885.58249        50.000  
  22171579.65649 116512436.47749     15061.90649        49.000  
  22376001.83649 117586682.85949     -3191.25849        49.000  
 16 04 02 12 32 46.4000000  0  4G26G31G04G16                                    
  21698972.52349 114028869.46149     10117.72349        49.000  
  22300205.39849 117188369.41849      8880.05949        50.000  
  22171293.07049 116510930.52749     15057.11749        49.000  
  22376062.60249 117587002.19549     -3195.70749        49.000  
 16 04 02 12 32 46.5000000  0  4G26G31G04G16                                    
  21698780.03149 114027857.92249     10112.96549        49.000  
  22300036.46949 117187481.67649      8874.81649        50.000  
  22171006.58649 116509425.03149     15052.72349        49.000  
  22376123.45349 117587321.96549     -3199.91049        49.000  
 16 04 02 12 32 46.6000000  0  4G26G31G04G16                                    
  21698587.63349 114026846.83649     10108.59049        49.000  
  22299867.62549 117186594.43449      8869.81249        50.000  
  22170720.17249 116507919.94949     15048.65249        49.000  
  22376184.37549 117587642.15249     -3204.03949        49.000  
 16 04 02 12 32 46.7000000  0  4G26G31G04G16                                    
  21698395.31249 114025836.22749     10103.77749        49.000  
  22299698.89149 117185707.71549      8864.49649        50.000  
  22170433.85249 116506415.31249     15044.17249        49.000  
  22376245.38349 117587962.74249     -3208.12549        49.000  
 16 04 02 12 32 46.8000000  0  4G26G31G04G16                                    
  21698203.08649 114024826.04349     10099.71149        49.000  
  22299530.25049 117184821.47749      8859.89149        50.000  
  22170147.60249 116504911.05549     15040.54349        49.000  
  22376306.46149 117588283.71549     -3211.75449        49.000  
 16 04 02 12 32 46.9000000  0  4G26G31G04G16                                    
  21698010.94549 114023816.33249     10094.88749        49.000  
  22299361.70349 117183935.76249      8854.58649        50.000  
  22169861.43849 116503407.25049     15035.96149        49.000  
  22376367.62549 117588605.10949     -3216.10949        49.000  
 16 04 02 12 32 47.0000000  0  4G26G31G04G16                                    
  21697818.88349 114022807.04749     10090.62949        49.000  
  22299193.25049 117183050.52349      8849.76649        50.000  
  22169575.34449 116501903.82849     15032.07449        49.000  
  22376428.85249 117588926.88349     -3219.86749        49.000  
 16 04 02 12 32 47.1000000  0  4G26G31G04G16                                    
  21697626.93049 114021798.30549     10085.17249        49.000  
  22299024.90649 117182165.87549      8843.84849        50.000  
  22169289.35249 116500400.92249     15026.89149        49.000  
  22376490.17249 117589249.12949     -3224.71149        49.000  
 16 04 02 12 32 47.2000000  0  4G26G31G04G16                                    
  21697435.06249 114020790.02049     10080.63349        49.000  
  22298856.66449 117181281.73849      8838.82849        50.000  
  22169003.43049 116498898.42249     15022.78949        49.000  
  22376551.57849 117589571.80149     -3228.69949        49.000  
 16 04 02 12 32 47.3000000  0  4G26G31G04G16                                    
  21697243.28949 114019782.25449     10075.20349        49.000  
  22298688.53149 117180398.17649      8832.77749        50.000  
  22168717.60949 116497396.41849     15017.69549        49.000  
  22376613.07049 117589894.94149     -3233.73849        49.000  
 16 04 02 12 32 47.4000000  0  4G26G31G04G16                                    
  21697051.60949 114018774.96549     10070.62149        49.000  
  22298520.49249 117179515.13749      8827.80549        50.000  
  22168431.88349 116495894.85949     15013.49249        49.000  
  22376674.64149 117590218.50049     -3237.66849        49.000  
 16 04 02 12 32 47.5000000  0  4G26G31G04G16                                    
  21696860.00849 114017768.10549     10066.24249        49.000  
  22298352.54749 117178632.58649      8822.84049        50.000  
  22168146.21949 116494393.69549     15009.35249        49.000  
  22376736.28149 117590542.44149     -3241.68849        49.000  
 16 04 02 12 32 47.6000000  0  4G26G31G04G16                                    
  21696668.50849 114016761.77349     10061.06249        49.000  
  22298184.71149 117177750.59849      8817.26649        50.000  
  22167860.66449 116492893.02349     15004.58649        49.000  
  22376798.01649 117590866.85549     -3246.31249        49.000  
 16 04 02 12 32 47.7000000  0  4G26G31G04G16                                    
  21696477.10949 114015755.94949     10055.84449        49.000  
  22298016.98449 117176869.18849      8811.41449        50.000  
  22167575.18849 116491392.82449     14999.77049        49.000  
  22376859.83649 117591191.73049     -3251.00049        49.000  
 16 04 02 12 32 47.8000000  0  4G26G31G04G16                                    
  21696285.78949 114014750.56249     10051.52049        49.000  
  22297849.35249 117175988.26649      8806.58649        50.000  
  22167289.77349 116489893.04349     14995.57049        49.000  
  22376921.73449 117591516.99249     -3254.73049        49.000  
 16 04 02 12 32 47.9000000  0  4G26G31G04G16                                    
  21696094.55549 114013745.61349     10047.32049        49.000  
  22297681.80549 117175107.82049      8801.88349        50.000  
  22167004.44549 116488393.64849     14991.74649        49.000  
  22376983.70349 117591842.63749     -3258.52349        49.000  
 16 04 02 12 32 48.0000000  0  4G26G31G04G16                                    
  21695903.42249 114012741.18849     10042.01649        49.000  
  22297514.38349 117174227.96549      8795.96149        50.000  
  22166719.22749 116486894.74649     14986.81649        49.000  
  22377045.75849 117592168.75849     -3263.27049        49.000  
 16 04 02 12 32 48.1000000  0  4G26G31G04G16                                    
  21695712.38349 114011737.27349     10036.90649        49.000  
  22297347.05549 117173348.65249      8790.44149        50.000  
  22166434.08649 116485396.31249     14982.04749        49.000  
  22377107.89849 117592495.33249     -3267.81249        49.000  
 16 04 02 12 32 48.2000000  0  4G26G31G04G16                                    
  21695521.42249 114010733.77349     10032.58649        49.000  
  22297179.81249 117172469.81649      8785.63349        50.000  
  22166149.00849 116483898.27049     14978.03949        49.000  
  22377170.11749 117592822.27749     -3271.76649        49.000  
 16 04 02 12 32 48.3000000  0  4G26G31G04G16                                    
  21695330.55549 114009730.77749     10027.62949        49.000  
  22297012.68049 117171591.53149      8780.15249        50.000  
  22165864.03149 116482400.69949     14973.36349        49.000  
  22377232.41449 117593149.66449     -3276.05949        49.000  
 16 04 02 12 32 48.4000000  0  4G26G31G04G16                                    
  21695139.79749 114008728.32449     10022.08249        49.000  
  22296845.66449 117170713.84849      8774.07049        50.000  
  22165579.14849 116480903.62549     14968.32049        49.000  
  22377294.81249 117593477.55149     -3281.16049        49.000  
 16 04 02 12 32 48.5000000  0  4G26G31G04G16                                    
  21694949.12549 114007726.32449     10017.61749        49.000  
  22296678.74249 117169836.66449      8769.10249        50.000  
  22165294.34449 116479406.97749     14964.14149        49.000  
  22377357.28149 117593805.83249     -3285.03149        49.000  
 16 04 02 12 32 48.6000000  0  4G26G31G04G16                                    
  21694758.53949 114006724.78549     10013.03149        49.000  
  22296511.92249 117168960.00049      8764.03149        50.000  
  22165009.62549 116477910.75449     14960.15649        49.000  
  22377419.82849 117594134.53549     -3289.11749        49.000  
 16 04 02 12 32 48.7000000  0  4G26G31G04G16                                    
  21694568.04749 114005723.70749     10008.60249        49.000  
  22296345.19549 117168083.83249      8759.19149        50.000  
  22164724.99249 116476414.96149     14956.00049        49.000  
  22377482.45349 117594463.63749     -3292.94949        49.000  
 16 04 02 12 32 48.8000000  0  4G26G31G04G16                                    
  21694377.63349 114004723.08649     10004.00849        49.000  
  22296178.56249 117167208.18849      8753.91049        50.000  
  22164440.43849 116474919.59849     14951.52049        49.000  
  22377545.15649 117594793.15649     -3297.27749        49.000  
 16 04 02 12 32 48.9000000  0  4G26G31G04G16                                    
  21694187.32049 114003722.96149      9999.01649        49.000  
  22296012.03949 117166333.08649      8748.39149        50.000  
  22164155.96949 116473424.68049     14946.98049        49.000  
  22377607.94549 117595123.10549     -3301.68449        49.000  
 16 04 02 12 32 49.0000000  0  4G26G31G04G16                                    
  21693997.09449 114002723.29349      9994.36749        49.000  
  22295845.60949 117165458.48849      8743.35549        50.000  
  22163871.56249 116471930.19949     14942.66049        49.000  
  22377670.81249 117595453.46549     -3305.68049        49.000  
 16 04 02 12 32 49.1000000  0  4G26G31G04G16                                    
  21693806.96149 114001724.12149      9989.21549        49.000  
  22295679.28149 117164584.44549      8737.60949        50.000  
  22163587.25849 116470436.16849     14937.86349        49.000  
  22377733.75849 117595784.26649     -3310.32449        49.000  
 16 04 02 12 32 49.2000000  0  4G26G31G04G16                                    
  21693616.91449 114000725.44949      9984.60249        49.000  
  22295513.06249 117163710.95749      8732.41449        50.000  
  22163303.04749 116468942.62549     14933.49249        49.000  
  22377796.79749 117596115.53549     -3314.60549        49.000  
 16 04 02 12 32 49.3000000  0  4G26G31G04G16                                    
  21693426.96149 113999727.21149      9980.03549        49.000  
  22295346.93849 117162837.94549      8727.33249        50.000  
  22163018.90649 116467449.46149     14929.27349        49.000  
  22377859.90649 117596447.17249     -3318.66449        49.000  
 16 04 02 12 32 49.4000000  0  4G26G31G04G16                                    
  21693237.09449 113998729.45749      9975.41049        49.000  
  22295180.90649 117161965.46149      8722.29349        50.000  
  22162734.85249 116465956.74249     14925.03949        49.000  
  22377923.09449 117596779.23449     -3322.68449        49.000  
 16 04 02 12 32 49.5000000  0  4G26G31G04G16                                    
  21693047.31249 113997732.17649      9970.39849        49.000  
  22295014.98449 117161093.52049      8716.62149        50.000  
  22162450.88349 116464464.48449     14920.23849        49.000  
  22377986.36749 117597111.73049     -3327.22749        49.000  
 16 04 02 12 32 49.6000000  0  4G26G31G04G16                                    
  21692857.64149 113996735.44549      9965.01649        49.000  
  22294849.17249 117160222.16449      8710.82049        50.000  
  22162167.01649 116462972.72749     14915.28949        49.000  
  22378049.72749 117597444.71549     -3332.02349        49.000  
 16 04 02 12 32 49.7000000  0  4G26G31G04G16                                    
  21692668.05549 113995739.16049      9960.50849        49.000  
  22294683.45349 117159351.30949      8705.85949        50.000  
  22161883.21949 116461481.37949     14911.14849        49.000  
  22378113.16449 117597778.08649     -3335.83649        49.000  
 16 04 02 12 32 49.8000000  0  4G26G31G04G16                                    
  21692478.54749 113994743.28949      9956.29749        49.000  
  22294517.82849 117158480.92649      8701.11349        50.000  
  22161599.50849 116459990.42249     14907.30549        49.000  
  22378176.68049 117598111.84849     -3339.84049        49.000  
 16 04 02 12 32 49.9000000  0  4G26G31G04G16                                    
  21692289.14149 113993747.96149      9951.11749        49.000  
  22294352.31249 117157611.12549      8695.44549        50.000  
  22161315.88349 116458499.96949     14902.41049        49.000  
  22378240.28149 117598446.08249     -3344.33649        49.000  
 16 04 02 12 32 50.0000000  0  4G26G31G04G16                                    
  21692099.81249 113992753.05149      9946.86349        49.000  
  22294186.88349 117156741.81249      8690.57449        50.000  
  22161032.32849 116457009.89549     14898.58249        49.000  
  22378303.95349 117598780.68449     -3348.07049        49.000  
 16 04 02 12 32 50.1000000  0  4G26G31G04G16                                    
  21691910.59449 113991758.66849      9941.55949        49.000  
  22294021.57049 117155873.06649      8684.76649        50.000  
  22160748.87549 116455520.32049     14893.57049        49.000  
  22378367.71949 117599115.76249     -3352.91449        49.000  
 16 04 02 12 32 50.2000000  0  4G26G31G04G16                                    
  21691721.46149 113990764.76249      9936.62549        49.000  
  22293856.35249 117155004.83249      8679.61749        50.000  
  22160465.49249 116454031.18449     14889.11749        49.000  
  22378431.56249 117599451.25849     -3357.16449        49.000  
 16 04 02 12 32 50.3000000  0  4G26G31G04G16                                    
  21691532.41449 113989771.32049      9932.03149        49.000  
  22293691.23449 117154137.14149      8674.28549        50.000  
  22160182.20349 116452542.48049     14884.81649        49.000  
  22378495.48449 117599787.17249     -3361.31649        49.000  
 16 04 02 12 32 50.4000000  0  4G26G31G04G16                                    
  21691343.45349 113988778.34449      9927.44949        49.000  
  22293526.21149 117153269.95749      8669.23449        50.000  
  22159898.99249 116451054.21549     14880.55949        49.000  
  22378559.49249 117600123.51249     -3365.42649        49.000  
 16 04 02 12 32 50.5000000  0  4G26G31G04G16                                    
  21691154.60249 113987785.86349      9922.30149        49.000  
  22293361.29749 117152403.31249      8663.57049        50.000  
  22159615.86749 116449566.40649     14875.72749        49.000  
  22378623.57049 117600460.28149     -3370.09849        49.000  
 16 04 02 12 32 50.6000000  0  4G26G31G04G16                                    
  21690965.82049 113986793.85249      9917.96949        49.000  
  22293196.47749 117151537.19949      8658.65649        50.000  
  22159332.82849 116448079.02749     14871.67649        49.000  
  22378687.73449 117600797.46549     -3373.84849        49.000  
 16 04 02 12 32 50.7000000  0  4G26G31G04G16                                    
  21690777.14149 113985802.32849      9912.77049        49.000  
  22293031.76649 117150671.62149      8652.95349        50.000  
  22159049.87549 116446592.10949     14866.80949        49.000  
  22378751.98449 117601135.09849     -3378.60249        49.000  
 16 04 02 12 32 50.8000000  0  4G26G31G04G16                                    
  21690588.56249 113984811.32849      9907.69149        49.000  
  22292867.15649 117149806.62149      8647.31249        50.000  
  22158767.01649 116445105.67649     14862.16049        49.000  
  22378816.32049 117601473.19949     -3383.17649        49.000  
 16 04 02 12 32 50.9000000  0  4G26G31G04G16                                    
  21690400.05549 113983820.73849      9903.40249        49.000  
  22292702.64149 117148942.07449      8642.63749        50.000  
  22158484.22749 116443619.62549     14858.14849        49.000  
  22378880.72749 117601811.64549     -3386.86349        49.000  
 16 04 02 12 32 51.0000000  0  4G26G31G04G16                                    
  21690211.64849 113982830.62549      9898.93449        49.000  
  22292538.22749 117148078.06249      8637.57849        50.000  
  22158201.52349 116442134.01249     14854.05949        49.000  
  22378945.21949 117602150.53149     -3390.91049        49.000  
 16 04 02 12 32 51.1000000  0  4G26G31G04G16                                    
  21690023.32849 113981841.00449      9893.94149        49.000  
  22292373.91449 117147214.58249      8632.13349        50.000  
  22157918.90649 116440648.85549     14849.39149        49.000  
  22379009.78149 117602489.84849     -3395.22349        49.000  
 16 04 02 12 32 51.2000000  0  4G26G31G04G16                                    
  21689835.09449 113980851.84049      9889.30949        49.000  
  22292209.69549 117146351.62149      8627.04349        50.000  
  22157636.36749 116439164.12549     14845.15649        49.000  
  22379074.43049 117602829.57449     -3399.37949        49.000  
 16 04 02 12 32 51.3000000  0  4G26G31G04G16                                    
  21689646.96149 113979863.17249      9884.36349        49.000  
  22292045.58649 117145489.20749      8621.49649        50.000  
  22157353.92249 116437679.86349     14840.33649        49.000  
  22379139.16449 117603169.74649     -3403.93449        49.000  
 16 04 02 12 32 51.4000000  0  4G26G31G04G16                                    
  21689458.91449 113978874.99249      9879.44549        49.000  
  22291881.57849 117144627.32849      8616.01649        50.000  
  22157071.56249 116436196.04349     14835.85549        49.000  
  22379203.98449 117603510.34849     -3408.27349        49.000  
 16 04 02 12 32 51.5000000  0  4G26G31G04G16                                    
  21689270.96149 113977887.28549      9874.78949        49.000  
  22291717.66449 117143765.97749      8610.84449        50.000  
  22156789.28149 116434712.67649     14831.44549        49.000  
  22379268.87549 117603851.37149     -3412.33249        49.000  
 16 04 02 12 32 51.6000000  0  4G26G31G04G16                                    
  21689083.09449 113976900.03949      9870.09849        49.000  
  22291553.85249 117142905.12549      8605.94149        50.000  
  22156507.07849 116433229.71149     14827.37549        49.000  
  22379333.84449 117604192.80549     -3416.42649        49.000  
 16 04 02 12 32 51.7000000  0  4G26G31G04G16                                    
  21688895.32849 113975913.30149      9865.01649        49.000  
  22291390.14849 117142044.85549      8600.00849        50.000  
  22156224.96949 116431747.24249     14822.51649        49.000  
  22379398.90649 117604534.70749     -3421.19149        49.000  
 16 04 02 12 32 51.8000000  0  4G26G31G04G16                                    
  21688707.64849 113974927.02749      9860.44949        49.000  
  22291226.54749 117141185.08249      8595.11349        50.000  
  22155942.96149 116430265.20749     14818.12949        49.000  
  22379464.04749 117604877.00049     -3425.20749        49.000  
 16 04 02 12 32 51.9000000  0  4G26G31G04G16                                    
  21688520.05549 113973941.20749      9855.90649        49.000  
  22291063.03149 117140325.82049      8590.10249        50.000  
  22155661.00849 116428783.57049     14814.16049        49.000  
  22379529.25849 117605219.69949     -3429.13349        49.000  
 16 04 02 12 32 52.0000000  0  4G26G31G04G16                                    
  21688332.55549 113972955.90249      9850.74649        49.000  
  22290899.63349 117139467.12949      8584.32849        50.000  
  22155379.16449 116427302.43449     14809.23049        49.000  
  22379594.56249 117605562.86749     -3433.78949        49.000  
 16 04 02 12 32 52.1000000  0  4G26G31G04G16                                    
  21688145.14849 113971971.05549      9846.07049        49.000  
  22290736.32849 117138608.94949      8578.93849        50.000  
  22155097.39149 116425821.71149     14804.91849        49.000  
  22379659.94549 117605906.44549     -3438.01249        49.000  
 16 04 02 12 32 52.2000000  0  4G26G31G04G16                                    
  21687957.82049 113970986.66049      9841.89549        49.000  
  22290573.11749 117137751.25849      8574.46949        50.000  
  22154815.69549 116424341.41849     14801.03149        49.000  
  22379725.39849 117606250.41049     -3441.46949        49.000  
 16 04 02 12 32 52.3000000  0  4G26G31G04G16                                    
  21687770.58649 113970002.71949      9837.23049        49.000  
  22290410.00049 117136894.07449      8569.22749        50.000  
  22154534.07849 116422861.53149     14796.78549        49.000  
  22379790.93849 117606594.78949     -3445.90249        49.000  
 16 04 02 12 32 52.4000000  0  4G26G31G04G16                                    
  21687583.44549 113969019.29349      9831.83649        49.000  
  22290246.98449 117136037.45749      8563.51649        50.000  
  22154252.55549 116421382.13349     14791.74649        49.000  
  22379856.55549 117606939.61349     -3450.51649        49.000  
 16 04 02 12 32 52.5000000  0  4G26G31G04G16                                    
  21687396.39849 113968036.33649      9827.31249        49.000  
  22290084.07849 117135181.37549      8558.16049        50.000  
  22153971.11749 116419903.17249     14787.28949        49.000  
  22379922.25849 117607284.87549     -3454.80149        49.000  
 16 04 02 12 32 52.6000000  0  4G26G31G04G16                                    
  21687209.43849 113967053.84849      9822.48849        49.000  
  22289921.26649 117134325.78549      8553.14149        50.000  
  22153689.77349 116418424.63349     14783.13349        49.000  
  22379988.03149 117607630.53549     -3458.92249        49.000  
 16 04 02 12 32 52.7000000  0  4G26G31G04G16                                    
  21687022.57049 113966071.85549      9817.51249        49.000  
  22289758.56249 117133470.77049      8547.53949        50.000  
  22153408.50849 116416946.58249     14778.33649        49.000  
  22380053.89849 117607976.65249     -3463.42249        49.000  
 16 04 02 12 32 52.8000000  0  4G26G31G04G16                                    
  21686835.80549 113965090.39549      9812.20349        49.000  
  22289595.96949 117132616.32049      8541.73849        50.000  
  22153127.34449 116415469.00049     14773.44149        49.000  
  22380119.85249 117608323.23449     -3468.10549        49.000  
 16 04 02 12 32 52.9000000  0  4G26G31G04G16                                    
  21686649.12549 113964109.39849      9807.68449        49.000  
  22289433.46949 117131762.39849      8536.64549        50.000  
  22152846.25849 116413991.87149     14769.12549        49.000  
  22380185.88349 117608670.24649     -3472.15649        49.000  
 16 04 02 12 32 53.0000000  0  4G26G31G04G16                                    
  21686462.53149 113963128.85549      9803.16849        49.000  
  22289271.07049 117130908.97349      8531.66849        50.000  
  22152565.23449 116412515.14849     14765.07849        49.000  
  22380251.99249 117609017.65249     -3476.24249        49.000  
 16 04 02 12 32 53.1000000  0  4G26G31G04G16                                    
  21686276.03149 113962148.78949      9798.42249        49.000  
  22289108.77349 117130056.08249      8526.35949        50.000  
  22152284.31249 116411038.87549     14760.51249        49.000  
  22380318.18049 117609365.48449     -3480.58249        49.000  
 16 04 02 12 32 53.2000000  0  4G26G31G04G16                                    
  21686089.63349 113961169.25849      9793.06249        49.000  
  22288946.58649 117129203.76649      8520.56649        50.000  
  22152003.47749 116409563.09449     14755.66849        49.000  
  22380384.46149 117609713.77349     -3484.92649        49.000  
 16 04 02 12 32 53.3000000  0  4G26G31G04G16                                    
  21685903.31249 113960190.15649      9788.58649        49.000  
  22288784.48449 117128351.94149      8515.45749        50.000  
  22151722.72749 116408087.71549     14751.44949        49.000  
  22380450.81249 117610062.47349     -3489.14149        49.000  
 16 04 02 12 32 53.4000000  0  4G26G31G04G16                                    
  21685717.09449 113959211.56649      9783.61349        49.000  
  22288622.49249 117127500.66449      8510.09049        50.000  
  22151442.06249 116406612.80949     14746.91849        49.000  
  22380517.25049 117610411.60949     -3493.61749        49.000  
 16 04 02 12 32 53.5000000  0  4G26G31G04G16                                    
  21685530.96149 113958233.43849      9778.84849        49.000  
  22288460.60249 117126649.92249      8504.64149        50.000  
  22151161.47749 116405138.34049     14742.34449        49.000  
  22380583.77349 117610761.16849     -3497.86749        49.000  
 16 04 02 12 32 53.6000000  0  4G26G31G04G16                                    
  21685344.93049 113957255.84049      9773.71549        49.000  
  22288298.81249 117125799.74649      8499.12549        50.000  
  22150880.98449 116403664.36749     14737.60249        49.000  
  22380650.37549 117611111.19149     -3502.34849        49.000  
 16 04 02 12 32 53.7000000  0  4G26G31G04G16                                    
  21685158.98449 113956278.69949      9768.91449        49.000  
  22288137.12549 117124950.07849      8493.85249        50.000  
  22150600.57849 116402190.81249     14733.22749        49.000  
  22380717.06249 117611461.62549     -3506.57049        49.000  
 16 04 02 12 32 53.8000000  0  4G26G31G04G16                                    
  21684973.13349 113955302.05149      9764.05549        49.000  
  22287975.54749 117124100.95749      8488.47349        50.000  
  22150320.25849 116400717.71149     14728.68449        49.000  
  22380783.83649 117611812.50849     -3511.09049        49.000  
 16 04 02 12 32 53.9000000  0  4G26G31G04G16                                    
  21684787.38349 113954325.88749      9759.26249        49.000  
  22287814.06249 117123252.37149      8483.17649        50.000  
  22150040.02349 116399245.07449     14724.25849        49.000  
  22380850.68849 117612163.81249     -3515.18849        49.000  
 16 04 02 12 32 54.0000000  0  4G26G31G04G16                                    
  21684601.70349 113953350.16049      9754.90249        49.000  
  22287652.68049 117122404.27349      8478.25049        50.000  
  22149759.86749 116397772.84049     14719.96949        49.000  
  22380917.60949 117612515.50849     -3519.14149        49.000  
 16 04 02 12 32 54.1000000  0  4G26G31G04G16                                    
  21684416.13349 113952374.98049      9749.45349        49.000  
  22287491.40649 117121556.77049      8472.30549        50.000  
  22149479.80549 116396301.10249     14715.15249        49.000  
  22380984.62549 117612867.68049     -3523.87549        49.000  
 16 04 02 12 32 54.2000000  0  4G26G31G04G16                                    
  21684230.64149 113951400.19549      9745.53949        49.000  
  22287330.21949 117120709.71549      8468.03949        50.000  
  22149199.81249 116394829.75049     14711.36349        49.000  
  22381051.71149 117613220.23049     -3527.60949        49.000  
 16 04 02 12 32 54.3000000  0  4G26G31G04G16                                    
  21684045.23449 113950425.89549      9740.64849        49.000  
  22287169.13349 117119863.20349      8462.23849        50.000  
  22148919.90649 116393358.82849     14706.84449        49.000  
  22381118.87549 117613573.18449     -3531.83249        49.000  
 16 04 02 12 32 54.4000000  0  4G26G31G04G16                                    
  21683859.93049 113949452.11349      9735.59849        49.000  
  22287008.14849 117119017.24249      8457.03149        50.000  
  22148640.08649 116391888.39149     14702.25049        49.000  
  22381186.13349 117613926.59449     -3536.18849        49.000  
 16 04 02 12 32 54.5000000  0  4G26G31G04G16                                    
  21683674.71949 113948478.82449      9730.48449        49.000  
  22286847.27349 117118171.83249      8451.38749        50.000  
  22148360.35949 116390418.42249     14697.45349        49.000  
  22381253.46949 117614280.47749     -3540.93849        49.000  
 16 04 02 12 32 54.6000000  0  4G26G31G04G16                                    
  21683489.58649 113947505.93449      9726.56649        49.000  
  22286686.48449 117117326.88349      8446.73049        50.000  
  22148080.70349 116388948.81649     14693.73049        49.000  
  22381320.87549 117614634.67249     -3544.37949        49.000  
 16 04 02 12 32 54.7000000  0  4G26G31G04G16                                    
  21683304.54749 113946533.53949      9721.70349        49.000  
  22286525.79749 117116482.47749      8441.43049        50.000  
  22147801.14149 116387479.68049     14689.23849        49.000  
  22381388.36749 117614989.33649     -3548.62149        49.000  
 16 04 02 12 32 54.8000000  0  4G26G31G04G16                                    
  21683119.59449 113945561.60549      9717.16049        49.000  
  22286365.20349 117115638.57449      8436.46949        50.000  
  22147521.64849 116386010.96549     14685.06649        49.000  
  22381455.93049 117615344.39549     -3552.64549        49.000  
 16 04 02 12 32 54.9000000  0  4G26G31G04G16                                    
  21682934.73449 113944590.15249      9712.20749        49.000  
  22286204.71949 117114795.20349      8431.03549        50.000  
  22147242.24249 116384542.68849     14680.48849        49.000  
  22381523.57049 117615699.87549     -3556.96149        49.000  
 16 04 02 12 32 55.0000000  0  4G26G31G04G16                                    
  21682749.96949 113943619.18849      9707.38349        49.000  
  22286044.33649 117113952.38349      8425.61349        50.000  
  22146962.92249 116383074.88349     14675.83249        49.000  
  22381591.30549 117616055.81649     -3561.54749        49.000  
 16 04 02 12 32 55.1000000  0  4G26G31G04G16                                    
  21682565.29749 113942648.74249      9702.08249        49.000  
  22285884.05549 117113110.11349      8419.99649        50.000  
  22146683.69549 116381607.53149     14671.24649        49.000  
  22381659.11749 117616412.17649     -3565.91049        49.000  
 16 04 02 12 32 55.2000000  0  4G26G31G04G16                                    
  21682380.71149 113941678.74249      9697.58249        49.000  
  22285723.88349 117112268.36349      8414.78149        50.000  
  22146404.56249 116380140.62949     14666.74649        49.000  
  22381727.01649 117616768.96549     -3570.05949        49.000  
 16 04 02 12 32 55.3000000  0  4G26G31G04G16                                    
  21682196.21149 113940709.17249      9693.42249        49.000  
  22285563.78949 117111427.08649      8410.14149        50.000  
  22146125.49249 116378674.10249     14663.03149        49.000  
  22381794.98449 117617126.12949     -3573.80149        49.000  
 16 04 02 12 32 55.4000000  0  4G26G31G04G16                                    
  21682011.80549 113939740.13349      9688.07449        49.000  
  22285403.81249 117110586.37549      8404.38349        50.000  
  22145846.51649 116377208.08249     14658.00849        49.000  
  22381863.03949 117617483.75849     -3578.38749        49.000  
 16 04 02 12 32 55.5000000  0  4G26G31G04G16                                    
  21681827.50049 113938771.55949      9683.40649        49.000  
  22285243.93049 117109746.19149      8399.25849        50.000  
  22145567.62549 116375742.48849     14653.76649        49.000  
  22381931.17249 117617841.81249     -3582.72349        49.000  
 16 04 02 12 32 55.6000000  0  4G26G31G04G16                                    
  21681643.27349 113937803.46949      9678.51649        49.000  
  22285084.14849 117108906.54749      8393.78149        50.000  
  22145288.81249 116374277.34849     14649.14549        49.000  
  22381999.39149 117618200.28549     -3587.01249        49.000  
 16 04 02 12 32 55.7000000  0  4G26G31G04G16                                    
  21681459.15649 113936835.92249      9673.09049        49.000  
  22284924.48449 117108067.50049      8387.64849        50.000  
  22145010.10249 116372812.72349     14643.91449        49.000  
  22382067.70349 117618559.25849     -3592.05949        49.000  
 16 04 02 12 32 55.8000000  0  4G26G31G04G16                                    
  21681275.12549 113935868.81249      9668.76249        49.000  
  22284764.90649 117107228.92649      8382.97349        50.000  
  22144731.46149 116371348.48849     14640.14149        49.000  
  22382136.07849 117618918.60549     -3595.57449        49.000  
 16 04 02 12 32 55.9000000  0  4G26G31G04G16                                    
  21681091.16449 113934902.10549      9664.82049        49.000  
  22284605.41449 117106390.80949      8378.65649        50.000  
  22144452.89849 116369884.62149     14636.58249        49.000  
  22382204.53149 117619278.30149     -3599.01649        49.000  
 16 04 02 12 32 56.0000000  0  4G26G31G04G16                                    
  21680907.29749 113933935.89149      9659.91449        49.000  
  22284446.03149 117105553.23449      8373.16049        50.000  
  22144174.42249 116368421.22749     14631.80549        49.000  
  22382273.06249 117619638.44149     -3603.55149        49.000  
 16 04 02 12 32 56.1000000  0  4G26G31G04G16                                    
  21680723.51649 113932970.12949      9655.56649        49.000  
  22284286.74249 117104716.18049      8368.23449        50.000  
  22143896.02349 116366958.24649     14627.86749        49.000  
  22382341.67249 117619998.98049     -3607.18449        49.000  
 16 04 02 12 32 56.2000000  0  4G26G31G04G16                                    
  21680539.82849 113932004.81649      9650.74249        49.000  
  22284127.55549 117103879.60949      8362.96149        50.000  
  22143617.70349 116365495.68449     14623.29749        49.000  
  22382410.35249 117620359.92249     -3611.61349        49.000  
 16 04 02 12 32 56.3000000  0  4G26G31G04G16                                    
  21680356.22749 113931039.99649      9645.95349        49.000  
  22283968.46949 117103043.59049      8357.58649        50.000  
  22143339.47749 116364033.57849     14618.92649        49.000  
  22382479.11749 117620721.28949     -3615.83249        49.000  
 16 04 02 12 32 56.4000000  0  4G26G31G04G16                                    
  21680172.72749 113930075.68049      9640.90649        49.000  
  22283809.48449 117102208.12549      8351.98449        50.000  
  22143061.34449 116362571.94149     14614.12549        49.000  
  22382547.96949 117621083.10549     -3620.29349        49.000  
