     2.10           OBSERVATION DATA    G (GPS)             RINEX VERSION / TYPE
Convert v1.8.0                          09-Jun-2016 15:04   PGM / RUN BY / DATE 
Signal Strength values S1,S2 are in dBHz                    COMMENT             
                                                            MARKER NAME         
                                                            MARKER NUMBER       
                                                            OBSERVER / AGENCY   
                    NovAtel GPSCard                         REC # / TYPE / VERS 
                                                            ANT # / TYPE        
0.0000        0.0000        0.0000                          APPROX POSITION XYZ 
        0.0000        0.0000        0.0000                  ANTENNA: DELTA H/E/N
     1     0                                                WAVELENGTH FACT L1/2
     1     0     3   G02   G13   G29                        WAVELENGTH FACT L1/2
                                                            COMMENT             
                                                            COMMENT             
                                                            COMMENT             
                                                            COMMENT             
                                                            COMMENT             
                                                            COMMENT             
     4    C1    L1    D1    S1                              # / TYPES OF OBSERV 
     0.100                                                  INTERVAL            
  2016    04    02    14    41     6.7000000    GPS         TIME OF FIRST OBS   
  2016    04    02    14    43    23.8000000    GPS         TIME OF LAST OBS    
Leap Seconds Unknown                                        COMMENT             
                                                            END OF HEADER       
 16 04 02 14 41  6.7000000  0  1G13                                             
  19746405.01649 103768057.46559     -8778.11349        50.000  
 16 04 02 14 41  6.8000000  0  1G13                                             
  19746572.11749 103768935.57049     -8783.88349        50.000  
 16 04 02 14 41  6.9000000  0  1G13                                             
  19746739.33649 103769814.26649     -8789.90249        50.000  
 16 04 02 14 41  7.0000000  0  2G02G13                                          
  22374754.68849 117580128.18459     -2441.18449        48.000  
  19746906.64849 103770693.47349     -8795.02349        50.000  
 16 04 02 14 41  7.1000000  0  2G02G13                                          
  22374801.15649 117580372.39149     -2442.80149        48.000  
  19747074.05549 103771573.25449     -8800.80949        50.000  
 16 04 02 14 41 13.6000000  0  1G29                                             
  17913905.86749  94138209.66459    -10199.88749        49.000  
 16 04 02 14 41 13.7000000  0  1G29                                             
  17914100.00049  94139229.85549    -10204.52749        49.000  
 16 04 02 14 41 13.8000000  0  1G29                                             
  17914294.21949  94140250.53549    -10209.45349        49.000  
 16 04 02 14 41 13.9000000  0  1G29                                             
  17914488.53149  94141271.64849    -10213.65249        49.000  
 16 04 02 14 41 14.0000000  0  1G29                                             
  17914682.94549  94142293.21549    -10218.36749        49.000  
 16 04 02 14 41 14.1000000  0  1G29                                             
  17914877.44549  94143315.31649    -10223.61349        49.000  
 16 04 02 14 41 14.2000000  0  1G29                                             
  17915072.00849  94144337.78149    -10227.05549        49.000  
 16 04 02 14 41 14.3000000  0  1G29                                             
  17915266.65649  94145360.66049    -10230.97349        49.000  
 16 04 02 14 41 14.4000000  0  1G29                                             
  17915461.39849  94146384.01649    -10235.84849        49.000  
 16 04 02 14 41 14.5000000  0  1G29                                             
  17915656.21949  94147407.83249    -10240.69149        49.000  
 16 04 02 14 41 14.6000000  0  1G29                                             
  17915851.15649  94148432.09049    -10245.11749        49.000  
 16 04 02 14 41 14.7000000  0  1G29                                             
  17916046.15649  94149456.83249    -10250.02349        49.000  
 16 04 02 14 41 14.8000000  0  1G29                                             
  17916241.26649  94150482.03149    -10254.59049        49.000  
 16 04 02 14 41 14.9000000  0  1G29                                             
  17916436.44549  94151507.69149    -10259.01249        49.000  
 16 04 02 14 41 15.0000000  0  1G29                                             
  17916631.71149  94152533.82049    -10263.93449        49.000  
 16 04 02 14 41 15.1000000  0  1G29                                             
  17916827.05549  94153560.35949    -10267.87949        49.000  
 16 04 02 14 41 15.2000000  0  1G29                                             
  17917022.50849  94154587.34449    -10272.35249        49.000  
 16 04 02 14 41 15.3000000  0  1G29                                             
  17917218.03949  94155614.84849    -10277.52749        49.000  
 16 04 02 14 41 15.4000000  0  1G29                                             
  17917413.62549  94156642.75449    -10281.74649        49.000  
 16 04 02 14 41 15.5000000  0  1G29                                             
  17917609.32849  94157671.16449    -10286.56249        49.000  
 16 04 02 14 41 15.6000000  0  1G29                                             
  17917805.11749  94158700.00049    -10291.15649        49.000  
 16 04 02 14 41 15.7000000  0  1G29                                             
  17918000.99249  94159729.35249    -10296.13349        49.000  
 16 04 02 14 41 15.8000000  0  1G29                                             
  17918196.94549  94160759.17649    -10300.72749        49.000  
 16 04 02 14 41 15.9000000  0  1G29                                             
  17918392.99249  94161789.40649    -10304.69149        49.000  
 16 04 02 14 41 16.0000000  0  1G29                                             
  17918589.13349  94162820.03949    -10309.06649        49.000  
 16 04 02 14 41 16.1000000  0  1G29                                             
  17918785.34449  94163851.14849    -10313.67649        49.000  
 16 04 02 14 41 16.2000000  0  1G29                                             
  17918981.63349  94164882.69949    -10317.83649        49.000  
 16 04 02 14 41 16.3000000  0  1G29                                             
  17919178.02349  94165914.72749    -10322.74249        49.000  
 16 04 02 14 41 16.4000000  0  1G29                                             
  17919374.49249  94166947.15649    -10326.75449        49.000  
 16 04 02 14 41 16.5000000  0  1G29                                             
  17919571.04749  94167980.06249    -10331.51249        49.000  
 16 04 02 14 41 16.6000000  0  1G29                                             
  17919767.67249  94169013.38349    -10335.81649        49.000  
 16 04 02 14 41 16.7000000  0  1G29                                             
  17919964.39149  94170047.16449    -10340.35949        49.000  
 16 04 02 14 41 16.8000000  0  1G29                                             
  17920161.18849  94171081.42649    -10345.32449        49.000  
 16 04 02 14 41 16.9000000  0  1G29                                             
  17920358.09449  94172116.17649    -10350.13349        49.000  
 16 04 02 14 41 17.0000000  0  1G29                                             
  17920555.10249  94173151.37149    -10354.53149        49.000  
 16 04 02 14 41 17.1000000  0  1G29                                             
  17920752.17249  94174186.97349    -10358.53149        49.000  
 16 04 02 14 41 17.2000000  0  1G29                                             
  17920949.32049  94175223.05549    -10363.30549        49.000  
 16 04 02 14 41 17.3000000  0  1G29                                             
  17921146.57849  94176259.65649    -10368.55549        49.000  
 16 04 02 14 41 17.4000000  0  1G29                                             
  17921343.90649  94177296.68849    -10373.00049        49.000  
 16 04 02 14 41 17.5000000  0  1G29                                             
  17921541.34449  94178334.21949    -10377.63349        49.000  
 16 04 02 14 41 17.6000000  0  1G29                                             
  17921738.82849  94179372.07849    -10381.08249        49.000  
 16 04 02 14 41 17.7000000  0  1G29                                             
  17921936.43049  94180410.48449    -10386.31249        49.000  
 16 04 02 14 41 17.8000000  0  1G29                                             
  17922134.11749  94181449.27049    -10390.36349        49.000  
 16 04 02 14 41 17.9000000  0  1G29                                             
  17922331.88349  94182488.56649    -10395.53149        49.000  
 16 04 02 14 41 18.0000000  0  1G29                                             
  17922529.73449  94183528.30549    -10399.99649        49.000  
 16 04 02 14 41 18.1000000  0  1G29                                             
  17922727.68049  94184568.48849    -10404.35249        49.000  
 16 04 02 14 41 18.2000000  0  1G29                                             
  17922925.68849  94185609.07049    -10408.38349        49.000  
 16 04 02 14 41 18.3000000  0  1G29                                             
  17923123.81249  94186650.21149    -10413.77749        49.000  
 16 04 02 14 41 18.4000000  0  1G29                                             
  17923322.00849  94187691.73449    -10417.79349        49.000  
 16 04 02 14 41 18.5000000  0  1G29                                             
  17923520.28949  94188733.71949    -10422.55149        49.000  
 16 04 02 14 41 18.6000000  0  1G29                                             
  17923718.67249  94189776.26649    -10427.93049        49.000  
 16 04 02 14 41 18.7000000  0  1G29                                             
  17923917.13349  94190819.18849    -10431.93049        49.000  
 16 04 02 14 41 18.8000000  0  1G29                                             
  17924115.70349  94191862.60549    -10436.62949        49.000  
 16 04 02 14 41 18.9000000  0  1G29                                             
  17924314.33649  94192906.42649    -10440.73049        49.000  
 16 04 02 14 41 19.0000000  0  1G29                                             
  17924513.05549  94193950.72349    -10445.37549        49.000  
 16 04 02 14 41 19.1000000  0  1G29                                             
  17924711.85949  94194995.45349    -10449.89549        49.000  
 16 04 02 14 41 19.2000000  0  1G29                                             
  17924910.78149  94196040.71549    -10454.93849        49.000  
 16 04 02 14 41 19.3000000  0  1G29                                             
  17925109.75849  94197086.34049    -10458.87549        49.000  
 16 04 02 14 41 19.4000000  0  1G29                                             
  17925308.82049  94198132.45349    -10463.84849        49.000  
 16 04 02 14 41 19.5000000  0  1G29                                             
  17925507.98449  94199179.04749    -10468.32449        49.000  
 16 04 02 14 41 19.6000000  0  1G29                                             
  17925707.23449  94200226.10249    -10473.16449        49.000  
 16 04 02 14 41 19.7000000  0  1G29                                             
  17925906.57049  94201273.62949    -10477.78949        49.000  
 16 04 02 14 41 19.8000000  0  1G29                                             
  17926105.98449  94202321.55949    -10481.76649        49.000  
 16 04 02 14 41 19.9000000  0  1G29                                             
  17926305.48449  94203369.93849    -10486.16449        49.000  
 16 04 02 14 41 20.0000000  0  1G29                                             
  17926505.07049  94204418.78549    -10490.99649        49.000  
 16 04 02 14 41 20.1000000  0  1G29                                             
  17926704.73449  94205468.02049    -10494.77349        49.000  
 16 04 02 14 41 20.2000000  0  1G29                                             
  17926904.49249  94206517.76649    -10500.00849        49.000  
 16 04 02 14 41 20.3000000  0  1G29                                             
  17927104.33649  94207567.94949    -10504.36349        49.000  
 16 04 02 14 41 20.4000000  0  1G29                                             
  17927304.25049  94208618.59449    -10508.96149        49.000  
 16 04 02 14 41 20.5000000  0  1G29                                             
  17927504.27349  94209669.71149    -10513.79749        49.000  
 16 04 02 14 41 20.6000000  0  1G29                                             
  17927704.35249  94210721.28549    -10518.43449        49.000  
 16 04 02 14 41 20.7000000  0  1G29                                             
  17927904.54749  94211773.31249    -10522.65649        49.000  
 16 04 02 14 41 20.8000000  0  1G29                                             
  17928104.82849  94212825.82049    -10527.61749        49.000  
 16 04 02 14 41 20.9000000  0  1G29                                             
  17928305.19549  94213878.74649    -10531.81249        49.000  
 16 04 02 14 41 21.0000000  0  1G29                                             
  17928505.66449  94214932.15649    -10536.44549        49.000  
 16 04 02 14 41 21.1000000  0  1G29                                             
  17928706.19549  94215985.95749    -10540.37149        49.000  
 16 04 02 14 41 21.2000000  0  1G29                                             
  17928906.83649  94217040.27049    -10545.64549        49.000  
 16 04 02 14 41 21.3000000  0  1G29                                             
  17929107.54749  94218094.99249    -10549.78149        49.000  
 16 04 02 14 41 21.4000000  0  1G29                                             
  17929308.33649  94219150.18049    -10554.38749        49.000  
 16 04 02 14 41 21.5000000  0  1G29                                             
  17929509.22749  94220205.84449    -10559.06249        49.000  
 16 04 02 14 41 21.6000000  0  1G29                                             
  17929710.18049  94221261.92249    -10563.30949        49.000  
 16 04 02 14 41 21.7000000  0  1G29                                             
  17929911.24249  94222318.50449    -10568.30549        49.000  
 16 04 02 14 41 21.8000000  0  1G29                                             
  17930112.39849  94223375.51649    -10572.69549        49.000  
 16 04 02 14 41 21.9000000  0  1G29                                             
  17930313.62549  94224432.95749    -10576.88749        49.000  
 16 04 02 14 41 22.0000000  0  1G29                                             
  17930514.91449  94225490.82849    -10581.18449        49.000  
 16 04 02 14 41 22.1000000  0  1G29                                             
  17930716.30549  94226549.17249    -10586.00049        49.000  
 16 04 02 14 41 22.2000000  0  1G29                                             
  17930917.77349  94227607.99649    -10590.55949        49.000  
 16 04 02 14 41 22.3000000  0  1G29                                             
  17931119.34449  94228667.24649    -10595.02749        49.000  
 16 04 02 14 41 22.4000000  0  1G29                                             
  17931321.00049  94229726.93449    -10599.39549        49.000  
 16 04 02 14 41 22.5000000  0  1G29                                             
  17931522.75049  94230787.13749    -10604.69149        49.000  
 16 04 02 14 41 22.6000000  0  1G29                                             
  17931724.59449  94231847.83649    -10609.39849        49.000  
 16 04 02 14 41 22.7000000  0  1G29                                             
  17931926.51649  94232908.96149    -10613.80549        49.000  
 16 04 02 14 41 22.8000000  0  1G29                                             
  17932128.52349  94233970.54749    -10618.57049        49.000  
 16 04 02 14 41 22.9000000  0  1G29                                             
  17932330.62549  94235032.61749    -10623.46149        49.000  
 16 04 02 14 41 23.0000000  0  1G29                                             
  17932532.80549  94236095.13349    -10627.70349        49.000  
 16 04 02 14 41 23.1000000  0  1G29                                             
  17932735.07849  94237158.09449    -10632.28949        49.000  
 16 04 02 14 41 23.2000000  0  1G29                                             
  17932937.42249  94238221.46549    -10636.29349        49.000  
 16 04 02 14 41 23.3000000  0  1G29                                             
  17933139.86749  94239285.32449    -10640.60249        49.000  
 16 04 02 14 41 23.4000000  0  1G29                                             
  17933342.37549  94240349.54749    -10644.82449        49.000  
 16 04 02 14 41 23.5000000  0  1G29                                             
  17933544.98449  94241414.25049    -10649.41849        49.000  
 16 04 02 14 41 23.6000000  0  1G29                                             
  17933747.68849  94242479.45349    -10654.55949        49.000  
 16 04 02 14 41 23.7000000  0  1G29                                             
  17933950.47749  94243545.12949    -10659.60249        49.000  
 16 04 02 14 41 23.8000000  0  1G29                                             
  17934153.37549  94244611.29349    -10664.19949        49.000  
 16 04 02 14 41 23.9000000  0  1G29                                             
  17934356.33649  94245677.85549    -10668.24249        49.000  
 16 04 02 14 41 24.0000000  0  1G29                                             
  17934559.37549  94246744.88749    -10672.57449        49.000  
 16 04 02 14 41 24.1000000  0  1G29                                             
  17934762.50849  94247812.32849    -10677.25849        49.000  
 16 04 02 14 41 24.2000000  0  1G29                                             
  17934965.75049  94248880.28549    -10681.95349        49.000  
 16 04 02 14 41 24.3000000  0  1G29                                             
  17935169.05549  94249948.68449    -10686.50449        49.000  
 16 04 02 14 41 24.4000000  0  1G29                                             
  17935372.45349  94251017.49649    -10690.50849        49.000  
 16 04 02 14 41 24.5000000  0  1G29                                             
  17935575.92249  94252086.74249    -10694.77749        49.000  
 16 04 02 14 41 24.6000000  0  1G29                                             
  17935779.49249  94253156.44549    -10699.80149        49.000  
 16 04 02 14 41 24.7000000  0  1G29                                             
  17935983.14149  94254226.62949    -10704.24249        49.000  
 16 04 02 14 41 24.8000000  0  1G29                                             
  17936186.87549  94255297.20749    -10708.52749        49.000  
 16 04 02 14 41 24.9000000  0  1G29                                             
  17936390.70349  94256368.30949    -10713.75449        49.000  
 16 04 02 14 41 25.0000000  0  1G29                                             
  17936594.61749  94257439.87149    -10718.05549        49.000  
 16 04 02 14 41 25.1000000  0  1G29                                             
  17936798.61749  94258511.89549    -10722.90649        49.000  
 16 04 02 14 41 25.2000000  0  1G29                                             
  17937002.68849  94259584.31649    -10726.68849        49.000  
 16 04 02 14 41 25.3000000  0  1G29                                             
  17937206.86749  94260657.26649    -10731.99649        49.000  
 16 04 02 14 41 25.4000000  0  1G29                                             
  17937411.10949  94261730.66049    -10736.65649        49.000  
 16 04 02 14 41 25.5000000  0  1G29                                             
  17937615.46149  94262804.53549    -10741.25449        49.000  
 16 04 02 14 41 25.6000000  0  1G29                                             
  17937819.89149  94263878.82449    -10745.50049        49.000  
 16 04 02 14 41 25.7000000  0  1G29                                             
  17938024.39849  94264953.51249    -10749.02349        49.000  
 16 04 02 14 41 25.8000000  0  1G29                                             
  17938229.00049  94266028.65649    -10753.65649        49.000  
 16 04 02 14 41 25.9000000  0  1G29                                             
  17938433.67249  94267104.23049    -10758.29349        49.000  
 16 04 02 14 41 26.0000000  0  1G29                                             
  17938638.43849  94268180.29349    -10763.04349        49.000  
 16 04 02 14 41 26.1000000  0  1G29                                             
  17938843.28949  94269256.82049    -10767.93449        49.000  
 16 04 02 14 41 26.2000000  0  1G29                                             
  17939048.23449  94270333.79749    -10772.08649        49.000  
 16 04 02 14 41 26.3000000  0  1G29                                             
  17939253.25849  94271411.18449    -10776.62949        49.000  
 16 04 02 14 41 26.4000000  0  1G29                                             
  17939458.36749  94272489.07449    -10781.44949        49.000  
 16 04 02 14 41 26.5000000  0  1G29                                             
  17939663.56249  94273567.39549    -10785.66849        49.000  
 16 04 02 14 41 26.6000000  0  1G29                                             
  17939868.83649  94274646.11749    -10789.75849        49.000  
 16 04 02 14 41 26.7000000  0  1G29                                             
  17940074.20349  94275725.30149    -10794.25049        49.000  
 16 04 02 14 41 26.8000000  0  1G29                                             
  17940279.66449  94276805.02049    -10799.74249        49.000  
 16 04 02 14 41 26.9000000  0  1G29                                             
  17940485.18849  94277885.07849    -10802.97349        49.000  
 16 04 02 14 41 27.0000000  0  1G29                                             
  17940690.82049  94278965.68049    -10808.53949        49.000  
 16 04 02 14 41 27.1000000  0  1G29                                             
  17940896.53149  94280046.68049    -10812.50449        49.000  
 16 04 02 14 41 27.2000000  0  1G29                                             
  17941102.33649  94281128.13349    -10817.19949        49.000  
 16 04 02 14 41 27.3000000  0  1G29                                             
  17941308.21949  94282210.04749    -10821.35549        49.000  
 16 04 02 14 41 27.4000000  0  1G29                                             
  17941514.19549  94283292.38749    -10826.02749        49.000  
 16 04 02 14 41 27.5000000  0  1G29                                             
  17941720.25849  94284375.26649    -10831.15649        49.000  
 16 04 02 14 41 27.6000000  0  1G29                                             
  17941926.40649  94285458.52349    -10835.47349        49.000  
 16 04 02 14 41 27.7000000  0  1G29                                             
  17942132.63349  94286542.27049    -10839.66449        49.000  
 16 04 02 14 41 27.8000000  0  1G29                                             
  17942338.95349  94287626.45749    -10844.52049        49.000  
 16 04 02 14 41 27.9000000  0  1G29                                             
  17942545.36749  94288711.17249    -10849.64149        49.000  
 16 04 02 14 41 28.0000000  0  1G29                                             
  17942751.85249  94289796.23849    -10853.16849        49.000  
 16 04 02 14 41 28.1000000  0  1G29                                             
  17942958.42249  94290881.79749    -10857.91849        49.000  
 16 04 02 14 41 28.2000000  0  1G29                                             
  17943165.08649  94291967.77349    -10862.16049        49.000  
 16 04 02 14 41 28.3000000  0  1G29                                             
  17943371.82049  94293054.18849    -10866.67249        49.000  
 16 04 02 14 41 28.4000000  0  1G29                                             
  17943578.67249  94294141.10549    -10871.78149        49.000  
 16 04 02 14 41 28.5000000  0  1G29                                             
  17943785.59449  94295228.47349    -10876.23049        49.000  
 16 04 02 14 41 28.6000000  0  1G29                                             
  17943992.59449  94296316.25849    -10880.46549        49.000  
 16 04 02 14 41 28.7000000  0  1G29                                             
  17944199.68049  94297404.53949    -10885.36749        49.000  
 16 04 02 14 41 28.8000000  0  1G29                                             
  17944406.84449  94298493.21149    -10889.19549        49.000  
 16 04 02 14 41 28.9000000  0  1G29                                             
  17944614.10249  94299582.33649    -10893.59449        49.000  
 16 04 02 14 41 29.0000000  0  1G29                                             
  17944821.44549  94300671.87149    -10898.07449        49.000  
 16 04 02 14 41 29.1000000  0  1G29                                             
  17945028.87549  94301761.93049    -10903.05149        49.000  
 16 04 02 14 41 29.2000000  0  1G29                                             
  17945236.39149  94302852.44549    -10907.82849        49.000  
 16 04 02 14 41 29.3000000  0  1G29                                             
  17945443.99249  94303943.37949    -10911.83649        49.000  
 16 04 02 14 41 29.4000000  0  1G29                                             
  17945651.67249  94305034.73049    -10915.90249        49.000  
 16 04 02 14 41 29.5000000  0  1G29                                             
  17945859.44549  94306126.58249    -10921.23049        49.000  
 16 04 02 14 41 29.6000000  0  1G29                                             
  17946067.31249  94307218.91449    -10925.76649        49.000  
 16 04 02 14 41 29.7000000  0  1G29                                             
  17946275.25049  94308311.64149    -10929.88349        49.000  
 16 04 02 14 41 29.8000000  0  1G29                                             
  17946483.26649  94309404.85549    -10934.53549        49.000  
 16 04 02 14 41 29.9000000  0  1G29                                             
  17946691.38349  94310498.52049    -10939.10949        49.000  
 16 04 02 14 41 30.0000000  0  1G29                                             
  17946899.59449  94311592.64149    -10943.70349        49.000  
 16 04 02 14 41 30.1000000  0  1G29                                             
  17947107.88349  94312687.19549    -10948.05949        49.000  
 16 04 02 14 41 30.2000000  0  1G29                                             
  17947316.26649  94313782.19549    -10952.35949        49.000  
 16 04 02 14 41 30.3000000  0  1G29                                             
  17947524.71949  94314877.64149    -10956.93849        49.000  
 16 04 02 14 41 30.4000000  0  1G29                                             
  17947733.26649  94315973.52349    -10961.29749        49.000  
 16 04 02 14 41 30.5000000  0  1G29                                             
  17947941.89849  94317069.87549    -10965.89549        49.000  
 16 04 02 14 41 30.6000000  0  1G29                                             
  17948150.60249  94318166.66449    -10970.55149        49.000  
 16 04 02 14 41 30.7000000  0  1G29                                             
  17948359.39149  94319263.85549    -10974.51249        49.000  
 16 04 02 14 41 30.8000000  0  1G29                                             
  17948568.28149  94320361.53149    -10979.15649        49.000  
 16 04 02 14 41 30.9000000  0  1G29                                             
  17948777.24249  94321459.62949    -10983.58249        49.000  
 16 04 02 14 41 31.0000000  0  1G29                                             
  17948986.27349  94322558.14149    -10987.57449        49.000  
 16 04 02 14 41 31.1000000  0  1G29                                             
  17949195.40649  94323657.15249    -10992.50849        49.000  
 16 04 02 14 41 31.2000000  0  1G29                                             
  17949404.61749  94324756.53149    -10996.28149        49.000  
 16 04 02 14 41 31.3000000  0  1G29                                             
  17949613.91449  94325856.41849    -11001.47749        49.000  
 16 04 02 14 41 31.4000000  0  1G29                                             
  17949823.30549  94326956.72749    -11005.55949        49.000  
 16 04 02 14 41 31.5000000  0  1G29                                             
  17950032.77349  94328057.47749    -11009.97349        49.000  
 16 04 02 14 41 31.6000000  0  1G29                                             
  17950242.31249  94329158.64849    -11014.24649        49.000  
 16 04 02 14 41 31.7000000  0  1G29                                             
  17950451.94549  94330260.26249    -11018.53149        49.000  
 16 04 02 14 41 31.8000000  0  1G29                                             
  17950661.66449  94331362.33649    -11023.27749        49.000  
 16 04 02 14 41 31.9000000  0  1G29                                             
  17950871.47749  94332464.88349    -11028.00449        49.000  
 16 04 02 14 41 32.0000000  0  1G29                                             
  17951081.36749  94333567.89149    -11032.70749        49.000  
 16 04 02 14 41 32.1000000  0  1G29                                             
  17951291.35249  94334671.34449    -11037.25449        49.000  
 16 04 02 14 41 32.2000000  0  1G29                                             
  17951501.43849  94335775.35249    -11042.75049        49.000  
 16 04 02 14 41 32.3000000  0  1G29                                             
  17951711.60249  94336879.77349    -11046.81649        49.000  
 16 04 02 14 41 32.4000000  0  1G29                                             
  17951921.83649  94337984.56249    -11050.42249        49.000  
 16 04 02 14 41 32.5000000  0  1G29                                             
  17952132.17249  94339089.85249    -11055.21949        49.000  
 16 04 02 14 41 32.6000000  0  1G29                                             
  17952342.57849  94340195.57449    -11059.69949        49.000  
 16 04 02 14 41 32.7000000  0  1G29                                             
  17952553.07849  94341301.76249    -11064.46949        49.000  
 16 04 02 14 41 32.8000000  0  1G29                                             
  17952763.66449  94342408.39149    -11068.82449        49.000  
 16 04 02 14 41 32.9000000  0  1G29                                             
  17952974.33649  94343515.46549    -11073.23849        49.000  
 16 04 02 14 41 33.0000000  0  1G29                                             
  17953185.08649  94344622.98449    -11077.56649        49.000  
 16 04 02 14 41 33.1000000  0  1G29                                             
  17953395.93849  94345731.00449    -11082.91449        49.000  
 16 04 02 14 41 33.2000000  0  1G29                                             
  17953606.86749  94346839.45349    -11086.85249        49.000  
 16 04 02 14 41 33.3000000  0  1G29                                             
  17953817.89149  94347948.36749    -11091.76649        49.000  
 16 04 02 14 41 33.4000000  0  1G29                                             
  17954028.98449  94349057.73849    -11096.02349        49.000  
 16 04 02 14 41 33.5000000  0  1G29                                             
  17954240.17249  94350167.53949    -11100.66449        49.000  
 16 04 02 14 41 33.6000000  0  1G29                                             
  17954451.46149  94351277.79349    -11104.92649        49.000  
 16 04 02 14 41 33.7000000  0  1G29                                             
  17954662.82849  94352388.51649    -11109.76249        49.000  
 16 04 02 14 41 33.8000000  0  1G29                                             
  17954874.25849  94353499.65649    -11113.93049        49.000  
 16 04 02 14 41 33.9000000  0  1G29                                             
  17955085.79749  94354611.26249    -11118.35549        49.000  
 16 04 02 14 41 34.0000000  0  1G29                                             
  17955297.40649  94355723.30949    -11122.98049        49.000  
 16 04 02 14 41 34.1000000  0  1G29                                             
  17955509.10949  94356835.82449    -11127.83249        49.000  
 16 04 02 14 41 34.2000000  0  1G29                                             
  17955720.90649  94357948.78149    -11132.05149        49.000  
 16 04 02 14 41 34.3000000  0  1G29                                             
  17955932.78149  94359062.18849    -11136.80949        49.000  
 16 04 02 14 41 34.4000000  0  1G29                                             
  17956144.75049  94360176.11349    -11141.80949        49.000  
 16 04 02 14 41 34.5000000  0  1G29                                             
  17956356.80549  94361290.45749    -11146.28149        49.000  
 16 04 02 14 41 34.6000000  0  1G29                                             
  17956568.94549  94362405.27749    -11150.59849        49.000  
 16 04 02 14 41 34.7000000  0  1G29                                             
  17956781.16449  94363520.48449    -11154.56249        49.000  
 16 04 02 14 41 34.8000000  0  1G29                                             
  17956993.47749  94364636.18449    -11159.45749        49.000  
 16 04 02 14 41 34.9000000  0  1G29                                             
  17957205.87549  94365752.35249    -11164.31249        49.000  
 16 04 02 14 41 35.0000000  0  1G29                                             
  17957418.37549  94366868.98049    -11168.75449        49.000  
 16 04 02 14 41 35.1000000  0  1G29                                             
  17957630.93049  94367985.99249    -11172.72749        49.000  
 16 04 02 14 41 35.2000000  0  1G29                                             
  17957843.58649  94369103.48049    -11177.27749        49.000  
 16 04 02 14 41 35.3000000  0  1G29                                             
  17958056.32049  94370221.39849    -11181.75849        49.000  
 16 04 02 14 41 35.4000000  0  1G29                                             
  17958269.14149  94371339.79349    -11186.41849        49.000  
 16 04 02 14 41 35.5000000  0  1G29                                             
  17958482.04749  94372458.62149    -11190.97349        49.000  
 16 04 02 14 41 35.6000000  0  1G29                                             
  17958695.02349  94373577.86749    -11194.81249        49.000  
 16 04 02 14 41 35.7000000  0  1G29                                             
  17958908.09449  94374697.56249    -11199.55949        49.000  
 16 04 02 14 41 35.8000000  0  1G29                                             
  17959121.26649  94375817.79749    -11204.91049        49.000  
 16 04 02 14 41 35.9000000  0  1G29                                             
  17959334.51649  94376938.44549    -11208.97349        49.000  
 16 04 02 14 41 36.0000000  0  1G29                                             
  17959547.85249  94378059.54349    -11213.57449        49.000  
 16 04 02 14 41 36.1000000  0  1G29                                             
  17959761.28149  94379181.10549    -11218.16049        49.000  
 16 04 02 14 41 36.2000000  0  1G29                                             
  17959974.78149  94380303.12949    -11222.71949        49.000  
 16 04 02 14 41 36.3000000  0  1G29                                             
  17960188.37549  94381425.54749    -11226.65249        49.000  
 16 04 02 14 41 36.4000000  0  1G29                                             
  17960402.04749  94382548.45349    -11231.62949        49.000  
 16 04 02 14 41 36.5000000  0  1G29                                             
  17960615.82049  94383671.81249    -11236.00449        49.000  
 16 04 02 14 41 36.6000000  0  1G29                                             
  17960829.66449  94384795.61749    -11240.64149        49.000  
 16 04 02 14 41 36.7000000  0  1G29                                             
  17961043.60249  94385919.83249    -11244.52749        49.000  
 16 04 02 14 41 36.8000000  0  1G29                                             
  17961257.62549  94387044.51249    -11249.17249        49.000  
 16 04 02 14 41 36.9000000  0  1G29                                             
  17961471.71949  94388169.61749    -11253.43849        49.000  
 16 04 02 14 41 37.0000000  0  1G29                                             
  17961685.91449  94389295.21949    -11258.78949        49.000  
 16 04 02 14 41 37.1000000  0  1G29                                             
  17961900.19549  94390421.28949    -11262.79349        49.000  
 16 04 02 14 41 37.2000000  0  1G29                                             
  17962114.57049  94391547.74649    -11267.40649        49.000  
 16 04 02 14 41 37.3000000  0  1G29                                             
  17962329.02349  94392674.71149    -11272.24649        49.000  
 16 04 02 14 41 37.4000000  0  1G29                                             
  17962543.55549  94393802.10249    -11276.46149        49.000  
 16 04 02 14 41 37.5000000  0  1G29                                             
  17962758.18049  94394929.94149    -11280.88749        49.000  
 16 04 02 14 41 37.6000000  0  1G29                                             
  17962972.88349  94396058.25049    -11285.32449        49.000  
 16 04 02 14 41 37.7000000  0  1G29                                             
  17963187.66449  94397186.93049    -11289.46149        49.000  
 16 04 02 14 41 37.8000000  0  1G29                                             
  17963402.54749  94398316.10949    -11294.21549        49.000  
 16 04 02 14 41 37.9000000  0  1G29                                             
  17963617.50049  94399445.69949    -11298.35549        49.000  
 16 04 02 14 41 38.0000000  0  1G29                                             
  17963832.53149  94400575.70349    -11302.40649        49.000  
 16 04 02 14 41 38.1000000  0  1G29                                             
  17964047.64849  94401706.14849    -11307.03549        49.000  
 16 04 02 14 41 38.2000000  0  1G29                                             
  17964262.87549  94402837.11749    -11312.16849        49.000  
 16 04 02 14 41 38.3000000  0  1G29                                             
  17964478.16449  94403968.46949    -11316.09049        49.000  
 16 04 02 14 41 38.4000000  0  1G29                                             
  17964693.54749  94405100.31649    -11321.03149        49.000  
 16 04 02 14 41 38.5000000  0  1G29                                             
  17964909.00049  94406232.53549    -11324.64549        49.000  
 16 04 02 14 41 38.6000000  0  1G29                                             
  17965124.53949  94407365.24649    -11329.64149        49.000  
 16 04 02 14 41 38.7000000  0  1G29                                             
  17965340.18049  94408498.41849    -11334.23849        49.000  
 16 04 02 14 41 38.8000000  0  1G29                                             
  17965555.90649  94409632.05149    -11338.79749        49.000  
 16 04 02 14 41 38.9000000  0  1G29                                             
  17965771.71149  94410766.11749    -11343.24649        49.000  
 16 04 02 14 41 39.0000000  0  1G29                                             
  17965987.60249  94411900.64149    -11347.85549        49.000  
 16 04 02 14 41 39.1000000  0  1G29                                             
  17966203.57849  94413035.61349    -11352.09449        49.000  
 16 04 02 14 41 39.2000000  0  1G29                                             
  17966419.65649  94414171.05149    -11357.08649        49.000  
 16 04 02 14 41 39.3000000  0  1G29                                             
  17966635.79749  94415306.89849    -11360.74249        49.000  
 16 04 02 14 41 39.4000000  0  1G29                                             
  17966852.02349  94416443.21949    -11365.70749        49.000  
 16 04 02 14 41 39.5000000  0  1G29                                             
  17967068.34449  94417579.98849    -11370.55549        49.000  
 16 04 02 14 41 39.6000000  0  1G29                                             
  17967284.76649  94418717.22749    -11375.04749        49.000  
 16 04 02 14 41 39.7000000  0  1G29                                             
  17967501.26649  94419854.94549    -11379.84049        49.000  
 16 04 02 14 41 39.8000000  0  1G29                                             
  17967717.85249  94420993.07449    -11383.60949        49.000  
 16 04 02 14 41 39.9000000  0  1G29                                             
  17967934.51649  94422131.64849    -11388.21949        49.000  
 16 04 02 14 41 40.0000000  0  1G29                                             
  17968151.26649  94423270.65649    -11392.46149        49.000  
 16 04 02 14 41 40.1000000  0  1G29                                             
  17968368.10249  94424410.15249    -11397.54349        49.000  
 16 04 02 14 41 40.2000000  0  1G29                                             
  17968585.03149  94425550.08249    -11401.85949        49.000  
 16 04 02 14 41 40.3000000  0  1G29                                             
  17968802.03149  94426690.45749    -11406.12149        49.000  
 16 04 02 14 41 40.4000000  0  1G29                                             
  17969019.10949  94427831.22749    -11409.89849        49.000  
 16 04 02 14 41 40.5000000  0  1G29                                             
  17969236.26649  94428972.39149    -11413.96149        49.000  
 16 04 02 14 41 40.6000000  0  1G29                                             
  17969453.51649  94430114.03549    -11419.16049        49.000  
 16 04 02 14 41 40.7000000  0  1G29                                             
  17969670.85249  94431256.14849    -11423.70749        49.000  
 16 04 02 14 41 40.8000000  0  1G29                                             
  17969888.27349  94432398.71949    -11428.22349        49.000  
 16 04 02 14 41 40.9000000  0  1G29                                             
  17970105.78949  94433541.77349    -11433.07849        49.000  
 16 04 02 14 41 41.0000000  0  1G29                                             
  17970323.39149  94434685.25049    -11437.38349        49.000  
 16 04 02 14 41 41.1000000  0  1G29                                             
  17970541.07849  94435829.18449    -11441.79349        49.000  
 16 04 02 14 41 41.2000000  0  1G29                                             
  17970758.82849  94436973.50049    -11445.60949        49.000  
 16 04 02 14 41 41.3000000  0  1G29                                             
  17970976.67249  94438118.27349    -11450.25049        49.000  
 16 04 02 14 41 41.4000000  0  1G29                                             
  17971194.61749  94439263.54349    -11455.34849        49.000  
 16 04 02 14 41 41.5000000  0  1G29                                             
  17971412.63349  94440409.23849    -11459.59849        49.000  
 16 04 02 14 41 41.6000000  0  1G29                                             
  17971630.73449  94441555.35549    -11463.58249        49.000  
 16 04 02 14 41 41.7000000  0  1G29                                             
  17971848.92249  94442701.94549    -11468.48849        49.000  
 16 04 02 14 41 41.8000000  0  1G29                                             
  17972067.20349  94443849.02049    -11473.50849        49.000  
 16 04 02 14 41 41.9000000  0  1G29                                             
  17972285.56249  94444996.53949    -11477.72349        49.000  
 16 04 02 14 41 42.0000000  0  1G29                                             
  17972504.01649  94446144.48849    -11482.15649        49.000  
 16 04 02 14 41 42.1000000  0  1G29                                             
  17972722.54749  94447292.86749    -11486.18449        49.000  
 16 04 02 14 41 42.2000000  0  1G29                                             
  17972941.16449  94448441.68049    -11490.52349        49.000  
 16 04 02 14 41 42.3000000  0  1G29                                             
  17973159.86749  94449590.94949    -11495.17249        49.000  
 16 04 02 14 41 42.4000000  0  1G29                                             
  17973378.64849  94450740.66449    -11499.54749        49.000  
 16 04 02 14 41 42.5000000  0  1G29                                             
  17973597.50849  94451890.75049    -11503.21549        49.000  
 16 04 02 14 41 42.6000000  0  1G29                                             
  17973816.45349  94453041.32849    -11508.22749        49.000  
 16 04 02 14 41 42.7000000  0  1G29                                             
  17974035.49249  94454192.39149    -11513.16849        49.000  
 16 04 02 14 41 42.8000000  0  1G29                                             
  17974254.60949  94455343.86349    -11517.23449        49.000  
 16 04 02 14 41 42.9000000  0  1G29                                             
  17974473.81249  94456495.80549    -11521.78549        49.000  
 16 04 02 14 41 43.0000000  0  1G29                                             
  17974693.10249  94457648.12549    -11525.71549        49.000  
 16 04 02 14 41 43.1000000  0  1G29                                             
  17974912.46949  94458800.90649    -11530.28949        49.000  
 16 04 02 14 41 43.2000000  0  1G29                                             
  17975131.92249  94459954.17249    -11535.24249        49.000  
 16 04 02 14 41 43.3000000  0  1G29                                             
  17975351.47749  94461107.94949    -11540.12549        49.000  
 16 04 02 14 41 43.4000000  0  1G29                                             
  17975571.09449  94462262.07449    -11543.86749        49.000  
 16 04 02 14 41 43.5000000  0  1G29                                             
  17975790.79749  94463416.62149    -11547.94149        49.000  
 16 04 02 14 41 43.6000000  0  1G29                                             
  17976010.59449  94464571.66049    -11552.77349        49.000  
 16 04 02 14 41 43.7000000  0  1G29                                             
  17976230.48449  94465727.19149    -11557.88349        49.000  
 16 04 02 14 41 43.8000000  0  1G29                                             
  17976450.45349  94466883.10949    -11561.73849        49.000  
 16 04 02 14 41 43.9000000  0  1G29                                             
  17976670.50049  94468039.46149    -11565.96549        49.000  
 16 04 02 14 41 44.0000000  0  1G29                                             
  17976890.64149  94469196.27049    -11570.44949        49.000  
 16 04 02 14 41 44.1000000  0  1G29                                             
  17977110.85249  94470353.49649    -11574.77349        49.000  
 16 04 02 14 41 44.2000000  0  1G29                                             
  17977331.15649  94471511.21149    -11579.49249        49.000  
 16 04 02 14 41 44.3000000  0  1G29                                             
  17977551.53949  94472669.31249    -11583.77749        49.000  
 16 04 02 14 41 44.4000000  0  1G29                                             
  17977772.01649  94473827.94549    -11588.88749        49.000  
 16 04 02 14 41 44.5000000  0  1G29                                             
  17977992.58649  94474987.02349    -11593.01249        49.000  
 16 04 02 14 41 44.6000000  0  1G29                                             
  17978213.23449  94476146.49249    -11597.50449        49.000  
 16 04 02 14 41 44.7000000  0  1G29                                             
  17978433.96949  94477306.45349    -11602.04749        49.000  
 16 04 02 14 41 44.8000000  0  1G29                                             
  17978654.77349  94478466.82449    -11606.30549        49.000  
 16 04 02 14 41 44.9000000  0  1G29                                             
  17978875.68049  94479627.68449    -11611.09049        49.000  
 16 04 02 14 41 45.0000000  0  1G29                                             
  17979096.65649  94480788.94549    -11615.00449        49.000  
 16 04 02 14 41 45.1000000  0  1G29                                             
  17979317.71949  94481950.64549    -11619.49249        49.000  
 16 04 02 14 41 45.2000000  0  1G29                                             
  17979538.87549  94483112.78949    -11623.84849        49.000  
 16 04 02 14 41 45.3000000  0  1G29                                             
  17979760.10949  94484275.39549    -11628.64549        49.000  
 16 04 02 14 41 45.4000000  0  1G29                                             
  17979981.43849  94485438.44549    -11632.98849        49.000  
 16 04 02 14 41 45.5000000  0  1G29                                             
  17980202.84449  94486601.93449    -11637.41449        49.000  
 16 04 02 14 41 45.6000000  0  1G29                                             
  17980424.32049  94487765.83249    -11641.56249        49.000  
 16 04 02 14 41 45.7000000  0  1G29                                             
  17980645.89849  94488930.23849    -11646.79749        49.000  
 16 04 02 14 41 45.8000000  0  1G29                                             
  17980867.55549  94490095.13349    -11651.41849        49.000  
 16 04 02 14 41 45.9000000  0  1G29                                             
  17981089.29749  94491260.37549    -11654.88749        49.000  
 16 04 02 14 41 46.0000000  0  1G29                                             
  17981311.12549  94492426.07049    -11659.48849        49.000  
 16 04 02 14 41 46.1000000  0  1G29                                             
  17981533.03949  94493592.24249    -11663.96149        49.000  
 16 04 02 14 41 46.2000000  0  1G29                                             
  17981755.03949  94494758.84849    -11668.65249        49.000  
 16 04 02 14 41 46.3000000  0  1G29                                             
  17981977.12549  94495925.91849    -11673.26649        49.000  
 16 04 02 14 41 46.4000000  0  1G29                                             
  17982199.29749  94497093.43849    -11677.66449        49.000  
 16 04 02 14 41 46.5000000  0  1G29                                             
  17982421.54749  94498261.36749    -11682.04349        49.000  
 16 04 02 14 41 46.6000000  0  1G29                                             
  17982643.89849  94499429.78549    -11686.49249        49.000  
 16 04 02 14 41 46.7000000  0  1G29                                             
  17982866.31249  94500598.57449    -11690.28949        49.000  
 16 04 02 14 41 46.8000000  0  1G29                                             
  17983088.81249  94501767.84849    -11695.14149        49.000  
 16 04 02 14 41 46.9000000  0  1G29                                             
  17983311.40649  94502937.55949    -11699.67649        49.000  
 16 04 02 14 41 47.0000000  0  1G29                                             
  17983534.07849  94504107.72749    -11704.20349        49.000  
 16 04 02 14 41 47.1000000  0  1G29                                             
  17983756.83649  94505278.30149    -11708.29749        49.000  
 16 04 02 14 41 47.2000000  0  1G29                                             
  17983979.67249  94506449.36749    -11713.08649        49.000  
 16 04 02 14 41 47.3000000  0  1G29                                             
  17984202.60249  94507620.88349    -11717.58649        49.000  
 16 04 02 14 41 47.4000000  0  1G29                                             
  17984425.60949  94508792.80549    -11721.59449        49.000  
 16 04 02 14 41 47.5000000  0  1G29                                             
  17984648.70349  94509965.15249    -11725.87949        49.000  
 16 04 02 14 41 47.6000000  0  1G29                                             
  17984871.88349  94511137.97349    -11730.59449        49.000  
 16 04 02 14 41 47.7000000  0  1G29                                             
  17985095.15649  94512311.27749    -11735.62149        49.000  
 16 04 02 14 41 47.8000000  0  1G29                                             
  17985318.50849  94513485.01249    -11739.88749        49.000  
 16 04 02 14 41 47.9000000  0  1G29                                             
  17985541.94549  94514659.17249    -11743.95749        49.000  
 16 04 02 14 41 48.0000000  0  1G29                                             
  17985765.46149  94515833.73849    -11748.12149        49.000  
 16 04 02 14 41 48.1000000  0  1G29                                             
  17985989.06249  94517008.77749    -11752.64149        49.000  
 16 04 02 14 41 48.2000000  0  1G29                                             
  17986212.73449  94518184.15649    -11756.42249        49.000  
 16 04 02 14 41 48.3000000  0  1G29                                             
  17986436.50849  94519360.08649    -11761.68849        49.000  
 16 04 02 14 41 48.4000000  0  1G29                                             
  17986660.35249  94520536.39849    -11765.58249        49.000  
 16 04 02 14 41 48.5000000  0  1G29                                             
  17986884.28949  94521713.17649    -11770.25449        49.000  
 16 04 02 14 41 48.6000000  0  1G29                                             
  17987108.30549  94522890.41849    -11774.95349        49.000  
 16 04 02 14 41 48.7000000  0  1G29                                             
  17987332.40649  94524068.07849    -11779.16849        49.000  
 16 04 02 14 41 48.8000000  0  1G29                                             
  17987556.60249  94525246.23049    -11783.90249        49.000  
 16 04 02 14 41 48.9000000  0  1G29                                             
  17987780.87549  94526424.79749    -11787.91449        49.000  
 16 04 02 14 41 49.0000000  0  1G29                                             
  17988005.23449  94527603.82049    -11792.39149        49.000  
 16 04 02 14 41 49.1000000  0  1G29                                             
  17988229.68049  94528783.28149    -11796.58649        49.000  
 16 04 02 14 41 49.2000000  0  1G29                                             
  17988454.21149  94529963.19549    -11801.14849        49.000  
 16 04 02 14 41 49.3000000  0  1G29                                             
  17988678.81249  94531143.46949    -11804.83649        49.000  
 16 04 02 14 41 49.4000000  0  1G29                                             
  17988903.50849  94532324.25449    -11809.88749        49.000  
 16 04 02 14 41 49.5000000  0  1G29                                             
  17989128.28149  94533505.47749    -11814.21149        49.000  
 16 04 02 14 41 49.6000000  0  1G29                                             
  17989353.14149  94534687.13349    -11818.62949        49.000  
 16 04 02 14 41 49.7000000  0  1G29                                             
  17989578.08649  94535869.22349    -11822.89149        49.000  
 16 04 02 14 41 49.8000000  0  1G29                                             
  17989803.11749  94537051.77349    -11827.57049        49.000  
 16 04 02 14 41 49.9000000  0  1G29                                             
  17990028.22749  94538234.75049    -11831.78549        49.000  
 16 04 02 14 41 50.0000000  0  1G29                                             
  17990253.40649  94539418.12549    -11835.73849        49.000  
 16 04 02 14 41 50.1000000  0  1G29                                             
  17990478.68049  94540601.94549    -11840.09849        49.000  
 16 04 02 14 41 50.2000000  0  1G29                                             
  17990704.03949  94541786.22749    -11844.77049        49.000  
 16 04 02 14 41 50.3000000  0  1G29                                             
  17990929.48449  94542970.95749    -11849.31649        49.000  
 16 04 02 14 41 50.4000000  0  1G29                                             
  17991155.01649  94544156.07449    -11853.17649        49.000  
 16 04 02 14 41 50.5000000  0  1G29                                             
  17991380.62549  94545341.69149    -11858.23849        49.000  
 16 04 02 14 41 50.6000000  0  1G29                                             
  17991606.32049  94546527.73449    -11862.45749        49.000  
 16 04 02 14 41 50.7000000  0  1G29                                             
  17991832.10249  94547714.22749    -11866.88749        49.000  
 16 04 02 14 41 50.8000000  0  1G29                                             
  17992057.97749  94548901.16449    -11871.31649        49.000  
 16 04 02 14 41 50.9000000  0  1G29                                             
  17992283.92249  94550088.54749    -11875.78149        49.000  
 16 04 02 14 41 51.0000000  0  1G29                                             
  17992509.96149  94551276.39149    -11880.54349        49.000  
 16 04 02 14 41 51.1000000  0  1G29                                             
  17992736.07049  94552464.60249    -11884.15249        49.000  
 16 04 02 14 41 51.2000000  0  1G29                                             
  17992962.25849  94553653.26249    -11888.46949        49.000  
 16 04 02 14 41 51.3000000  0  1G29                                             
  17993188.53949  94554842.35949    -11893.05949        49.000  
 16 04 02 14 41 51.4000000  0  1G29                                             
  17993414.89849  94556031.90249    -11897.41449        49.000  
 16 04 02 14 41 51.5000000  0  1G29                                             
  17993641.34449  94557221.88749    -11902.03549        49.000  
 16 04 02 14 41 51.6000000  0  1G29                                             
  17993867.88349  94558412.35549    -11906.67649        49.000  
 16 04 02 14 41 51.7000000  0  1G29                                             
  17994094.50849  94559603.25449    -11911.06249        49.000  
 16 04 02 14 41 51.8000000  0  1G29                                             
  17994321.20349  94560794.55149    -11914.87549        49.000  
 16 04 02 14 41 51.9000000  0  1G29                                             
  17994547.98449  94561986.28949    -11919.30549        49.000  
 16 04 02 14 41 52.0000000  0  1G29                                             
  17994774.85249  94563178.48049    -11923.87149        49.000  
 16 04 02 14 41 52.1000000  0  1G29                                             
  17995001.80549  94564371.16049    -11928.92649        49.000  
 16 04 02 14 41 52.2000000  0  1G29                                             
  17995228.84449  94565564.23049    -11932.80949        49.000  
 16 04 02 14 41 52.3000000  0  1G29                                             
  17995455.96149  94566757.74249    -11937.06249        49.000  
 16 04 02 14 41 52.4000000  0  1G29                                             
  17995683.16449  94567951.71549    -11941.76249        49.000  
 16 04 02 14 41 52.5000000  0  1G29                                             
  17995910.44549  94569146.10249    -11945.84049        49.000  
 16 04 02 14 41 52.6000000  0  1G29                                             
  17996137.82049  94570340.93849    -11950.28149        49.000  
 16 04 02 14 41 52.7000000  0  1G29                                             
  17996365.27349  94571536.23049    -11954.92249        49.000  
 16 04 02 14 41 52.8000000  0  1G29                                             
  17996592.81249  94572731.96149    -11959.40249        49.000  
 16 04 02 14 41 52.9000000  0  1G29                                             
  17996820.44549  94573928.18049    -11964.01649        49.000  
 16 04 02 14 41 53.0000000  0  1G29                                             
  17997048.14149  94575124.71149    -11967.40649        49.000  
 16 04 02 14 41 53.1000000  0  1G29                                             
  17997275.92249  94576321.73049    -11972.12549        49.000  
 16 04 02 14 41 53.2000000  0  1G29                                             
  17997503.79749  94577519.21549    -11976.79749        49.000  
 16 04 02 14 41 53.3000000  0  1G29                                             
  17997731.75049  94578717.11349    -11981.09449        49.000  
 16 04 02 14 41 53.4000000  0  1G29                                             
  17997959.79749  94579915.52049    -11986.12949        49.000  
 16 04 02 14 41 53.5000000  0  1G29                                             
  17998187.93049  94581114.35249    -11990.55549        49.000  
 16 04 02 14 41 53.6000000  0  1G29                                             
  17998416.14149  94582313.59049    -11994.34849        49.000  
 16 04 02 14 41 53.7000000  0  1G29                                             
  17998644.43849  94583513.27349    -11998.73849        49.000  
 16 04 02 14 41 53.8000000  0  1G29                                             
  17998872.81249  94584713.39549    -12003.29749        49.000  
 16 04 02 14 41 53.9000000  0  1G29                                             
  17999101.27349  94585913.99249    -12007.93849        49.000  
 16 04 02 14 41 54.0000000  0  1G29                                             
  17999329.82849  94587115.02749    -12012.43849        49.000  
 16 04 02 14 41 54.1000000  0  1G29                                             
  17999558.45349  94588316.44549    -12016.06249        49.000  
 16 04 02 14 41 54.2000000  0  1G29                                             
  17999787.17249  94589518.37149    -12021.39549        49.000  
 16 04 02 14 41 54.3000000  0  1G29                                             
  18000015.98449  94590720.78549    -12026.16849        49.000  
 16 04 02 14 41 54.4000000  0  1G29                                             
  18000244.87549  94591923.63349    -12030.53949        49.000  
 16 04 02 14 41 54.5000000  0  1G29                                             
  18000473.85249  94593126.88749    -12034.51249        49.000  
 16 04 02 14 41 54.6000000  0  1G29                                             
  18000702.89149  94594330.56249    -12038.69149        49.000  
 16 04 02 14 41 54.7000000  0  1G29                                             
  18000932.03149  94595534.67249    -12043.03949        49.000  
 16 04 02 14 41 54.8000000  0  1G29                                             
  18001161.24249  94596739.23449    -12047.81249        49.000  
 16 04 02 14 41 54.9000000  0  1G29                                             
  18001390.56249  94597944.30949    -12052.81649        49.000  
 16 04 02 14 41 55.0000000  0  1G29                                             
  18001619.96149  94599149.80949    -12057.12549        49.000  
 16 04 02 14 41 55.1000000  0  1G29                                             
  18001849.43849  94600355.71949    -12061.07849        49.000  
 16 04 02 14 41 55.2000000  0  1G29                                             
  18002079.00049  94601562.07049    -12065.54349        49.000  
 16 04 02 14 41 55.3000000  0  1G29                                             
  18002308.63349  94602768.82449    -12069.49249        49.000  
 16 04 02 14 41 55.4000000  0  1G29                                             
  18002538.37549  94603976.11349    -12074.94549        49.000  
 16 04 02 14 41 55.5000000  0  1G29                                             
  18002768.18849  94605183.77049    -12078.54349        49.000  
 16 04 02 14 41 55.6000000  0  1G29                                             
  18002998.07049  94606391.82049    -12082.46949        49.000  
 16 04 02 14 41 55.7000000  0  1G29                                             
  18003228.04749  94607600.34849    -12087.28549        49.000  
 16 04 02 14 41 55.8000000  0  1G29                                             
  18003458.11749  94608809.33649    -12091.94949        49.000  
 16 04 02 14 41 55.9000000  0  1G29                                             
  18003688.25049  94610018.71549    -12095.94949        49.000  
 16 04 02 14 41 56.0000000  0  1G29                                             
  18003918.47749  94611228.55149    -12100.23049        49.000  
 16 04 02 14 41 56.1000000  0  1G29                                             
  18004148.79749  94612438.87549    -12105.34049        49.000  
 16 04 02 14 41 56.2000000  0  1G29                                             
  18004379.18849  94613649.60949    -12109.39849        49.000  
 16 04 02 14 41 56.3000000  0  1G29                                             
  18004609.66449  94614860.79349    -12113.72749        49.000  
 16 04 02 14 41 56.4000000  0  1G29                                             
  18004840.22749  94616072.44149    -12118.51249        49.000  
 16 04 02 14 41 56.5000000  0  1G29                                             
  18005070.88349  94617284.55149    -12123.06649        49.000  
 16 04 02 14 41 56.6000000  0  1G29                                             
  18005301.60949  94618497.03549    -12126.95749        49.000  
 16 04 02 14 41 56.7000000  0  1G29                                             
  18005532.42249  94619709.96549    -12131.27749        49.000  
 16 04 02 14 41 56.8000000  0  1G29                                             
  18005763.32049  94620923.32049    -12135.48849        49.000  
 16 04 02 14 41 56.9000000  0  1G29                                             
  18005994.28149  94622137.04749    -12139.18449        49.000  
 16 04 02 14 41 57.0000000  0  1G29                                             
  18006225.32849  94623351.21549    -12143.55149        49.000  
 16 04 02 14 41 57.1000000  0  1G29                                             
  18006456.45349  94624565.80549    -12147.84049        49.000  
 16 04 02 14 41 57.2000000  0  1G29                                             
  18006687.66449  94625780.84449    -12152.30149        49.000  
 16 04 02 14 41 57.3000000  0  1G29                                             
  18006918.96949  94626996.35549    -12157.30549        49.000  
 16 04 02 14 41 57.4000000  0  1G29                                             
  18007150.37549  94628212.38749    -12162.43049        49.000  
 16 04 02 14 41 57.5000000  0  1G29                                             
  18007381.85949  94629428.84449    -12166.82049        49.000  
 16 04 02 14 41 57.6000000  0  1G29                                             
  18007613.42249  94630645.68049    -12170.34849        49.000  
 16 04 02 14 41 57.7000000  0  1G29                                             
  18007845.07049  94631862.96949    -12174.97749        49.000  
 16 04 02 14 41 57.8000000  0  1G29                                             
  18008076.80549  94633080.74649    -12179.94549        49.000  
 16 04 02 14 41 57.9000000  0  1G29                                             
  18008308.61749  94634298.94549    -12184.21149        49.000  
 16 04 02 14 41 58.0000000  0  1G29                                             
  18008540.53949  94635517.67249    -12189.36749        49.000  
 16 04 02 14 41 58.1000000  0  1G29                                             
  18008772.52349  94636736.75449    -12192.93849        49.000  
 16 04 02 14 41 58.2000000  0  1G29                                             
  18009004.59449  94637956.30149    -12197.41049        49.000  
 16 04 02 14 41 58.3000000  0  1G29                                             
  18009236.74249  94639176.28149    -12201.88349        49.000  
 16 04 02 14 41 58.4000000  0  1G29                                             
  18009468.99249  94640396.72349    -12206.49649        49.000  
 16 04 02 14 41 58.5000000  0  1G29                                             
  18009701.32049  94641617.60249    -12210.93849        49.000  
 16 04 02 14 41 58.6000000  0  1G29                                             
  18009933.72749  94642838.92649    -12215.30149        49.000  
 16 04 02 14 41 58.7000000  0  1G29                                             
  18010166.21149  94644060.64549    -12219.32049        49.000  
 16 04 02 14 41 58.8000000  0  1G29                                             
  18010398.78949  94645282.85949    -12224.08249        49.000  
 16 04 02 14 41 58.9000000  0  1G29                                             
  18010631.45349  94646505.51649    -12228.59049        49.000  
 16 04 02 14 41 59.0000000  0  1G29                                             
  18010864.18849  94647728.57849    -12232.71149        49.000  
 16 04 02 14 41 59.1000000  0  1G29                                             
  18011097.02349  94648952.12549    -12237.50449        49.000  
 16 04 02 14 41 59.2000000  0  1G29                                             
  18011329.93849  94650176.10249    -12241.87549        49.000  
 16 04 02 14 41 59.3000000  0  1G29                                             
  18011562.93049  94651400.50049    -12245.94949        49.000  
 16 04 02 14 41 59.4000000  0  1G29                                             
  18011796.01649  94652625.38349    -12250.69549        49.000  
 16 04 02 14 41 59.5000000  0  1G29                                             
  18012029.18049  94653850.65249    -12254.91049        49.000  
 16 04 02 14 41 59.6000000  0  1G29                                             
  18012262.43049  94655076.40249    -12259.40649        49.000  
 16 04 02 14 41 59.7000000  0  1G29                                             
  18012495.75849  94656302.53949    -12263.23849        49.000  
 16 04 02 14 41 59.8000000  0  1G29                                             
  18012729.15649  94657529.07449    -12267.44149        49.000  
 16 04 02 14 41 59.9000000  0  1G29                                             
  18012962.65649  94658756.13749    -12272.60249        49.000  
 16 04 02 14 42  0.0000000  0  1G29                                             
  18013196.23449  94659983.60549    -12276.89549        49.000  
 16 04 02 14 42  0.1000000  0  1G29                                             
  18013429.89849  94661211.52049    -12281.17649        49.000  
 16 04 02 14 42  0.2000000  0  1G29                                             
  18013663.64849  94662439.87549    -12285.67649        49.000  
 16 04 02 14 42  0.3000000  0  1G29                                             
  18013897.48449  94663668.68049    -12289.97349        49.000  
 16 04 02 14 42  0.4000000  0  1G29                                             
  18014131.39849  94664897.92649    -12294.48849        49.000  
 16 04 02 14 42  0.5000000  0  1G29                                             
  18014365.39849  94666127.60949    -12298.78549        49.000  
 16 04 02 14 42  0.6000000  0  1G29                                             
  18014599.47749  94667357.69149    -12302.80949        49.000  
 16 04 02 14 42  0.7000000  0  1G29                                             
  18014833.65649  94668588.28149    -12307.95749        49.000  
 16 04 02 14 42  0.8000000  0  1G29                                             
  18015067.90649  94669819.28149    -12312.05549        49.000  
 16 04 02 14 42  0.9000000  0  1G29                                             
  18015302.23449  94671050.66049    -12315.72749        49.000  
 16 04 02 14 42  1.0000000  0  1G29                                             
  18015536.64149  94672282.49249    -12320.29349        49.000  
 16 04 02 14 42  1.1000000  0  1G29                                             
  18015771.13349  94673514.77349    -12324.78549        49.000  
 16 04 02 14 42  1.2000000  0  1G29                                             
  18016005.71149  94674747.45349    -12328.80949        49.000  
 16 04 02 14 42  1.3000000  0  1G29                                             
  18016240.37549  94675980.60249    -12333.40249        49.000  
 16 04 02 14 42  1.4000000  0  1G29                                             
  18016475.12549  94677214.23449    -12338.40649        49.000  
 16 04 02 14 42  1.5000000  0  1G29                                             
  18016709.96149  94678448.27749    -12342.59049        49.000  
 16 04 02 14 42  1.6000000  0  1G29                                             
  18016944.87549  94679682.78949    -12347.12949        49.000  
 16 04 02 14 42  1.7000000  0  1G29                                             
  18017179.88349  94680917.75049    -12351.87149        49.000  
 16 04 02 14 42  1.8000000  0  1G29                                             
  18017414.96949  94682153.15649    -12356.11349        49.000  
 16 04 02 14 42  1.9000000  0  1G29                                             
  18017650.13349  94683388.98449    -12360.34849        49.000  
 16 04 02 14 42  2.0000000  0  1G29                                             
  18017885.38349  94684625.21549    -12364.15649        49.000  
 16 04 02 14 42  2.1000000  0  1G29                                             
  18018120.70349  94685861.83649    -12368.08649        49.000  
 16 04 02 14 42  2.2000000  0  1G29                                             
  18018356.10949  94687098.90249    -12372.62549        49.000  
 16 04 02 14 42  2.3000000  0  1G29                                             
  18018591.60249  94688336.41049    -12377.16049        49.000  
 16 04 02 14 42  2.4000000  0  1G29                                             
  18018827.17249  94689574.33249    -12381.12149        49.000  
 16 04 02 14 42  2.5000000  0  1G29                                             
  18019062.83649  94690812.75049    -12386.34849        49.000  
 16 04 02 14 42  2.6000000  0  1G29                                             
  18019298.57849  94692051.58649    -12390.59049        49.000  
 16 04 02 14 42  2.7000000  0  1G29                                             
  18019534.40649  94693290.86349    -12394.83249        49.000  
 16 04 02 14 42  2.8000000  0  1G29                                             
  18019770.32049  94694530.59049    -12399.35549        49.000  
 16 04 02 14 42  2.9000000  0  1G29                                             
  18020006.32849  94695770.84049    -12404.57849        49.000  
 16 04 02 14 42  3.0000000  0  1G29                                             
  18020242.41449  94697011.48049    -12408.40649        49.000  
 16 04 02 14 42  3.1000000  0  1G29                                             
  18020478.57049  94698252.48449    -12412.03949        49.000  
 16 04 02 14 42  3.2000000  0  1G29                                             
  18020714.83649  94699494.03949    -12417.42649        49.000  
 16 04 02 14 42  3.3000000  0  1G29                                             
  18020951.17249  94700736.01249    -12421.80149        49.000  
 16 04 02 14 42  3.4000000  0  1G29                                             
  18021187.58649  94701978.35949    -12425.48849        49.000  
 16 04 02 14 42  3.5000000  0  1G29                                             
  18021424.08649  94703221.19549    -12430.30149        49.000  
 16 04 02 14 42  3.6000000  0  1G29                                             
  18021660.67249  94704464.41849    -12434.19549        49.000  
 16 04 02 14 42  3.7000000  0  1G29                                             
  18021897.32849  94705708.08649    -12438.69949        49.000  
 16 04 02 14 42  3.8000000  0  1G29                                             
  18022134.07849  94706952.19549    -12443.16849        49.000  
 16 04 02 14 42  3.9000000  0  1G29                                             
  18022370.89849  94708196.71549    -12447.17249        49.000  
 16 04 02 14 42  4.0000000  0  1G29                                             
  18022607.81249  94709441.66449    -12451.49249        49.000  
 16 04 02 14 42  4.1000000  0  1G29                                             
  18022844.80549  94710687.06249    -12456.09449        49.000  
 16 04 02 14 42  4.2000000  0  1G29                                             
  18023081.86749  94711932.85949    -12459.88749        49.000  
 16 04 02 14 42  4.3000000  0  1G29                                             
  18023319.02349  94713179.10949    -12464.34449        49.000  
 16 04 02 14 42  4.4000000  0  1G29                                             
  18023556.24249  94714425.71549    -12467.99649        49.000  
 16 04 02 14 42  4.5000000  0  1G29                                             
  18023793.54749  94715672.77349    -12472.45349        49.000  
 16 04 02 14 42  4.6000000  0  1G29                                             
  18024030.94549  94716920.30549    -12477.37949        49.000  
 16 04 02 14 42  4.7000000  0  1G29                                             
  18024268.42249  94718168.23449    -12481.28549        49.000  
 16 04 02 14 42  4.8000000  0  1G29                                             
  18024505.96949  94719416.57449    -12485.33249        49.000  
 16 04 02 14 42  4.9000000  0  1G29                                             
  18024743.60249  94720665.33249    -12489.67249        49.000  
 16 04 02 14 42  5.0000000  0  1G29                                             
  18024981.31249  94721914.53149    -12493.90249        49.000  
 16 04 02 14 42  5.1000000  0  1G29                                             
  18025219.10949  94723164.17249    -12498.40249        49.000  
 16 04 02 14 42  5.2000000  0  1G29                                             
  18025456.99249  94724414.21949    -12502.39549        49.000  
 16 04 02 14 42  5.3000000  0  1G29                                             
  18025694.96149  94725664.76649    -12507.39549        49.000  
 16 04 02 14 42  5.4000000  0  1G29                                             
  18025933.01649  94726915.71949    -12511.67649        49.000  
 16 04 02 14 42  5.5000000  0  1G29                                             
  18026171.14849  94728167.11749    -12516.07049        49.000  
 16 04 02 14 42  5.6000000  0  1G29                                             
  18026409.35949  94729418.93049    -12520.09049        49.000  
 16 04 02 14 42  5.7000000  0  1G29                                             
  18026647.65649  94730671.18049    -12524.53949        49.000  
 16 04 02 14 42  5.8000000  0  1G29                                             
  18026886.03949  94731923.89149    -12529.22749        49.000  
 16 04 02 14 42  5.9000000  0  1G29                                             
  18027124.50049  94733177.03149    -12533.40249        49.000  
 16 04 02 14 42  6.0000000  0  1G29                                             
  18027363.05549  94734430.63349    -12537.97349        49.000  
 16 04 02 14 42  6.1000000  0  1G29                                             
  18027601.68049  94735684.62149    -12542.03549        49.000  
 16 04 02 14 42  6.2000000  0  1G29                                             
  18027840.39849  94736939.07449    -12546.36349        49.000  
 16 04 02 14 42  6.3000000  0  1G29                                             
  18028079.18849  94738193.91449    -12550.47749        49.000  
 16 04 02 14 42  6.4000000  0  1G29                                             
  18028318.07049  94739449.24249    -12555.20749        49.000  
 16 04 02 14 42  6.5000000  0  1G29                                             
  18028557.02349  94740704.97349    -12559.32049        49.000  
 16 04 02 14 42  6.6000000  0  1G29                                             
  18028796.06249  94741961.12549    -12563.50449        49.000  
 16 04 02 14 42  6.7000000  0  1G29                                             
  18029035.18049  94743217.70349    -12567.83649        49.000  
 16 04 02 14 42  6.8000000  0  1G29                                             
  18029274.39149  94744474.76649    -12572.75049        49.000  
 16 04 02 14 42  6.9000000  0  1G29                                             
  18029513.68849  94745732.28549    -12577.30949        49.000  
 16 04 02 14 42  7.0000000  0  1G29                                             
  18029753.06249  94746990.21549    -12581.39849        49.000  
 16 04 02 14 42  7.1000000  0  1G29                                             
  18029992.51649  94748248.57449    -12585.55149        49.000  
 16 04 02 14 42  7.2000000  0  1G29                                             
  18030232.06249  94749507.39149    -12590.15649        49.000  
 16 04 02 14 42  7.3000000  0  1G29                                             
  18030471.68849  94750766.62949    -12594.40649        49.000  
 16 04 02 14 42  7.4000000  0  1G29                                             
  18030711.39849  94752026.29349    -12598.44949        49.000  
 16 04 02 14 42  7.5000000  0  1G29                                             
  18030951.18849  94753286.40249    -12602.98849        49.000  
 16 04 02 14 42  7.6000000  0  1G29                                             
  18031191.06249  94754546.96149    -12607.61749        49.000  
 16 04 02 14 42  7.7000000  0  1G29                                             
  18031431.01649  94755807.92249    -12611.77049        49.000  
 16 04 02 14 42  7.8000000  0  1G29                                             
  18031671.05549  94757069.35549    -12616.47349        49.000  
 16 04 02 14 42  7.9000000  0  1G29                                             
  18031911.18049  94758331.21949    -12620.59049        49.000  
 16 04 02 14 42  8.0000000  0  1G29                                             
  18032151.38349  94759593.51249    -12624.98849        49.000  
 16 04 02 14 42  8.1000000  0  1G29                                             
  18032391.66449  94760856.20749    -12628.99249        49.000  
 16 04 02 14 42  8.2000000  0  1G29                                             
  18032632.03149  94762119.36349    -12633.60949        49.000  
 16 04 02 14 42  8.3000000  0  1G29                                             
  18032872.48449  94763382.96149    -12638.10549        49.000  
 16 04 02 14 42  8.4000000  0  1G29                                             
  18033113.02349  94764646.99649    -12642.34849        49.000  
 16 04 02 14 42  8.5000000  0  1G29                                             
  18033353.63349  94765911.40649    -12646.11349        49.000  
 16 04 02 14 42  8.6000000  0  1G29                                             
  18033594.32849  94767176.28149    -12650.76649        49.000  
 16 04 02 14 42  8.7000000  0  1G29                                             
  18033835.11749  94768441.62549    -12655.31249        49.000  
 16 04 02 14 42  8.8000000  0  1G29                                             
  18034075.96949  94769707.32049    -12659.04349        49.000  
 16 04 02 14 42  8.9000000  0  1G29                                             
  18034316.91449  94770973.52349    -12663.92649        49.000  
 16 04 02 14 42  9.0000000  0  1G29                                             
  18034557.94549  94772240.12149    -12667.95349        49.000  
 16 04 02 14 42  9.1000000  0  1G29                                             
  18034799.04749  94773507.10949    -12671.89849        49.000  
 16 04 02 14 42  9.2000000  0  1G29                                             
  18035040.24249  94774774.59049    -12676.81649        49.000  
 16 04 02 14 42  9.3000000  0  1G29                                             
  18035281.52349  94776042.55149    -12681.58249        49.000  
 16 04 02 14 42  9.4000000  0  1G29                                             
  18035522.86749  94777310.81249    -12684.70349        49.000  
 16 04 02 14 42  9.5000000  0  1G29                                             
  18035764.30549  94778579.59049    -12689.74249        49.000  
 16 04 02 14 42  9.6000000  0  1G29                                             
  18036005.83649  94779848.83249    -12694.41849        49.000  
 16 04 02 14 42  9.7000000  0  1G29                                             
  18036247.43849  94781118.44949    -12698.26649        49.000  
 16 04 02 14 42  9.8000000  0  1G29                                             
  18036489.11749  94782388.49649    -12702.35949        49.000  
 16 04 02 14 42  9.9000000  0  1G29                                             
  18036730.88349  94783658.96949    -12706.68049        49.000  
 16 04 02 14 42 10.0000000  0  1G29                                             
  18036972.72749  94784929.85249    -12710.70749        49.000  
 16 04 02 14 42 10.1000000  0  1G29                                             
  18037214.64849  94786201.16049    -12715.09449        49.000  
 16 04 02 14 42 10.2000000  0  1G29                                             
  18037456.67249  94787472.97349    -12720.06249        49.000  
 16 04 02 14 42 10.3000000  0  1G29                                             
  18037698.77349  94788745.23849    -12724.85549        49.000  
 16 04 02 14 42 10.4000000  0  1G29                                             
  18037940.95349  94790017.93849    -12729.01649        49.000  
 16 04 02 14 42 10.5000000  0  1G29                                             
  18038183.22749  94791291.07849    -12733.44949        49.000  
 16 04 02 14 42 10.6000000  0  1G29                                             
  18038425.57049  94792564.60549    -12737.27749        49.000  
 16 04 02 14 42 10.7000000  0  1G29                                             
  18038667.99249  94793838.52749    -12741.04349        49.000  
 16 04 02 14 42 10.8000000  0  1G29                                             
  18038910.50049  94795112.94149    -12746.18849        49.000  
 16 04 02 14 42 10.9000000  0  1G29                                             
  18039153.09449  94796387.77349    -12750.20349        49.000  
 16 04 02 14 42 11.0000000  0  1G29                                             
  18039395.77349  94797663.00449    -12754.22349        49.000  
 16 04 02 14 42 11.1000000  0  1G29                                             
  18039638.50849  94798938.60949    -12758.04749        49.000  
 16 04 02 14 42 11.2000000  0  1G29                                             
  18039881.34449  94800214.73049    -12763.11349        49.000  
 16 04 02 14 42 11.3000000  0  1G29                                             
  18040124.27349  94801491.30549    -12767.77749        49.000  
 16 04 02 14 42 11.4000000  0  1G29                                             
  18040367.26649  94802768.27049    -12771.53549        49.000  
 16 04 02 14 42 11.5000000  0  1G29                                             
  18040610.35249  94804045.69149    -12776.11749        49.000  
 16 04 02 14 42 11.6000000  0  1G29                                             
  18040853.51649  94805323.54349    -12780.57449        49.000  
 16 04 02 14 42 11.7000000  0  1G29                                             
  18041096.75849  94806601.79349    -12784.46949        49.000  
 16 04 02 14 42 11.8000000  0  1G29                                             
  18041340.09449  94807880.50049    -12788.96549        49.000  
 16 04 02 14 42 11.9000000  0  1G29                                             
  18041583.50849  94809159.66049    -12793.65649        49.000  
 16 04 02 14 42 12.0000000  0  1G29                                             
  18041827.00049  94810439.22349    -12797.65649        49.000  
 16 04 02 14 42 12.1000000  0  1G29                                             
  18042070.57849  94811719.22349    -12801.93449        49.000  
 16 04 02 14 42 12.2000000  0  1G29                                             
  18042314.22749  94812999.62149    -12806.10949        49.000  
 16 04 02 14 42 12.3000000  0  1G29                                             
  18042557.96149  94814280.45349    -12810.31649        49.000  
 16 04 02 14 42 12.4000000  0  1G29                                             
  18042801.77349  94815561.72349    -12814.60549        49.000  
 16 04 02 14 42 12.5000000  0  1G29                                             
  18043045.68849  94816843.50049    -12819.90649        49.000  
 16 04 02 14 42 12.6000000  0  1G29                                             
  18043289.70349  94818125.74249    -12824.64149        49.000  
 16 04 02 14 42 12.7000000  0  1G29                                             
  18043533.78149  94819408.37949    -12828.56249        49.000  
 16 04 02 14 42 12.8000000  0  1G29                                             
  18043777.92249  94820691.39149    -12832.04349        49.000  
 16 04 02 14 42 12.9000000  0  1G29                                             
  18044022.16449  94821974.85949    -12836.73849        49.000  
 16 04 02 14 42 13.0000000  0  1G29                                             
  18044266.48449  94823258.78149    -12841.13349        49.000  
 16 04 02 14 42 13.1000000  0  1G29                                             
  18044510.87549  94824543.08249    -12845.00849        49.000  
 16 04 02 14 42 13.2000000  0  1G29                                             
  18044755.35249  94825827.79749    -12849.05949        49.000  
 16 04 02 14 42 13.3000000  0  1G29                                             
  18044999.90649  94827112.96949    -12853.56249        49.000  
 16 04 02 14 42 13.4000000  0  1G29                                             
  18045244.53949  94828398.52349    -12857.54749        49.000  
 16 04 02 14 42 13.5000000  0  1G29                                             
  18045489.25049  94829684.49249    -12861.45749        49.000  
 16 04 02 14 42 13.6000000  0  1G29                                             
  18045734.06249  94830970.94949    -12866.60549        49.000  
 16 04 02 14 42 13.7000000  0  1G29                                             
  18045978.93049  94832257.74649    -12869.92249        49.000  
 16 04 02 14 42 13.8000000  0  1G29                                             
  18046223.89849  94833545.03949    -12874.73849        49.000  
 16 04 02 14 42 13.9000000  0  1G29                                             
  18046468.94549  94834832.77049    -12879.40249        49.000  
 16 04 02 14 42 14.0000000  0  1G29                                             
  18046714.07849  94836120.95349    -12883.73049        49.000  
 16 04 02 14 42 14.1000000  0  1G29                                             
  18046959.28149  94837409.50449    -12887.59849        49.000  
 16 04 02 14 42 14.2000000  0  1G29                                             
  18047204.57049  94838698.48849    -12891.65649        49.000  
 16 04 02 14 42 14.3000000  0  1G29                                             
  18047449.94549  94839987.93449    -12896.43849        49.000  
 16 04 02 14 42 14.4000000  0  1G29                                             
  18047695.39849  94841277.81249    -12900.78549        49.000  
 16 04 02 14 42 14.5000000  0  1G29                                             
  18047940.93849  94842568.12949    -12905.23449        49.000  
 16 04 02 14 42 14.6000000  0  1G29                                             
  18048186.57049  94843858.89549    -12909.73449        49.000  
 16 04 02 14 42 14.7000000  0  1G29                                             
  18048432.26649  94845150.03949    -12913.35249        49.000  
 16 04 02 14 42 14.8000000  0  1G29                                             
  18048678.04749  94846441.60549    -12917.48849        49.000  
 16 04 02 14 42 14.9000000  0  1G29                                             
  18048923.90649  94847733.62549    -12922.27749        49.000  
 16 04 02 14 42 15.0000000  0  1G29                                             
  18049169.86749  94849026.14149    -12927.27049        49.000  
 16 04 02 14 42 15.1000000  0  1G29                                             
  18049415.89849  94850319.05149    -12931.28149        49.000  
 16 04 02 14 42 15.2000000  0  1G29                                             
  18049662.01649  94851612.42249    -12935.87149        49.000  
 16 04 02 14 42 15.3000000  0  1G29                                             
  18049908.21949  94852906.22749    -12940.06649        49.000  
 16 04 02 14 42 15.4000000  0  1G29                                             
  18050154.50049  94854200.43849    -12944.09049        49.000  
 16 04 02 14 42 15.5000000  0  1G29                                             
  18050400.86749  94855495.10249    -12948.55949        49.000  
 16 04 02 14 42 15.6000000  0  1G29                                             
  18050647.31249  94856790.16849    -12952.91449        49.000  
 16 04 02 14 42 15.7000000  0  1G29                                             
  18050893.84449  94858085.69949    -12957.26649        49.000  
 16 04 02 14 42 15.8000000  0  1G29                                             
  18051140.43849  94859381.59849    -12960.93049        49.000  
 16 04 02 14 42 15.9000000  0  1G29                                             
  18051387.12549  94860677.94949    -12965.35949        49.000  
 16 04 02 14 42 16.0000000  0  1G29                                             
  18051633.90649  94861974.76649    -12970.25849        49.000  
 16 04 02 14 42 16.1000000  0  1G29                                             
  18051880.75049  94863271.96149    -12974.01249        49.000  
 16 04 02 14 42 16.2000000  0  1G29                                             
  18052127.69549  94864569.62949    -12978.62949        49.000  
 16 04 02 14 42 16.3000000  0  1G29                                             
  18052374.71149  94865867.71949    -12982.77349        49.000  
 16 04 02 14 42 16.4000000  0  1G29                                             
  18052621.82049  94867166.27749    -12987.64549        49.000  
 16 04 02 14 42 16.5000000  0  1G29                                             
  18052869.01649  94868465.28549    -12992.20749        49.000  
 16 04 02 14 42 16.6000000  0  1G29                                             
  18053116.28149  94869764.68449    -12995.91449        49.000  
 16 04 02 14 42 16.7000000  0  1G29                                             
  18053363.61749  94871064.47349    -12999.91849        49.000  
 16 04 02 14 42 16.8000000  0  1G29                                             
  18053611.05549  94872364.76249    -13004.88349        49.000  
 16 04 02 14 42 16.9000000  0  1G29                                             
  18053858.57049  94873665.45349    -13008.93049        49.000  
 16 04 02 14 42 17.0000000  0  1G29                                             
  18054106.16449  94874966.56649    -13013.11349        49.000  
 16 04 02 14 42 17.1000000  0  1G29                                             
  18054353.83649  94876268.09849    -13017.17249        49.000  
 16 04 02 14 42 17.2000000  0  1G29                                             
  18054601.59449  94877570.06249    -13021.67249        49.000  
 16 04 02 14 42 17.3000000  0  1G29                                             
  18054849.43849  94878872.50049    -13026.36749        49.000  
 16 04 02 14 42 17.4000000  0  1G29                                             
  18055097.35949  94880175.35249    -13030.74649        49.000  
 16 04 02 14 42 17.5000000  0  1G29                                             
  18055345.36749  94881478.64549    -13034.93049        49.000  
 16 04 02 14 42 17.6000000  0  1G29                                             
  18055593.46149  94882782.33249    -13038.96949        49.000  
 16 04 02 14 42 17.7000000  0  1G29                                             
  18055841.63349  94884086.50049    -13043.77049        49.000  
 16 04 02 14 42 17.8000000  0  1G29                                             
  18056089.87549  94885391.04349    -13047.38749        49.000  
 16 04 02 14 42 17.9000000  0  1G29                                             
  18056338.20349  94886696.00449    -13051.62149        49.000  
 16 04 02 14 42 18.0000000  0  1G29                                             
  18056586.60949  94888001.41849    -13055.91849        49.000  
 16 04 02 14 42 18.1000000  0  1G29                                             
  18056835.10249  94889307.22749    -13060.01649        49.000  
 16 04 02 14 42 18.2000000  0  1G29                                             
  18057083.66449  94890613.43849    -13063.92249        49.000  
 16 04 02 14 42 18.3000000  0  1G29                                             
  18057332.31249  94891920.09449    -13068.46549        49.000  
 16 04 02 14 42 18.4000000  0  1G29                                             
  18057581.05549  94893227.24249    -13073.57849        49.000  
 16 04 02 14 42 18.5000000  0  1G29                                             
  18057829.87549  94894534.77349    -13077.22749        49.000  
 16 04 02 14 42 18.6000000  0  1G29                                             
  18058078.76649  94895842.71549    -13081.46149        49.000  
 16 04 02 14 42 18.7000000  0  1G29                                             
  18058327.73449  94897151.09049    -13085.64149        49.000  
 16 04 02 14 42 18.8000000  0  1G29                                             
  18058576.80549  94898459.91849    -13090.28149        49.000  
 16 04 02 14 42 18.9000000  0  1G29                                             
  18058825.95349  94899769.19949    -13094.87149        49.000  
 16 04 02 14 42 19.0000000  0  1G29                                             
  18059075.18049  94901078.89849    -13099.02349        49.000  
 16 04 02 14 42 19.1000000  0  1G29                                             
  18059324.48449  94902389.00849    -13103.02049        49.000  
 16 04 02 14 42 19.2000000  0  1G29                                             
  18059573.87549  94903699.52749    -13107.22749        49.000  
 16 04 02 14 42 19.3000000  0  1G29                                             
  18059823.33649  94905010.49249    -13111.65649        49.000  
 16 04 02 14 42 19.4000000  0  1G29                                             
  18060072.88349  94906321.86349    -13115.84449        49.000  
 16 04 02 14 42 19.5000000  0  1G29                                             
  18060322.50849  94907633.64549    -13119.75849        49.000  
 16 04 02 14 42 19.6000000  0  1G29                                             
  18060572.22749  94908945.91449    -13124.81649        49.000  
 16 04 02 14 42 19.7000000  0  1G29                                             
  18060822.02349  94910258.62149    -13128.99649        49.000  
 16 04 02 14 42 19.8000000  0  1G29                                             
  18061071.89149  94911571.68049    -13132.63349        49.000  
 16 04 02 14 42 19.9000000  0  1G29                                             
  18061321.84449  94912885.17649    -13136.68849        49.000  
 16 04 02 14 42 20.0000000  0  1G29                                             
  18061571.88349  94914199.13749    -13141.63349        49.000  
 16 04 02 14 42 20.1000000  0  1G29                                             
  18061821.99249  94915513.48449    -13145.47349        49.000  
 16 04 02 14 42 20.2000000  0  1G29                                             
  18062072.18049  94916828.22749    -13149.32849        49.000  
 16 04 02 14 42 20.3000000  0  1G29                                             
  18062322.45349  94918143.43849    -13154.06649        49.000  
 16 04 02 14 42 20.4000000  0  1G29                                             
  18062572.81249  94919459.05549    -13158.30149        49.000  
 16 04 02 14 42 20.5000000  0  1G29                                             
  18062823.25049  94920775.14549    -13162.89549        49.000  
 16 04 02 14 42 20.6000000  0  1G29                                             
  18063073.77349  94922091.65649    -13167.24649        49.000  
 16 04 02 14 42 20.7000000  0  1G29                                             
  18063324.37549  94923408.57849    -13171.16449        49.000  
 16 04 02 14 42 20.8000000  0  1G29                                             
  18063575.07049  94924725.94149    -13175.73849        49.000  
 16 04 02 14 42 20.9000000  0  1G29                                             
  18063825.84449  94926043.77349    -13180.40649        49.000  
 16 04 02 14 42 21.0000000  0  1G29                                             
  18064076.69549  94927362.03549    -13184.68049        49.000  
 16 04 02 14 42 21.1000000  0  1G29                                             
  18064327.63349  94928680.68849    -13188.56249        49.000  
 16 04 02 14 42 21.2000000  0  1G29                                             
  18064578.63349  94929999.71949    -13192.26649        49.000  
 16 04 02 14 42 21.3000000  0  1G29                                             
  18064829.73449  94931319.25849    -13197.32849        49.000  
 16 04 02 14 42 21.4000000  0  1G29                                             
  18065080.91449  94932639.20749    -13201.52349        49.000  
 16 04 02 14 42 21.5000000  0  1G29                                             
  18065332.18049  94933959.59449    -13205.93049        49.000  
 16 04 02 14 42 21.6000000  0  1G29                                             
  18065583.50849  94935280.34449    -13209.34849        49.000  
 16 04 02 14 42 21.7000000  0  1G29                                             
  18065834.93049  94936601.58249    -13214.29349        49.000  
 16 04 02 14 42 21.8000000  0  1G29                                             
  18066086.43849  94937923.25849    -13218.85249        49.000  
 16 04 02 14 42 21.9000000  0  1G29                                             
  18066338.03149  94939245.39849    -13223.50849        49.000  
 16 04 02 14 42 22.0000000  0  1G29                                             
  18066589.69549  94940567.92249    -13227.36349        49.000  
 16 04 02 14 42 22.1000000  0  1G29                                             
  18066841.45349  94941890.89849    -13231.48849        49.000  
 16 04 02 14 42 22.2000000  0  1G29                                             
  18067093.27349  94943214.25449    -13235.61749        49.000  
 16 04 02 14 42 22.3000000  0  1G29                                             
  18067345.18849  94944538.05549    -13239.84849        49.000  
 16 04 02 14 42 22.4000000  0  1G29                                             
  18067597.18049  94945862.29349    -13244.27349        49.000  
 16 04 02 14 42 22.5000000  0  1G29                                             
  18067849.26649  94947186.98449    -13248.84049        49.000  
 16 04 02 14 42 22.6000000  0  1G29                                             
  18068101.42249  94948512.08649    -13252.96549        49.000  
 16 04 02 14 42 22.7000000  0  1G29                                             
  18068353.66449  94949837.62149    -13257.49649        49.000  
 16 04 02 14 42 22.8000000  0  1G29                                             
  18068605.98449  94951163.54749    -13261.22349        49.000  
 16 04 02 14 42 22.9000000  0  1G29                                             
  18068858.39149  94952489.95349    -13266.02749        49.000  
 16 04 02 14 42 23.0000000  0  1G29                                             
  18069110.88349  94953816.83249    -13270.93849        49.000  
 16 04 02 14 42 23.1000000  0  1G29                                             
  18069363.46949  94955144.16449    -13275.50449        49.000  
 16 04 02 14 42 23.2000000  0  1G29                                             
  18069616.12549  94956471.87549    -13279.03949        49.000  
 16 04 02 14 42 23.3000000  0  1G29                                             
  18069868.85949  94957799.98849    -13283.11349        49.000  
 16 04 02 14 42 23.4000000  0  1G29                                             
  18070121.67249  94959128.53549    -13287.38349        49.000  
 16 04 02 14 42 23.5000000  0  1G29                                             
  18070374.56249  94960457.49249    -13291.46949        49.000  
 16 04 02 14 42 23.6000000  0  1G29                                             
  18070627.53149  94961786.84049    -13295.39149        49.000  
 16 04 02 14 42 23.7000000  0  1G29                                             
  18070880.59449  94963116.67249    -13300.10949        49.000  
 16 04 02 14 42 23.8000000  0  1G29                                             
  18071133.71949  94964446.87549    -13304.04349        49.000  
 16 04 02 14 42 23.9000000  0  1G29                                             
  18071386.93049  94965777.48449    -13307.97749        49.000  
 16 04 02 14 42 24.0000000  0  1G29                                             
  18071640.21149  94967108.50849    -13312.21149        49.000  
 16 04 02 14 42 24.1000000  0  1G29                                             
  18071893.57849  94968439.96549    -13316.44949        49.000  
 16 04 02 14 42 24.2000000  0  1G29                                             
  18072147.03149  94969771.84849    -13320.78149        49.000  
 16 04 02 14 42 24.3000000  0  1G29                                             
  18072400.57049  94971104.20349    -13325.56249        49.000  
 16 04 02 14 42 24.4000000  0  1G29                                             
  18072654.18849  94972436.96149    -13329.71949        49.000  
 16 04 02 14 42 24.5000000  0  1G29                                             
  18072907.89849  94973770.22749    -13334.84849        49.000  
 16 04 02 14 42 24.6000000  0  1G29                                             
  18073161.68849  94975103.89849    -13338.78949        49.000  
 16 04 02 14 42 24.7000000  0  1G29                                             
  18073415.56249  94976438.01649    -13343.30549        49.000  
 16 04 02 14 42 24.8000000  0  1G29                                             
  18073669.52349  94977772.56649    -13347.52349        49.000  
 16 04 02 14 42 24.9000000  0  1G29                                             
  18073923.54749  94979107.48449    -13351.22349        49.000  
 16 04 02 14 42 25.0000000  0  1G29                                             
  18074177.66449  94980442.84849    -13355.46149        49.000  
 16 04 02 14 42 25.1000000  0  1G29                                             
  18074431.85249  94981778.58249    -13359.34449        49.000  
 16 04 02 14 42 25.2000000  0  1G29                                             
  18074686.12549  94983114.80549    -13364.30149        49.000  
 16 04 02 14 42 25.3000000  0  1G29                                             
  18074940.46949  94984451.41449    -13367.98049        49.000  
 16 04 02 14 42 25.4000000  0  1G29                                             
  18075194.89849  94985788.44949    -13372.28549        49.000  
 16 04 02 14 42 25.5000000  0  1G29                                             
  18075449.40649  94987125.89549    -13376.35949        49.000  
 16 04 02 14 42 25.6000000  0  1G29                                             
  18075703.99249  94988463.75849    -13380.47749        49.000  
 16 04 02 14 42 25.7000000  0  1G29                                             
  18075958.65649  94989802.03549    -13384.87949        49.000  
 16 04 02 14 42 25.8000000  0  1G29                                             
  18076213.39849  94991140.74249    -13389.13349        49.000  
 16 04 02 14 42 25.9000000  0  1G29                                             
  18076468.24249  94992479.93849    -13393.82449        49.000  
 16 04 02 14 42 26.0000000  0  1G29                                             
  18076723.14849  94993819.49249    -13397.61749        49.000  
 16 04 02 14 42 26.1000000  0  1G29                                             
  18076978.14849  94995159.52349    -13402.10549        49.000  
 16 04 02 14 42 26.2000000  0  1G29                                             
  18077233.22749  94996499.99649    -13406.73849        49.000  
 16 04 02 14 42 26.3000000  0  1G29                                             
  18077488.39149  94997840.88749    -13411.00449        49.000  
 16 04 02 14 42 26.4000000  0  1G29                                             
  18077743.63349  94999182.21149    -13415.29349        49.000  
 16 04 02 14 42 26.5000000  0  1G29                                             
  18077998.96149  95000523.98049    -13419.66449        49.000  
 16 04 02 14 42 26.6000000  0  1G29                                             
  18078254.37549  95001866.14549    -13423.55549        49.000  
 16 04 02 14 42 26.7000000  0  1G29                                             
  18078509.86749  95003208.75049    -13428.09449        49.000  
 16 04 02 14 42 26.8000000  0  1G29                                             
  18078765.43049  95004551.74649    -13431.83649        49.000  
 16 04 02 14 42 26.9000000  0  1G29                                             
  18079021.07849  95005895.21549    -13436.56649        49.000  
 16 04 02 14 42 27.0000000  0  1G29                                             
  18079276.82049  95007239.12149    -13441.18049        49.000  
 16 04 02 14 42 27.1000000  0  1G29                                             
  18079532.62549  95008583.41449    -13444.91849        49.000  
 16 04 02 14 42 27.2000000  0  1G29                                             
  18079788.51649  95009928.12949    -13449.25449        49.000  
 16 04 02 14 42 27.3000000  0  1G29                                             
  18080044.50049  95011273.30549    -13453.74649        49.000  
 16 04 02 14 42 27.4000000  0  1G29                                             
  18080300.54749  95012618.86749    -13457.55549        49.000  
 16 04 02 14 42 27.5000000  0  1G29                                             
  18080556.68049  95013964.85949    -13461.85249        49.000  
 16 04 02 14 42 27.6000000  0  1G29                                             
  18080812.89149  95015311.24649    -13465.78549        49.000  
 16 04 02 14 42 27.7000000  0  1G29                                             
  18081069.18849  95016658.09049    -13470.36749        49.000  
 16 04 02 14 42 27.8000000  0  1G29                                             
  18081325.57049  95018005.36749    -13474.73449        49.000  
 16 04 02 14 42 27.9000000  0  1G29                                             
  18081582.03149  95019353.09049    -13479.37549        49.000  
 16 04 02 14 42 28.0000000  0  1G29                                             
  18081838.57049  95020701.19949    -13483.14149        49.000  
 16 04 02 14 42 28.1000000  0  1G29                                             
  18082095.19549  95022049.78549    -13487.68449        49.000  
 16 04 02 14 42 28.2000000  0  1G29                                             
  18082351.89849  95023398.75849    -13491.60949        49.000  
 16 04 02 14 42 28.3000000  0  1G29                                             
  18082608.68849  95024748.18049    -13496.12949        49.000  
 16 04 02 14 42 28.4000000  0  1G29                                             
  18082865.54749  95026097.99649    -13500.14149        49.000  
 16 04 02 14 42 28.5000000  0  1G29                                             
  18083122.49249  95027448.27049    -13504.69149        49.000  
 16 04 02 14 42 28.6000000  0  1G29                                             
  18083379.52349  95028798.98449    -13509.14149        49.000  
 16 04 02 14 42 28.7000000  0  1G29                                             
  18083636.63349  95030150.07849    -13512.94949        49.000  
 16 04 02 14 42 28.8000000  0  1G29                                             
  18083893.81249  95031501.56649    -13516.72749        49.000  
 16 04 02 14 42 28.9000000  0  1G29                                             
  18084151.07049  95032853.45349    -13520.68049        49.000  
 16 04 02 14 42 29.0000000  0  1G29                                             
  18084408.40649  95034205.78149    -13525.28949        49.000  
 16 04 02 14 42 29.1000000  0  1G29                                             
  18084665.82849  95035558.57449    -13530.00049        49.000  
 16 04 02 14 42 29.2000000  0  1G29                                             
  18084923.34449  95036911.79349    -13534.23049        49.000  
 16 04 02 14 42 29.3000000  0  1G29                                             
  18085180.93849  95038265.48049    -13539.04349        49.000  
 16 04 02 14 42 29.4000000  0  1G29                                             
  18085438.63349  95039619.63349    -13543.53949        49.000  
 16 04 02 14 42 29.5000000  0  1G29                                             
  18085696.39849  95040974.19949    -13547.75049        49.000  
 16 04 02 14 42 29.6000000  0  1G29                                             
  18085954.25849  95042329.25049    -13552.60949        49.000  
 16 04 02 14 42 29.7000000  0  1G29                                             
  18086212.18049  95043684.66049    -13556.09449        49.000  
 16 04 02 14 42 29.8000000  0  1G29                                             
  18086470.18849  95045040.48049    -13560.14549        49.000  
 16 04 02 14 42 29.9000000  0  1G29                                             
  18086728.27349  95046396.75849    -13564.79749        49.000  
 16 04 02 14 42 30.0000000  0  1G29                                             
  18086986.44549  95047753.44149    -13568.63749        49.000  
 16 04 02 14 42 30.1000000  0  1G29                                             
  18087244.68849  95049110.52749    -13572.83649        49.000  
 16 04 02 14 42 30.2000000  0  1G29                                             
  18087503.03149  95050468.10949    -13577.69949        49.000  
 16 04 02 14 42 30.3000000  0  1G29                                             
  18087761.43849  95051826.05549    -13581.57849        49.000  
 16 04 02 14 42 30.4000000  0  1G29                                             
  18088019.93849  95053184.45749    -13585.94149        49.000  
 16 04 02 14 42 30.5000000  0  1G29                                             
  18088278.50849  95054543.27749    -13590.22349        49.000  
 16 04 02 14 42 30.6000000  0  1G29                                             
  18088537.16449  95055902.53549    -13594.52049        49.000  
 16 04 02 14 42 30.7000000  0  1G29                                             
  18088795.89849  95057262.18049    -13598.41449        49.000  
 16 04 02 14 42 30.8000000  0  1G29                                             
  18089054.71949  95058622.28549    -13602.87149        49.000  
 16 04 02 14 42 30.9000000  0  1G29                                             
  18089313.61749  95059982.80149    -13607.16049        49.000  
 16 04 02 14 42 31.0000000  0  1G29                                             
  18089572.60249  95061343.78549    -13611.80949        49.000  
 16 04 02 14 42 31.1000000  0  1G29                                             
  18089831.66449  95062705.15649    -13615.86349        49.000  
 16 04 02 14 42 31.2000000  0  1G29                                             
  18090090.80549  95064066.96149    -13620.00049        49.000  
 16 04 02 14 42 31.3000000  0  1G29                                             
  18090350.02349  95065429.14849    -13623.81249        49.000  
 16 04 02 14 42 31.4000000  0  1G29                                             
  18090609.32849  95066791.79749    -13628.24249        49.000  
 16 04 02 14 42 31.5000000  0  1G29                                             
  18090868.70349  95068154.84849    -13632.44149        49.000  
 16 04 02 14 42 31.6000000  0  1G29                                             
  18091128.16449  95069518.32049    -13636.64849        49.000  
 16 04 02 14 42 31.7000000  0  1G29                                             
  18091387.71149  95070882.22349    -13640.90249        49.000  
 16 04 02 14 42 31.8000000  0  1G29                                             
  18091647.33649  95072246.59049    -13645.71549        49.000  
 16 04 02 14 42 31.9000000  0  1G29                                             
  18091907.03949  95073611.32849    -13649.40249        49.000  
 16 04 02 14 42 32.0000000  0  1G29                                             
  18092166.83649  95074976.52349    -13653.89849        49.000  
 16 04 02 14 42 32.1000000  0  1G29                                             
  18092426.68849  95076342.07449    -13657.26249        49.000  
 16 04 02 14 42 32.2000000  0  1G29                                             
  18092686.61749  95077707.98849    -13660.80949        49.000  
 16 04 02 14 42 32.3000000  0  1G29                                             
  18092946.62549  95079074.36349    -13665.57449        49.000  
 16 04 02 14 42 32.4000000  0  1G29                                             
  18093206.73449  95080441.22349    -13670.61349        49.000  
 16 04 02 14 42 32.5000000  0  1G29                                             
  18093466.92249  95081808.50449    -13674.93449        49.000  
 16 04 02 14 42 32.6000000  0  1G29                                             
  18093727.18849  95083176.25049    -13679.70749        49.000  
 16 04 02 14 42 32.7000000  0  1G29                                             
  18093987.54749  95084544.44149    -13684.07849        49.000  
 16 04 02 14 42 32.8000000  0  1G29                                             
  18094247.99249  95085913.07049    -13688.26649        49.000  
 16 04 02 14 42 32.9000000  0  1G29                                             
  18094508.49249  95087282.03149    -13691.43849        49.000  
 16 04 02 14 42 33.0000000  0  1G29                                             
  18094769.08649  95088651.43849    -13695.91049        49.000  
 16 04 02 14 42 33.1000000  0  1G29                                             
  18095029.75849  95090021.28949    -13700.49249        49.000  
 16 04 02 14 42 33.2000000  0  1G29                                             
  18095290.51649  95091391.55149    -13704.60249        49.000  
 16 04 02 14 42 33.3000000  0  1G29                                             
  18095551.34449  95092762.23849    -13708.78549        49.000  
 16 04 02 14 42 33.4000000  0  1G29                                             
  18095812.25849  95094133.36749    -13713.38349        49.000  
 16 04 02 14 42 33.5000000  0  1G29                                             
  18096073.24249  95095504.85949    -13716.99249        49.000  
 16 04 02 14 42 33.6000000  0  1G29                                             
  18096334.32049  95096876.80949    -13721.36749        49.000  
 16 04 02 14 42 33.7000000  0  1G29                                             
  18096595.46949  95098249.18849    -13725.75449        49.000  
 16 04 02 14 42 33.8000000  0  1G29                                             
  18096856.70349  95099621.95749    -13729.66049        49.000  
 16 04 02 14 42 33.9000000  0  1G29                                             
  18097118.02349  95100995.21549    -13734.50849        49.000  
 16 04 02 14 42 34.0000000  0  1G29                                             
  18097379.42249  95102368.88349    -13738.59849        49.000  
 16 04 02 14 42 34.1000000  0  1G29                                             
  18097640.88349  95103742.85549    -13741.84449        49.000  
 16 04 02 14 42 34.2000000  0  1G29                                             
  18097902.43049  95105117.33249    -13746.63349        49.000  
 16 04 02 14 42 34.3000000  0  1G29                                             
  18098164.07049  95106492.24249    -13751.20349        49.000  
 16 04 02 14 42 34.4000000  0  1G29                                             
  18098425.78949  95107867.58249    -13755.38749        49.000  
 16 04 02 14 42 34.5000000  0  1G29                                             
  18098687.58649  95109243.32049    -13759.44949        49.000  
 16 04 02 14 42 34.6000000  0  1G29                                             
  18098949.46949  95110619.53949    -13764.18449        49.000  
 16 04 02 14 42 34.7000000  0  1G29                                             
  18099211.43049  95111996.14149    -13768.05149        49.000  
 16 04 02 14 42 34.8000000  0  1G29                                             
  18099473.46949  95113373.18449    -13772.45349        49.000  
 16 04 02 14 42 34.9000000  0  1G29                                             
  18099735.58649  95114750.62549    -13776.32849        49.000  
 16 04 02 14 42 35.0000000  0  1G29                                             
  18099997.78149  95116128.50049    -13780.70749        49.000  
 16 04 02 14 42 35.1000000  0  1G29                                             
  18100260.06249  95117506.77349    -13784.72349        49.000  
 16 04 02 14 42 35.2000000  0  1G29                                             
  18100522.42249  95118885.48049    -13789.00449        49.000  
 16 04 02 14 42 35.3000000  0  1G29                                             
  18100784.85949  95120264.62549    -13793.39149        49.000  
 16 04 02 14 42 35.4000000  0  1G29                                             
  18101047.38349  95121644.14849    -13797.19949        49.000  
 16 04 02 14 42 35.5000000  0  1G29                                             
  18101309.98449  95123024.12949    -13801.72749        49.000  
 16 04 02 14 42 35.6000000  0  1G29                                             
  18101572.66449  95124404.57449    -13806.44549        49.000  
 16 04 02 14 42 35.7000000  0  1G29                                             
  18101835.44549  95125785.49649    -13811.45349        49.000  
 16 04 02 14 42 35.8000000  0  1G29                                             
  18102098.32049  95127166.88749    -13815.95749        49.000  
 16 04 02 14 42 35.9000000  0  1G29                                             
  18102361.24249  95128548.57049    -13818.80949        49.000  
 16 04 02 14 42 36.0000000  0  1G29                                             
  18102624.25049  95129930.68049    -13822.82849        49.000  
 16 04 02 14 42 36.1000000  0  1G29                                             
  18102887.32849  95131313.14149    -13826.33649        49.000  
 16 04 02 14 42 36.2000000  0  1G29                                             
  18103150.48449  95132696.05949    -13831.14549        49.000  
 16 04 02 14 42 36.3000000  0  1G29                                             
  18103413.72749  95134079.37949    -13835.06249        49.000  
 16 04 02 14 42 36.4000000  0  1G29                                             
  18103677.03949  95135463.10249    -13839.10549        49.000  
 16 04 02 14 42 36.5000000  0  1G29                                             
  18103940.43049  95136847.24249    -13843.44149        49.000  
 16 04 02 14 42 36.6000000  0  1G29                                             
  18104203.91449  95138231.84849    -13848.04749        49.000  
 16 04 02 14 42 36.7000000  0  1G29                                             
  18104467.46149  95139616.81249    -13851.75049        49.000  
 16 04 02 14 42 36.8000000  0  1G29                                             
  18104731.09449  95141002.19549    -13855.55949        49.000  
 16 04 02 14 42 36.9000000  0  1G29                                             
  18104994.80549  95142388.01249    -13860.18849        49.000  
 16 04 02 14 42 37.0000000  0  1G29                                             
  18105258.60949  95143774.28149    -13864.65649        49.000  
 16 04 02 14 42 37.1000000  0  1G29                                             
  18105522.46949  95145160.89849    -13868.16049        49.000  
 16 04 02 14 42 37.2000000  0  1G29                                             
  18105786.42249  95146547.95349    -13872.38749        49.000  
 16 04 02 14 42 37.3000000  0  1G29                                             
  18106050.45349  95147935.45749    -13877.08249        49.000  
 16 04 02 14 42 37.4000000  0  1G29                                             
  18106314.56249  95149323.34449    -13880.82049        49.000  
 16 04 02 14 42 37.5000000  0  1G29                                             
  18106578.75049  95150711.63749    -13885.00849        49.000  
 16 04 02 14 42 37.6000000  0  1G29                                             
  18106843.02349  95152100.39149    -13889.42649        49.000  
 16 04 02 14 42 37.7000000  0  1G29                                             
  18107107.37549  95153489.60249    -13894.10949        49.000  
 16 04 02 14 42 37.8000000  0  1G29                                             
  18107371.81249  95154879.19949    -13897.86349        49.000  
 16 04 02 14 42 37.9000000  0  1G29                                             
  18107636.31249  95156269.16849    -13901.66449        49.000  
 16 04 02 14 42 38.0000000  0  1G29                                             
  18107900.89849  95157659.57049    -13906.02349        49.000  
 16 04 02 14 42 38.1000000  0  1G29                                             
  18108165.55549  95159050.35249    -13909.81649        49.000  
 16 04 02 14 42 38.2000000  0  1G29                                             
  18108430.29749  95160441.57449    -13914.01649        49.000  
 16 04 02 14 42 38.3000000  0  1G29                                             
  18108695.12549  95161833.25849    -13918.81249        49.000  
 16 04 02 14 42 38.4000000  0  1G29                                             
  18108960.03149  95163225.33249    -13922.79749        49.000  
 16 04 02 14 42 38.5000000  0  1G29                                             
  18109225.01649  95164617.83649    -13927.04749        49.000  
 16 04 02 14 42 38.6000000  0  1G29                                             
  18109490.07849  95166010.76249    -13931.27049        49.000  
 16 04 02 14 42 38.7000000  0  1G29                                             
  18109755.22749  95167404.12549    -13935.43449        49.000  
 16 04 02 14 42 38.8000000  0  1G29                                             
  18110020.45349  95168797.90649    -13939.77049        49.000  
 16 04 02 14 42 38.9000000  0  1G29                                             
  18110285.75849  95170192.09449    -13943.87149        49.000  
 16 04 02 14 42 39.0000000  0  1G29                                             
  18110551.14849  95171586.73449    -13948.40249        49.000  
 16 04 02 14 42 39.1000000  0  1G29                                             
  18110816.60249  95172981.71549    -13951.87949        49.000  
 16 04 02 14 42 39.2000000  0  1G29                                             
  18111082.14849  95174377.14549    -13956.07849        49.000  
 16 04 02 14 42 39.3000000  0  1G29                                             
  18111347.76649  95175772.98849    -13960.32049        49.000  
 16 04 02 14 42 39.4000000  0  1G29                                             
  18111613.46949  95177169.28949    -13964.90249        49.000  
 16 04 02 14 42 39.5000000  0  1G29                                             
  18111879.25049  95178565.97749    -13968.78149        49.000  
 16 04 02 14 42 39.6000000  0  1G29                                             
  18112145.10949  95179963.05549    -13972.79749        49.000  
 16 04 02 14 42 39.7000000  0  1G29                                             
  18112411.05549  95181360.62549    -13977.58249        49.000  
 16 04 02 14 42 39.8000000  0  1G29                                             
  18112677.07849  95182758.57849    -13981.50849        49.000  
 16 04 02 14 42 39.9000000  0  1G29                                             
  18112943.18049  95184156.95749    -13985.76649        49.000  
 16 04 02 14 42 40.0000000  0  1G29                                             
  18113209.35949  95185555.73849    -13989.67249        49.000  
 16 04 02 14 42 40.1000000  0  1G29                                             
  18113475.60949  95186954.89849    -13993.55149        49.000  
 16 04 02 14 42 40.2000000  0  1G29                                             
  18113741.94549  95188354.51249    -13997.99249        49.000  
 16 04 02 14 42 40.3000000  0  1G29                                             
  18114008.35949  95189754.50049    -14001.76249        49.000  
 16 04 02 14 42 40.4000000  0  1G29                                             
  18114274.85949  95191154.96949    -14006.74249        49.000  
 16 04 02 14 42 40.5000000  0  1G29                                             
  18114541.44549  95192555.91049    -14011.50849        49.000  
 16 04 02 14 42 40.6000000  0  1G29                                             
  18114808.10249  95193957.21949    -14015.18849        49.000  
 16 04 02 14 42 40.7000000  0  1G29                                             
  18115074.83649  95195358.91049    -14018.91449        49.000  
 16 04 02 14 42 40.8000000  0  1G29                                             
  18115341.66449  95196761.11749    -14024.12149        49.000  
 16 04 02 14 42 40.9000000  0  1G29                                             
  18115608.57849  95198163.73449    -14028.31249        49.000  
 16 04 02 14 42 41.0000000  0  1G29                                             
  18115875.56249  95199566.75849    -14032.15249        49.000  
 16 04 02 14 42 41.1000000  0  1G29                                             
  18116142.60949  95200970.11749    -14035.44149        49.000  
 16 04 02 14 42 41.2000000  0  1G29                                             
  18116409.76649  95202374.02749    -14040.97349        49.000  
 16 04 02 14 42 41.3000000  0  1G29                                             
  18116676.99249  95203778.30149    -14044.61749        49.000  
 16 04 02 14 42 41.4000000  0  1G29                                             
  18116944.29749  95205182.99649    -14048.94549        49.000  
 16 04 02 14 42 41.5000000  0  1G29                                             
  18117211.67249  95206588.06249    -14052.41449        49.000  
 16 04 02 14 42 41.6000000  0  1G29                                             
  18117479.12549  95207993.54749    -14056.72349        49.000  
 16 04 02 14 42 41.7000000  0  1G29                                             
  18117746.66449  95209399.47349    -14061.30549        49.000  
 16 04 02 14 42 41.8000000  0  1G29                                             
  18118014.29749  95210805.88349    -14066.04749        49.000  
 16 04 02 14 42 41.9000000  0  1G29                                             
  18118282.00049  95212212.64549    -14069.59049        49.000  
 16 04 02 14 42 42.0000000  0  1G29                                             
  18118549.78149  95213619.83249    -14073.68049        49.000  
 16 04 02 14 42 42.1000000  0  1G29                                             
  18118817.63349  95215027.39149    -14077.45749        49.000  
 16 04 02 14 42 42.2000000  0  1G29                                             
  18119085.56249  95216435.39549    -14081.78549        49.000  
 16 04 02 14 42 42.3000000  0  1G29                                             
  18119353.57049  95217843.77749    -14085.66449        49.000  
 16 04 02 14 42 42.4000000  0  1G29                                             
  18119621.67249  95219252.61749    -14090.45749        49.000  
 16 04 02 14 42 42.5000000  0  1G29                                             
  18119889.83649  95220661.85549    -14094.35549        49.000  
 16 04 02 14 42 42.6000000  0  1G29                                             
  18120158.08649  95222071.51649    -14098.57849        49.000  
 16 04 02 14 42 42.7000000  0  1G29                                             
  18120426.42249  95223481.59849    -14102.82049        49.000  
 16 04 02 14 42 42.8000000  0  1G29                                             
  18120694.82049  95224892.06649    -14106.64149        49.000  
 16 04 02 14 42 42.9000000  0  1G29                                             
  18120963.29749  95226302.89549    -14110.28949        49.000  
 16 04 02 14 42 43.0000000  0  1G29                                             
  18121231.85249  95227714.17649    -14114.69149        49.000  
 16 04 02 14 42 43.1000000  0  1G29                                             
  18121500.49249  95229125.91449    -14119.37549        49.000  
 16 04 02 14 42 43.2000000  0  1G29                                             
  18121769.21149  95230538.02749    -14123.14849        49.000  
 16 04 02 14 42 43.3000000  0  1G29                                             
  18122038.02349  95231950.63349    -14128.01249        49.000  
 16 04 02 14 42 43.4000000  0  1G29                                             
  18122306.89149  95233363.56249    -14131.18049        49.000  
 16 04 02 14 42 43.5000000  0  1G29                                             
  18122575.85249  95234776.95749    -14135.90249        49.000  
 16 04 02 14 42 43.6000000  0  1G29                                             
  18122844.89849  95236190.80149    -14140.34849        49.000  
 16 04 02 14 42 43.7000000  0  1G29                                             
  18123114.02349  95237605.06649    -14144.62149        49.000  
 16 04 02 14 42 43.8000000  0  1G29                                             
  18123383.23449  95239019.74649    -14148.62949        49.000  
 16 04 02 14 42 43.9000000  0  1G29                                             
  18123652.51649  95240434.82849    -14152.66449        49.000  
 16 04 02 14 42 44.0000000  0  1G29                                             
  18123921.86749  95241850.27749    -14156.52749        49.000  
 16 04 02 14 42 44.1000000  0  1G29                                             
  18124191.31249  95243266.23849    -14161.62949        49.000  
 16 04 02 14 42 44.2000000  0  1G29                                             
  18124460.83649  95244682.57849    -14165.41449        49.000  
 16 04 02 14 42 44.3000000  0  1G29                                             
  18124730.43049  95246099.33649    -14169.47349        49.000  
 16 04 02 14 42 44.4000000  0  1G29                                             
  18125000.11749  95247516.52349    -14173.82849        49.000  
 16 04 02 14 42 44.5000000  0  1G29                                             
  18125269.88349  95248934.15249    -14178.27049        49.000  
 16 04 02 14 42 44.6000000  0  1G29                                             
  18125539.71949  95250352.13349    -14181.66049        49.000  
 16 04 02 14 42 44.7000000  0  1G29                                             
  18125809.64149  95251770.59849    -14186.68849        49.000  
 16 04 02 14 42 44.8000000  0  1G29                                             
  18126079.64149  95253189.44549    -14190.54749        49.000  
 16 04 02 14 42 44.9000000  0  1G29                                             
  18126349.72749  95254608.77349    -14195.29349        49.000  
 16 04 02 14 42 45.0000000  0  1G29                                             
  18126619.89849  95256028.52749    -14199.55949        49.000  
 16 04 02 14 42 45.1000000  0  1G29                                             
  18126890.14149  95257448.65249    -14203.27049        49.000  
 16 04 02 14 42 45.2000000  0  1G29                                             
  18127160.46149  95258869.19549    -14207.23449        49.000  
 16 04 02 14 42 45.3000000  0  1G29                                             
  18127430.85249  95260290.10549    -14210.95749        49.000  
 16 04 02 14 42 45.4000000  0  1G29                                             
  18127701.32049  95261711.43449    -14215.25049        49.000  
 16 04 02 14 42 45.5000000  0  1G29                                             
  18127971.89149  95263133.28949    -14220.46549        49.000  
 16 04 02 14 42 45.6000000  0  1G29                                             
  18128242.52349  95264555.46949    -14223.94549        49.000  
 16 04 02 14 42 45.7000000  0  1G29                                             
  18128513.25049  95265978.14549    -14228.52749        49.000  
 16 04 02 14 42 45.8000000  0  1G29                                             
  18128784.03949  95267401.16049    -14232.10249        49.000  
 16 04 02 14 42 45.9000000  0  1G29                                             
  18129054.90649  95268824.56249    -14235.87549        49.000  
 16 04 02 14 42 46.0000000  0  1G29                                             
  18129325.85249  95270248.39549    -14240.18049        49.000  
 16 04 02 14 42 46.1000000  0  1G29                                             
  18129596.88349  95271672.65649    -14244.62549        49.000  
 16 04 02 14 42 46.2000000  0  1G29                                             
  18129867.98449  95273097.32449    -14248.52349        49.000  
 16 04 02 14 42 46.3000000  0  1G29                                             
  18130139.17249  95274522.42249    -14252.96949        49.000  
 16 04 02 14 42 46.4000000  0  1G29                                             
  18130410.44549  95275947.98849    -14257.61749        49.000  
 16 04 02 14 42 46.5000000  0  1G29                                             
  18130681.80549  95277373.98449    -14262.09449        49.000  
 16 04 02 14 42 46.6000000  0  1G29                                             
  18130953.23449  95278800.37949    -14265.96949        49.000  
 16 04 02 14 42 46.7000000  0  1G29                                             
  18131224.74249  95280227.13749    -14269.44949        49.000  
 16 04 02 14 42 46.8000000  0  1G29                                             
  18131496.32049  95281654.29349    -14273.27049        49.000  
 16 04 02 14 42 46.9000000  0  1G29                                             
  18131767.98449  95283081.93849    -14278.33249        49.000  
 16 04 02 14 42 47.0000000  0  1G29                                             
  18132039.72749  95284509.93449    -14282.08649        49.000  
 16 04 02 14 42 47.1000000  0  1G29                                             
  18132311.55549  95285938.39549    -14286.56649        49.000  
 16 04 02 14 42 47.2000000  0  1G29                                             
  18132583.46149  95287367.28549    -14291.00449        49.000  
 16 04 02 14 42 47.3000000  0  1G29                                             
  18132855.45349  95288796.59449    -14295.00049        49.000  
 16 04 02 14 42 47.4000000  0  1G29                                             
  18133127.51649  95290226.28949    -14298.87149        49.000  
 16 04 02 14 42 47.5000000  0  1G29                                             
  18133399.65649  95291656.39549    -14302.88749        49.000  
 16 04 02 14 42 47.6000000  0  1G29                                             
  18133671.87549  95293086.91049    -14307.18049        49.000  
 16 04 02 14 42 47.7000000  0  1G29                                             
  18133944.17249  95294517.85249    -14311.26249        49.000  
 16 04 02 14 42 47.8000000  0  1G29                                             
  18134216.54749  95295949.19149    -14315.24649        49.000  
 16 04 02 14 42 47.9000000  0  1G29                                             
  18134489.01649  95297381.00049    -14320.11749        49.000  
 16 04 02 14 42 48.0000000  0  1G29                                             
  18134761.53949  95298813.15649    -14323.42249        49.000  
 16 04 02 14 42 48.1000000  0  1G29                                             
  18135034.13349  95300245.64149    -14326.60949        49.000  
 16 04 02 14 42 48.2000000  0  1G29                                             
  18135306.82849  95301678.64149    -14331.80549        49.000  
 16 04 02 14 42 48.3000000  0  1G29                                             
  18135579.60249  95303112.09449    -14336.54749        49.000  
 16 04 02 14 42 48.4000000  0  1G29                                             
  18135852.45349  95304545.93849    -14340.42249        49.000  
 16 04 02 14 42 48.5000000  0  1G29                                             
  18136125.37549  95305980.13349    -14343.96149        49.000  
 16 04 02 14 42 48.6000000  0  1G29                                             
  18136398.39149  95307414.84849    -14348.98049        49.000  
 16 04 02 14 42 48.7000000  0  1G29                                             
  18136671.48449  95308849.95749    -14353.19149        49.000  
 16 04 02 14 42 48.8000000  0  1G29                                             
  18136944.64849  95310285.45349    -14356.85949        49.000  
 16 04 02 14 42 48.9000000  0  1G29                                             
  18137217.89849  95311721.39849    -14361.31249        49.000  
 16 04 02 14 42 49.0000000  0  1G29                                             
  18137491.22749  95313157.73049    -14365.18049        49.000  
 16 04 02 14 42 49.1000000  0  1G29                                             
  18137764.63349  95314594.48849    -14369.47749        49.000  
 16 04 02 14 42 49.2000000  0  1G29                                             
  18138038.12549  95316031.68849    -14374.02049        49.000  
 16 04 02 14 42 49.3000000  0  1G29                                             
  18138311.68049  95317469.23849    -14377.52349        49.000  
 16 04 02 14 42 49.4000000  0  1G29                                             
  18138585.32049  95318907.23449    -14381.81249        49.000  
 16 04 02 14 42 49.5000000  0  1G29                                             
  18138859.05549  95320345.70349    -14386.71949        49.000  
 16 04 02 14 42 49.6000000  0  1G29                                             
  18139132.85949  95321784.53949    -14390.26649        49.000  
 16 04 02 14 42 49.7000000  0  1G29                                             
  18139406.75049  95323223.84049    -14395.04749        49.000  
 16 04 02 14 42 49.8000000  0  1G29                                             
  18139680.71149  95324663.52349    -14398.78149        49.000  
 16 04 02 14 42 49.9000000  0  1G29                                             
  18139954.74249  95326103.59449    -14402.48849        49.000  
 16 04 02 14 42 50.0000000  0  1G29                                             
  18140228.85249  95327544.03949    -14406.37549        49.000  
 16 04 02 14 42 50.1000000  0  1G29                                             
  18140503.04749  95328984.92249    -14410.57049        49.000  
 16 04 02 14 42 50.2000000  0  1G29                                             
  18140777.31249  95330426.21149    -14414.71149        49.000  
 16 04 02 14 42 50.3000000  0  1G29                                             
  18141051.64149  95331867.83249    -14418.04749        49.000  
 16 04 02 14 42 50.4000000  0  1G29                                             
  18141326.07049  95333309.96149    -14423.14549        49.000  
 16 04 02 14 42 50.5000000  0  1G29                                             
  18141600.57849  95334752.53949    -14427.83649        49.000  
 16 04 02 14 42 50.6000000  0  1G29                                             
  18141875.18049  95336195.55949    -14432.18049        49.000  
 16 04 02 14 42 50.7000000  0  1G29                                             
  18142149.84449  95337638.92249    -14435.52749        49.000  
 16 04 02 14 42 50.8000000  0  1G29                                             
  18142424.59449  95339082.75849    -14440.12549        49.000  
 16 04 02 14 42 50.9000000  0  1G29                                             
  18142699.43049  95340527.00849    -14444.57849        49.000  
 16 04 02 14 42 51.0000000  0  1G29                                             
  18142974.32849  95341971.65649    -14448.48049        49.000  
 16 04 02 14 42 51.1000000  0  1G29                                             
  18143249.31249  95343416.71549    -14452.57449        49.000  
 16 04 02 14 42 51.2000000  0  1G29                                             
  18143524.38349  95344862.22349    -14456.85949        49.000  
 16 04 02 14 42 51.3000000  0  1G29                                             
  18143799.53149  95346308.11749    -14460.97349        49.000  
 16 04 02 14 42 51.4000000  0  1G29                                             
  18144074.75049  95347754.42249    -14464.90649        49.000  
 16 04 02 14 42 51.5000000  0  1G29                                             
  18144350.04749  95349201.09049    -14468.59849        49.000  
 16 04 02 14 42 51.6000000  0  1G29                                             
  18144625.42249  95350648.19149    -14472.72749        49.000  
 16 04 02 14 42 51.7000000  0  1G29                                             
  18144900.87549  95352095.71949    -14477.18849        49.000  
 16 04 02 14 42 51.8000000  0  1G29                                             
  18145176.41449  95353543.69949    -14481.82849        49.000  
 16 04 02 14 42 51.9000000  0  1G29                                             
  18145452.03949  95354992.09449    -14486.00449        49.000  
 16 04 02 14 42 52.0000000  0  1G29                                             
  18145727.73449  95356440.90249    -14490.03149        49.000  
 16 04 02 14 42 52.1000000  0  1G29                                             
  18146003.51649  95357890.11749    -14494.04749        49.000  
 16 04 02 14 42 52.2000000  0  1G29                                             
  18146279.36749  95359339.75449    -14498.35249        49.000  
 16 04 02 14 42 52.3000000  0  1G29                                             
  18146555.29749  95360789.76649    -14502.14149        49.000  
 16 04 02 14 42 52.4000000  0  1G29                                             
  18146831.30549  95362240.20749    -14506.20749        49.000  
 16 04 02 14 42 52.5000000  0  1G29                                             
  18147107.39849  95363691.08649    -14510.73049        49.000  
 16 04 02 14 42 52.6000000  0  1G29                                             
  18147383.57849  95365142.43049    -14515.37549        49.000  
 16 04 02 14 42 52.7000000  0  1G29                                             
  18147659.82849  95366594.13349    -14519.08649        49.000  
 16 04 02 14 42 52.8000000  0  1G29                                             
  18147936.17249  95368046.29749    -14523.54749        49.000  
 16 04 02 14 42 52.9000000  0  1G29                                             
  18148212.59449  95369498.91049    -14528.18849        49.000  
 16 04 02 14 42 53.0000000  0  1G29                                             
  18148489.10249  95370951.94149    -14532.48849        49.000  
 16 04 02 14 42 53.1000000  0  1G29                                             
  18148765.67249  95372405.35249    -14536.03949        49.000  
 16 04 02 14 42 53.2000000  0  1G29                                             
  18149042.32849  95373859.17249    -14540.09449        49.000  
 16 04 02 14 42 53.3000000  0  1G29                                             
  18149319.06249  95375313.42649    -14544.36749        49.000  
 16 04 02 14 42 53.4000000  0  1G29                                             
  18149595.86749  95376768.06249    -14548.40249        49.000  
 16 04 02 14 42 53.5000000  0  1G29                                             
  18149872.76649  95378223.15249    -14552.84449        49.000  
 16 04 02 14 42 53.6000000  0  1G29                                             
  18150149.72749  95379678.58249    -14556.18449        49.000  
 16 04 02 14 42 53.7000000  0  1G29                                             
  18150426.78949  95381134.56249    -14561.65649        49.000  
 16 04 02 14 42 53.8000000  0  1G29                                             
  18150703.93049  95382590.93449    -14565.62549        49.000  
 16 04 02 14 42 53.9000000  0  1G29                                             
  18150981.13349  95384047.64849    -14569.18049        49.000  
 16 04 02 14 42 54.0000000  0  1G29                                             
  18151258.42249  95385504.80949    -14573.35949        49.000  
 16 04 02 14 42 54.1000000  0  1G29                                             
  18151535.79749  95386962.44949    -14578.46549        49.000  
 16 04 02 14 42 54.2000000  0  1G29                                             
  18151813.25849  95388420.48449    -14582.43049        49.000  
 16 04 02 14 42 54.3000000  0  1G29                                             
  18152090.78149  95389878.89549    -14586.11749        49.000  
 16 04 02 14 42 54.4000000  0  1G29                                             
  18152368.38349  95391337.71949    -14589.94549        49.000  
 16 04 02 14 42 54.5000000  0  1G29                                             
  18152646.07849  95392796.98449    -14594.48449        49.000  
 16 04 02 14 42 54.6000000  0  1G29                                             
  18152923.85249  95394256.69549    -14599.18449        49.000  
 16 04 02 14 42 54.7000000  0  1G29                                             
  18153201.71149  95395716.83649    -14603.41849        49.000  
 16 04 02 14 42 54.8000000  0  1G29                                             
  18153479.64149  95397177.37949    -14607.43049        49.000  
 16 04 02 14 42 54.9000000  0  1G29                                             
  18153757.65649  95398638.34849    -14611.68449        49.000  
 16 04 02 14 42 55.0000000  0  1G29                                             
  18154035.75049  95400099.74649    -14615.82449        49.000  
 16 04 02 14 42 55.1000000  0  1G29                                             
  18154313.91449  95401561.50849    -14619.53149        49.000  
 16 04 02 14 42 55.2000000  0  1G29                                             
  18154592.15649  95403023.67249    -14623.38349        49.000  
 16 04 02 14 42 55.3000000  0  1G29                                             
  18154870.47749  95404486.25449    -14627.91049        49.000  
 16 04 02 14 42 55.4000000  0  1G29                                             
  18155148.88349  95405949.30549    -14632.36349        49.000  
 16 04 02 14 42 55.5000000  0  1G29                                             
  18155427.36749  95407412.76249    -14636.61349        49.000  
 16 04 02 14 42 55.6000000  0  1G29                                             
  18155705.93849  95408876.65249    -14640.84849        49.000  
 16 04 02 14 42 55.7000000  0  1G29                                             
  18155984.57849  95410340.91849    -14644.53549        49.000  
 16 04 02 14 42 55.8000000  0  1G29                                             
  18156263.30549  95411805.64549    -14649.11349        49.000  
 16 04 02 14 42 55.9000000  0  1G29                                             
  18156542.10949  95413270.77049    -14653.18449        49.000  
 16 04 02 14 42 56.0000000  0  1G29                                             
  18156821.00049  95414736.32849    -14657.54349        49.000  
 16 04 02 14 42 56.1000000  0  1G29                                             
  18157099.96149  95416202.30149    -14661.86349        49.000  
 16 04 02 14 42 56.2000000  0  1G29                                             
  18157379.00849  95417668.71149    -14666.09849        49.000  
 16 04 02 14 42 56.3000000  0  1G29                                             
  18157658.12549  95419135.46149    -14669.44549        49.000  
 16 04 02 14 42 56.4000000  0  1G29                                             
  18157937.31249  95420602.61749    -14673.35949        49.000  
 16 04 02 14 42 56.5000000  0  1G29                                             
  18158216.59449  95422070.22749    -14678.05549        49.000  
 16 04 02 14 42 56.6000000  0  1G29                                             
  18158495.94549  95423538.24249    -14682.11749        49.000  
 16 04 02 14 42 56.7000000  0  1G29                                             
  18158775.39149  95425006.73049    -14686.94549        49.000  
 16 04 02 14 42 56.8000000  0  1G29                                             
  18159054.91449  95426475.62549    -14690.92249        49.000  
 16 04 02 14 42 56.9000000  0  1G29                                             
  18159334.50049  95427944.88349    -14694.49249        49.000  
 16 04 02 14 42 57.0000000  0  1G29                                             
  18159614.17249  95429414.57849    -14698.85949        49.000  
 16 04 02 14 42 57.1000000  0  1G29                                             
  18159893.92249  95430884.66049    -14702.70349        49.000  
 16 04 02 14 42 57.2000000  0  1G29                                             
  18160173.73449  95432355.10249    -14706.44149        49.000  
 16 04 02 14 42 57.3000000  0  1G29                                             
  18160453.63349  95433825.96949    -14710.59849        49.000  
 16 04 02 14 42 57.4000000  0  1G29                                             
  18160733.62549  95435297.35249    -14715.88749        49.000  
 16 04 02 14 42 57.5000000  0  1G29                                             
  18161013.69549  95436769.09449    -14719.42649        49.000  
 16 04 02 14 42 57.6000000  0  1G29                                             
  18161293.83649  95438241.25849    -14723.72349        49.000  
 16 04 02 14 42 57.7000000  0  1G29                                             
  18161574.07049  95439713.87549    -14728.13349        49.000  
 16 04 02 14 42 57.8000000  0  1G29                                             
  18161854.38349  95441186.92649    -14732.56249        49.000  
 16 04 02 14 42 57.9000000  0  1G29                                             
  18162134.77349  95442660.40649    -14736.89549        49.000  
 16 04 02 14 42 58.0000000  0  1G29                                             
  18162415.25049  95444134.30549    -14741.03949        49.000  
 16 04 02 14 42 58.1000000  0  1G29                                             
  18162695.79749  95445608.60949    -14745.03149        49.000  
 16 04 02 14 42 58.2000000  0  1G29                                             
  18162976.42249  95447083.28149    -14748.66849        49.000  
 16 04 02 14 42 58.3000000  0  1G29                                             
  18163257.12549  95448558.40649    -14753.09049        49.000  
 16 04 02 14 42 58.4000000  0  1G29                                             
  18163537.91449  95450033.95749    -14757.47749        49.000  
 16 04 02 14 42 58.5000000  0  1G29                                             
  18163818.77349  95451509.88349    -14761.05949        49.000  
 16 04 02 14 42 58.6000000  0  1G29                                             
  18164099.71149  95452986.26249    -14765.76249        49.000  
 16 04 02 14 42 58.7000000  0  1G29                                             
  18164380.71949  95454462.96549    -14769.08249        49.000  
 16 04 02 14 42 58.8000000  0  1G29                                             
  18164661.82849  95455940.17249    -14773.86749        49.000  
 16 04 02 14 42 58.9000000  0  1G29                                             
  18164943.00049  95457417.76649    -14777.80949        49.000  
 16 04 02 14 42 59.0000000  0  1G29                                             
  18165224.25849  95458895.78949    -14782.16449        49.000  
 16 04 02 14 42 59.1000000  0  1G29                                             
  18165505.58649  95460374.17649    -14785.94549        49.000  
 16 04 02 14 42 59.2000000  0  1G29                                             
  18165787.00049  95461852.99649    -14790.03949        49.000  
 16 04 02 14 42 59.3000000  0  1G29                                             
  18166068.47749  95463332.15249    -14793.39549        49.000  
 16 04 02 14 42 59.4000000  0  1G29                                             
  18166350.03149  95464811.74249    -14797.85549        49.000  
 16 04 02 14 42 59.5000000  0  1G29                                             
  18166631.67249  95466291.75849    -14801.91849        49.000  
 16 04 02 14 42 59.6000000  0  1G29                                             
  18166913.38349  95467772.18449    -14806.29749        49.000  
 16 04 02 14 42 59.7000000  0  1G29                                             
  18167195.18049  95469253.04349    -14810.51249        49.000  
 16 04 02 14 42 59.8000000  0  1G29                                             
  18167477.05549  95470734.30149    -14814.57849        49.000  
 16 04 02 14 42 59.9000000  0  1G29                                             
  18167759.01649  95472216.02349    -14819.07449        49.000  
 16 04 02 14 43  0.0000000  0  1G29                                             
  18168041.05549  95473698.11349    -14822.89149        49.000  
 16 04 02 14 43  0.1000000  0  1G29                                             
  18168323.16449  95475180.64149    -14827.12149        49.000  
 16 04 02 14 43  0.2000000  0  1G29                                             
  18168605.35249  95476663.52749    -14830.76649        49.000  
 16 04 02 14 43  0.3000000  0  1G29                                             
  18168887.61749  95478146.82849    -14834.93449        49.000  
 16 04 02 14 43  0.4000000  0  1G29                                             
  18169169.97749  95479630.65249    -14840.16849        49.000  
 16 04 02 14 43  0.5000000  0  1G29                                             
  18169452.41449  95481114.85249    -14843.98849        49.000  
 16 04 02 14 43  0.6000000  0  1G29                                             
  18169734.93049  95482599.48049    -14848.37949        49.000  
 16 04 02 14 43  0.7000000  0  1G29                                             
  18170017.52349  95484084.50849    -14852.27049        49.000  
 16 04 02 14 43  0.8000000  0  1G29                                             
  18170300.19549  95485569.96149    -14856.34449        49.000  
 16 04 02 14 43  0.9000000  0  1G29                                             
  18170582.93849  95487055.78949    -14860.23049        49.000  
 16 04 02 14 43  1.0000000  0  1G29                                             
  18170865.77349  95488542.08249    -14864.89849        49.000  
 16 04 02 14 43  1.1000000  0  1G29                                             
  18171148.68049  95490028.77349    -14868.84849        49.000  
 16 04 02 14 43  1.2000000  0  1G29                                             
  18171431.65649  95491515.84849    -14872.82449        49.000  
 16 04 02 14 43  1.3000000  0  1G29                                             
  18171714.73449  95493003.42649    -14877.66449        49.000  
 16 04 02 14 43  1.4000000  0  1G29                                             
  18171997.87549  95494491.35249    -14881.18449        49.000  
 16 04 02 14 43  1.5000000  0  1G29                                             
  18172281.10249  95495979.69549    -14885.46549        49.000  
 16 04 02 14 43  1.6000000  0  1G29                                             
  18172564.40649  95497468.46949    -14889.53549        49.000  
 16 04 02 14 43  1.7000000  0  1G29                                             
  18172847.78149  95498957.64549    -14893.53949        49.000  
 16 04 02 14 43  1.8000000  0  1G29                                             
  18173131.23449  95500447.19549    -14897.59449        49.000  
 16 04 02 14 43  1.9000000  0  1G29                                             
  18173414.78149  95501937.21949    -14902.23849        49.000  
 16 04 02 14 43  2.0000000  0  1G29                                             
  18173698.39849  95503427.65649    -14906.45749        49.000  
 16 04 02 14 43  2.1000000  0  1G29                                             
  18173982.09449  95504918.47749    -14910.19949        49.000  
 16 04 02 14 43  2.2000000  0  1G29                                             
  18174265.85949  95506409.68849    -14914.07049        49.000  
 16 04 02 14 43  2.3000000  0  1G29                                             
  18174549.71949  95507901.34449    -14918.43049        49.000  
 16 04 02 14 43  2.4000000  0  1G29                                             
  18174833.64149  95509393.40249    -14922.45349        49.000  
 16 04 02 14 43  2.5000000  0  1G29                                             
  18175117.64149  95510885.81649    -14926.04349        49.000  
 16 04 02 14 43  2.6000000  0  1G29                                             
  18175401.71949  95512378.63749    -14930.13749        49.000  
 16 04 02 14 43  2.7000000  0  1G29                                             
  18175685.87549  95513871.92249    -14934.59849        49.000  
 16 04 02 14 43  2.8000000  0  1G29                                             
  18175970.10949  95515365.56249    -14938.37149        49.000  
 16 04 02 14 43  2.9000000  0  1G29                                             
  18176254.42249  95516859.64849    -14942.79349        49.000  
 16 04 02 14 43  3.0000000  0  1G29                                             
  18176538.82049  95518354.16449    -14947.15649        49.000  
 16 04 02 14 43  3.1000000  0  1G29                                             
  18176823.29749  95519849.08649    -14951.26249        49.000  
 16 04 02 14 43  3.2000000  0  1G29                                             
  18177107.85249  95521344.40649    -14955.14149        49.000  
 16 04 02 14 43  3.3000000  0  1G29                                             
  18177392.48449  95522840.16049    -14959.40649        49.000  
 16 04 02 14 43  3.4000000  0  1G29                                             
  18177677.19549  95524336.31249    -14963.42249        49.000  
 16 04 02 14 43  3.5000000  0  1G29                                             
  18177961.96949  95525832.83249    -14967.00449        49.000  
 16 04 02 14 43  3.6000000  0  1G29                                             
  18178246.84449  95527329.81249    -14971.82449        49.000  
 16 04 02 14 43  3.7000000  0  1G29                                             
  18178531.79749  95528827.25849    -14976.46949        49.000  
 16 04 02 14 43  3.8000000  0  1G29                                             
  18178816.82049  95530325.07049    -14980.10249        49.000  
 16 04 02 14 43  3.9000000  0  1G29                                             
  18179101.93849  95531823.35249    -14984.60949        49.000  
 16 04 02 14 43  4.0000000  0  1G29                                             
  18179387.10949  95533321.94949    -14987.82449        49.000  
 16 04 02 14 43  4.1000000  0  1G29                                             
  18179672.35949  95534820.95749    -14991.80549        49.000  
 16 04 02 14 43  4.2000000  0  1G29                                             
  18179957.69549  95536320.39549    -14996.27749        49.000  
 16 04 02 14 43  4.3000000  0  1G29                                             
  18180243.10949  95537820.27349    -15000.75049        49.000  
 16 04 02 14 43  4.4000000  0  1G29                                             
  18180528.60949  95539320.57449    -15004.97749        49.000  
 16 04 02 14 43  4.5000000  0  1G29                                             
  18180814.18049  95540821.25449    -15008.76249        49.000  
 16 04 02 14 43  4.6000000  0  1G29                                             
  18181099.83649  95542322.37549    -15013.19949        49.000  
 16 04 02 14 43  4.7000000  0  1G29                                             
  18181385.57049  95543823.91849    -15017.39849        49.000  
 16 04 02 14 43  4.8000000  0  1G29                                             
  18181671.37549  95545325.82849    -15020.95749        49.000  
 16 04 02 14 43  4.9000000  0  1G29                                             
  18181957.24249  95546828.10549    -15024.79349        49.000  
 16 04 02 14 43  5.0000000  0  1G29                                             
  18182243.20349  95548330.82049    -15029.06649        49.000  
 16 04 02 14 43  5.1000000  0  1G29                                             
  18182529.23449  95549833.96549    -15033.44549        49.000  
 16 04 02 14 43  5.2000000  0  1G29                                             
  18182815.35949  95551337.53549    -15037.57849        49.000  
 16 04 02 14 43  5.3000000  0  1G29                                             
  18183101.54749  95552841.46549    -15041.28149        49.000  
 16 04 02 14 43  5.4000000  0  1G29                                             
  18183387.82049  95554345.82849    -15045.59449        49.000  
 16 04 02 14 43  5.5000000  0  1G29                                             
  18183674.16449  95555850.57449    -15049.32849        49.000  
 16 04 02 14 43  5.6000000  0  1G29                                             
  18183960.58649  95557355.73449    -15053.46149        49.000  
 16 04 02 14 43  5.7000000  0  1G29                                             
  18184247.08649  95558861.32849    -15058.00449        49.000  
 16 04 02 14 43  5.8000000  0  1G29                                             
  18184533.68049  95560367.37149    -15062.34049        49.000  
 16 04 02 14 43  5.9000000  0  1G29                                             
  18184820.34449  95561873.79349    -15066.16849        49.000  
 16 04 02 14 43  6.0000000  0  1G29                                             
  18185107.07049  95563380.54749    -15069.35549        49.000  
 16 04 02 14 43  6.1000000  0  1G29                                             
  18185393.88349  95564887.77749    -15074.12149        49.000  
 16 04 02 14 43  6.2000000  0  1G29                                             
  18185680.76649  95566395.35249    -15077.69949        49.000  
 16 04 02 14 43  6.3000000  0  1G29                                             
  18185967.72749  95567903.33649    -15081.55949        49.000  
 16 04 02 14 43  6.4000000  0  1G29                                             
  18186254.75849  95569411.68449    -15085.35949        49.000  
 16 04 02 14 43  6.5000000  0  1G29                                             
  18186541.87549  95570920.48449    -15089.82849        49.000  
 16 04 02 14 43  6.6000000  0  1G29                                             
  18186829.07049  95572429.70749    -15094.14549        49.000  
 16 04 02 14 43  6.7000000  0  1G29                                             
  18187116.34449  95573939.35249    -15098.42649        49.000  
 16 04 02 14 43  6.8000000  0  1G29                                             
  18187403.69549  95575449.38349    -15102.38749        49.000  
 16 04 02 14 43  6.9000000  0  1G29                                             
  18187691.11749  95576959.77749    -15105.77349        49.000  
 16 04 02 14 43  7.0000000  0  1G29                                             
  18187978.61749  95578470.62549    -15110.19149        49.000  
 16 04 02 14 43  7.1000000  0  1G29                                             
  18188266.19549  95579981.85949    -15114.29749        49.000  
 16 04 02 14 43  7.2000000  0  1G29                                             
  18188553.87549  95581493.58649    -15119.19549        49.000  
 16 04 02 14 43  7.3000000  0  1G29                                             
  18188841.61749  95583005.69549    -15122.93449        49.000  
 16 04 02 14 43  7.4000000  0  1G29                                             
  18189129.43049  95584518.16849    -15126.65649        49.000  
 16 04 02 14 43  7.5000000  0  1G29                                             
  18189417.32049  95586031.04749    -15130.66449        49.000  
 16 04 02 14 43  7.6000000  0  1G29                                             
  18189705.29749  95587544.36749    -15135.09849        49.000  
 16 04 02 14 43  7.7000000  0  1G29                                             
  18189993.35249  95589058.12949    -15139.71549        49.000  
 16 04 02 14 43  7.8000000  0  1G29                                             
  18190281.49249  95590572.29349    -15143.64849        49.000  
 16 04 02 14 43  7.9000000  0  1G29                                             
  18190569.71149  95592086.87549    -15147.67249        49.000  
 16 04 02 14 43  8.0000000  0  1G29                                             
  18190857.99249  95593601.82849    -15151.28149        49.000  
 16 04 02 14 43  8.1000000  0  1G29                                             
  18191146.35249  95595117.18049    -15155.38349        49.000  
 16 04 02 14 43  8.2000000  0  1G29                                             
  18191434.79749  95596632.96549    -15159.73449        49.000  
 16 04 02 14 43  8.3000000  0  1G29                                             
  18191723.31249  95598149.14149    -15163.67649        49.000  
 16 04 02 14 43  8.4000000  0  1G29                                             
  18192011.92249  95599665.77049    -15168.44149        49.000  
 16 04 02 14 43  8.5000000  0  1G29                                             
  18192300.60949  95601182.85549    -15173.00049        49.000  
 16 04 02 14 43  8.6000000  0  1G29                                             
  18192589.37549  95602700.30549    -15176.51249        49.000  
 16 04 02 14 43  8.7000000  0  1G29                                             
  18192878.20349  95604218.12549    -15180.16449        49.000  
 16 04 02 14 43  8.8000000  0  1G29                                             
  18193167.10949  95605736.34049    -15183.83649        49.000  
 16 04 02 14 43  8.9000000  0  1G29                                             
  18193456.10949  95607255.01249    -15188.65249        49.000  
 16 04 02 14 43  9.0000000  0  1G29                                             
  18193745.18049  95608774.09849    -15192.81249        50.000  
 16 04 02 14 43  9.1000000  0  1G29                                             
  18194034.33649  95610293.62149    -15197.30549        49.000  
 16 04 02 14 43  9.2000000  0  1G29                                             
  18194323.57049  95611813.55949    -15201.46949        49.000  
 16 04 02 14 43  9.3000000  0  1G29                                             
  18194612.89149  95613333.93049    -15205.53149        49.000  
 16 04 02 14 43  9.4000000  0  1G29                                             
  18194902.26649  95614854.62149    -15208.72749        49.000  
 16 04 02 14 43  9.5000000  0  1G29                                             
  18195191.74249  95616375.80149    -15213.69149        49.000  
 16 04 02 14 43  9.6000000  0  1G29                                             
  18195481.28149  95617897.35949    -15217.53549        49.000  
 16 04 02 14 43  9.7000000  0  1G29                                             
  18195770.90649  95619419.34849    -15221.82449        49.000  
 16 04 02 14 43  9.8000000  0  1G29                                             
  18196060.60949  95620941.73849    -15225.85549        49.000  
 16 04 02 14 43  9.9000000  0  1G29                                             
  18196350.39149  95622464.55549    -15230.15649        49.000  
 16 04 02 14 43 10.0000000  0  1G29                                             
  18196640.24249  95623987.73849    -15233.86349        49.000  
 16 04 02 14 43 10.1000000  0  1G29                                             
  18196930.18849  95625511.39149    -15238.49249        49.000  
 16 04 02 14 43 10.2000000  0  1G29                                             
  18197220.21149  95627035.48449    -15242.96149        49.000  
 16 04 02 14 43 10.3000000  0  1G29                                             
  18197510.30549  95628559.90649    -15246.16849        49.000  
 16 04 02 14 43 10.4000000  0  1G29                                             
  18197800.46949  95630084.73849    -15250.17249        49.000  
 16 04 02 14 43 10.5000000  0  1G29                                             
  18198090.72749  95631610.03549    -15254.78149        49.000  
 16 04 02 14 43 10.6000000  0  1G29                                             
  18198381.05549  95633135.73049    -15259.04349        49.000  
 16 04 02 14 43 10.7000000  0  1G29                                             
  18198671.47749  95634661.89149    -15263.55149        49.000  
 16 04 02 14 43 10.8000000  0  1G29                                             
  18198961.96149  95636188.43449    -15267.50049        49.000  
 16 04 02 14 43 10.9000000  0  1G29                                             
  18199252.52349  95637715.35949    -15271.19949        49.000  
 16 04 02 14 43 11.0000000  0  1G29                                             
  18199543.17249  95639242.71549    -15275.37549        49.000  
 16 04 02 14 43 11.1000000  0  1G29                                             
  18199833.89849  95640770.48849    -15279.61749        49.000  
 16 04 02 14 43 11.2000000  0  1G29                                             
  18200124.70349  95642298.67249    -15283.77749        49.000  
 16 04 02 14 43 11.3000000  0  1G29                                             
  18200415.59449  95643827.30149    -15288.14149        49.000  
 16 04 02 14 43 11.4000000  0  1G29                                             
  18200706.54749  95645356.27049    -15291.64149        49.000  
 16 04 02 14 43 11.5000000  0  1G29                                             
  18200997.58649  95646885.68849    -15296.08249        49.000  
 16 04 02 14 43 11.6000000  0  1G29                                             
  18201288.71149  95648415.53949    -15300.50449        49.000  
 16 04 02 14 43 11.7000000  0  1G29                                             
  18201579.90649  95649945.80549    -15304.60249        49.000  
 16 04 02 14 43 11.8000000  0  1G29                                             
  18201871.20349  95651476.56249    -15309.56649        49.000  
 16 04 02 14 43 11.9000000  0  1G29                                             
  18202162.57049  95653007.71149    -15313.50849        49.000  
 16 04 02 14 43 12.0000000  0  1G29                                             
  18202454.01649  95654539.24649    -15317.32849        49.000  
 16 04 02 14 43 12.1000000  0  1G29                                             
  18202745.50849  95656071.06649    -15319.97349        49.000  
 16 04 02 14 43 12.2000000  0  1G29                                             
  18203037.10249  95657603.36749    -15324.66449        49.000  
 16 04 02 14 43 12.3000000  0  1G29                                             
  18203328.75849  95659136.05549    -15328.91449        49.000  
 16 04 02 14 43 12.4000000  0  1G29                                             
  18203620.50849  95660669.21949    -15333.70749        49.000  
 16 04 02 14 43 12.5000000  0  1G29                                             
  18203912.34449  95662202.81649    -15337.99249        49.000  
 16 04 02 14 43 12.6000000  0  1G29                                             
  18204204.25049  95663736.79349    -15341.78549        49.000  
 16 04 02 14 43 12.7000000  0  1G29                                             
  18204496.23449  95665271.16049    -15345.70749        49.000  
 16 04 02 14 43 12.8000000  0  1G29                                             
  18204788.29749  95666805.98049    -15350.09449        49.000  
 16 04 02 14 43 12.9000000  0  1G29                                             
  18205080.44549  95668341.23849    -15354.53149        49.000  
 16 04 02 14 43 13.0000000  0  1G29                                             
  18205372.66449  95669876.84849    -15358.08649        49.000  
 16 04 02 14 43 13.1000000  0  1G29                                             
  18205664.95349  95671412.81649    -15361.55149        49.000  
 16 04 02 14 43 13.2000000  0  1G29                                             
  18205957.32049  95672949.21949    -15365.91049        49.000  
 16 04 02 14 43 13.3000000  0  1G29                                             
  18206249.77349  95674486.08649    -15370.52349        49.000  
 16 04 02 14 43 13.4000000  0  1G29                                             
  18206542.30549  95676023.31649    -15374.32449        49.000  
 16 04 02 14 43 13.5000000  0  1G29                                             
  18206834.90649  95677560.93849    -15378.01249        49.000  
 16 04 02 14 43 13.6000000  0  1G29                                             
  18207127.58649  95679098.97349    -15382.24649        49.000  
 16 04 02 14 43 13.7000000  0  1G29                                             
  18207420.33649  95680637.41849    -15386.34049        49.000  
 16 04 02 14 43 13.8000000  0  1G29                                             
  18207713.17249  95682176.28549    -15390.59449        49.000  
 16 04 02 14 43 13.9000000  0  1G29                                             
  18208006.09449  95683715.56649    -15394.66049        49.000  
 16 04 02 14 43 14.0000000  0  1G29                                             
  18208299.08649  95685255.25849    -15398.96149        49.000  
 16 04 02 14 43 14.1000000  0  1G29                                             
  18208592.16449  95686795.36349    -15402.93049        49.000  
 16 04 02 14 43 14.2000000  0  1G29                                             
  18208885.29749  95688335.79749    -15406.14549        49.000  
 16 04 02 14 43 14.3000000  0  1G29                                             
  18209178.51649  95689876.67649    -15410.75049        49.000  
 16 04 02 14 43 14.4000000  0  1G29                                             
  18209471.82049  95691418.00849    -15415.23849        49.000  
 16 04 02 14 43 14.5000000  0  1G29                                             
  18209765.20349  95692959.72749    -15419.25849        49.000  
 16 04 02 14 43 14.6000000  0  1G29                                             
  18210058.66449  95694501.84849    -15423.19949        49.000  
 16 04 02 14 43 14.7000000  0  1G29                                             
  18210352.18849  95696044.34449    -15426.82049        49.000  
 16 04 02 14 43 14.8000000  0  1G29                                             
  18210645.79749  95697587.28549    -15431.34049        49.000  
 16 04 02 14 43 14.9000000  0  1G29                                             
  18210939.49249  95699130.66049    -15435.64849        49.000  
 16 04 02 14 43 15.0000000  0  1G29                                             
  18211233.25849  95700674.42649    -15439.55149        49.000  
 16 04 02 14 43 15.1000000  0  1G29                                             
  18211527.10249  95702218.55949    -15443.24649        49.000  
 16 04 02 14 43 15.2000000  0  1G29                                             
  18211821.03149  95703763.16849    -15447.82049        49.000  
 16 04 02 14 43 15.3000000  0  1G29                                             
  18212115.03149  95705308.17249    -15451.81249        49.000  
 16 04 02 14 43 15.4000000  0  1G29                                             
  18212409.10949  95706853.57049    -15455.78949        49.000  
 16 04 02 14 43 15.5000000  0  1G29                                             
  18212703.28149  95708399.42249    -15460.50449        49.000  
 16 04 02 14 43 15.6000000  0  1G29                                             
  18212997.52349  95709945.68849    -15464.55149        49.000  
 16 04 02 14 43 15.7000000  0  1G29                                             
  18213291.84449  95711492.34849    -15468.57449        49.000  
 16 04 02 14 43 15.8000000  0  1G29                                             
  18213586.23449  95713039.38749    -15472.19149        49.000  
 16 04 02 14 43 15.9000000  0  1G29                                             
  18213880.69549  95714586.78949    -15475.81249        49.000  
 16 04 02 14 43 16.0000000  0  1G29                                             
  18214175.22749  95716134.56649    -15479.59049        49.000  
 16 04 02 14 43 16.1000000  0  1G29                                             
  18214469.84449  95717682.80949    -15484.24649        49.000  
 16 04 02 14 43 16.2000000  0  1G29                                             
  18214764.53949  95719231.44149    -15488.13749        49.000  
 16 04 02 14 43 16.3000000  0  1G29                                             
  18215059.30549  95720780.44149    -15491.97749        49.000  
 16 04 02 14 43 16.4000000  0  1G29                                             
  18215354.15649  95722329.87149    -15496.12949        49.000  
 16 04 02 14 43 16.5000000  0  1G29                                             
  18215649.07849  95723879.72749    -15500.42249        49.000  
 16 04 02 14 43 16.6000000  0  1G29                                             
  18215944.09449  95725430.03549    -15505.11349        49.000  
 16 04 02 14 43 16.7000000  0  1G29                                             
  18216239.18849  95726980.73849    -15509.04749        49.000  
 16 04 02 14 43 16.8000000  0  1G29                                             
  18216534.35249  95728531.84449    -15512.85549        49.000  
 16 04 02 14 43 16.9000000  0  1G29                                             
  18216829.58649  95730083.33249    -15516.85249        49.000  
 16 04 02 14 43 17.0000000  0  1G29                                             
  18217124.90649  95731635.22749    -15520.84449        49.000  
 16 04 02 14 43 17.1000000  0  1G29                                             
  18217420.29749  95733187.49649    -15524.53149        49.000  
 16 04 02 14 43 17.2000000  0  1G29                                             
  18217715.75049  95734740.13749    -15528.37549        49.000  
 16 04 02 14 43 17.3000000  0  1G29                                             
  18218011.29749  95736293.25049    -15533.02749        49.000  
 16 04 02 14 43 17.4000000  0  1G29                                             
  18218306.92249  95737846.75049    -15536.95349        49.000  
 16 04 02 14 43 17.5000000  0  1G29                                             
  18218602.62549  95739400.69149    -15541.40249        49.000  
 16 04 02 14 43 17.6000000  0  1G29                                             
  18218898.39849  95740954.99649    -15545.02049        49.000  
 16 04 02 14 43 17.7000000  0  1G29                                             
  18219194.25049  95742509.68049    -15548.66849        49.000  
 16 04 02 14 43 17.8000000  0  1G29                                             
  18219490.17249  95744064.78549    -15552.94949        49.000  
 16 04 02 14 43 17.9000000  0  1G29                                             
  18219786.18049  95745620.31249    -15557.26249        49.000  
 16 04 02 14 43 18.0000000  0  1G29                                             
  18220082.25849  95747176.22349    -15561.09449        49.000  
 16 04 02 14 43 18.1000000  0  1G29                                             
  18220378.41449  95748732.53549    -15565.16049        49.000  
 16 04 02 14 43 18.2000000  0  1G29                                             
  18220674.66449  95750289.31649    -15569.71949        49.000  
 16 04 02 14 43 18.3000000  0  1G29                                             
  18220970.99249  95751846.52049    -15574.08649        49.000  
 16 04 02 14 43 18.4000000  0  1G29                                             
  18221267.38349  95753404.09449    -15577.71949        49.000  
 16 04 02 14 43 18.5000000  0  1G29                                             
  18221563.86749  95754962.10249    -15582.08649        49.000  
 16 04 02 14 43 18.6000000  0  1G29                                             
  18221860.42249  95756520.50849    -15585.91449        49.000  
 16 04 02 14 43 18.7000000  0  1G29                                             
  18222157.04749  95758079.28149    -15589.58249        49.000  
 16 04 02 14 43 18.8000000  0  1G29                                             
  18222453.75849  95759638.52049    -15594.14149        49.000  
 16 04 02 14 43 18.9000000  0  1G29                                             
  18222750.53949  95761198.10949    -15597.98849        49.000  
 16 04 02 14 43 19.0000000  0  1G29                                             
  18223047.39849  95762758.12149    -15601.86349        49.000  
 16 04 02 14 43 19.1000000  0  1G29                                             
  18223344.32849  95764318.52749    -15605.87949        49.000  
 16 04 02 14 43 19.2000000  0  1G29                                             
  18223641.35249  95765879.37149    -15610.42649        49.000  
 16 04 02 14 43 19.3000000  0  1G29                                             
  18223938.44549  95767440.63349    -15614.60949        49.000  
 16 04 02 14 43 19.4000000  0  1G29                                             
  18224235.63349  95769002.32849    -15619.02349        49.000  
 16 04 02 14 43 19.5000000  0  1G29                                             
  18224532.88349  95770564.39149    -15622.62549        49.000  
 16 04 02 14 43 19.6000000  0  1G29                                             
  18224830.19549  95772126.82449    -15626.09449        49.000  
 16 04 02 14 43 19.7000000  0  1G29                                             
  18225127.60249  95773689.68049    -15630.46149        49.000  
 16 04 02 14 43 19.8000000  0  1G29                                             
  18225425.07049  95775252.90249    -15634.00049        49.000  
 16 04 02 14 43 19.9000000  0  1G29                                             
  18225722.62549  95776816.55949    -15638.59449        49.000  
 16 04 02 14 43 20.0000000  0  1G29                                             
  18226020.25049  95778380.59049    -15642.13349        49.000  
 16 04 02 14 43 20.1000000  0  1G29                                             
  18226317.93849  95779944.94949    -15645.44149        49.000  
 16 04 02 14 43 20.2000000  0  1G29                                             
  18226615.71149  95781509.74649    -15649.71149        49.000  
 16 04 02 14 43 20.3000000  0  1G29                                             
  18226913.55549  95783074.92249    -15653.73449        49.000  
 16 04 02 14 43 20.4000000  0  1G29                                             
  18227211.49249  95784640.55549    -15658.41049        49.000  
 16 04 02 14 43 20.5000000  0  1G29                                             
  18227509.49249  95786206.58249    -15662.18449        49.000  
 16 04 02 14 43 20.6000000  0  1G29                                             
  18227807.57849  95787773.02749    -15666.51249        49.000  
 16 04 02 14 43 20.7000000  0  1G29                                             
  18228105.74249  95789339.91049    -15670.73849        49.000  
 16 04 02 14 43 20.8000000  0  1G29                                             
  18228403.98449  95790907.17249    -15674.43849        49.000  
 16 04 02 14 43 20.9000000  0  1G29                                             
  18228702.29749  95792474.81249    -15678.36349        49.000  
 16 04 02 14 43 21.0000000  0  1G29                                             
  18229000.68849  95794042.85549    -15682.23449        49.000  
 16 04 02 14 43 21.1000000  0  1G29                                             
  18229299.15649  95795611.30949    -15686.45349        49.000  
 16 04 02 14 43 21.2000000  0  1G29                                             
  18229597.69549  95797180.17249    -15690.44949        49.000  
 16 04 02 14 43 21.3000000  0  1G29                                             
  18229896.32849  95798749.47749    -15694.93449        49.000  
 16 04 02 14 43 21.4000000  0  1G29                                             
  18230195.03149  95800319.17649    -15699.06249        49.000  
 16 04 02 14 43 21.5000000  0  1G29                                             
  18230493.81249  95801889.30149    -15703.24649        49.000  
 16 04 02 14 43 21.6000000  0  1G29                                             
  18230792.68849  95803459.86749    -15707.77749        49.000  
 16 04 02 14 43 21.7000000  0  1G29                                             
  18231091.63349  95805030.84449    -15711.68049        49.000  
 16 04 02 14 43 21.8000000  0  1G29                                             
  18231390.64849  95806602.19149    -15715.40649        49.000  
 16 04 02 14 43 21.9000000  0  1G29                                             
  18231689.74249  95808173.94549    -15719.49249        49.000  
 16 04 02 14 43 22.0000000  0  1G29                                             
  18231988.93049  95809746.15249    -15723.99649        49.000  
 16 04 02 14 43 22.1000000  0  1G29                                             
  18232288.18849  95811318.75049    -15727.96949        49.000  
 16 04 02 14 43 22.2000000  0  1G29                                             
  18232587.51649  95812891.72749    -15731.79749        49.000  
 16 04 02 14 43 22.3000000  0  1G29                                             
  18232886.92249  95814465.12549    -15735.92249        49.000  
 16 04 02 14 43 22.4000000  0  1G29                                             
  18233186.41449  95816038.96949    -15740.33249        49.000  
 16 04 02 14 43 22.5000000  0  1G29                                             
  18233485.97749  95817613.21149    -15744.37949        49.000  
 16 04 02 14 43 22.6000000  0  1G29                                             
  18233785.60949  95819187.77749    -15747.60949        49.000  
 16 04 02 14 43 22.7000000  0  1G29                                             
  18234085.32849  95820762.81249    -15752.10949        49.000  
 16 04 02 14 43 22.8000000  0  1G29                                             
  18234385.10949  95822338.16449    -15755.57449        49.000  
 16 04 02 14 43 22.9000000  0  1G29                                             
  18234684.97749  95823913.97749    -15759.85949        49.000  
 16 04 02 14 43 23.0000000  0  1G29                                             
  18234984.91449  95825490.18449    -15764.02049        49.000  
 16 04 02 14 43 23.1000000  0  1G29                                             
  18235284.95349  95827066.87549    -15768.77049        49.000  
 16 04 02 14 43 23.2000000  0  1G29                                             
  18235585.05549  95828643.94549    -15772.58249        49.000  
 16 04 02 14 43 23.3000000  0  1G29                                             
  18235885.22749  95830221.36349    -15776.07449        49.000  
 16 04 02 14 43 23.4000000  0  1G29                                             
  18236185.49249  95831799.25049    -15780.67249        49.000  
 16 04 02 14 43 23.5000000  0  1G29                                             
  18236485.82849  95833377.53949    -15784.76649        49.000  
 16 04 02 14 43 23.6000000  0  1G29                                             
  18236786.23449  95834956.19949    -15788.50849        49.000  
 16 04 02 14 43 23.7000000  0  1G29                                             
  18237086.73449  95836535.31249    -15793.03549        49.000  
 16 04 02 14 43 23.8000000  0  1G29                                             
  18237387.30549  95838114.83249    -15797.10249        49.000  
