     2.10           OBSERVATION DATA    G (GPS)             RINEX VERSION / TYPE
Convert v1.8.0                          07-Jun-2016 18:55   PGM / RUN BY / DATE 
Signal Strength values S1,S2 are in dBHz                    COMMENT             
                                                            MARKER NAME         
                                                            MARKER NUMBER       
                                                            OBSERVER / AGENCY   
                    NovAtel GPSCard                         REC # / TYPE / VERS 
                                                            ANT # / TYPE        
0.0000        0.0000        0.0000                          APPROX POSITION XYZ 
        0.0000        0.0000        0.0000                  ANTENNA: DELTA H/E/N
     1     1                                                WAVELENGTH FACT L1/2
     1     1     7   G12   G13   G15   G17   G18   G19   G20WAVELENGTH FACT L1/2
     1     1     2   G24   G25                              WAVELENGTH FACT L1/2
                                                            COMMENT             
                                                            COMMENT             
                                                            COMMENT             
                                                            COMMENT             
                                                            COMMENT             
     8    C1    L1    D1    S1    P2    L2    D2    S2      # / TYPES OF OBSERV 
     0.100                                                  INTERVAL            
  2016    04    02    13    16     6.7000000    GPS         TIME OF FIRST OBS   
  2016    04    02    13    20    27.8000000    GPS         TIME OF LAST OBS    
Leap Seconds Unknown                                        COMMENT             
                                                            END OF HEADER       
 16 04 02 13 16  6.7000000  0  1G12                                             
  23031434.51649 121031005.03949     -3075.71149        50.000  

 16 04 02 13 16  6.8000000  0  2G12G19                                          
  23031493.08649 121031312.84049     -3079.77049        50.000  

  22388871.07849 117654310.72359      3284.07449        49.000  

 16 04 02 13 16  6.9000000  0  2G12G19                                          
  23031551.71149 121031620.91049     -3082.42649        50.000  

  22388808.60249 117653982.41049      3281.13349        49.000  

 16 04 02 13 16  7.0000000  0  2G12G19                                          
  23031610.39149 121031929.27749     -3085.30949        50.000  

  22388746.19549 117653654.44949      3277.81649        49.000  

 16 04 02 13 16  7.1000000  0  2G12G19                                          
  23031669.13349 121032237.98049     -3088.89849        50.000  

  22388683.85949 117653326.85949      3273.94149        49.000  

 16 04 02 13 16  7.2000000  0  2G12G19                                          
  23031727.96149 121032547.13349     -3093.09849        50.000  

  22388621.61749 117652999.76249      3269.25049        50.000  

 16 04 02 13 16  7.3000000  0  2G12G19                                          
  23031786.82849 121032856.51649     -3095.77749        50.000  

  22388559.42249 117652672.92249      3266.22349        49.000  

 16 04 02 13 16  7.4000000  0  2G12G19                                          
  23031845.77349 121033166.26249     -3099.37149        50.000  

  22388497.29749 117652346.48449      3262.48449        49.000  

 16 04 02 13 16  7.5000000  0  2G12G19                                          
  23031904.78149 121033476.35549     -3102.61749        50.000  

  22388435.25849 117652020.44949      3258.57049        49.000  

 16 04 02 13 16  7.6000000  0  3G13G12G19                                       
  21588345.75849 113447521.89559     -8945.50449        49.000  

  23031963.85249 121033786.76649     -3106.05149        50.000  

  22388373.28949 117651694.76249      3254.82049        49.000  

 16 04 02 13 16  7.7000000  0  3G13G12G19                                       
  21588516.04749 113448416.75449     -8951.93849        49.000  

  23032022.98449 121034097.48849     -3109.01249        50.000  

  22388311.37549 117651369.41049      3251.64149        50.000  

 16 04 02 13 16  7.8000000  0  3G13G12G19                                       
  21588686.45349 113449312.38349     -8959.69949        49.000  

  23032082.18849 121034408.60949     -3113.17249        50.000  

  22388249.53949 117651044.50049      3247.06649        50.000  

 16 04 02 13 16  7.9000000  0  3G13G12G19                                       
  21588857.01649 113450208.72349     -8966.59049        49.000  

  23032141.46149 121034720.07849     -3116.24249        50.000  

  22388187.78949 117650719.98849      3243.45349        50.000  

 16 04 02 13 16  8.0000000  0  3G13G12G19                                       
  21589027.67249 113451105.62549     -8972.40649        49.000  

  23032200.76649 121035031.76249     -3118.69949        50.000  

  22388126.07049 117650395.71949      3240.71149        50.000  

 16 04 02 13 16  8.1000000  0  3G13G12G19                                       
  21589198.49249 113452003.29349     -8979.76249        49.000  

  23032260.15649 121035343.84449     -3122.38749        50.000  

  22388064.44549 117650071.88749      3236.64549        50.000  

 16 04 02 13 16  8.2000000  0  3G13G12G19                                       
  21589369.41449 113452901.62949     -8986.58249        49.000  

  23032319.60249 121035656.23049     -3125.43849        50.000  

  22388002.88349 117649748.39549      3233.23849        50.000  

 16 04 02 13 16  8.3000000  0  3G13G12G19                                       
  21589540.48449 113453800.62549     -8993.44149        49.000  

  23032379.09449 121035968.92249     -3128.78949        50.000  

  22387941.39149 117649425.25449      3229.44149        50.000  

 16 04 02 13 16  8.4000000  0  3G13G12G19                                       
  21589711.72749 113454700.36749     -9000.75449        49.000  

  23032438.67249 121036281.99249     -3132.55949        50.000  

  22387879.98449 117649102.53149      3225.33249        50.000  

 16 04 02 13 16  8.5000000  0  3G13G12G19                                       
  21589883.07049 113455600.78549     -9007.45749        49.000  

  23032498.30549 121036595.39149     -3135.77749        50.000  

  22387818.64149 117648780.16849      3221.77749        50.000  

 16 04 02 13 16  8.6000000  0  3G13G12G19                                       
  21590054.54749 113456501.93449     -9014.93049        49.000  

  23032558.01649 121036909.15649     -3139.51649        50.000  

  22387757.39149 117648458.21149      3217.51249        50.000  

 16 04 02 13 16  8.7000000  0  3G13G12G19                                       
  21590226.16449 113457403.78549     -9021.89149        49.000  

  23032617.78149 121037223.25449     -3142.83249        50.000  

  22387696.20349 117648136.63349      3213.81249        50.000  

 16 04 02 13 16  8.8000000  0  3G13G12G19                                       
  21590397.89849 113458306.35949     -9029.13349        49.000  

  23032677.62549 121037537.73449     -3146.66849        50.000  

  22387635.09449 117647815.45349      3209.81249        50.000  

 16 04 02 13 16  8.9000000  0  3G13G12G19                                       
  21590569.78149 113459209.58649     -9035.58649        49.000  

  23032737.51649 121037852.49249     -3149.50449        50.000  

  22387574.03949 117647494.61349      3206.48849        50.000  

 16 04 02 13 16  9.0000000  0  3G13G12G19                                       
  21590741.81249 113460113.55949     -9043.09049        49.000  

  23032797.49249 121038167.64849     -3153.36749        50.000  

  22387513.06249 117647174.19949      3202.23449        50.000  

 16 04 02 13 16  9.1000000  0  3G13G12G19                                       
  21590913.96149 113461018.20349     -9049.86349        49.000  

  23032857.51649 121038483.10549     -3156.42249        50.000  

  22387452.15649 117646854.12549      3198.71549        50.000  

 16 04 02 13 16  9.2000000  0  3G13G12G19                                       
  21591086.26649 113461923.60549     -9057.40249        49.000  

  23032917.61749 121038798.97349     -3160.52749        50.000  

  22387391.32849 117646534.49649      3194.39149        50.000  

 16 04 02 13 16  9.3000000  0  3G13G12G19                                       
  21591258.69549 113462829.72349     -9064.52049        49.000  

  23032977.78149 121039115.18849     -3163.94549        50.000  

  22387330.58649 117646215.26649      3190.40649        50.000  

 16 04 02 13 16  9.4000000  0  3G13G12G19                                       
  21591431.22749 113463736.46549     -9070.70349        49.000  

  23033038.00849 121039431.66449     -3166.44149        50.000  

  22387269.89149 117645896.32449      3187.61749        50.000  

 16 04 02 13 16  9.5000000  0  3G13G12G19                                       
  21591603.90649 113464643.87149     -9077.31249        49.000  

  23033098.28149 121039748.45349     -3169.56649        50.000  

  22387209.26649 117645577.73849      3184.05149        50.000  

 16 04 02 13 16  9.6000000  0  3G13G12G19                                       
  21591776.71149 113465552.01649     -9084.76249        49.000  

  23033158.63349 121040065.62149     -3173.35949        50.000  

  22387148.72749 117645259.55949      3179.98849        50.000  

 16 04 02 13 16  9.7000000  0  3G13G12G19                                       
  21591949.65649 113466460.83649     -9091.61749        49.000  

  23033219.04749 121040383.10549     -3176.75049        50.000  

  22387088.25049 117644941.75049      3176.07849        50.000  

 16 04 02 13 16  9.8000000  0  3G13G12G19                                       
  21592122.74249 113467370.37149     -9098.68449        49.000  

  23033279.53149 121040700.94149     -3180.16449        50.000  

  22387027.84449 117644624.31649      3172.43049        50.000  

 16 04 02 13 16  9.9000000  0  3G13G12G19                                       
  21592295.94549 113468280.56649     -9105.22749        49.000  

  23033340.07049 121041019.07849     -3183.05149        50.000  

  22386967.50849 117644307.22749      3169.05149        50.000  

 16 04 02 13 16 10.0000000  0  3G13G12G19                                       
  21592469.28949 113469191.46149     -9112.25849        49.000  

  23033400.67249 121041337.56249     -3186.62949        50.000  

  22386907.23449 117643990.53149      3165.03949        50.000  

 16 04 02 13 16 10.1000000  0  3G13G12G19                                       
  21592642.75849 113470103.01649     -9118.94149        49.000  

  23033461.32849 121041656.34849     -3189.62549        50.000  

  22386847.02349 117643674.16049      3161.82849        50.000  

 16 04 02 13 16 10.2000000  0  3G13G12G19                                       
  21592816.35949 113471015.34049     -9126.52749        49.000  

  23033522.07049 121041975.53149     -3193.56649        50.000  

  22386786.90649 117643358.24249      3157.35249        50.000  

 16 04 02 13 16 10.3000000  0  3G13G12G19                                       
  21592990.09449 113471928.33649     -9133.39549        49.000  

  23033582.87549 121042295.03549     -3196.96549        50.000  

  22386726.85949 117643042.67249      3153.57849        50.000  

 16 04 02 13 16 10.4000000  0  3G13G12G19                                       
  21593163.95349 113472842.04349     -9140.41049        49.000  

  23033643.74249 121042614.89849     -3200.35949        50.000  

  22386666.87549 117642727.49249      3149.97349        50.000  

 16 04 02 13 16 10.5000000  0  3G13G12G19                                       
  21593337.95349 113473756.42249     -9147.04349        49.000  

  23033704.67249 121042935.06649     -3203.39149        50.000  

  22386606.96949 117642412.67249      3146.42249        50.000  

 16 04 02 13 16 10.6000000  0  3G13G12G19                                       
  21593512.11749 113474671.49249     -9154.07049        49.000  

  23033765.66449 121043255.56649     -3206.75449        50.000  

  22386547.13349 117642098.20749      3142.72749        50.000  

 16 04 02 13 16 10.7000000  0  3G13G12G19                                       
  21593686.39149 113475587.30149     -9161.35249        49.000  

  23033826.72749 121043576.44149     -3210.40649        50.000  

  22386487.37549 117641784.16849      3138.59049        50.000  

 16 04 02 13 16 10.8000000  0  3G13G12G19                                       
  21593860.75849 113476503.76649     -9167.98849        49.000  

  23033887.84449 121043897.62949     -3213.59849        50.000  

  22386427.68049 117641470.47349      3135.14549        50.000  

 16 04 02 13 16 10.9000000  0  3G13G12G19                                       
  21594035.28149 113477420.91849     -9174.74649        49.000  

  23033949.03149 121044219.13349     -3216.77049        50.000  

  22386368.05549 117641157.12949      3131.57049        50.000  

 16 04 02 13 16 11.0000000  0  3G13G12G19                                       
  21594209.93849 113478338.76249     -9181.67249        49.000  

  23034010.27349 121044540.97349     -3220.14549        50.000  

  22386308.50049 117640844.16049      3127.87549        50.000  

 16 04 02 13 16 11.1000000  0  3G13G12G19                                       
  21594384.73449 113479257.31249     -9188.91449        49.000  

  23034071.58649 121044863.16049     -3223.80549        50.000  

  22386249.02349 117640531.59449      3123.79349        50.000  

 16 04 02 13 16 11.2000000  0  3G13G12G19                                       
  21594559.66449 113480176.60549     -9196.42249        49.000  

  23034132.96949 121045185.73449     -3227.73449        50.000  

  22386189.61749 117640219.43049      3119.50449        50.000  

 16 04 02 13 16 11.3000000  0  3G13G12G19                                       
  21594734.72749 113481096.54349     -9202.82449        49.000  

  23034194.40649 121045508.59049     -3230.41449        50.000  

  22386130.27349 117639907.60549      3116.26249        50.000  

 16 04 02 13 16 11.4000000  0  3G13G12G19                                       
  21594909.89849 113482017.22749     -9210.25049        49.000  

  23034255.92249 121045831.83649     -3234.20349        50.000  

  22386071.02349 117639596.19149      3112.20749        50.000  

 16 04 02 13 16 11.5000000  0  3G13G12G19                                       
  21595085.21949 113482938.57449     -9216.86749        49.000  

  23034317.50049 121046155.38349     -3237.31649        50.000  

  22386011.82849 117639285.13349      3108.65649        50.000  

 16 04 02 13 16 11.6000000  0  3G13G12G19                                       
  21595260.68849 113483860.62549     -9223.87149        49.000  

  23034379.14149 121046479.28149     -3240.79349        50.000  

  22385952.71149 117638974.44949      3104.88349        50.000  

 16 04 02 13 16 11.7000000  0  3G13G12G19                                       
  21595436.28949 113484783.39549     -9231.15249        49.000  

  23034440.85249 121046803.53549     -3244.59449        50.000  

  22385893.66449 117638664.16849      3100.73449        50.000  

 16 04 02 13 16 11.8000000  0  3G13G12G19                                       
  21595612.01649 113485706.89149     -9238.34849        49.000  

  23034502.62549 121047128.16049     -3248.04349        50.000  

  22385834.70349 117638354.28949      3096.83249        50.000  

 16 04 02 13 16 11.9000000  0  3G13G12G19                                       
  21595787.87549 113486631.05949     -9245.06649        49.000  

  23034564.46949 121047453.09849     -3251.16849        50.000  

  22385775.79749 117638044.76649      3093.37149        50.000  

 16 04 02 13 16 12.0000000  0  3G13G12G19                                       
  21595963.85949 113487555.88749     -9251.57049        49.000  

  23034626.35249 121047778.33249     -3254.16449        50.000  

  22385716.96149 117637735.58649      3089.88349        50.000  

 16 04 02 13 16 12.1000000  0  3G13G12G19                                       
  21596139.98449 113488481.42249     -9258.60549        49.000  

  23034688.30549 121048103.92649     -3257.61349        50.000  

  22385658.20349 117637426.78949      3086.05949        50.000  

 16 04 02 13 16 12.2000000  0  3G13G12G19                                       
  21596316.22749 113489407.63749     -9265.52349        49.000  

  23034750.32049 121048429.81649     -3260.70749        50.000  

  22385599.50849 117637118.34049      3082.63349        50.000  

 16 04 02 13 16 12.3000000  0  3G13G12G19                                       
  21596492.61749 113490334.54349     -9272.32449        49.000  

  23034812.40649 121048756.07449     -3264.23449        50.000  

  22385540.88349 117636810.28149      3078.84449        50.000  

 16 04 02 13 16 12.4000000  0  3G13G12G19                                       
  21596669.11749 113491262.09449     -9278.73049        49.000  

  23034874.53949 121049082.59049     -3266.91849        50.000  

  22385482.32049 117636502.53549      3075.64849        50.000  

 16 04 02 13 16 12.5000000  0  3G13G12G19                                       
  21596845.76649 113492190.36749     -9286.06649        49.000  

  23034936.75049 121049409.48449     -3270.68449        50.000  

  22385423.83649 117636195.19149      3071.58649        50.000  

 16 04 02 13 16 12.6000000  0  3G13G12G19                                       
  21597022.55549 113493119.30949     -9292.85549        49.000  

  23034999.01649 121049736.68849     -3274.02049        50.000  

  22385365.41449 117635888.20349      3067.85949        50.000  

 16 04 02 13 16 12.7000000  0  3G13G12G19                                       
  21597199.47749 113494049.03149     -9300.58249        49.000  

  23035061.35949 121050064.31649     -3278.07849        50.000  

  22385307.07849 117635581.67249      3063.42249        50.000  

 16 04 02 13 16 12.8000000  0  3G13G12G19                                       
  21597376.49249 113494979.39549     -9306.98449        49.000  

  23035123.75849 121050392.22749     -3280.85549        50.000  

  22385248.80549 117635275.46549      3060.25449        50.000  

 16 04 02 13 16 12.9000000  0  3G13G12G19                                       
  21597553.66449 113495910.42249     -9313.48049        49.000  

  23035186.21949 121050720.43449     -3283.73849        50.000  

  22385190.60249 117634969.59849      3056.96149        50.000  

 16 04 02 13 16 13.0000000  0  3G13G12G19                                       
  21597730.97749 113496842.15649     -9320.68449        49.000    21597727.32041
  88439082.31251     -7262.87141        20.000  
  23035248.74249 121051049.00049     -3287.35949        50.000  

  22385132.46149 117634664.12549      3052.85249        50.000  

 16 04 02 13 16 13.1000000  0  3G13G12G19                                       
  21597908.40649 113497774.56649     -9327.46549        49.000    21597904.75041
  88439808.84841     -7268.15241        20.000  
  23035311.32049 121051377.87949     -3290.62149        50.000  

  22385074.39849 117634359.00449      3049.35549        50.000  

 16 04 02 13 16 13.2000000  0  3G13G12G19                                       
  21598085.97749 113498707.70349     -9334.74649        49.000    21598078.40641
  88440535.94541     -7273.82841        20.000  
  23035373.97749 121051707.12549     -3294.37949        50.000  

  22385016.41449 117634054.28949      3045.12949        50.000  

 16 04 02 13 16 13.3000000  0  3G13G12G19                                       
  21598263.66449 113499641.49649     -9341.17249        49.000    21598256.10241
  88441263.55941     -7278.83641        20.000  
  23035436.69549 121052036.67249     -3297.26249        50.000  

  22384958.49249 117633749.91449      3041.91049        50.000  

 16 04 02 13 16 13.4000000  0  3G13G12G19                                       
  21598441.50049 113500576.03149     -9348.59049        49.000    21598432.83641
  88441991.78141     -7284.61741        20.000  
  23035499.47749 121052366.60249     -3301.01249        50.000  

  22384900.65649 117633445.95349      3037.78149        50.000  

 16 04 02 13 16 13.5000000  0  3G13G12G19                                       
  21598619.46949 113501511.24249     -9355.46549        49.000    21598610.80541
  88442720.53541     -7289.97341        20.000  
  23035562.32849 121052696.84849     -3304.28149        50.000  

  22384842.88349 117633142.35249      3034.05949        50.000  

 16 04 02 13 16 13.6000000  0  3G13G12G19                                       
  21598797.53949 113502447.10249     -9361.93849        49.000    21598792.80541
  88443449.79741     -7295.01641        20.000  
  23035625.22749 121053027.39549     -3307.22349        50.000  

  22384785.15649 117632839.08649      3030.77749        50.000  

 16 04 02 13 16 13.7000000  0  3G13G12G19                                       
  21598975.76649 113503383.66849     -9368.95749        49.000    21598971.03141
  88444179.60541     -7300.48441        20.000  
  23035688.18849 121053358.27349     -3310.46949        50.000  

  22384727.51649 117632536.19549      3027.11349        50.000  

 16 04 02 13 16 13.8000000  0  3G13G12G19                                       
  21599154.15649 113504321.02049     -9377.15249        49.000    21599152.18841
  88444910.03141     -7306.87141        20.000  
  23035751.23449 121053689.59049     -3315.27349        50.000  

  22384669.96949 117632233.77349      3021.99649        50.000  

 16 04 02 13 16 13.9000000  0  3G13G12G19                                       
  21599332.65649 113505259.04749     -9383.75049        49.000    21599330.68841
  88445640.96141     -7312.01241        20.000  
  23035814.33649 121054021.23049     -3318.16449        50.000  

  22384612.48449 117631931.71949      3018.57849        50.000  

 16 04 02 13 16 14.0000000  0  3G13G12G19                                       
  21599511.29749 113506197.75049     -9390.39849        49.000    21599507.78941
  88446372.41041     -7317.19541        20.000  
  23035877.50849 121054353.18049     -3321.38349        50.000  

  22384555.07849 117631630.01649      3015.02349        50.000  

 16 04 02 13 16 14.1000000  0  3G13G12G19                                       
  21599690.06249 113507137.14149     -9397.10549        49.000    21599686.54741
  88447104.39841     -7322.42241        20.000  
  23035940.74249 121054685.46549     -3324.52049        50.000  

  22384497.73449 117631328.68049      3011.64549        50.000  

 16 04 02 13 16 14.2000000  0  3G13G12G19                                       
  21599868.93849 113508077.25049     -9404.31249        49.000    21599861.53941
  88447836.94941     -7328.03541        20.000  
  23036004.03949 121055018.10949     -3328.10949        50.000  

  22384440.46149 117631027.74249      3007.63349        50.000  

 16 04 02 13 16 14.3000000  0  3G13G12G19                                       
  21600047.96949 113509018.07449     -9411.77749        49.000    21600040.57041
  88448570.05541     -7333.85241        20.000  
  23036067.41449 121055351.10949     -3331.99249        50.000  

  22384383.27349 117630727.19549      3003.36349        50.000  

 16 04 02 13 16 14.4000000  0  3G13G12G19                                       
  21600227.12549 113509959.60549     -9418.87949        49.000  

  23036130.85249 121055684.45349     -3335.50449        50.000  

  22384326.15649 117630427.04349      2999.35549        50.000  

 16 04 02 13 16 14.5000000  0  3G13G12G19                                       
  21600406.43049 113510901.86749     -9426.04749        49.000  

  23036194.35949 121056018.18049     -3339.19949        50.000  

  22384269.11749 117630127.30149      2995.35549        50.000  

 16 04 02 13 16 14.6000000  0  3G13G12G19                                       
  21600585.88349 113511844.82449     -9432.93449        49.000  

  23036257.92249 121056352.23049     -3342.35549        50.000  

  22384212.14149 117629827.93849      2991.61749        50.000  

 16 04 02 13 16 14.7000000  0  3G13G12G19                                       
  21600765.44549 113512788.44549     -9439.45349        49.000  

  23036321.55549 121056686.60549     -3345.29749        50.000  

  22384155.24249 117629528.91449      2988.41449        50.000  

 16 04 02 13 16 14.8000000  0  3G13G12G19                                       
  21600945.14149 113513732.73449     -9446.20349        49.000  

  23036385.24249 121057021.28149     -3348.57849        50.000  

  22384098.40649 117629230.22749      2984.90249        50.000  

 16 04 02 13 16 14.9000000  0  3G13G12G19                                       
  21601124.97749 113514677.75849     -9453.50049        49.000  

  23036449.00849 121057356.33649     -3352.20749        50.000  

  22384041.64849 117628931.97749      2980.71549        50.000  

 16 04 02 13 16 15.0000000  0  3G13G12G19                                       
  21601304.93849 113515623.42649     -9460.02049        49.000  

  23036512.82049 121057691.68849     -3355.24249        50.000  

  22383984.95349 117628634.05149      2977.41849        50.000  

 16 04 02 13 16 15.1000000  0  3G13G12G19                                       
  21601485.02349 113516569.78949     -9466.91449        49.000  

  23036576.69549 121058027.36349     -3358.55949        50.000  

  22383928.33649 117628336.49649      2973.60949        50.000  

 16 04 02 13 16 15.2000000  0  3G13G12G19                                       
  21601665.25049 113517516.86749     -9474.00449        49.000  

  23036640.64149 121058363.40649     -3362.19149        50.000  

  22383871.79749 117628039.32849      2969.80949        50.000  

 16 04 02 13 16 15.3000000  0  3G13G12G19                                       
  21601845.60249 113518464.66049     -9481.35949        49.000  

  23036704.64849 121058699.77749     -3365.59849        50.000  

  22383815.32049 117627742.55949      2965.69549        50.000  

 16 04 02 13 16 15.4000000  0  3G13G12G19                                       
  21602026.08649 113519413.07849     -9487.50449        49.000  

  23036768.71949 121059036.46149     -3368.52349        50.000  

  22383758.89849 117627446.10949      2962.63349        50.000  

 16 04 02 13 16 15.5000000  0  3G13G12G19                                       
  21602206.70349 113520362.21549     -9494.53149        49.000  

  23036832.85249 121059373.47349     -3371.91849        50.000  

  22383702.56249 117627150.04349      2958.82449        50.000  

 16 04 02 13 16 15.6000000  0  3G13G12G19                                       
  21602387.43849 113521312.01649     -9501.38349        49.000  

  23036897.03949 121059710.80549     -3375.07049        50.000  

  22383646.28949 117626854.32449      2955.30149        50.000  

 16 04 02 13 16 15.7000000  0  3G13G12G19                                       
  21602568.32049 113522262.54749     -9508.58649        49.000  

  23036961.29749 121060048.50849     -3378.75449        50.000  

  22383590.09449 117626559.02349      2951.20349        50.000  

 16 04 02 13 16 15.8000000  0  3G13G12G19                                       
  21602749.32849 113523213.75449     -9515.44149        49.000  

  23037025.62549 121060386.53949     -3382.10249        50.000  

  22383533.97749 117626264.08249      2947.50449        50.000  

 16 04 02 13 16 15.9000000  0  3G13G12G19                                       
  21602930.46949 113524165.67649     -9522.55149        49.000  

  23037090.00849 121060724.91049     -3385.64149        50.000  

  22383477.92249 117625969.53149      2943.57449        50.000  

 16 04 02 13 16 16.0000000  0  3G13G12G19                                       
  21603111.73449 113525118.25849     -9528.92649        49.000    21603113.15641
  88461135.85951     -7425.13741        20.000  
  23037154.46149 121061063.59849     -3388.38349        50.000  

  22383421.94549 117625675.32849      2940.32449        50.000  

 16 04 02 13 16 16.1000000  0  3G13G12G19                                       
  21603293.14149 113526071.56649     -9536.42649        49.000    21603294.56241
  88461878.69941     -7430.98041        20.000  
  23037218.98449 121061402.65249     -3392.35549        50.000  

  22383366.03149 117625381.52349      2936.17249        50.000  

 16 04 02 13 16 16.2000000  0  3G13G12G19                                       
  21603474.67249 113527025.55949     -9543.21549        49.000    21603477.96141
  88462622.07441     -7436.27341        20.000  
  23037283.56249 121061742.02749     -3395.59449        50.000  

  22383310.18849 117625088.09049      2932.51649        50.000  

 16 04 02 13 16 16.3000000  0  3G13G12G19                                       
  21603656.33649 113527980.22349     -9549.91849        49.000    21603659.62541
  88463365.97341     -7441.49641        20.000  
  23037348.21149 121062081.72749     -3398.66049        50.000  

  22383254.41449 117624795.00449      2929.09449        50.000  

 16 04 02 13 16 16.4000000  0  3G13G12G19                                       
  21603838.12549 113528935.53949     -9556.38349        49.000  

  23037412.90649 121062421.71949     -3401.56249        50.000  

  22383198.71149 117624502.26249      2925.62549        50.000  

 16 04 02 13 16 16.5000000  0  3G13G12G19                                       
  21604020.06249 113529891.61749     -9563.95749        49.000  

  23037477.68849 121062762.11349     -3405.62949        50.000  

  22383143.08649 117624209.96149      2921.25449        50.000  

 16 04 02 13 16 16.6000000  0  3G13G12G19                                       
  21604202.10249 113530848.34049     -9570.60249        49.000  

  23037542.51649 121063102.80149     -3408.72749        50.000  

  22383087.51649 117623917.98049      2917.86349        50.000  

 16 04 02 13 16 16.7000000  0  3G13G12G19                                       
  21604384.28949 113531805.76249     -9577.58649        49.000  

  23037607.41449 121063443.82049     -3412.01249        50.000  

  22383032.03149 117623626.37549      2914.27049        50.000  

 16 04 02 13 16 16.8000000  0  3G13G12G19                                       
  21604566.60949 113532763.85249     -9584.14849        49.000  

  23037672.36749 121063785.15249     -3415.00449        50.000  

  22382976.60949 117623335.12949      2910.71149        50.000  

 16 04 02 13 16 16.9000000  0  3G13G12G19                                       
  21604749.06249 113533722.64149     -9591.17249        49.000  

  23037737.39149 121064126.83249     -3418.53949        50.000  

  22382921.25849 117623044.26249      2906.91449        50.000  

 16 04 02 13 16 17.0000000  0  3G13G12G19                                       
  21604931.64149 113534682.10249     -9597.90249        49.000    21604929.68841
  88468574.09051     -7478.88741        20.000  
  23037802.46949 121064468.82849     -3421.68049        50.000  

  22382865.97749 117622753.75849      2903.15249        50.000  

 16 04 02 13 16 17.1000000  0  3G13G12G19                                       
  21605114.36749 113535642.35549     -9605.94149        49.000    21605112.42241
  88469322.33641     -7485.14841        20.000  
  23037867.63349 121064811.25049     -3426.09449        50.000  

  22382810.78149 117622463.70349      2898.60949        50.000  

 16 04 02 13 16 17.2000000  0  3G13G12G19                                       
  21605297.20349 113536603.25449     -9612.50849        49.000    21605296.10941
  88470071.08641     -7490.26641        20.000  
  23037932.85249 121065153.97749     -3429.14149        50.000  

  22382755.67249 117622174.00449      2894.97749        50.000  

 16 04 02 13 16 17.3000000  0  3G13G12G19                                       
  21605480.18849 113537564.83649     -9618.97749        49.000    21605479.09441
  88470820.36741     -7495.30941        20.000  
  23037998.13349 121065497.02049     -3432.02749        50.000  

  22382700.60949 117621884.65249      2891.76249        50.000  

 16 04 02 13 16 17.4000000  0  3G13G12G19                                       
  21605663.29749 113538527.05549     -9625.32449        49.000    21605664.54741
  88471570.15241     -7500.25441        20.000  
  23038063.46949 121065840.35549     -3434.95749        50.000  

  22382645.60249 117621595.63349      2888.47349        50.000  

 16 04 02 13 16 17.5000000  0  3G13G12G19                                       
  21605846.53949 113539490.01649     -9632.75049        49.000    21605847.78941
  88472320.51241     -7506.03941        20.000  
  23038128.85949 121066184.05149     -3438.64149        50.000  

  22382590.68049 117621307.01249      2884.41849        50.000  

 16 04 02 13 16 17.6000000  0  3G13G12G19                                       
  21606029.91449 113540453.64549     -9639.66849        49.000    21606033.41441
  88473071.39141     -7511.43041        20.000  
  23038194.32849 121066528.07849     -3442.07049        50.000  

  22382535.82049 117621018.76649      2880.52049        50.000  

 16 04 02 13 16 17.7000000  0  3G13G12G19                                       
  21606213.43049 113541418.01649     -9647.14549        49.000    21606216.93041
  88473822.85241     -7517.25441        20.000  
  23038259.85949 121066872.48449     -3445.76649        50.000  

  22382481.04749 117620730.92249      2876.57049        50.000  

 16 04 02 13 16 17.8000000  0  3G13G12G19                                       
  21606397.06249 113542383.02049     -9653.40649        49.000    21606402.53141
  88474574.80541     -7522.13741        20.000  
  23038325.45349 121067217.17249     -3448.69549        50.000  

  22382426.33649 117620443.42649      2873.14549        50.000  

 16 04 02 13 16 17.9000000  0  3G13G12G19                                       
  21606580.83649 113543348.75049     -9660.67249        49.000    21606586.31241
  88475327.32841     -7527.79741        20.000  
  23038391.10949 121067562.22349     -3452.45749        50.000  

  22382371.69549 117620156.30549      2869.02349        50.000  

 16 04 02 13 16 18.0000000  0  3G13G12G19                                       
  21606764.71949 113544315.16049     -9667.19549        49.000    21606768.63341
  88476080.38341     -7532.87941        23.000  
  23038456.82849 121067907.60249     -3455.14849        50.000  

  22382317.13349 117619869.56249      2865.89149        50.000  

 16 04 02 13 16 18.1000000  0  3G13G12G19                                       
  21606948.75049 113545282.21149     -9673.90249        49.000    21606952.65641
  88476833.93841     -7538.10541        20.000  
  23038522.61749 121068253.27349     -3458.52749        50.000  

  22382262.63349 117619583.14849      2862.21549        49.000  

 16 04 02 13 16 18.2000000  0  3G13G12G19                                       
  21607132.91449 113546249.99249     -9681.19949        49.000    21607137.57841
  88477588.05941     -7543.79341        20.000  
  23038588.46149 121068599.29749     -3462.17649        50.000  

  22382208.20349 117619297.12949      2858.15249        50.000  

 16 04 02 13 16 18.3000000  0  3G13G12G19                                       
  21607317.21949 113547218.49649     -9688.42649        49.000    21607321.88341
  88478342.74641     -7549.42241        20.000  
  23038654.38349 121068945.70349     -3465.83649        50.000  

  22382153.85949 117619011.52049      2854.17249        50.000  

 16 04 02 13 16 18.4000000  0  3G13G12G19                                       
  21607501.63349 113548187.64849     -9694.94549        49.000  

  23038720.35249 121069292.40249     -3468.74249        50.000  

  22382099.56249 117618726.25049      2850.79349        50.000  

 16 04 02 13 16 18.5000000  0  3G13G12G19                                       
  21607686.18849 113549157.48449     -9701.62149        49.000  

  23038786.39149 121069639.42649     -3471.87149        50.000  

  22382045.35249 117618441.34449      2847.18849        50.000  

 16 04 02 13 16 18.6000000  0  3G13G12G19                                       
  21607870.89149 113550128.02749     -9708.73849        49.000  

  23038852.49249 121069986.79749     -3475.52749        50.000  

  22381991.21949 117618156.81649      2843.30149        50.000  

 16 04 02 13 16 18.7000000  0  3G13G12G19                                       
  21608055.70349 113551099.24249     -9715.55149        49.000  

  23038918.66449 121070334.49649     -3478.81649        50.000  

  22381937.14149 117617872.65249      2839.70349        50.000  

 16 04 02 13 16 18.8000000  0  3G13G12G19                                       
  21608240.66449 113552071.17649     -9722.77749        49.000  

  23038984.89149 121070682.53549     -3482.40249        50.000  

  22381883.14149 117617588.89849      2835.51649        50.000  

 16 04 02 13 16 18.9000000  0  3G13G12G19                                       
  21608425.75049 113553043.80549     -9729.43049        49.000  

  23039051.19549 121071030.93049     -3485.43849        50.000  

  22381829.21149 117617305.49249      2832.30149        50.000  

 16 04 02 13 16 19.0000000  0  3G13G12G19                                       
  21608610.93849 113554017.03149     -9735.50449        49.000  

  23039117.53149 121071379.56649     -3488.05949        50.000  

  22381775.33649 117617022.39549      2829.24249        50.000  

 16 04 02 13 16 19.1000000  0  3G13G12G19                                       
  21608796.27349 113554991.00049     -9742.92249        49.000  

  23039183.95349 121071728.58649     -3491.98849        50.000  

  22381721.54749 117616739.71949      2824.85249        50.000  

 16 04 02 13 16 19.2000000  0  3G13G12G19                                       
  21608981.77349 113555965.69149     -9750.09849        49.000  

  23039250.43849 121072077.97749     -3495.56249        50.000  

  22381667.83649 117616457.43849      2821.01249        50.000  

 16 04 02 13 16 19.3000000  0  3G13G12G19                                       
  21609167.36749 113556941.00849     -9756.48449        49.000  

  23039316.97749 121072427.63349     -3498.39549        50.000  

  22381614.18049 117616175.47349      2817.76649        50.000  

 16 04 02 13 16 19.4000000  0  3G13G12G19                                       
  21609353.10949 113557917.07449     -9763.92249        49.000  

  23039383.58649 121072777.67249     -3502.18449        50.000  

  22381560.60949 117615893.93049      2813.51649        50.000  

 16 04 02 13 16 19.5000000  0  3G13G12G19                                       
  21609538.96149 113558893.75049     -9770.14149        49.000  

  23039450.24249 121073127.97749     -3504.79749        50.000  

  22381507.08649 117615612.68049      2810.57849        50.000  

 16 04 02 13 16 19.6000000  0  5G13G25G12G19G15                                 
  21609724.96149 113559871.16449     -9777.43849        49.000  

  26249248.30549 137940729.94959    -15507.77749        48.000  

  23039516.96949 121073478.66049     -3508.62949        50.000  

  22381453.64849 117615331.85549      2806.32849        50.000  

  22063014.68049 115941924.41859     10905.71149        49.000  

 16 04 02 13 16 19.7000000  0  5G13G25G12G19G15                                 
  21609911.08649 113560849.25449     -9784.24649        49.000  

  26249543.41449 137942280.75849    -15508.72749        48.000  

  23039583.77349 121073829.67249     -3511.86349        50.000  

  22381400.28149 117615051.39549      2802.74649        50.000  

  22062807.21149 115940834.15649     10899.24249        49.000  

 16 04 02 13 16 19.8000000  0  5G13G25G12G19G15                                 
  21610097.34449 113561828.05549     -9791.28549        49.000  

  26249838.59449 137943831.70749    -15509.93449        48.000  

  23039650.63349 121074181.03149     -3515.22749        50.000  

  22381346.97749 117614771.32049      2799.02349        50.000  

  22062599.87549 115939744.59449     10892.45749        49.000  

 16 04 02 13 16 19.9000000  0  5G13G25G12G19G15                                 
  21610283.71949 113562807.47749     -9797.52749        49.000  

  26250133.74249 137945382.69949    -15510.49649        48.000  

  23039717.53949 121074532.65249     -3517.94549        50.000  

  22381293.74249 117614491.55149      2795.70749        50.000  

  22062392.65649 115938655.61349     10886.53549        49.000  

 16 04 02 13 16 20.0000000  0  5G13G25G12G19G15                                 
  21610470.25049 113563787.66049     -9805.35249        49.000  

  26250428.96949 137946933.88349    -15512.67649        48.000  

  23039784.53149 121074884.69549     -3522.44149        50.000  

  22381240.58649 117614212.23849      2791.10549        50.000  

  22062185.56249 115937567.37949     10878.92649        49.000  

 16 04 02 13 16 20.1000000  0  5G13G25G12G19G15                                 
  21610656.91449 113564768.59849     -9812.84849        49.000  

  26250724.18049 137948485.23849    -15514.30949        48.000  

  23039851.59449 121075237.11749     -3526.14549        50.000  

  22381187.50849 117613933.33649      2786.95749        50.000  

  22061978.61749 115936479.87549     10871.59049        49.000  

 16 04 02 13 16 20.2000000  0  5G13G25G12G19G15                                 
  21610843.71149 113565750.21149     -9819.65249        49.000  

  26251019.41449 137950036.70349    -15515.33649        48.000  

  23039918.71949 121075589.86749     -3529.38749        50.000  

  22381134.50849 117613654.81649      2783.19149        50.000  

  22061771.78949 115935393.00849     10865.22749        49.000  

 16 04 02 13 16 20.3000000  0  5G13G25G12G19G15                                 
  21611030.62549 113566732.44949     -9825.66449        49.000  

  26251314.65649 137951588.21149    -15515.71949        48.000  

  23039985.90649 121075942.89549     -3531.91849        50.000  

  22381081.56249 117613376.59849      2780.32449        50.000  

  22061565.08649 115934306.76649     10859.15649        49.000  

 16 04 02 13 16 20.4000000  0  5G13G25G12G19G15                                 
  21611217.69549 113567715.44149     -9833.12549        49.000  

  26251609.95349 137953139.90249    -15517.51249        48.000  

  23040053.15649 121076296.30949     -3535.93049        50.000  

  22381028.70349 117613098.80949      2776.05949        50.000  

  22061358.47749 115933221.23049     10852.03949        49.000  

 16 04 02 13 16 20.5000000  0  5G13G25G12G19G15                                 
  21611404.87549 113568699.10549     -9839.87149        49.000  

  26251905.25049 137954691.69149    -15518.41049        48.000  

  23040120.46149 121076650.04349     -3538.98449        50.000  

  22380975.91449 117612821.38349      2772.54349        50.000  

  22061152.03149 115932136.35949     10845.54349        49.000  

 16 04 02 13 16 20.6000000  0  5G13G25G12G19G15                                 
  21611592.19549 113569683.43449     -9846.77049        49.000  

  26252200.55549 137956243.57049    -15519.62149        48.000  

  23040187.83649 121077004.07849     -3542.41849        50.000  

  22380923.18849 117612544.28549      2768.92249        50.000  

  22060945.69549 115931052.11349     10838.97749        49.000  

 16 04 02 13 16 20.7000000  0  5G13G25G12G19G15                                 
  21611779.64149 113570668.46949     -9853.53149        49.000  

  26252495.89149 137957795.59049    -15520.65249        48.000  

  23040255.28149 121077358.49249     -3545.73849        50.000  

  22380870.53949 117612267.61349      2765.04349        50.000  

  22060739.50049 115929968.56249     10832.27349        49.000  

 16 04 02 13 16 20.8000000  0  5G13G25G12G19G15                                 
  21611967.21949 113571654.18049     -9860.41849        49.000  

  26252791.25049 137959347.69949    -15521.72749        48.000  

  23040322.77349 121077713.19949     -3548.87949        50.000  

  22380817.95349 117611991.27349      2761.44149        50.000  

  22060533.43049 115928885.65649     10825.67249        49.000  

 16 04 02 13 16 20.9000000  0  5G13G25G12G19G15                                 
  21612154.92249 113572640.59449     -9867.44949        49.000  

  26253086.63349 137960899.94149    -15523.04749        48.000  

  23040390.35249 121078068.25849     -3552.29349        50.000  

  22380765.43849 117611715.32449      2757.61349        50.000  

  22060327.49249 115927803.42649     10818.99649        49.000  

 16 04 02 13 16 21.0000000  0  5G13G25G12G19G15                                 
  21612342.75849 113573627.66849     -9874.09449        49.000  

  26253382.03949 137962452.26249    -15523.90249        48.000  

  23040457.97749 121078423.62549     -3555.55949        50.000  

  22380712.99249 117611439.71949      2754.10949        50.000  

  22060121.68049 115926721.83249     10812.57449        49.000  

 16 04 02 13 16 21.1000000  0  5G13G25G12G19G15                                 
  21612530.72749 113574615.47349     -9881.34849        49.000  

  26253677.46949 137964004.75049    -15525.40649        48.000  

  23040525.67249 121078779.37149     -3559.06649        50.000  

  22380660.62549 117611164.53149      2750.08249        50.000  

  22059915.99249 115925640.94149     10805.77749        49.000  

 16 04 02 13 16 21.2000000  0  5G13G25G12G19G15                                 
  21612718.82049 113575603.86349     -9887.18449        49.000  

  26253972.93049 137965557.25449    -15525.69149        48.000  

  23040593.41449 121079135.35249     -3561.49649        50.000  

  22380608.31249 117610889.61349      2747.37949        50.000  

  22059710.41449 115924560.63749     10799.75449        49.000  

 16 04 02 13 16 21.3000000  0  5G13G25G12G19G15                                 
  21612907.04749 113576592.97749     -9894.16849        49.000  

  26254268.38349 137967109.89149    -15526.60949        48.000  

  23040661.21149 121079491.68049     -3564.72749        50.000  

  22380556.07849 117610615.09449      2743.55149        50.000  

  22059504.96949 115923481.00849     10793.30949        49.000  

 16 04 02 13 16 21.4000000  0  5G13G25G12G19G15                                 
  21613095.39849 113577582.78149     -9901.45349        49.000  

  26254563.83649 137968662.64849    -15528.31649        48.000  

  23040729.08649 121079848.37149     -3568.65249        50.000  

  22380503.91449 117610340.96149      2739.35949        50.000  

  22059299.64849 115922402.05549     10786.18049        49.000  

 16 04 02 13 16 21.5000000  0  5G13G25G12G19G15                                 
  21613283.88349 113578573.30149     -9908.56649        49.000  

  26254859.34449 137970215.56649    -15529.77749        48.000  

  23040797.02349 121080205.41049     -3572.26649        50.000  

  22380451.82049 117610067.22349      2735.42249        50.000  

  22059094.46949 115921323.79349     10779.27049        49.000  

 16 04 02 13 16 21.6000000  0  5G13G25G12G19G15                                 
  21613472.51649 113579564.49649     -9915.29349        49.000  

  26255154.87549 137971768.56249    -15530.65249        48.000  

  23040865.03149 121080562.76649     -3575.40649        50.000  

  22380399.79749 117609793.83649      2731.84449        50.000  

  22058889.42249 115920246.18449     10772.70749        49.000  

 16 04 02 13 16 21.7000000  0  5G13G25G12G19G15                                 
  21613661.28149 113580556.44149     -9922.89849        49.000  

  26255450.43849 137973321.74249    -15532.62949        48.000  

  23040933.10249 121080920.52049     -3579.40249        50.000  

  22380347.85249 117609520.88749      2727.43449        50.000  

  22058684.49249 115919169.28149     10765.51649        49.000  

 16 04 02 13 16 21.8000000  0  5G13G25G12G19G15                                 
  21613850.16449 113581549.08249     -9929.83249        49.000  

  26255746.01649 137974875.03949    -15533.64849        48.000  

  23041001.25049 121081278.61349     -3582.82049        50.000  

  22380295.98449 117609248.30949      2723.76249        50.000  

  22058479.73449 115918093.07849     10758.68449        49.000  

 16 04 02 13 16 21.9000000  0  5G13G25G12G19G15                                 
  21614039.18049 113582542.39149     -9936.51249        49.000  

  26256041.61749 137976428.43849    -15534.66849        48.000  

  23041069.44549 121081637.02349     -3585.94149        50.000  

  22380244.18849 117608976.09849      2720.21149        50.000  

  22058275.05549 115917017.51649     10752.20349        49.000  

 16 04 02 13 16 22.0000000  0  5G13G25G12G19G15                                 
  21614228.32849 113583536.40649     -9943.47749        49.000  

  26256337.24249 137977981.97349    -15535.96149        48.000  

  23041137.71149 121081995.77749     -3589.37149        50.000  

  22380192.46149 117608704.26649      2716.39849        50.000  

  22058070.49249 115915942.62549     10745.55149        49.000  

 16 04 02 13 16 22.1000000  0  5G13G25G12G19G15                                 
  21614417.60949 113584531.05949     -9949.86349        49.000  

  26256632.88349 137979535.56649    -15536.53549        48.000  

  23041206.03149 121082354.81649     -3592.23449        50.000  

  22380140.78949 117608432.75849      2713.25449        50.000  

  22057866.06249 115914868.35549     10739.46549        49.000  

 16 04 02 13 16 22.2000000  0  5G13G25G12G19G15                                 
  21614607.02349 113585526.43049     -9956.98049        49.000  

  26256928.58649 137981089.30149    -15537.91449        48.000  

  23041274.42249 121082714.21549     -3595.73049        50.000  

  22380089.20349 117608161.65249      2709.24249        50.000  

  22057661.77349 115913794.77349     10732.58649        49.000  

 16 04 02 13 16 22.3000000  0  5G13G25G12G19G15                                 
  21614796.57849 113586522.53149     -9964.28949        49.000  

  26257224.28149 137982643.19149    -15539.40649        48.000  

  23041342.89149 121083074.00449     -3599.42249        50.000  

  22380037.69549 117607890.95749      2705.19549        50.000  

  22057457.60949 115912721.90249     10725.54749        49.000  

 16 04 02 13 16 22.4000000  0  5G13G25G12G19G15                                 
  21614986.25849 113587519.26249     -9970.71149        49.000  

  26257519.98449 137984197.14149    -15540.18049        48.000  

  23041411.40649 121083434.05949     -3602.37949        50.000  

  22379986.24249 117607620.57849      2701.84449        50.000  

  22057253.56249 115911649.64149     10719.21949        49.000  

 16 04 02 13 16 22.5000000  0  5G13G25G12G19G15                                 
  21615176.05549 113588516.68449     -9977.54349        49.000  

  26257815.71949 137985751.21149    -15541.35549        48.000  

  23041479.99249 121083794.44949     -3605.76249        50.000  

  22379934.85949 117607350.58249      2698.07049        50.000  

  22057049.64849 115910578.05549     10712.56649        49.000  

 16 04 02 13 16 22.6000000  0  5G13G25G12G19G15                                 
  21615366.00049 113589514.84049     -9984.82049        49.000  

  26258111.48449 137987305.43849    -15542.86749        48.000  

  23041548.64149 121084155.22349     -3609.52749        50.000  

  22379883.55549 117607080.99249      2693.97349        50.000  

  22056845.88349 115909507.16449     10705.57849        49.000  

 16 04 02 13 16 22.7000000  0  5G13G25G12G19G15                                 
  21615556.07049 113590513.66449     -9991.49649        49.000  

  26258407.26649 137988859.76249    -15543.68849        48.000  

  23041617.35249 121084516.30149     -3612.51649        50.000  

  22379832.32049 117606811.75449      2690.55549        50.000  

  22056642.21949 115908436.92649     10699.16849        49.000  

 16 04 02 13 16 22.8000000  0  5G13G25G12G19G15                                 
  21615746.27349 113591513.19549     -9998.66849        49.000  

  26258703.08649 137990414.20349    -15545.14149        48.000  

  23041686.13349 121084877.74249     -3616.28949        50.000  

  22379781.14849 117606542.91049      2686.46949        50.000  

  22056438.68849 115907367.37549     10692.14149        49.000  

 16 04 02 13 16 22.9000000  0  5G13G25G12G19G15                                 
  21615936.60249 113592513.40249    -10005.36749        49.000  

  26258998.91449 137991968.77049    -15546.26249        48.000  

  23041754.97749 121085239.50049     -3619.36749        50.000  

  22379730.06249 117606274.43449      2682.97749        50.000  

  22056235.28149 115906298.46949     10685.72749        49.000  

 16 04 02 13 16 23.0000000  0  5G13G25G12G19G15                                 
  21616127.07049 113593514.29749    -10012.39549        49.000  

  26259294.75049 137993523.43449    -15547.45749        48.000  

  23041823.87549 121085601.58249     -3622.76649        50.000  

  22379679.04749 117606006.30949      2679.23049        50.000  

  22056032.00049 115905230.23849     10678.94149        49.000  

 16 04 02 13 16 23.1000000  0  5G13G25G12G19G15                                 
  21616317.65649 113594515.84049    -10018.59849        49.000  

  26259590.60949 137995078.18849    -15548.06649        48.000  

  23041892.84449 121085963.97349     -3625.52049        50.000  

  22379628.09449 117605738.54349      2675.86349        50.000  

  22055828.84449 115904162.63749     10672.82049        49.000  

 16 04 02 13 16 23.2000000  0  5G13G25G12G19G15                                 
  21616508.36749 113595518.07049    -10025.44149        49.000  

  26259886.48449 137996633.04349    -15549.00849        48.000  

  23041961.86749 121086326.68849     -3628.73849        50.000  

  22379577.19549 117605471.13349      2672.37949        50.000  

  22055625.79749 115903095.68049     10666.39549        49.000  

 16 04 02 13 16 23.3000000  0  5G13G25G12G19G15                                 
  21616699.21149 113596520.95749    -10032.10549        49.000  

  26260182.38349 137998187.98849    -15550.12549        48.000  

  23042030.94549 121086689.71149     -3632.00849        50.000  

  22379526.37549 117605204.06249      2668.80949        50.000  

  22055422.88349 115902029.37549     10659.78549        49.000  

 16 04 02 13 16 23.4000000  0  5G13G25G12G19G15                                 
  21616890.18849 113597524.53149    -10038.96949        49.000  

  26260478.32049 137999743.04349    -15551.18449        48.000  

  23042100.09449 121087053.06249     -3635.25049        50.000  

  22379475.62549 117604937.36749      2665.15249        50.000  

  22055220.10949 115900963.73049     10653.21149        49.000  

 16 04 02 13 16 23.5000000  0  5G13G25G12G19G15                                 
  21617081.29749 113598528.78149    -10045.77349        49.000  

  26260774.25849 138001298.21149    -15552.17649        48.000  

  23042169.28949 121087416.74249     -3638.50449        50.000  

  22379424.94549 117604671.04349      2661.38349        50.000  

  22055017.45349 115899898.73849     10646.63349        49.000  

 16 04 02 13 16 23.6000000  0  5G13G25G12G19G15                                 
  21617272.53149 113599533.68849    -10052.35549        49.000  

  26261070.18849 138002853.43449    -15552.84849        48.000  

  23042238.55549 121087780.71549     -3641.45749        50.000  

  22379374.32849 117604405.03149      2658.18449        50.000  

  22054814.91449 115898834.37949     10640.43049        49.000  

 16 04 02 13 16 23.7000000  0  5G13G25G12G19G15                                 
  21617463.89149 113600539.32049    -10059.68049        49.000  

  26261366.17249 138004408.83649    -15554.69949        48.000  

  23042307.88349 121088145.05149     -3645.27049        50.000  

  22379323.78949 117604139.44949      2653.85949        50.000  

  22054612.50849 115897770.72349     10633.14549        49.000  

 16 04 02 13 16 23.8000000  0  5G13G25G12G19G15                                 
  21617655.40649 113601545.64149    -10066.41449        49.000  

  26261662.14149 138005964.34049    -15555.48449        48.000  

  23042377.28149 121088509.73849     -3648.42649        50.000  

  22379273.32049 117603874.23849      2650.31649        50.000  

  22054410.21949 115896707.73449     10626.68449        49.000  

 16 04 02 13 16 23.9000000  0  5G13G25G12G19G15                                 
  21617847.03149 113602552.62149    -10073.13349        49.000  

  26261958.15649 138007519.93449    -15556.52349        48.000  

  23042446.73449 121088874.73049     -3651.68049        50.000  

  22379222.92249 117603609.36749      2646.81649        50.000  

  22054208.06249 115895645.38749     10620.16049        49.000  

 16 04 02 13 16 24.0000000  0  5G13G25G12G19G15                                 
  21618038.77349 113603560.26249    -10079.75449        49.000  

  26262254.22749 138009075.62149    -15557.55949        48.000  

  23042516.25049 121089240.02049     -3654.77049        50.000  

  22379172.57849 117603344.84849      2643.20349        50.000  

  22054006.00849 115894583.67649     10613.78949        49.000  

 16 04 02 13 16 24.1000000  0  5G13G25G12G19G15                                 
  21618230.66449 113604568.64149    -10087.02049        49.000  

  26262550.28949 138010631.45749    -15559.00849        48.000  

  23042585.83649 121089605.69549     -3658.42249        50.000  

  22379122.32049 117603080.73449      2639.20349        50.000  

  22053804.10249 115893522.68449     10606.70349        49.000  

 16 04 02 13 17  6.9000000  0  1G12                                             
  22584055.47749 118680011.26659     -5030.37949        50.000  

 16 04 02 13 17  7.0000000  0  2G12G19                                          
  22584151.21949 118680514.41449     -5033.16049        50.000  

  21869954.14849 114927383.27059      1097.30949        50.000  

 16 04 02 13 17  7.1000000  0  2G12G19                                          
  22584247.02349 118681017.88749     -5036.32849        50.000  

  21869933.29749 114927273.69949      1093.96949        50.000  

 16 04 02 13 17  7.2000000  0  2G12G19                                          
  22584342.89149 118681521.68449     -5039.66849        50.000  

  21869912.50049 114927164.51249      1090.12949        50.000  

 16 04 02 13 17  7.3000000  0  2G12G19                                          
  22584438.84449 118682025.83249     -5043.07049        50.000  

  21869891.79749 114927055.70749      1086.35949        50.000  

 16 04 02 13 17  7.4000000  0  2G12G19                                          
  22584534.82849 118682530.25849     -5045.97749        50.000  

  21869871.14149 114926947.21549      1083.09449        50.000  

 16 04 02 13 17  7.5000000  0  3G15G12G19                                       
  21484089.70349 112899652.37959      7738.59849        49.000  

  22584630.87549 118683034.96549     -5048.69549        50.000  

  21869850.56249 114926839.05149      1079.89549        50.000  

 16 04 02 13 17  7.6000000  0  3G15G12G19                                       
  21483942.51649 112898878.92249      7731.34049        49.000  

  22584726.99249 118683540.03949     -5052.38349        50.000  

  21869830.03949 114926731.28949      1075.82849        50.000  

 16 04 02 13 17  7.7000000  0  3G15G12G19                                       
  21483795.40649 112898106.12949      7724.76649        49.000  

  22584823.16449 118684045.45349     -5055.72749        50.000  

  21869809.60949 114926623.90649      1072.18049        50.000  

 16 04 02 13 17  7.8000000  0  3G15G12G19                                       
  21483648.46149 112897333.96949      7718.43049        49.000  

  22584919.38349 118684551.10949     -5058.26249        50.000  

  21869789.21949 114926516.80549      1069.22749        50.000  

 16 04 02 13 17  7.9000000  0  3G15G12G19                                       
  21483501.67249 112896562.43449      7712.20749        49.000  

  22585015.67249 118685057.08249     -5061.29749        50.000  

  21869768.90649 114926410.06249      1065.74649        50.000  

 16 04 02 13 17  8.0000000  0  3G15G12G19                                       
  21483354.98449 112895791.60249      7705.27349        49.000  

  22585112.02349 118685563.38749     -5064.61749        50.000  

  21869748.66449 114926303.69149      1062.02349        50.000  

 16 04 02 13 17  8.1000000  0  3G15G12G19                                       
  21483208.38349 112895021.41449      7698.79349        49.000  

  22585208.42249 118686070.00849     -5067.73049        50.000  

  21869728.49249 114926197.66849      1058.57049        50.000  

 16 04 02 13 17  8.2000000  0  3G15G12G19                                       
  21483061.94549 112894251.85949      7692.46149        49.000  

  22585304.87549 118686576.88749     -5070.30149        50.000  

  21869708.36749 114926091.95349      1055.49649        50.000  

 16 04 02 13 17  8.3000000  0  3G15G12G19                                       
  21482915.60949 112893483.05949      7684.69149        49.000  

  22585401.39149 118687084.18449     -5074.64149        50.000  

  21869688.33649 114925986.69149      1050.71549        50.000  

 16 04 02 13 17  8.4000000  0  3G15G12G19                                       
  21482769.43849 112892714.89149      7678.43049        49.000  

  22585497.98449 118687591.77349     -5077.55549        50.000  

  21869668.34449 114925881.75049      1047.61349        50.000  

 16 04 02 13 17  8.5000000  0  3G15G12G19                                       
  21482623.37549 112891947.35249      7672.20749        49.000  

  22585594.63349 118688099.64549     -5080.36749        50.000  

  21869648.43849 114925777.14149      1044.40649        50.000  

 16 04 02 13 17  8.6000000  0  3G15G12G19                                       
  21482477.43849 112891180.48049      7665.63349        49.000  

  22585691.33649 118688607.81249     -5083.27349        50.000  

  21869628.59449 114925672.87149      1041.00049        50.000  

 16 04 02 13 17  8.7000000  0  3G15G12G19                                       
  21482331.60949 112890414.26649      7658.96549        49.000  

  22585788.10949 118689116.30949     -5086.60949        50.000  

  21869608.82049 114925568.96149      1037.34849        50.000  

 16 04 02 13 17  8.8000000  0  3G15G12G19                                       
  21482185.93849 112889648.73849      7652.10549        49.000  

  22585884.93849 118689625.13349     -5089.85249        50.000  

  21869589.11749 114925465.42249      1033.73049        50.000  

 16 04 02 13 17  8.9000000  0  3G15G12G19                                       
  21482040.41449 112888883.86749      7645.49649        49.000  

  22585981.82849 118690134.27049     -5093.02749        50.000  

  21869569.47749 114925362.24249      1030.05549        50.000  

 16 04 02 13 17  9.0000000  0  3G15G12G19                                       
  21481895.00049 112888119.70349      7638.46549        49.000  

  22586078.78149 118690643.77049     -5096.64149        50.000  

  21869549.91449 114925259.45349      1026.15649        50.000  

 16 04 02 13 17  9.1000000  0  3G15G12G19                                       
  21481749.70349 112887356.14149      7632.55149        49.000  

  22586175.77349 118691153.52049     -5099.01649        50.000  

  21869530.41449 114925156.96149      1023.28149        50.000  

 16 04 02 13 17  9.2000000  0  3G15G12G19                                       
  21481604.53149 112886593.27349      7625.46549        49.000  

  22586272.84449 118691663.61749     -5102.70749        50.000  

  21869510.98449 114925054.84449      1019.36349        50.000  

 16 04 02 13 17  9.3000000  0  3G15G12G19                                       
  21481459.52349 112885831.04749      7619.06249        49.000  

  22586369.96149 118692173.99649     -5105.41049        50.000  

  21869491.61749 114924953.06649      1016.10249        50.000  

 16 04 02 13 17  9.4000000  0  3G15G12G19                                       
  21481314.60949 112885069.50849      7612.24249        49.000  

  22586467.14849 118692684.72749     -5108.88349        50.000  

  21869472.32049 114924851.67249      1012.28149        50.000  

 16 04 02 13 17  9.5000000  0  3G15G12G19                                       
  21481169.82049 112884308.60549      7605.81649        49.000  

  22586564.39149 118693195.74649     -5111.81249        50.000  

  21869453.08649 114924750.60249      1008.88749        50.000  

 16 04 02 13 17  9.6000000  0  3G15G12G19                                       
  21481025.15649 112883548.36749      7599.43849        49.000  

  22586661.69549 118693707.07449     -5114.71949        50.000  

  21869433.93849 114924649.88349      1005.62149        50.000  

 16 04 02 13 17  9.7000000  0  3G15G12G19                                       
  21480880.61749 112882788.78549      7592.60249        49.000  

  22586759.05549 118694218.70349     -5118.03149        50.000  

  21869414.83649 114924549.50449      1001.96949        50.000  

 16 04 02 13 17  9.8000000  0  3G15G12G19                                       
  21480736.21149 112882029.89549      7585.68449        49.000  

  22586856.48449 118694730.68849     -5121.44149        50.000  

  21869395.80549 114924449.52049       998.08649        50.000  

 16 04 02 13 17  9.9000000  0  3G15G12G19                                       
  21480591.92249 112881271.66049      7579.03549        49.000  

  22586953.95349 118695242.96949     -5124.59849        50.000  

  21869376.83649 114924349.87149       994.63349        50.000  

 16 04 02 13 17 10.0000000  0  3G15G12G19                                       
  21480447.76649 112880514.12549      7572.14149        49.000  

  22587051.50849 118695755.61349     -5128.09849        50.000  

  21869357.96149 114924250.61349       990.82449        50.000  

 16 04 02 13 17 10.1000000  0  3G15G12G19                                       
  21480303.73449 112879757.20349      7566.12149        49.000  

  22587149.10949 118696268.51249     -5130.62549        50.000  

  21869339.13349 114924151.66849       987.74649        50.000  

 16 04 02 13 17 10.2000000  0  3G15G12G19                                       
  21480159.82049 112879000.91049      7559.87949        49.000  

  22587246.76649 118696781.69549     -5133.31649        50.000  

  21869320.38349 114924053.04349       984.65249        50.000  

 16 04 02 13 17 10.3000000  0  3G15G12G19                                       
  21480016.00049 112878245.25849      7553.57449        49.000  

  22587344.46949 118697295.16049     -5136.06649        50.000  

  21869301.67249 114923954.73849       981.54749        50.000  

 16 04 02 13 17 10.4000000  0  3G15G12G19                                       
  21479872.32849 112877490.26649      7546.75049        49.000  

  22587442.24249 118697808.94549     -5139.45749        50.000  

  21869283.03949 114923856.79349       977.69149        50.000  

 16 04 02 13 17 10.5000000  0  3G15G12G19                                       
  21479728.80549 112876736.02749      7539.17249        49.000  

  22587540.08649 118698323.14149     -5143.50449        50.000  

  21869264.48449 114923759.28949       973.27749        50.000  

 16 04 02 13 17 10.6000000  0  3G15G12G19                                       
  21479585.39149 112875982.38749      7532.96149        49.000  

  22587637.97749 118698837.57449     -5146.20749        50.000  

  21869245.98449 114923662.07449       970.19549        50.000  

 16 04 02 13 17 10.7000000  0  3G15G12G19                                       
  21479442.11749 112875229.46149      7526.12549        49.000  

  22587735.95349 118699352.37949     -5149.66849        50.000  

  21869227.56249 114923565.25849       966.45749        50.000  

 16 04 02 13 17 10.8000000  0  3G15G12G19                                       
  21479298.96949 112874477.20349      7519.44149        49.000  

  22587833.97749 118699867.50449     -5152.84449        50.000  

  21869209.19549 114923468.81249       962.81649        50.000  

 16 04 02 13 17 10.9000000  0  3G15G12G19                                       
  21479155.94549 112873725.64849      7512.37549        49.000  

  22587932.07049 118700382.97749     -5156.29349        50.000  

  21869190.91449 114923372.75049       958.88749        50.000  

 16 04 02 13 17 11.0000000  0  3G15G12G19                                       
  21479013.04749 112872974.71949      7506.02749        49.000  

  22588030.21149 118700898.73049     -5159.19949        50.000  

  21869172.68049 114923277.00849       955.56649        50.000  

 16 04 02 13 17 11.1000000  0  3G15G12G19                                       
  21478870.26649 112872224.41449      7499.95349        49.000  

  22588128.40649 118701414.75849     -5161.81649        50.000  

  21869154.52349 114923181.57449       952.70349        50.000  

 16 04 02 13 17 11.2000000  0  3G15G12G19                                       
  21478727.61749 112871474.79349      7493.15649        49.000  

  22588226.67249 118701931.12549     -5165.28149        50.000  

  21869136.43849 114923086.52349       948.81249        50.000  

 16 04 02 13 17 11.3000000  0  3G15G12G19                                       
  21478585.11749 112870725.84449      7486.22749        49.000  

  22588324.98449 118702447.80549     -5168.47749        50.000  

  21869118.41449 114922991.82449       945.29349        50.000  

 16 04 02 13 17 11.4000000  0  3G15G12G19                                       
  21478442.71149 112869977.50449      7480.44549        49.000  

  22588423.35949 118702964.75449     -5170.89849        50.000  

  21869100.43049 114922897.43849       942.33249        50.000  

 16 04 02 13 17 11.5000000  0  3G15G12G19                                       
  21478300.42249 112869229.84849      7473.43049        49.000  

  22588521.79749 118703482.03549     -5174.50449        50.000  

  21869082.53949 114922803.41849       938.41049        50.000  

 16 04 02 13 17 11.6000000  0  3G15G12G19                                       
  21478158.28149 112868482.89849      7466.30949        49.000  

  22588620.29749 118703999.66449     -5178.00849        50.000  

  21869064.72749 114922709.78149       934.56249        50.000  

 16 04 02 13 17 11.7000000  0  3G15G12G19                                       
  21478016.26649 112867736.61749      7459.46549        49.000  

  22588718.86749 118704517.62149     -5181.37149        50.000  

  21869046.98449 114922616.52749       930.66049        50.000  

 16 04 02 13 17 11.8000000  0  3G15G12G19                                       
  21477874.37549 112866990.97349      7453.19949        49.000  

  22588817.48449 118705035.86749     -5184.18449        50.000  

  21869029.29749 114922523.59049       927.61349        50.000  

 16 04 02 13 17 11.9000000  0  3G15G12G19                                       
  21477732.64849 112866245.98449      7446.78549        49.000  

  22588916.16449 118705554.41049     -5187.05949        50.000  

  21869011.67249 114922431.00049       924.22749        50.000  

 16 04 02 13 17 12.0000000  0  3G15G12G19                                       
  21477591.01649 112865501.69949      7439.80549        49.000  

  22589014.91449 118706073.31649     -5190.59049        50.000  

  21868994.11749 114922338.79749       920.33649        50.000  

 16 04 02 13 17 12.1000000  0  3G15G12G19                                       
  21477449.50049 112864758.09849      7432.69949        49.000  

  22589113.71149 118706592.55149     -5194.08649        50.000  

  21868976.64849 114922246.97749       916.32049        50.000  

 16 04 02 13 17 12.2000000  0  3G15G12G19                                       
  21477308.11749 112864015.13749      7426.41449        49.000  

  22589212.57849 118707112.08249     -5196.94149        50.000  

  21868959.24249 114922155.47749       913.16049        50.000  

 16 04 02 13 17 12.3000000  0  3G15G12G19                                       
  21477166.85249 112863272.78949      7420.45749        49.000  

  22589311.48449 118707631.86749     -5199.37549        50.000  

  21868941.88349 114922064.28149       910.37549        50.000  

 16 04 02 13 17 12.4000000  0  3G15G12G19                                       
  21477025.72749 112862531.15249      7413.10949        49.000  

  22589410.46949 118708152.02349     -5203.28149        50.000  

  21868924.60249 114921973.49649       906.07449        50.000  

 16 04 02 13 17 12.5000000  0  3G15G12G19                                       
  21476884.73449 112861790.21949      7406.16849        49.000  

  22589509.51649 118708672.53149     -5206.63749        50.000  

  21868907.39849 114921883.09049       902.34449        50.000  

 16 04 02 13 17 12.6000000  0  3G15G12G19                                       
  21476743.86749 112861049.94549      7399.39849        49.000  

  22589608.62549 118709193.34449     -5209.98449        50.000  

  21868890.25849 114921793.04349       898.50849        50.000  

 16 04 02 13 17 12.7000000  0  3G15G12G19                                       
  21476603.14849 112860310.36349      7392.71549        49.000  

  22589707.80549 118709714.50849     -5213.19549        50.000  

  21868873.19549 114921703.38349       894.91049        50.000  

 16 04 02 13 17 12.8000000  0  3G15G12G19                                       
  21476462.52349 112859571.38749      7386.59849        49.000  

  22589807.02349 118710235.91449     -5215.76649        50.000  

  21868856.18049 114921614.00449       892.04349        50.000  

 16 04 02 13 17 12.9000000  0  3G15G12G19                                       
  21476322.04749 112858833.10949      7379.66849        49.000  

  22589906.31249 118710757.68049     -5219.18849        50.000  

  21868839.25049 114921525.02349       888.16449        50.000  

 16 04 02 13 17 13.0000000  0  3G15G12G19                                       
  21476181.68849 112858095.52749      7372.70349        49.000    21476180.23441
  87941367.15251      5744.96541        20.000  
  22590005.67249 118711279.79749     -5222.72749        50.000  

  21868822.39149 114921436.43449       884.21949        50.000  

 16 04 02 13 17 13.1000000  0  3G15G12G19                                       
  21476041.49249 112857358.59849      7366.15649        49.000    21476040.00041
  87940792.91441      5739.86341        20.000  
  22590105.08649 118711802.20349     -5225.75049        50.000  

  21868805.59449 114921348.16849       880.84049        50.000  

 16 04 02 13 17 13.2000000  0  3G15G12G19                                       
  21475901.38349 112856622.30949      7359.83249        49.000    21475902.61741
  87940219.17241      5734.93441        20.000  
  22590204.54749 118712324.89849     -5228.43449        50.000  

  21868788.86749 114921260.24249       877.68049        50.000  

 16 04 02 13 17 13.3000000  0  3G15G12G19                                       
  21475761.37549 112855886.68449      7353.00849        49.000    21475762.63341
  87939645.95341      5729.61741        20.000  
  22590304.07049 118712847.92649     -5231.90649        50.000  

  21868772.20349 114921172.67249       873.91849        50.000  

 16 04 02 13 17 13.4000000  0  3G15G12G19                                       
  21475621.50049 112855151.64549      7347.30949        49.000    21475618.85941
  87939073.21141      5725.17641        20.000  
  22590403.64149 118713371.17249     -5234.07049        50.000  

  21868755.59449 114921085.37149       871.37949        50.000  

 16 04 02 13 17 13.5000000  0  3G15G12G19                                       
  21475481.76649 112854417.29349      7340.43049        49.000    21475479.11741
  87938501.00441      5719.81241        20.000  
  22590503.28149 118713894.76249     -5237.44549        50.000  

  21868739.05549 114920998.45349       867.49249        50.000  

 16 04 02 13 17 13.6000000  0  3G15G12G19                                       
  21475342.15649 112853683.67649      7332.84049        49.000    21475336.40641
  87937929.37141      5713.90241        20.000  
  22590602.99249 118714418.74649     -5241.60949        50.000  

  21868722.58649 114920911.96149       863.01249        50.000  

 16 04 02 13 17 13.7000000  0  3G15G12G19                                       
  21475202.68849 112852950.77049      7325.76249        49.000    21475196.94541
  87937358.29341      5708.38741        20.000  
  22590702.76649 118714943.07049     -5245.03149        50.000  

  21868706.20349 114920825.85549       859.21949        50.000  

 16 04 02 13 17 13.8000000  0  3G15G12G19                                       
  21475063.33649 112852218.46549      7319.71149        49.000    21475058.96941
  87936787.68441      5703.67241        20.000  
  22590802.59449 118715467.66049     -5247.64549        50.000  

  21868689.87549 114920740.05949       856.09049        50.000  

 16 04 02 13 17 13.9000000  0  4G13G15G12G19                                    
  21235679.93049 111594250.30159    -13394.86349        49.000  

  21474924.13349 112851486.85249      7312.93849        49.000  

  22590902.47749 118715992.58649     -5250.89149        50.000  

  21868673.61749 114920654.63349       852.49649        50.000  

 16 04 02 13 17 14.0000000  0  4G13G15G12G19                                    
  21235934.89149 111595590.12949    -13401.41849        49.000  

  21474785.03149 112850755.88749      7306.35949        49.000  

  22591002.42249 118716517.81249     -5253.98849        50.000  

  21868657.43049 114920569.53949       849.10949        50.000  

 16 04 02 13 17 14.1000000  0  4G13G15G12G19                                    
  21236190.03149 111596930.53149    -13407.00049        49.000  

  21474646.07049 112850025.52349      7300.66449        49.000  

  22591102.41449 118717043.28949     -5256.20349        50.000  

  21868641.29749 114920484.74649       846.37949        50.000  

 16 04 02 13 17 14.2000000  0  4G13G15G12G19                                    
  21236445.23449 111598271.62149    -13413.97349        49.000  

  21474507.21949 112849295.86749      7293.36749        49.000  

  22591202.48449 118717569.13349     -5260.08649        50.000  

  21868625.22749 114920400.35249       842.11349        50.000  

 16 04 02 13 17 14.3000000  0  4G13G15G12G19                                    
  21236700.59449 111599613.41449    -13420.93049        49.000  

  21474368.49249 112848566.92249      7286.32849        49.000  

  22591302.60949 118718095.31649     -5263.43849        50.000  

  21868609.24249 114920316.34049       838.42249        50.000  

 16 04 02 13 17 14.4000000  0  4G13G15G12G19                                    
  21236956.03949 111600955.79749    -13427.12149        49.000  

  21474229.89849 112847838.58249      7279.92649        49.000  

  22591402.78949 118718621.77349     -5266.43449        50.000  

  21868593.31249 114920232.64549       835.03149        50.000  

 16 04 02 13 17 14.5000000  0  4G13G15G12G19                                    
  21237211.55549 111602298.82049    -13433.14849        49.000  

  21474091.42249 112847110.91049      7273.65249        49.000    21474087.55541
  87932797.90651      5667.78141        20.000  
  22591503.01649 118719148.53949     -5269.17249        50.000  

  21868577.44549 114920149.30149       831.82449        50.000  

 16 04 02 13 17 14.6000000  0  4G13G15G12G19                                    
  21237467.25849 111603642.52349    -13440.07049        49.000  

  21473953.07849 112846383.92249      7266.74249        49.000    21473949.37541
  87932231.41441      5662.39541        20.000  
  22591603.32849 118719675.64849     -5272.73449        50.000  

  21868561.67249 114920066.32449       827.94149        50.000  

 16 04 02 13 17 14.7000000  0  4G13G15G12G19                                    
  21237723.05549 111604986.88749    -13446.78549        49.000  

  21473814.88349 112845657.61349      7259.87949        49.000    21473811.15641
  87931665.45741      5657.05141        20.000  
  22591703.68849 118720203.07049     -5275.92249        50.000  

  21868545.95349 114919983.71149       824.37949        50.000  

 16 04 02 13 17 14.8000000  0  4G13G15G12G19                                    
  21237978.99249 111606331.87149    -13453.00449        49.000  

  21473676.78949 112844931.95749      7253.37949        49.000    21473675.18041
  87931100.00841      5651.98441        20.000  
  22591804.10949 118720730.80149     -5278.92649        50.000  

  21868530.30549 114919901.45349       820.84049        50.000  

 16 04 02 13 17 14.9000000  0  4G13G15G12G19                                    
  21238235.03149 111607677.51649    -13459.50849        49.000  

  21473538.83649 112844206.97349      7246.57449        49.000    21473537.22741
  87930535.09841      5646.68441        20.000  
  22591904.59449 118721258.85249     -5282.20749        50.000  

  21868514.71949 114919819.53949       817.23449        50.000  

 16 04 02 13 17 15.0000000  0  4G13G15G12G19                                    
  21238491.22749 111609023.81649    -13466.02049        49.000  

  21473401.00049 112843482.64549      7240.14149        49.000    21473403.29741
  87929970.70341      5641.66841        20.000  
  22592005.13349 118721787.21549     -5285.18449        50.000  

  21868499.21149 114919737.98449       813.85549        50.000  

 16 04 02 13 17 15.1000000  0  4G13G15G12G19                                    
  21238747.52349 111610370.75449    -13472.46149        49.000  

  21473263.28149 112842758.98049      7233.40249        49.000    21473265.59441
  87929406.82441      5636.41841        20.000  
  22592105.73449 118722315.88749     -5288.41049        50.000  

  21868483.75849 114919656.77349       810.40649        50.000  

 16 04 02 13 17 15.2000000  0  4G13G15G12G19                                    
  21239003.96149 111611718.34049    -13479.13349        49.000  

  21473125.70349 112842035.98049      7226.59849        49.000    21473127.16441
  87928843.46941      5631.11341        20.000  
  22592206.39849 118722844.87549     -5291.77349        50.000  

  21868468.37549 114919575.92649       806.52749        50.000  

 16 04 02 13 17 15.3000000  0  4G13G15G12G19                                    
  21239260.54749 111613066.62549    -13485.92249        49.000  

  21472988.25849 112841313.70749      7219.53149        49.000    21472989.71941
  87928280.67641      5625.60941        20.000  
  22592307.14149 118723374.23849     -5295.29349        50.000  

  21868453.07049 114919495.50049       802.57049        50.000  

 16 04 02 13 17 15.4000000  0  4G13G15G12G19                                    
  21239517.24249 111614415.54349    -13492.19149        49.000  

  21472850.93049 112840592.05949      7213.32849        49.000    21472848.49241
  87927718.35941      5620.77741        20.000  
  22592407.92249 118723903.87949     -5297.89849        50.000  

  21868437.82049 114919415.37549       799.51249        50.000  

 16 04 02 13 17 15.5000000  0  4G13G15G12G19                                    
  21239774.00849 111615765.00049    -13497.64849        49.000  

  21472713.72749 112839870.98849      7207.62149        49.000    21472711.28141
  87927156.48841      5616.32841        20.000  
  22592508.75049 118724433.73849     -5300.24649        50.000  

  21868422.61749 114919335.50849       796.94149        50.000  

 16 04 02 13 17 15.6000000  0  4G13G15G12G19                                    
  21240030.93849 111617115.19549    -13504.89149        49.000  

  21472576.65649 112839150.66449      7200.25049        49.000    21472577.87541
  87926595.20741      5610.58641        20.000  
  22592609.65649 118724964.00449     -5304.15649        50.000  

  21868407.50849 114919256.09049       792.68849        50.000  

 16 04 02 13 17 15.7000000  0  4G13G15G12G19                                    
  21240287.96949 111618466.02749    -13511.39549        49.000  

  21472439.71149 112838431.00449      7193.46949        49.000    21472440.93041
  87926034.43441      5605.30141        20.000  
  22592710.62549 118725494.57849     -5307.38749        50.000  

  21868392.46949 114919177.02349       788.95749        50.000  

 16 04 02 13 17 15.8000000  0  4G13G15G12G19                                    
  21240545.14149 111619817.48449    -13517.58649        49.000  

  21472302.88349 112837711.98449      7187.04749        49.000    21472307.08641
  87925474.16841      5600.29741        20.000  
  22592811.64149 118726025.43049     -5310.14549        50.000  

  21868377.48449 114919098.27749       785.82449        50.000  

 16 04 02 13 17 15.9000000  0  4G13G15G12G19                                    
  21240802.42249 111621169.52349    -13523.41449        49.000  

  21472166.14849 112836993.55149      7181.12149        49.000    21472170.36741
  87924914.32841      5595.68041        20.000  
  22592912.70349 118726556.54349     -5312.73449        50.000  

  21868362.56249 114919019.82449       782.76249        50.000  

 16 04 02 13 17 16.0000000  0  4G13G15G12G19                                    
  21241059.84449 111622522.29349    -13530.75049        49.000  

  21472029.57849 112836275.87549      7173.69549        49.000    21472030.53941
  87924355.07841      5589.89541        20.000  
  22593013.84449 118727088.03549     -5316.55949        50.000  

  21868347.70349 114918941.80549       778.45749        50.000  

 16 04 02 13 17 16.1000000  0  4G13G15G12G19                                    
  21241317.39849 111623875.72749    -13537.47349        49.000  

  21471893.13349 112835558.86749      7166.80949        49.000    21471894.09441
  87923796.35241      5584.52741        20.000  
  22593115.04749 118727619.87549     -5320.10249        50.000  

  21868332.93049 114918864.14849       774.74249        50.000  

 16 04 02 13 17 16.2000000  0  4G13G15G12G19                                    
  21241575.08649 111625229.85949    -13544.57449        49.000  

  21471756.83649 112834842.60549      7159.36349        49.000    21471757.75841
  87923238.20341      5578.72341        20.000  
  22593216.32049 118728152.07849     -5323.75049        50.000  

  21868318.22749 114918786.90649       770.61349        50.000  

 16 04 02 13 17 16.3000000  0  4G13G15G12G19                                    
  21241832.89149 111626584.55549    -13550.16849        49.000  

  21471620.65649 112834126.90649      7153.66449        49.000    21471621.56241
  87922680.49241      5574.28541        20.000  
  22593317.64149 118728684.51249     -5325.98049        50.000  

  21868303.57849 114918709.94149       767.78149        50.000  

 16 04 02 13 17 16.4000000  0  4G13G15G12G19                                    
  21242090.80549 111627939.89849    -13556.37949        49.000  

  21471484.58649 112833411.87549      7147.19549        49.000    21471485.93841
  87922123.32441      5569.24241        20.000  
  22593419.02349 118729217.25849     -5329.05549        50.000  

  21868289.00849 114918633.32449       764.51249        50.000  

 16 04 02 13 17 16.5000000  0  4G13G15G12G19                                    
  21242348.79749 111629295.89149    -13562.89549        49.000  

  21471348.64149 112832697.50849      7140.52749        49.000    21471350.00041
  87921566.67641      5564.04741        20.000  
  22593520.46149 118729750.31649     -5332.20749        50.000  

  21868274.49249 114918557.05149       760.99649        50.000  

 16 04 02 13 17 16.6000000  0  4G13G15G12G19                                    
  21242606.96949 111630652.57849    -13569.90649        49.000  

  21471212.83649 112831983.85249      7133.37149        49.000    21471214.93841
  87921010.58241      5558.46941        21.000  
  22593621.96149 118730283.73849     -5335.81249        50.000  

  21868260.05549 114918481.19149       756.95749        50.000  

 16 04 02 13 17 16.7000000  0  4G13G15G12G19                                    
  21242865.24249 111632009.85949    -13575.85249        49.000  

  21471077.14149 112831270.80949      7127.18049        49.000    21471079.25841
  87920454.96541      5553.64541        20.000  
  22593723.52349 118730817.41849     -5338.46549        50.000  

  21868245.67249 114918405.62149       753.89849        50.000  

 16 04 02 13 17 16.8000000  0  4G13G15G12G19                                    
  21243123.65649 111633367.83249    -13582.79749        49.000  

  21470941.58649 112830558.48049      7120.14549        49.000    21470946.17241
  87919899.90641      5548.16441        20.000  
  22593825.14849 118731351.46549     -5342.04749        50.000  

  21868231.36749 114918330.46949       749.78949        50.000  

 16 04 02 13 17 16.9000000  0  4G13G15G12G19                                    
  21243382.20349 111634726.44149    -13589.25049        49.000  

  21470806.18049 112829846.79749      7113.58249        49.000  

  22593926.82849 118731885.80949     -5345.16049        50.000  

  21868217.12549 114918255.64149       746.46949        50.000  

 16 04 02 13 17 17.0000000  0  4G13G15G12G19                                    
  21243640.85949 111636085.69549    -13595.59049        49.000  

  21470670.87549 112829135.78949      7106.93049        49.000  

  22594028.57849 118732420.47349     -5348.31249        50.000  

  21868202.94549 114918181.17649       742.86349        50.000  

 16 04 02 13 17 17.1000000  0  4G13G15G12G19                                    
  21243899.63349 111637445.54349    -13601.44949        49.000  

  21470535.70349 112828425.38749      7100.90649        49.000  

  22594130.35949 118732955.38749     -5350.69549        50.000  

  21868188.83649 114918107.00449       740.05949        50.000  

 16 04 02 13 17 17.2000000  0  4G13G15G12G19                                    
  21244158.53149 111638806.04749    -13608.04349        49.000  

  21470400.64849 112827715.66049      7094.18449        49.000  

  22594232.21149 118733490.62549     -5353.84449        50.000  

  21868174.78149 114918033.19549       736.37949        50.000  

 16 04 02 13 17 17.3000000  0  4G13G15G12G19                                    
  21244417.54749 111640167.20749    -13614.63349        49.000  

  21470265.71949 112827006.60949      7087.35549        49.000  

  22594334.13349 118734026.19949     -5357.31249        50.000  

  21868160.81249 114917959.75449       732.69149        50.000  

 16 04 02 13 17 17.4000000  0  4G13G15G12G19                                    
  21244676.68849 111641528.98849    -13620.69149        49.000  

  21470130.91449 112826298.19149      7081.22749        49.000  

  22594436.10249 118734562.04749     -5359.85549        50.000  

  21868146.88349 114917886.63749       729.66449        50.000  

 16 04 02 13 17 17.5000000  0  4G13G15G12G19                                    
  21244935.96949 111642891.41049    -13627.26249        49.000  

  21469996.22749 112825590.44949      7074.26249        49.000  

  22594538.12549 118735098.21149     -5363.31649        50.000  

  21868133.03949 114917813.87549       725.90649        50.000  

 16 04 02 13 17 17.6000000  0  4G13G15G12G19                                    
  21245195.36749 111644254.56649    -13634.62549        49.000  

  21469861.68849 112824883.44149      7066.87549        49.000  

  22594640.22749 118735634.78149     -5367.26649        50.000  

  21868119.27349 114917741.54349       721.52049        50.000  

 16 04 02 13 17 17.7000000  0  4G13G15G12G19                                    
  21245454.87549 111645618.35949    -13641.09449        49.000  

  21469727.28149 112824177.09449      7060.24649        49.000  

  22594742.39149 118736171.64849     -5370.39849        50.000  

  21868105.57849 114917669.56249       717.92249        50.000  

 16 04 02 13 17 17.8000000  0  4G13G15G12G19                                    
  21245714.49249 111646982.68049    -13646.18449        49.000  

  21469592.97749 112823471.30549      7054.80149        49.000  

  22594844.59449 118736708.71149     -5372.10549        50.000  

  21868091.92249 114917597.80949       715.88349        50.000  

 16 04 02 13 17 17.9000000  0  4G13G15G12G19                                    
  21245974.25849 111648347.71949    -13653.39149        49.000  

  21469458.79749 112822766.23849      7047.42649        49.000  

  22594946.85949 118737246.16449     -5376.16849        50.000  

  21868078.35249 114917526.49649       711.46149        50.000  

 16 04 02 13 17 18.0000000  0  4G13G15G12G19                                    
  21246234.15649 111649713.47749    -13660.62149        49.000  

  21469324.77349 112822061.91849      7039.97749        49.000  

  22595049.21149 118737784.00049     -5380.04349        50.000  

  21868064.85949 114917455.59449       707.23849        50.000  

 16 04 02 13 17 18.1000000  0  4G13G15G12G19                                    
  21246494.17249 111651079.84849    -13666.90649        49.000  

  21469190.85249 112821358.22349      7033.63749        49.000  

  22595151.60249 118738322.10949     -5382.85949        50.000  

  21868051.42249 114917385.01649       703.89549        50.000  

 16 04 02 13 17 18.2000000  0  4G13G15G12G19                                    
  21246754.28949 111652446.77749    -13672.16849        49.000  

  21469057.05549 112820655.11749      7028.07849        49.000  

  22595254.04749 118738860.46549     -5384.91849        50.000  

  21868038.05549 114917314.71549       701.43849        50.000  

 16 04 02 13 17 18.3000000  0  4G13G15G12G19                                    
  21247014.52349 111653814.37549    -13678.85249        49.000  

  21468923.37549 112819952.68849      7021.22349        49.000  

  22595356.54749 118739399.14149     -5388.35549        50.000  

  21868024.75049 114917244.77749       697.68449        50.000  

 16 04 02 13 17 18.4000000  0  4G13G15G12G19                                    
  21247274.89849 111655182.66449    -13685.97749        49.000  

  21468789.84449 112819250.97349      7013.92249        49.000  

  22595459.12549 118739938.17249     -5391.93849        50.000  

  21868011.52349 114917175.23049       693.70749        50.000  

 16 04 02 13 17 18.5000000  0  4G13G15G12G19                                    
  21247535.41449 111656551.63349    -13692.85949        49.000  

  21468656.44549 112818549.96149      7006.70749        49.000  

  22595561.76649 118740477.57049     -5395.81649        50.000  

  21867998.36749 114917106.09849       689.39549        50.000  

 16 04 02 13 17 18.6000000  0  4G13G15G12G19                                    
  21247796.04749 111657921.25849    -13699.40649        49.000  

  21468523.18049 112817849.60949      7000.18849        49.000  

  22595664.46949 118741017.27749     -5398.87149        50.000  

  21867985.27349 114917037.30149       686.09449        50.000  

 16 04 02 13 17 18.7000000  0  4G13G15G12G19                                    
  21248056.79749 111659291.50849    -13705.50849        49.000  

  21468390.03949 112817149.91449      6993.85549        49.000  

  22595767.22749 118741557.27049     -5401.54349        50.000  

  21867972.25049 114916968.84449       682.90649        50.000  

 16 04 02 13 17 18.8000000  0  4G13G15G12G19                                    
  21248317.66449 111660662.36749    -13711.60249        49.000  

  21468257.01649 112816450.85549      6987.58249        49.000  

  22595870.03949 118742097.56649     -5404.45749        50.000  

  21867959.27349 114916900.71949       679.63349        50.000  

 16 04 02 13 17 18.9000000  0  4G13G15G12G19                                    
  21248578.64849 111662033.87549    -13718.07849        49.000  

  21468124.10249 112815752.45349      6980.86349        49.000  

  22595972.90649 118742638.15249     -5407.48849        50.000  

  21867946.37549 114916832.93449       676.08649        50.000  

 16 04 02 13 17 19.0000000  0  4G13G15G12G19                                    
  21248839.76649 111663406.05949    -13724.67249        49.000  

  21467991.32849 112815054.75449      6974.01249        49.000  

  22596075.84449 118743179.09849     -5410.84049        50.000  

  21867933.55549 114916765.53949       672.39549        50.000  

 16 04 02 13 17 19.1000000  0  4G13G15G12G19                                    
  21249101.00849 111664778.85949    -13731.11349        49.000  

  21467858.68849 112814357.68049      6967.53949        49.000  

  22596178.82849 118743720.31649     -5413.91849        50.000  

  21867920.79749 114916698.46549       668.95749        50.000  

 16 04 02 13 17 19.2000000  0  4G13G15G12G19                                    
  21249362.37549 111666152.33249    -13737.71549        49.000  

  21467726.18049 112813661.31249      6960.59849        49.000  

  22596281.89149 118744261.89149     -5417.22349        50.000  

  21867908.11749 114916631.77049       665.35549        50.000  

 16 04 02 13 17 19.3000000  0  4G13G15G12G19                                    
  21249623.83649 111667526.41049    -13743.82849        49.000  

  21467593.76649 112812965.56249      6954.32049        49.000  

  22596384.99249 118744803.72749     -5419.96549        50.000  

  21867895.48449 114916565.39149       662.01249        50.000  

 16 04 02 13 17 19.4000000  0  4G13G15G12G19                                    
  21249885.43849 111668901.12549    -13750.11749        49.000  

  21467461.50049 112812270.47349      6947.79349        49.000  

  22596488.15649 118745345.87149     -5423.08249        50.000  

  21867882.92249 114916499.36349       658.63749        50.000  

 16 04 02 13 17 19.5000000  0  4G13G15G12G19                                    
  21250147.17249 111670276.50849    -13756.74649        49.000  

  21467329.35249 112811576.06249      6941.09449        49.000  

  22596591.39849 118745888.35249     -5426.21149        50.000  

  21867870.42249 114916433.70349       655.01249        50.000  

 16 04 02 13 17 19.6000000  0  4G13G15G12G19                                    
  21250409.01649 111671652.51249    -13763.18049        49.000  

  21467197.32849 112810882.30549      6934.34449        49.000  

  22596694.68049 118746431.11749     -5429.38749        50.000  

  21867858.00049 114916368.36749       651.50849        50.000  

 16 04 02 13 17 19.7000000  0  4G13G15G12G19                                    
  21250671.00049 111673029.18849    -13769.77349        49.000  

  21467065.45349 112810189.23849      6927.47749        49.000  

  22596798.03949 118746974.22749     -5432.64849        50.000  

  21867845.64149 114916303.41849       647.81649        50.000  

 16 04 02 13 17 19.8000000  0  4G13G15G12G19                                    
  21250933.08649 111674406.43849    -13775.41449        49.000  

  21466933.68049 112809496.76649      6921.59449        49.000  

  22596901.43849 118747517.59449     -5435.15649        50.000  

  21867833.33649 114916238.76249       644.85249        50.000  

 16 04 02 13 17 19.9000000  0  4G13G15G12G19                                    
  21251195.29749 111675784.38749    -13782.35549        49.000  

  21466802.04749 112808805.00049      6914.65649        49.000  

  22597004.90649 118748061.30949     -5438.59849        50.000  

  21867821.10949 114916174.49249       641.08649        50.000  

 16 04 02 13 17 20.0000000  0  4G13G15G12G19                                    
  21251457.63349 111677162.95749    -13788.80549        49.000  

  21466670.53149 112808113.88749      6907.85549        49.000  

  22597108.43049 118748605.31649     -5441.73049        50.000  

  21867808.94549 114916110.56249       637.50449        50.000  

 16 04 02 13 17 20.1000000  0  4G13G15G12G19                                    
  21251720.10949 111678542.22349    -13795.79749        49.000  

  21466539.15649 112807423.49249      6900.66449        49.000  

  22597212.02349 118749149.69149     -5445.42649        50.000  

  21867796.85949 114916047.03549       633.44149        50.000  

 16 04 02 13 17 20.2000000  0  4G13G15G12G19                                    
  21251982.70349 111679922.15649    -13802.51649        49.000  

  21466407.90649 112806733.77749      6893.90649        49.000  

  22597315.68049 118749694.40249     -5448.89849        50.000  

  21867784.85249 114915983.87949       629.69549        50.000  

 16 04 02 13 17 20.3000000  0  4G13G15G12G19                                    
  21252245.41449 111681302.72749    -13808.78949        49.000  

  21466276.78949 112806044.73449      6887.25849        49.000  

  22597419.38349 118750239.41849     -5451.78149        50.000  

  21867772.90649 114915921.08249       626.19949        50.000  

 16 04 02 13 17 20.4000000  0  4G13G15G12G19                                    
  21252508.25049 111682683.93449    -13815.14549        49.000  

  21466145.78949 112805356.33249      6880.89549        49.000  

  22597523.15649 118750784.74249     -5454.77749        50.000  

  21867761.00849 114915858.61349       622.91049        50.000  

 16 04 02 13 17 20.5000000  0  4G13G15G12G19                                    
  21252771.23449 111684065.78949    -13821.51649        49.000  

  21466014.92249 112804668.60249      6874.23449        49.000  

  22597626.97749 118751330.37949     -5457.84049        50.000  

  21867749.19549 114915796.50849       619.36349        50.000  

 16 04 02 13 17 20.6000000  0  4G13G15G12G19                                    
  21253034.31249 111685448.30149    -13828.23049        49.000  

  21465884.18049 112803981.56249      6867.16849        49.000  

  22597730.86749 118751876.34449     -5461.34049        50.000  

  21867737.43849 114915734.76649       615.64549        50.000  

 16 04 02 13 17 20.7000000  0  4G13G15G12G19                                    
  21253297.50849 111686831.45749    -13834.75049        49.000  

  21465753.56249 112803295.18449      6860.40649        49.000  

  22597834.82849 118752422.62549     -5464.58649        50.000  

  21867725.75849 114915673.37949       611.99249        50.000  

 16 04 02 13 17 20.8000000  0  4G13G15G12G19                                    
  21253560.84449 111688215.30149    -13841.44949        49.000  

  21465623.07849 112802609.50049      6853.73849        49.000  

  22597938.84449 118752969.25449     -5467.86349        50.000  

  21867714.14849 114915612.39549       608.16049        50.000  

 16 04 02 13 17 20.9000000  0  4G13G15G12G19                                    
  21253824.28949 111689599.73449    -13847.46549        49.000  

  21465492.73449 112801924.43449      6847.46149        49.000  

  22598042.91449 118753516.14849     -5470.58249        50.000  

  21867702.60249 114915551.69549       605.13349        50.000  

 16 04 02 13 17 21.0000000  0  4G13G15G12G19                                    
  21254087.86749 111690984.83249    -13854.00049        49.000  

  21465362.50049 112801240.06649      6840.59849        49.000  

  22598147.04749 118754063.37149     -5473.89149        50.000  

  21867691.12549 114915491.37949       601.47349        50.000  

 16 04 02 13 17 21.1000000  0  4G13G15G12G19                                    
  21254351.54749 111692370.55549    -13860.09049        49.000  

  21465232.38349 112800556.33249      6834.30949        49.000  

  22598251.24249 118754610.89849     -5476.66849        50.000  

  21867679.71149 114915431.38749       598.35549        50.000  

 16 04 02 13 17 21.2000000  0  4G13G15G12G19                                    
  21254615.35949 111693756.89849    -13866.46149        49.000  

  21465102.39849 112799873.24249      6827.72749        49.000  

  22598355.48449 118755158.70349     -5479.77049        50.000  

  21867668.34449 114915371.73449       594.80149        50.000  

 16 04 02 13 17 21.3000000  0  4G13G15G12G19                                    
  21254879.29749 111695143.94549    -13873.55949        49.000  

  21464972.55549 112799190.87949      6820.40249        49.000  

  22598459.80549 118755706.88749     -5483.55949        50.000  

  21867657.07049 114915312.48049       590.75849        50.000  

 16 04 02 13 18  6.9000000  0  1G15                                             
  22363018.39849 117518454.71959      3753.38749        49.000  

 16 04 02 13 18  7.0000000  0  2G12G15                                          
  23596337.20349 123999588.36359     -6917.97349        50.000  

  22362947.03949 117518079.74249      3746.36749        49.000  

 16 04 02 13 18  7.1000000  0  3G19G12G15                                       
  22813526.00049 119885887.66059     -1029.73449        50.000  

  23596468.87549 124000280.31249     -6921.05549        50.000  

  22362875.82049 117517705.44149      3739.59449        49.000  

 16 04 02 13 18  7.2000000  0  3G19G12G15                                       
  22813545.63349 119885990.80549     -1033.26249        50.000  

  23596600.60249 124000972.55149     -6924.05549        50.000  

  22362804.71949 117517331.80549      3732.91049        49.000  

 16 04 02 13 18  7.3000000  0  3G19G12G15                                       
  22813565.31249 119886094.29749     -1036.80149        50.000  

  23596732.39849 124001665.12149     -6927.48849        50.000  

  22362733.75049 117516958.84849      3726.16849        49.000  

 16 04 02 13 18  7.4000000  0  3G19G12G15                                       
  22813585.07849 119886198.15649     -1040.43849        50.000  

  23596864.25049 124002358.00449     -6930.57049        50.000  

  22362662.91449 117516586.58249      3719.32449        49.000  

 16 04 02 13 18  7.5000000  0  3G19G12G15                                       
  22813604.91449 119886302.40249     -1044.41049        50.000  

  23596996.16449 124003051.23049     -6934.02749        50.000  

  22362592.21149 117516215.02349      3712.05149        49.000  

 16 04 02 13 18  7.6000000  0  3G19G12G15                                       
  22813624.82849 119886407.04749     -1048.27049        50.000  

  23597128.14849 124003744.81649     -6937.55949        50.000  

  22362521.64849 117515844.18449      3704.99649        49.000  

 16 04 02 13 18  7.7000000  0  3G19G12G15                                       
  22813644.78949 119886511.97349     -1051.13749        50.000  

  23597260.18049 124004438.66449     -6940.10249        50.000  

  22362451.18849 117515473.96949      3698.78949        49.000  

 16 04 02 13 18  7.8000000  0  3G19G12G15                                       
  22813664.82849 119886617.25049     -1054.72349        50.000  

  23597392.27349 124005132.79749     -6943.22349        50.000  

  22362380.86749 117515104.41849      3692.02349        49.000  

 16 04 02 13 18  7.9000000  0  3G19G12G15                                       
  22813684.93849 119886722.97749     -1059.07449        50.000  

  23597524.43849 124005827.34449     -6947.10249        50.000  

  22362310.68849 117514735.64149      3684.34049        49.000  

 16 04 02 13 18  8.0000000  0  3G19G12G15                                       
  22813705.11749 119886829.01249     -1062.48449        50.000  

  23597656.65649 124006522.16049     -6950.14849        50.000  

  22362240.63349 117514367.48849      3677.84449        49.000  

 16 04 02 13 18  8.1000000  0  3G19G12G15                                       
  22813725.35949 119886935.38749     -1065.53949        50.000  

  23597788.93049 124007217.27749     -6952.82449        50.000  

  22362170.71149 117514000.01249      3671.34849        49.000  

 16 04 02 13 18  8.2000000  0  3G19G12G15                                       
  22813745.68049 119887042.16849     -1069.76249        50.000  

  23597921.28149 124007912.77749     -6956.79749        50.000  

  22362100.92249 117513633.26649      3663.96949        49.000  

 16 04 02 13 18  8.3000000  0  3G19G12G15                                       
  22813766.06249 119887149.24649     -1072.33649        50.000  

  23598053.68049 124008608.50449     -6958.69149        50.000  

  22362031.23449 117513267.12949      3658.15649        49.000  

 16 04 02 13 18  8.4000000  0  3G19G12G15                                       
  22813786.50049 119887256.63349     -1075.61349        50.000  

  23598186.11749 124009304.51649     -6961.80549        50.000  

  22361961.68049 117512901.63749      3651.64149        49.000  

 16 04 02 13 18  8.5000000  0  3G19G12G15                                       
  22813807.00849 119887364.43049     -1079.80149        50.000  

  23598318.63349 124010000.90649     -6965.62549        50.000  

  22361892.28149 117512536.88749      3644.09449        49.000  

 16 04 02 13 18  8.6000000  0  3G19G12G15                                       
  22813827.57849 119887472.53149     -1083.03949        50.000  

  23598451.19549 124010697.54349     -6968.34049        50.000  

  22361822.98449 117512172.74649      3637.78949        49.000  

 16 04 02 13 18  8.7000000  0  3G19G12G15                                       
  22813848.23449 119887581.07049     -1087.10549        50.000  

  23598583.83649 124011394.58649     -6971.92649        50.000  

  22361753.84449 117511809.37949      3630.37149        49.000  

 16 04 02 13 18  8.8000000  0  3G19G12G15                                       
  22813868.93849 119887689.87949     -1089.89849        50.000  

  23598716.51649 124012091.85249     -6974.44549        50.000  

  22361684.81249 117511446.60549      3624.26649        49.000  

 16 04 02 13 18  8.9000000  0  3G19G12G15                                       
  22813889.71949 119887799.07849     -1093.89149        50.000  

  23598849.26649 124012789.47749     -6977.98049        50.000  

  22361615.93049 117511084.54349      3617.10949        49.000  

 16 04 02 13 18  9.0000000  0  3G19G12G15                                       
  22813910.57049 119887908.65249     -1097.69949        50.000  

  23598982.07849 124013487.43049     -6981.39849        50.000  

  22361547.16449 117510723.19149      3609.99649        49.000  

 16 04 02 13 18  9.1000000  0  3G19G12G15                                       
  22813931.47749 119888018.50849     -1100.20749        50.000  

  23599114.93849 124014185.62949     -6983.51249        50.000  

  22361478.50049 117510362.43049      3604.31649        49.000  

 16 04 02 13 18  9.2000000  0  3G19G12G15                                       
  22813952.45349 119888128.72349     -1103.93049        50.000  

  23599247.86749 124014884.14849     -6986.78549        50.000  

  22361409.98449 117510002.35949      3597.32049        49.000  

 16 04 02 13 18  9.3000000  0  3G19G12G15                                       
  22813973.49249 119888239.32049     -1107.82049        50.000  

  23599380.85249 124015583.00849     -6990.30549        50.000  

  22361341.60249 117509642.99649      3590.23849        49.000  

 16 04 02 13 18  9.4000000  0  3G19G12G15                                       
  22813994.60249 119888350.28549     -1111.69549        50.000  

  23599513.89149 124016282.18049     -6993.73449        50.000  

  22361273.35249 117509284.32049      3583.13749        49.000  

 16 04 02 13 18  9.5000000  0  3G19G12G15                                       
  22814015.79749 119888461.62549     -1115.30149        50.000  

  23599647.00849 124016981.71549     -6997.12949        50.000  

  22361205.23449 117508926.35949      3576.09049        49.000  

 16 04 02 13 18  9.6000000  0  3G19G12G15                                       
  22814037.05549 119888573.35549     -1119.00049        50.000  

  23599780.18049 124017681.57849     -7000.16849        50.000  

  22361137.25049 117508569.09849      3569.30949        49.000  

 16 04 02 13 18  9.7000000  0  3G19G12G15                                       
  22814058.37549 119888685.39149     -1122.26649        50.000  

  23599913.41449 124018381.72349     -7003.21149        50.000  

  22361069.39849 117508212.47749      3562.80149        49.000  

 16 04 02 13 18  9.8000000  0  3G19G12G15                                       
  22814079.77349 119888797.81649     -1126.23849        50.000  

  23600046.71149 124019082.19949     -7006.61349        50.000  

  22361001.67249 117507856.57049      3555.47349        49.000  

 16 04 02 13 18  9.9000000  0  3G19G12G15                                       
  22814101.23449 119888910.59449     -1129.61749        50.000  

  23600180.07049 124019783.00449     -7009.72749        50.000  

  22360934.07049 117507501.34049      3548.81649        49.000  

 16 04 02 13 18 10.0000000  0  3G19G12G15                                       
  22814122.75849 119889023.69949     -1132.91449        50.000  

  23600313.49249 124020484.08649     -7012.52349        50.000  

  22360866.59449 117507146.75849      3542.40649        49.000  

 16 04 02 13 18 10.1000000  0  3G19G12G15                                       
  22814144.35249 119889137.16449     -1136.46949        50.000  

  23600446.96149 124021185.48449     -7015.62949        50.000  

  22360799.25049 117506792.85949      3535.54349        49.000  

 16 04 02 13 18 10.2000000  0  3G19G12G15                                       
  22814166.00849 119889250.94549     -1139.63749        50.000  

  23600580.48449 124021887.17249     -7018.48049        50.000  

  22360732.02349 117506439.60549      3529.12949        49.000  

 16 04 02 13 18 10.3000000  0  3G19G12G15                                       
  22814187.72749 119889365.10249     -1143.36749        50.000  

  23600714.07849 124022589.19149     -7022.09449        50.000  

  22360664.93849 117506087.04749      3522.09449        49.000  

 16 04 02 13 18 10.4000000  0  3G19G12G15                                       
  22814209.50849 119889479.59449     -1146.74249        50.000  

  23600847.71949 124023291.48849     -7024.70349        50.000  

  22360597.96949 117505735.14549      3515.62149        49.000  

 16 04 02 13 18 10.5000000  0  3G19G12G15                                       
  22814231.36749 119889594.45749     -1150.63749        50.000  

  23600981.43049 124023994.13749     -7028.41049        50.000  

  22360531.13349 117505383.95349      3508.37149        49.000  

 16 04 02 13 18 10.6000000  0  3G19G12G15                                       
  22814253.29749 119889709.70749     -1154.24649        50.000  

  23601115.19549 124024697.11749     -7031.44149        50.000  

  22360464.43849 117505033.46949      3501.48449        49.000  

 16 04 02 13 18 10.7000000  0  3G19G12G15                                       
  22814275.30549 119889825.26249     -1157.45349        50.000  

  23601249.02349 124025400.37549     -7034.28549        50.000  

  22360397.85949 117504683.61749      3495.01649        49.000  

 16 04 02 13 18 10.8000000  0  3G19G12G15                                       
  22814297.35249 119889941.15249     -1160.74249        50.000  

  23601382.89849 124026103.91849     -7037.18849        50.000  

  22360331.41449 117504334.41849      3488.54749        49.000  

 16 04 02 13 18 10.9000000  0  3G19G12G15                                       
  22814319.47749 119890057.43849     -1164.57049        50.000  

  23601516.85249 124026807.82049     -7040.46149        50.000  

  22360265.09449 117503985.93049      3481.53949        49.000  

 16 04 02 13 18 11.0000000  0  3G19G12G15                                       
  22814341.67249 119890174.07049     -1168.41049        50.000  

  23601650.85249 124027512.02749     -7044.07849        50.000  

  22360198.90649 117503638.13349      3474.37149        49.000  

 16 04 02 13 18 11.1000000  0  3G19G12G15                                       
  22814363.93849 119890291.08249     -1172.22349        50.000  

  23601784.92249 124028216.57049     -7047.40249        50.000  

  22360132.85949 117503291.02349      3467.52349        49.000  

 16 04 02 13 18 11.2000000  0  3G19G12G15                                       
  22814386.28149 119890408.49249     -1176.02749        50.000  

  23601919.06249 124028921.48849     -7050.87949        50.000  

  22360066.95349 117502944.66449      3460.13349        49.000  

 16 04 02 13 18 11.3000000  0  3G19G12G15                                       
  22814408.69549 119890526.21149     -1179.03149        50.000  

  23602053.25849 124029626.66449     -7053.35949        50.000  

  22360001.14149 117502598.91849      3454.04349        49.000  

 16 04 02 13 18 11.4000000  0  3G19G12G15                                       
  22814431.14849 119890644.23849     -1181.97349        50.000  

  23602187.50049 124030332.10549     -7056.12149        50.000  

  22359935.46949 117502253.80549      3447.80549        49.000  

 16 04 02 13 18 11.5000000  0  3G19G12G15                                       
  22814453.68849 119890762.62549     -1185.55549        50.000  

  23602321.80549 124031037.87149     -7059.28949        50.000  

  22359869.93049 117501909.39549      3440.92249        49.000  

 16 04 02 13 18 11.6000000  0  3G19G12G15                                       
  22814476.28149 119890881.36349     -1189.28949        50.000  

  23602456.15649 124031743.93849     -7062.45349        50.000  

  22359804.51649 117501565.64549      3433.92249        49.000  

 16 04 02 13 18 11.7000000  0  3G19G12G15                                       
  22814498.96149 119891000.51649     -1193.49249        50.000  

  23602590.58649 124032450.37949     -7066.20749        50.000  

  22359739.24249 117501222.62549      3426.55549        49.000  

 16 04 02 13 18 11.8000000  0  3G19G12G15                                       
  22814521.69549 119891119.99649     -1196.68449        50.000  

  23602725.08649 124033157.12149     -7069.16849        50.000  

  22359674.10249 117500880.27349      3420.05149        49.000  

 16 04 02 13 18 11.9000000  0  3G19G12G15                                       
  22814544.50849 119891239.84049     -1200.56249        50.000  

  23602859.63349 124033864.16849     -7072.58249        50.000  

  22359609.07849 117500538.61349      3412.95349        49.000  

 16 04 02 13 18 12.0000000  0  3G19G12G15                                       
  22814567.38349 119891360.05949     -1204.02049        50.000  

  23602994.24249 124034571.57049     -7075.57449        50.000  

  22359544.19549 117500197.64149      3406.30949        49.000  

 16 04 02 13 18 12.1000000  0  3G19G12G15                                       
  22814590.30549 119891480.55149     -1206.69949        50.000  

  23603128.89849 124035279.20349     -7077.98849        50.000  

  22359479.42249 117499857.28549      3400.10249        49.000  

 16 04 02 13 18 12.2000000  0  3G19G12G15                                       
  22814613.32049 119891601.50849     -1211.50849        50.000  

  23603263.64849 124035987.25449     -7082.30549        50.000  

  22359414.79749 117499517.69549      3392.41449        49.000  

 16 04 02 13 18 12.3000000  0  3G19G12G15                                       
  22814636.40649 119891722.82049     -1215.10949        50.000  

  23603398.44549 124036695.61749     -7085.49649        50.000  

  22359350.29749 117499178.80549      3385.42249        49.000  

 16 04 02 13 18 12.4000000  0  3G19G12G15                                       
  22814659.54749 119891844.44149     -1218.00849        50.000  

  23603533.28949 124037404.24249     -7088.00049        50.000  

  22359285.93049 117498840.53549      3379.28549        49.000  

 16 04 02 13 18 12.5000000  0  3G19G12G15                                       
  22814682.76649 119891966.43849     -1221.66049        50.000  

  23603668.20349 124038113.22349     -7091.34049        50.000  

  22359221.68849 117498502.98049      3372.34049        49.000  

 16 04 02 13 18 12.6000000  0  3G19G12G15                                       
  22814706.04749 119892088.77749     -1225.31649        50.000  

  23603803.17249 124038822.48849     -7094.37549        50.000  

  22359157.58649 117498166.09449      3365.40249        49.000  

 16 04 02 13 18 12.7000000  0  3G19G12G15                                       
  22814729.39849 119892211.45749     -1228.66849        50.000  

  23603938.20349 124039532.06249     -7097.56649        50.000  

  22359093.60949 117497829.85549      3358.90649        49.000  

 16 04 02 13 18 12.8000000  0  3G19G12G15                                       
  22814752.81249 119892334.53149     -1232.73049        50.000  

  23604073.29749 124040241.99649     -7101.19149        50.000  

  22359029.76649 117497494.35949      3351.46949        49.000  

 16 04 02 13 18 12.9000000  0  3G19G12G15                                       
  22814776.29749 119892457.98849     -1236.31649        50.000  

  23604208.45349 124040952.25049     -7104.31249        50.000  

  22358966.05549 117497159.55149      3344.69949        49.000  

 16 04 02 13 18 13.0000000  0  3G19G12G15                                       
  22814799.85249 119892581.75449     -1239.60949        50.000  

  23604343.66449 124041662.80149     -7107.25049        50.000  

  22358902.46949 117496825.38749      3338.06249        49.000  

 16 04 02 13 18 13.1000000  0  3G19G12G15                                       
  22814823.46949 119892705.86749     -1242.90649        50.000  

  23604478.93849 124042373.64149     -7110.17249        50.000  

  22358839.00049 117496491.89849      3331.53149        49.000  

 16 04 02 13 18 13.2000000  0  3G19G12G15                                       
  22814847.14849 119892830.30149     -1246.18849        50.000  

  23604614.25849 124043084.76649     -7112.91849        50.000  

  22358775.66449 117496159.05949      3324.92649        49.000  

 16 04 02 13 18 13.3000000  0  3G19G12G15                                       
  22814870.90649 119892955.14549     -1250.15649        50.000  

  23604749.64849 124043796.25449     -7116.54749        50.000  

  22358712.45349 117495826.94149      3317.86349        49.000  

 16 04 02 13 18 13.4000000  0  3G19G12G15                                       
  22814894.72749 119893080.31249     -1253.52049        50.000  

  23604885.09449 124044508.03149     -7119.49249        50.000  

  22358649.38349 117495495.48049      3311.23849        49.000  

 16 04 02 13 18 13.5000000  0  3G19G12G15                                       
  22814918.60949 119893205.82849     -1257.13749        50.000  

  23605020.60249 124045220.12549     -7122.74649        50.000  

  22358586.43049 117495164.69949      3304.28149        49.000  

 16 04 02 13 18 13.6000000  0  3G19G12G15                                       
  22814942.56249 119893331.71549     -1260.73849        50.000  

  23605156.17249 124045932.53549     -7125.96549        50.000  

  22358523.61749 117494834.60949      3297.32049        49.000  

 16 04 02 13 18 13.7000000  0  3G19G12G15                                       
  22814966.59449 119893457.96549     -1264.33249        50.000  

  23605291.80549 124046645.27349     -7129.00049        50.000  

  22358460.93849 117494505.21149      3290.57049        49.000  

 16 04 02 13 18 13.8000000  0  3G19G12G15                                       
  22814990.68049 119893584.52749     -1267.30949        50.000  

  23605427.48449 124047358.28949     -7131.72349        50.000  

  22358398.37549 117494176.44549      3284.29349        49.000  

 16 04 02 13 18 13.9000000  0  3G19G12G15                                       
  22815014.84449 119893711.45349     -1271.13749        50.000  

  23605563.21949 124048071.61349     -7134.97749        50.000  

  22358335.94549 117493848.36349      3277.35249        49.000  

 16 04 02 13 18 14.0000000  0  3G19G12G15                                       
  22815039.06249 119893838.73449     -1274.42649        50.000  

  23605699.03149 124048785.28149     -7138.16049        50.000  

  22358273.64149 117493520.97349      3270.70749        49.000  

 16 04 02 13 18 14.1000000  0  3G19G12G15                                       
  22815063.34449 119893966.32849     -1277.80549        50.000  

  23605834.88349 124049499.19549     -7140.96949        50.000  

  22358211.46149 117493194.22349      3264.00049        49.000  

 16 04 02 13 18 14.2000000  0  3G19G12G15                                       
  22815087.70349 119894094.35549     -1282.30949        50.000  

  23605970.82049 124050213.50449     -7145.05949        50.000  

  22358149.42249 117492868.21949      3256.30549        49.000  

 16 04 02 13 18 14.3000000  0  3G19G12G15                                       
  22815112.12549 119894222.69549     -1285.19949        50.000  

  23606106.80549 124050928.09849     -7147.61349        50.000  

  22358087.50849 117492542.87149      3250.12949        49.000  

 16 04 02 13 18 14.4000000  0  3G19G12G15                                       
  22815136.61749 119894351.39849     -1288.87149        50.000  

  23606242.84449 124051643.00849     -7150.76649        50.000  

  22358025.72749 117492218.19149      3243.28149        49.000  

 16 04 02 13 18 14.5000000  0  3G19G12G15                                       
  22815161.16449 119894480.43049     -1292.19549        50.000  

  23606378.93849 124052358.19949     -7153.69149        50.000  

  22357964.06249 117491894.18049      3236.75449        49.000  

 16 04 02 13 18 14.6000000  0  3G19G12G15                                       
  22815185.78949 119894609.80949     -1295.58249        50.000  

  23606515.09449 124053073.71149     -7156.67649        50.000  

  22357902.53149 117491570.84449      3230.00449        49.000  

 16 04 02 13 18 14.7000000  0  3G19G12G15                                       
  22815210.46949 119894739.53149     -1299.09049        50.000  

  23606651.30549 124053789.52049     -7159.74649        50.000  

  22357841.13349 117491248.16849      3223.26649        49.000  

 16 04 02 13 18 14.8000000  0  3G19G12G15                                       
  22815235.21149 119894869.57049     -1302.32849        50.000  

  23606787.57049 124054505.60549     -7162.62949        50.000  

  22357779.85949 117490926.14549      3216.73449        49.000  

 16 04 02 13 18 14.9000000  0  3G19G12G15                                       
  22815260.02349 119894999.99649     -1306.07049        50.000  

  23606923.90649 124055222.03549     -7165.87949        50.000  

  22357718.71949 117490604.83249      3209.76649        49.000  

 16 04 02 13 18 15.0000000  0  3G19G12G15                                       
  22815284.91449 119895130.79749     -1310.01649        50.000  

  23607060.29749 124055938.80549     -7169.53149        50.000  

  22357657.70349 117490284.21549      3202.66049        49.000  

 16 04 02 13 18 15.1000000  0  3G19G12G15                                       
  22815309.86749 119895261.97349     -1313.52749        50.000  

  23607196.75849 124056655.90249     -7172.64549        50.000  

  22357596.82849 117489964.29749      3195.80149        49.000  

 16 04 02 13 18 15.2000000  0  3G19G12G15                                       
  22815334.89149 119895393.46149     -1316.75449        50.000  

  23607333.27349 124057373.27349     -7175.43049        50.000  

  22357536.07049 117489645.02049      3189.27749        49.000  

 16 04 02 13 18 15.3000000  0  3G19G12G15                                       
  22815359.98449 119895525.30149     -1320.16849        50.000  

  23607469.84449 124058090.97349     -7178.77349        50.000  

  22357475.44549 117489326.43049      3182.46149        49.000  

 16 04 02 13 18 15.4000000  0  3G19G12G15                                       
  22815385.13349 119895657.48449     -1323.86749        50.000  

  23607606.47749 124058808.94949     -7181.65649        50.000  

  22357414.94549 117489008.49249      3175.71949        49.000  

 16 04 02 13 18 15.5000000  0  3G19G12G15                                       
  22815410.37549 119895790.07849     -1327.80549        50.000  

  23607743.17249 124059527.30549     -7185.19549        50.000  

  22357354.58649 117488691.30149      3168.42249        49.000  

 16 04 02 13 18 15.6000000  0  3G19G12G15                                       
  22815435.67249 119895923.01649     -1331.30149        50.000  

  23607879.93049 124060245.96149     -7188.48449        50.000  

  22357294.35949 117488374.77349      3161.78549        49.000  

 16 04 02 13 18 15.7000000  0  3G19G12G15                                       
  22815461.04749 119896056.32849     -1335.14849        50.000  

  23608016.75049 124060964.96149     -7191.91849        50.000  

  22357234.25849 117488058.94949      3154.76249        49.000  

 16 04 02 13 18 15.8000000  0  3G19G12G15                                       
  22815486.48449 119896190.00849     -1338.69549        50.000  

  23608153.63349 124061684.28149     -7194.89149        50.000  

  22357174.28949 117487743.82849      3147.77349        49.000  

 16 04 02 13 18 15.9000000  0  3G19G12G15                                       
  22815511.98449 119896324.02349     -1342.05949        50.000  

  23608290.57049 124062403.90649     -7197.94549        50.000  

  22357114.43849 117487429.35549      3141.23449        49.000  

 16 04 02 13 18 16.0000000  0  3G19G12G15                                       
  22815537.55549 119896458.42249     -1345.94949        50.000  

  23608427.57849 124063123.87149     -7201.43449        50.000  

  22357054.72749 117487115.59449      3134.13349        49.000  

 16 04 02 13 18 16.1000000  0  3G19G12G15                                       
  22815563.20349 119896593.18849     -1349.55149        50.000  

  23608564.64149 124063844.15649     -7204.68049        50.000  

  22356995.15649 117486802.53949      3127.21549        49.000  

 16 04 02 13 18 16.2000000  0  3G19G12G15                                       
  22815588.90649 119896728.25049     -1352.36349        50.000  

  23608701.75849 124064564.69549     -7207.21549        50.000  

  22356935.70349 117486490.09849      3121.00849        49.000  

 16 04 02 13 18 16.3000000  0  3G19G12G15                                       
  22815614.68849 119896863.72349     -1356.48049        50.000  

  23608838.94549 124065285.61349     -7210.69149        50.000  

  22356876.38349 117486178.39549      3113.67249        49.000  

 16 04 02 13 18 16.4000000  0  3G19G12G15                                       
  22815640.52349 119896999.50449     -1359.59849        50.000  

  23608976.18849 124066006.79749     -7213.52349        50.000  

  22356817.18849 117485867.32049      3107.28549        49.000  

 16 04 02 13 18 16.5000000  0  3G19G12G15                                       
  22815666.41449 119897135.58649     -1362.46949        50.000  

  23609113.46949 124066728.24249     -7215.91849        50.000  

  22356758.10249 117485556.87949      3101.18449        49.000  

 16 04 02 13 18 16.6000000  0  3G19G12G15                                       
  22815692.37549 119897272.00049     -1365.96149        50.000  

  23609250.81249 124067449.97749     -7219.16049        50.000  

  22356699.15649 117485247.09849      3094.30949        49.000  

 16 04 02 13 18 16.7000000  0  3G19G12G15                                       
  22815718.41449 119897408.81249     -1369.99649        50.000  

  23609388.22749 124068172.06649     -7222.80149        50.000  

  22356640.33649 117484938.02749      3087.20349        49.000  

 16 04 02 13 18 16.8000000  0  3G19G12G15                                       
  22815744.53149 119897546.05149     -1374.34049        50.000  

  23609525.70349 124068894.54349     -7226.56649        50.000  

  22356581.67249 117484629.71949      3079.55549        49.000  

 16 04 02 13 18 16.9000000  0  3G19G12G15                                       
  22815770.71149 119897683.65249     -1377.99649        50.000  

  23609663.25049 124069617.34449     -7229.86749        50.000  

  22356523.13349 117484322.10549      3072.57849        49.000  

 16 04 02 13 18 17.0000000  0  3G19G12G15                                       
  22815796.95349 119897821.55949     -1380.85549        50.000  

  23609800.84449 124070340.41049     -7232.29749        50.000  

  22356464.71949 117484015.11749      3066.45749        49.000  

 16 04 02 13 18 17.1000000  0  3G19G12G15                                       
  22815823.27349 119897959.80549     -1384.33649        50.000  

  23609938.50049 124071063.77749     -7235.33649        50.000  

  22356406.42249 117483708.78949      3059.87149        49.000  

 16 04 02 13 18 17.2000000  0  3G19G12G15                                       
  22815849.65649 119898098.44549     -1388.15249        50.000  

  23610076.21949 124071787.49249     -7238.85249        50.000  

  22356348.26649 117483403.18849      3052.64849        49.000  

 16 04 02 13 18 17.3000000  0  3G19G12G15                                       
  22815876.10249 119898237.42649     -1391.74649        50.000  

  23610213.99249 124072511.51249     -7242.09849        50.000  

  22356290.23449 117483098.25449      3045.83649        49.000  

 16 04 02 13 18 17.4000000  0  3G19G12G15                                       
  22815902.61749 119898376.75449     -1395.19949        50.000  

  23610351.82049 124073235.83249     -7244.90649        50.000  

  22356232.33649 117482793.99249      3039.16049        49.000  

 16 04 02 13 18 17.5000000  0  3G19G12G15                                       
  22815929.19549 119898516.47749     -1399.07049        50.000  

  23610489.72749 124073960.51249     -7248.52749        50.000  

  22356174.57049 117482490.44949      3031.95749        49.000  

 16 04 02 13 18 17.6000000  0  3G19G12G15                                       
  22815955.84449 119898656.50449     -1402.28549        50.000  

  23610627.67249 124074685.46149     -7251.38349        50.000  

  22356116.93049 117482187.54349      3025.43449        49.000  

 16 04 02 13 18 17.7000000  0  3G19G12G15                                       
  22815982.57049 119898796.92649     -1406.20749        50.000  

  23610765.69549 124075410.75849     -7254.76249        50.000  

  22356059.42249 117481885.35549      3018.32049        49.000  

 16 04 02 13 18 17.8000000  0  3G19G12G15                                       
  22816009.35949 119898937.70749     -1409.67649        50.000  

  23610903.78149 124076136.37949     -7257.93049        50.000  

  22356002.04749 117481583.85249      3011.61749        49.000  

 16 04 02 13 18 17.9000000  0  3G19G12G15                                       
  22816036.21149 119899078.82449     -1412.94149        50.000  

  23611041.91449 124076862.28949     -7260.80149        50.000  

  22355944.79749 117481283.01649      3005.02349        49.000  

 16 04 02 13 18 18.0000000  0  3G19G12G15                                       
  22816063.14849 119899220.35549     -1417.08249        50.000  

  23611180.12549 124077588.57849     -7264.52749        50.000  

  22355887.68849 117480982.91049      2997.66449        49.000  

 16 04 02 13 18 18.1000000  0  3G19G12G15                                       
  22816090.13349 119899362.16049     -1420.13749        50.000  

  23611318.38349 124078315.10249     -7267.12549        50.000  

  22355830.69549 117480683.41849      2991.28149        49.000  

 16 04 02 13 18 18.2000000  0  3G19G12G15                                       
  22816117.18849 119899504.34449     -1423.57049        50.000  

  23611456.69549 124079041.95349     -7270.03949        50.000  

  22355773.83649 117480384.61749      2984.76249        49.000  

 16 04 02 13 18 18.3000000  0  3G19G12G15                                       
  22816144.31249 119899646.87949     -1427.36349        50.000  

  23611595.07049 124079769.13749     -7273.85949        50.000  

  22355717.10949 117480086.51249      2977.38749        49.000  

 16 04 02 13 18 18.4000000  0  3G19G12G15                                       
  22816171.52349 119899789.85949     -1431.71549        50.000  

  23611733.52349 124080496.71549     -7277.45749        50.000  

  22355660.53149 117479789.16449      2970.00449        49.000  

 16 04 02 13 18 18.5000000  0  3G19G12G15                                       
  22816198.80549 119899933.16049     -1434.91449        50.000  

  23611872.02349 124081224.55149     -7280.31649        50.000  

  22355604.06249 117479492.46149      2963.40249        49.000  

 16 04 02 13 18 18.6000000  0  3G19G12G15                                       
  22816226.13349 119900076.79349     -1438.12949        50.000  

  23612010.59449 124081952.70349     -7283.13349        50.000  

  22355547.73449 117479196.42249      2957.10549        49.000  

 16 04 02 13 18 18.7000000  0  3G19G12G15                                       
  22816253.52349 119900220.73449     -1441.07449        50.000  

  23612149.21149 124082681.12149     -7285.66449        50.000  

  22355491.50849 117478901.03149      2950.64149        49.000  

 16 04 02 13 18 18.8000000  0  3G19G12G15                                       
  22816280.98449 119900365.05149     -1445.00449        50.000  

  23612287.89149 124083409.87149     -7289.24649        50.000  

  22355435.43049 117478606.32049      2943.67649        49.000  

 16 04 02 13 18 18.9000000  0  3G19G12G15                                       
  22816308.53149 119900509.76249     -1449.11749        50.000  

  23612426.63349 124084138.96949     -7292.89849        50.000  

  22355379.48449 117478312.34449      2936.17249        49.000  

 16 04 02 13 18 19.0000000  0  3G19G12G15                                       
  22816336.13349 119900654.80949     -1452.44549        50.000  

  23612565.43049 124084868.37149     -7295.78949        50.000  

  22355323.67249 117478019.02349      2929.69549        49.000  

 16 04 02 13 18 19.1000000  0  3G19G12G15                                       
  22816363.79749 119900800.23049     -1456.16849        50.000  

  23612704.29749 124085598.10949     -7299.27349        50.000  

  22355267.98449 117477726.41449      2922.48449        49.000  

 16 04 02 13 18 19.2000000  0  3G19G12G15                                       
  22816391.54749 119900946.03549     -1460.02049        50.000  

  23612843.22749 124086328.18449     -7302.56249        50.000  

  22355212.43049 117477434.50449      2915.54349        49.000  

 16 04 02 13 18 19.3000000  0  3G19G12G15                                       
  22816419.34449 119901092.12149     -1462.53149        50.000  

  23612982.19549 124087058.50049     -7304.68849        50.000  

  22355156.99249 117477143.20749      2909.68849        49.000  

 16 04 02 13 18 19.4000000  0  3G19G12G15                                       
  22816447.21149 119901238.56649     -1466.16049        50.000  

  23613121.23449 124087789.14549     -7307.99249        50.000  

  22355101.69549 117476852.59849      2902.74249        49.000  

 16 04 02 13 18 19.5000000  0  3G19G12G15                                       
  22816475.15649 119901385.38749     -1470.06249        50.000  

  23613260.33649 124088520.11349     -7311.42649        50.000  

  22355046.52349 117476562.68849      2895.54349        49.000  

 16 04 02 13 18 19.6000000  0  3G19G12G15                                       
  22816503.16449 119901532.54749     -1473.56649        50.000  

  23613399.50049 124089251.38749     -7314.61749        50.000  

  22354991.47749 117476273.43449      2888.95349        49.000  

 16 04 02 13 18 19.7000000  0  3G19G12G15                                       
  22816531.25049 119901680.13349     -1477.76249        50.000  

  23613538.72749 124089983.03549     -7318.25449        50.000  

  22354936.57849 117475984.93849      2881.49649        49.000  

 16 04 02 13 18 19.8000000  0  3G19G12G15                                       
  22816559.39149 119901828.01249     -1480.62949        50.000  

  23613678.00849 124090714.94949     -7320.87149        50.000  

  22354881.80549 117475697.08249      2875.13349        49.000  

 16 04 02 13 18 19.9000000  0  3G19G12G15                                       
  22816587.60249 119901976.26649     -1484.41049        50.000  

  23613817.35249 124091447.18849     -7324.19149        50.000  

  22354827.15649 117475409.90649      2868.24249        49.000  

 16 04 02 13 18 20.0000000  0  3G19G12G15                                       
  22816615.88349 119902124.88749     -1487.96549        50.000  

  23613956.75849 124092179.76649     -7327.39149        50.000  

  22354772.64149 117475123.43049      2861.40649        49.000  

 16 04 02 13 18 20.1000000  0  3G19G12G15                                       
  22816644.22749 119902273.82449     -1491.13749        50.000  

  23614096.21149 124092912.60249     -7329.96549        50.000  

  22354718.24249 117474837.59849      2854.94149        49.000  

 16 04 02 13 18 20.2000000  0  3G19G12G15                                       
  22816672.63349 119902423.10949     -1494.60549        50.000  

  23614235.71949 124093645.75849     -7333.16849        50.000  

  22354663.97749 117474552.43049      2848.36349        49.000  

 16 04 02 13 18 20.3000000  0  3G19G12G15                                       
  22816701.11749 119902572.73849     -1498.03549        50.000  

  23614375.29749 124094379.21949     -7336.20349        50.000  

  22354609.84449 117474267.95749      2841.41049        49.000  

 16 04 02 13 18 20.4000000  0  3G19G12G15                                       
  22816729.65649 119902722.71149     -1501.73049        50.000  

  23614514.93049 124095112.98049     -7339.52049        50.000  

  22354555.83649 117473984.13349      2834.62949        49.000  

 16 04 02 13 18 20.5000000  0  3G19G12G15                                       
  22816758.28949 119902873.14149     -1506.06249        50.000  

  23614654.64149 124095847.16049     -7343.44149        50.000  

  22354501.98449 117473701.10249      2826.86349        49.000  

 16 04 02 13 18 20.6000000  0  3G19G12G15                                       
  22816786.96149 119903023.82449     -1508.85549        50.000  

  23614794.39149 124096581.54749     -7345.82049        50.000  

  22354448.23449 117473418.64849      2820.96149        49.000  

 16 04 02 13 18 20.7000000  0  3G19G12G15                                       
  22816815.71149 119903174.91849     -1512.89149        50.000  

  23614934.21149 124097316.30549     -7349.50449        50.000  

  22354394.63349 117473136.93449      2813.64849        49.000  

 16 04 02 13 18 20.8000000  0  3G19G12G15                                       
  22816844.53149 119903326.35549     -1516.26649        50.000  

  23615074.08649 124098051.36749     -7352.48049        50.000  

  22354341.15649 117472855.89149      2806.98049        49.000  

 16 04 02 13 18 20.9000000  0  3G19G12G15                                       
  22816873.41449 119903478.14849     -1519.85249        50.000  

  23615214.02349 124098786.75049     -7355.57049        50.000  

  22354287.80549 117472575.53149      2800.05149        49.000  

 16 04 02 13 18 21.0000000  0  3G19G12G15                                       
  22816902.36749 119903630.28949     -1523.25049        50.000  

  23615354.02349 124099522.43049     -7358.57049        50.000  

  22354234.57849 117472295.84449      2793.37549        49.000  

 16 04 02 13 18 21.1000000  0  3G19G12G15                                       
  22816931.37549 119903782.77749     -1526.71149        50.000  

  23615494.07849 124100258.42649     -7361.60249        50.000  

  22354181.48449 117472016.82449      2786.76649        49.000  

 16 04 02 13 18 21.2000000  0  3G19G12G15                                       
  22816960.46149 119903935.60249     -1530.16049        50.000  

  23615634.18849 124100994.71549     -7364.71549        50.000  

  22354128.51649 117471738.48449      2780.00049        49.000  

 16 04 02 13 18 21.3000000  0  3G19G12G15                                       
  22816989.61749 119904088.83649     -1534.10549        50.000  

  23615774.37549 124101731.37149     -7368.18849        50.000  

  22354075.69549 117471460.86349      2772.86349        49.000  

 16 04 02 13 18 21.4000000  0  3G19G12G15                                       
  22817018.83649 119904242.38749     -1537.27749        50.000  

  23615914.60949 124102468.30949     -7371.01649        50.000  

  22354022.99249 117471183.90249      2766.29749        49.000  

 16 04 02 13 18 21.5000000  0  3G19G12G15                                       
  22817048.10949 119904396.23049     -1540.34449        50.000  

  23616054.89149 124103205.50449     -7373.75449        50.000  

  22353970.40649 117470907.56249      2759.86349        49.000  

 16 04 02 13 18 21.6000000  0  3G19G12G15                                       
  22817077.46949 119904550.50049     -1544.46549        50.000  

  23616195.25049 124103943.07449     -7377.39549        50.000  

  22353917.96149 117470631.95749      2752.64149        49.000  

 16 04 02 13 18 21.7000000  0  3G19G12G15                                       
  22817106.89149 119904705.10549     -1548.06249        50.000  

  23616335.66449 124104680.93849     -7380.50449        50.000  

  22353865.64849 117470357.02749      2745.81249        49.000  

 16 04 02 13 18 21.8000000  0  3G19G12G15                                       
  22817136.38349 119904860.10549     -1551.94149        50.000  

  23616476.13349 124105419.15649     -7384.00449        50.000  

  22353813.46949 117470082.81649      2738.59049        49.000  

 16 04 02 13 18 21.9000000  0  3G19G12G15                                       
  22817165.95349 119905015.47349     -1555.58649        50.000  

  23616616.68049 124106157.71549     -7387.36349        50.000  

  22353761.41449 117469809.30549      2731.57049        49.000  

 16 04 02 13 18 22.0000000  0  3G19G12G15                                       
  22817195.58649 119905171.18049     -1558.94149        50.000  

  23616757.27349 124106896.55949     -7390.24649        50.000  

  22353709.49249 117469536.45349      2724.96549        49.000  

 16 04 02 13 18 22.1000000  0  3G19G12G15                                       
  22817225.27349 119905327.23849     -1562.37549        50.000  

  23616897.93049 124107635.71549     -7393.20349        50.000  

  22353657.69549 117469264.28549      2718.34849        49.000  

 16 04 02 13 18 22.2000000  0  3G19G12G15                                       
  22817255.03949 119905483.64849     -1565.91049        50.000  

  23617038.64849 124108375.19549     -7396.51249        50.000  

  22353606.03149 117468992.78949      2711.48449        49.000  

 16 04 02 13 18 22.3000000  0  3G19G12G15                                       
  22817284.85949 119905640.39849     -1569.07449        50.000  

  23617179.42249 124109114.96149     -7399.08649        50.000  

  22353554.50049 117468721.96949      2704.96549        49.000  

 16 04 02 13 18 22.4000000  0  3G19G12G15                                       
  22817314.74249 119905797.43849     -1572.32849        50.000  

  23617320.24249 124109854.98449     -7402.09849        50.000  

  22353503.07849 117468451.76249      2698.58249        49.000  

 16 04 02 13 18 22.5000000  0  3G19G12G15                                       
  22817344.71949 119905954.92649     -1576.52049        50.000  

  23617461.14149 124110595.40649     -7405.82049        50.000  

  22353451.81249 117468182.33249      2690.99649        49.000  

 16 04 02 13 18 22.6000000  0  3G19G12G15                                       
  22817374.74249 119906112.69549     -1579.43849        50.000  

  23617602.07849 124111336.08649     -7408.35249        50.000  

  22353400.65649 117467913.51249      2684.80549        49.000  

 16 04 02 13 18 22.7000000  0  3G19G12G15                                       
  22817404.83649 119906270.80949     -1583.05549        50.000  

  23617743.07849 124112077.05149     -7411.48449        50.000  

  22353349.63349 117467645.35549      2678.08249        49.000  

 16 04 02 13 18 22.8000000  0  3G19G12G15                                       
  22817435.00049 119906429.34849     -1587.22749        50.000  

  23617884.15649 124112818.40249     -7415.27049        50.000  

  22353298.75049 117467377.96149      2670.46149        49.000  

 16 04 02 13 18 22.9000000  0  3G19G12G15                                       
  22817465.22749 119906588.23849     -1590.87549        50.000  

  23618025.28949 124113560.07449     -7418.51249        50.000  

  22353247.99249 117467111.23849      2663.65649        49.000  

 16 04 02 13 18 23.0000000  0  3G19G12G15                                       
  22817495.53149 119906747.46949     -1594.14849        50.000  

  23618166.48449 124114302.04349     -7421.39849        50.000  

  22353197.36749 117466845.18049      2657.17649        49.000  

 16 04 02 13 18 23.1000000  0  3G19G12G15                                       
  22817525.89149 119906907.03949     -1597.68449        50.000  

  23618307.73449 124115044.32049     -7424.65249        50.000  

  22353146.85949 117466579.80949      2650.23049        49.000  

 16 04 02 13 18 23.2000000  0  3G19G12G15                                       
  22817556.32849 119907066.98449     -1601.13749        50.000  

  23618449.04749 124115786.91449     -7427.54349        50.000  

  22353096.49249 117466315.12549      2643.50849        49.000  

 16 04 02 13 18 23.3000000  0  3G19G12G15                                       
  22817586.82049 119907227.23049     -1604.16849        50.000  

  23618590.41449 124116529.78149     -7430.25849        50.000  

  22353046.25049 117466051.07449      2637.12549        49.000  

 16 04 02 13 18 23.4000000  0  3G19G12G15                                       
  22817617.39149 119907387.87549     -1608.32449        50.000  

  23618731.85249 124117273.00049     -7433.97749        50.000  

  22352996.14149 117465787.73849      2629.77049        49.000  

 16 04 02 13 18 23.5000000  0  3G19G12G15                                       
  22817648.03949 119907548.93049     -1612.62549        50.000  

  23618873.34449 124118016.58649     -7437.74249        50.000  

  22352946.16449 117465525.15649      2622.21549        49.000  

 16 04 02 13 18 23.6000000  0  3G19G12G15                                       
  22817678.75049 119907710.29349     -1615.45349        50.000  

  23619014.89849 124118760.44149     -7440.24249        50.000  

  22352896.32049 117465263.19149      2616.11349        49.000  

 16 04 02 13 18 23.7000000  0  3G19G12G15                                       
  22817709.51649 119907871.98449     -1618.71149        50.000  

  23619156.50849 124119504.60249     -7443.03949        50.000  

  22352846.60249 117465001.90249      2609.64149        49.000  

 16 04 02 13 18 23.8000000  0  3G19G12G15                                       
  22817740.34449 119908034.00849     -1621.98049        50.000  

  23619298.17249 124120249.03949     -7446.01249        50.000  

  22352797.00049 117464741.26249      2602.98449        49.000  

 16 04 02 13 18 23.9000000  0  3G19G12G15                                       
  22817771.24249 119908196.38749     -1625.52049        50.000  

  23619439.89149 124120993.78549     -7449.04349        50.000  

  22352747.53149 117464481.30149      2596.25049        49.000  

 16 04 02 13 18 24.0000000  0  3G19G12G15                                       
  22817802.21149 119908359.12149     -1629.40249        50.000  

  23619581.67249 124121738.85949     -7452.71549        50.000  

  22352698.19549 117464222.02749      2589.17249        49.000  

 16 04 02 13 18 24.1000000  0  3G19G12G15                                       
  22817833.24249 119908522.21549     -1632.55949        50.000  

  23619723.51649 124122484.24249     -7455.29749        50.000  

  22352648.98449 117463963.43849      2582.69149        49.000  

 16 04 02 13 18 24.2000000  0  3G19G12G15                                       
  22817864.33649 119908685.60249     -1635.80949        50.000  

  23619865.41449 124123229.89549     -7458.25449        50.000  

  22352599.89849 117463705.48849      2576.01649        49.000  

 16 04 02 13 18 24.3000000  0  3G19G12G15                                       
  22817895.50849 119908849.44949     -1640.35549        50.000  

  23620007.38349 124123975.94549     -7462.30149        50.000  

  22352550.96149 117463448.30149      2568.25449        49.000  

 16 04 02 13 18 24.4000000  0  3G19G12G15                                       
  22817926.76649 119909013.69549     -1644.52749        50.000  

  23620149.41449 124124722.36349     -7466.14849        50.000  

  22352502.15649 117463191.85949      2560.75049        49.000  

 16 04 02 13 18 24.5000000  0  3G19G12G15                                       
  22817958.08649 119909178.21149     -1646.97349        50.000  

  23620291.50049 124125469.01649     -7468.12149        50.000  

  22352453.46949 117462935.99649      2555.20749        49.000  

 16 04 02 13 18 24.6000000  0  3G19G12G15                                       
  22817989.44549 119909343.03949     -1650.18849        50.000  

  23620433.63349 124126215.93049     -7470.96949        50.000  

  22352404.90649 117462680.78149      2548.74249        49.000  

 16 04 02 13 18 24.7000000  0  3G19G12G15                                       
  22818020.89849 119909508.30149     -1654.36749        50.000  

  23620575.84449 124126963.24649     -7474.74649        50.000  

  22352356.48449 117462426.34049      2541.12549        49.000  

 16 04 02 13 18 24.8000000  0  3G19G12G15                                       
  22818052.39849 119909673.85549     -1657.30149        50.000  

  23620718.10949 124127710.81249     -7477.29349        50.000  

  22352308.18049 117462172.50049      2534.94949        49.000  

 16 04 02 13 18 24.9000000  0  3G19G12G15                                       
  22818083.97749 119909839.78949     -1661.34049        50.000  

  23620860.43049 124128458.71549     -7480.91049        50.000  

  22352260.01649 117461919.38349      2527.55149        49.000  

 16 04 02 13 18 25.0000000  0  3G19G12G15                                       
  22818115.63349 119910006.12149     -1665.19149        50.000  

  23621002.82849 124129206.97749     -7484.27049        50.000  

  22352211.98449 117461666.98049      2520.52049        49.000  

 16 04 02 13 18 25.1000000  0  3G19G12G15                                       
  22818147.34449 119910172.76249     -1668.36349        50.000  

  23621145.26649 124129955.51649     -7487.13749        50.000  

  22352164.07049 117461415.21949      2514.21149        49.000  

 16 04 02 13 18 25.2000000  0  3G19G12G15                                       
  22818179.12549 119910339.76649     -1671.81649        50.000  

  23621287.76649 124130704.37149     -7490.12149        50.000  

  22352116.28949 117461164.14149      2507.46949        49.000  

 16 04 02 13 18 25.3000000  0  3G19G12G15                                       
  22818210.96149 119910507.07849     -1675.00049        50.000  

  23621430.31249 124131453.48049     -7492.82849        50.000  

  22352068.63349 117460913.72349      2500.70749        49.000  

 16 04 02 13 18 25.4000000  0  3G19G12G15                                       
  22818242.87549 119910674.76249     -1678.55149        50.000  

  23621572.93049 124132202.93449     -7496.08649        50.000  

  22352021.10949 117460663.98049      2493.98849        49.000  

 16 04 02 13 18 25.5000000  0  3G19G12G15                                       
  22818274.84449 119910842.77049     -1682.02049        50.000  

  23621715.60249 124132952.66449     -7499.16449        50.000  

  22351973.71949 117460414.89849      2487.27049        49.000  

 16 04 02 13 18 25.6000000  0  3G19G12G15                                       
  22818306.88349 119911011.16849     -1685.66849        50.000  

  23621858.34449 124133702.76649     -7502.56649        50.000  

  22351926.45349 117460166.54349      2480.25449        49.000  

 16 04 02 13 18 25.7000000  0  3G19G12G15                                       
  22818338.98449 119911179.87549     -1688.95749        50.000  

  23622001.12549 124134453.11349     -7505.37949        50.000  

  22351879.31249 117459918.80549      2473.81649        49.000  

 16 04 02 13 18 25.8000000  0  3G19G12G15                                       
  22818371.16449 119911348.99249     -1693.05949        50.000  

  23622143.99249 124135203.83649     -7508.94149        50.000  

  22351832.31249 117459671.82049      2466.37949        49.000  

 16 04 02 13 18 25.9000000  0  3G19G12G15                                       
  22818403.40649 119911518.38749     -1695.62549        50.000  

  23622286.89849 124135954.80149     -7511.32449        50.000  

  22351785.42249 117459425.43449      2460.49249        49.000  

 16 04 02 13 18 26.0000000  0  3G19G12G15                                       
  22818435.71949 119911688.18049     -1699.69149        50.000  

  23622429.86749 124136706.12149     -7514.87949        50.000  

  22351738.68049 117459179.77749      2453.22349        49.000  

 16 04 02 13 18 26.1000000  0  3G19G12G15                                       
  22818468.10249 119911858.34449     -1703.67249        50.000  

  23622572.90649 124137457.76249     -7518.42249        50.000  

  22351692.06249 117458934.81249      2446.06249        49.000  

 16 04 02 13 18 26.2000000  0  3G19G12G15                                       
  22818500.54749 119912028.84849     -1706.77049        50.000  

  23622716.00049 124138209.72349     -7521.19149        50.000  

  22351645.57849 117458690.53149      2439.50049        49.000  

 16 04 02 13 18 26.3000000  0  3G19G12G15                                       
  22818533.05549 119912199.66049     -1709.90649        50.000  

  23622859.14149 124138961.93449     -7523.87149        50.000  

  22351599.20349 117458446.87549      2433.11349        49.000  

 16 04 02 13 18 26.4000000  0  3G19G12G15                                       
  22818565.64149 119912370.87949     -1713.79749        50.000  

  23623002.34449 124139714.51649     -7527.20349        50.000  

  22351552.97749 117458203.93849      2426.15249        49.000  

 16 04 02 13 18 26.5000000  0  3G19G12G15                                       
  22818598.26649 119912542.36749     -1716.78949        50.000  

  23623145.60249 124140467.33649     -7530.00849        50.000  

  22351506.86749 117457961.63349      2419.71549        49.000  

 16 04 02 13 18 26.6000000  0  3G19G12G15                                       
  22818630.97749 119912714.26649     -1720.72349        50.000  

  23623288.93049 124141220.51249     -7533.48449        50.000  

  22351460.89849 117457720.04349      2412.50849        49.000  

 16 04 02 13 18 26.7000000  0  3G19G12G15                                       
  22818663.75849 119912886.54349     -1724.66049        50.000  

  23623432.32049 124141974.03549     -7536.98449        50.000  

  22351415.05549 117457479.15649      2405.35949        49.000  

 16 04 02 13 18 26.8000000  0  3G19G12G15                                       
  22818696.60949 119913059.18049     -1728.34449        50.000  

  23623575.76649 124142727.87149     -7540.22349        50.000  

  22351369.35949 117457238.98849      2398.10549        49.000  

 16 04 02 13 18 26.9000000  0  3G19G12G15                                       
  22818729.53949 119913232.19549     -1732.19549        50.000  

  23623719.28149 124143482.05549     -7543.69149        50.000  

  22351323.78149 117456999.50049      2391.15249        49.000  

 16 04 02 13 18 27.0000000  0  3G19G12G15                                       
  22818762.53149 119913405.59449     -1735.76249        50.000  

  23623862.86749 124144236.57049     -7546.93049        50.000  

  22351278.34449 117456760.71549      2384.45749        49.000  

 16 04 02 13 18 27.1000000  0  3G19G12G15                                       
  22818795.57849 119913579.29749     -1738.94549        50.000  

  23624006.49249 124144991.35949     -7549.70749        50.000  

  22351233.02349 117456522.57849      2377.89149        49.000  

 16 04 02 13 18 27.2000000  0  3G19G12G15                                       
  22818828.71149 119913753.40649     -1742.93849        50.000  

  23624150.19549 124145746.51249     -7553.21149        50.000  

  22351187.85249 117456285.18849      2370.55149        49.000  

 16 04 02 13 18 27.3000000  0  3G19G12G15                                       
  22818861.89149 119913927.79349     -1745.61749        50.000  

  23624293.93849 124146501.89549     -7555.52349        50.000  

  22351142.78149 117456048.37949      2364.63349        49.000  

 16 04 02 13 18 27.4000000  0  3G19G12G15                                       
  22818895.14849 119914102.56249     -1749.49649        50.000  

  23624437.75049 124147257.62149     -7558.90649        50.000  

  22351097.85949 117455812.29349      2357.43049        49.000  

 16 04 02 13 18 27.5000000  0  3G19G12G15                                       
  22818928.47749 119914277.69149     -1753.17649        50.000  

  23624581.62549 124148013.67649     -7562.28949        50.000  

  22351053.06249 117455576.89149      2350.52749        49.000  

 16 04 02 13 18 27.6000000  0  3G19G12G15                                       
  22818961.87549 119914453.20749     -1756.92649        50.000  

  23624725.55549 124148770.07049     -7565.70749        50.000  

  22351008.39849 117455342.20749      2343.37549        49.000  

 16 04 02 13 18 27.7000000  0  3G19G12G15                                       
  22818995.32849 119914629.03549     -1760.13349        50.000  

  23624869.54749 124149526.73449     -7568.38749        50.000  

  22350963.87549 117455108.16449      2336.99649        49.000  

 16 04 02 13 18 27.8000000  0  3G19G12G15                                       
  22819028.85949 119914805.24249     -1763.96149        50.000  

  23625013.60249 124150283.73849     -7571.85549        50.000  

  22350919.46949 117454874.82049      2329.84049        49.000  

 16 04 02 13 18 27.9000000  0  3G19G12G15                                       
  22819062.45349 119914981.77349     -1767.23449        50.000  

  23625157.71149 124151041.02349     -7574.70749        50.000  

  22350875.18849 117454642.13749      2323.42249        49.000  

 16 04 02 13 18 28.0000000  0  3G19G12G15                                       
  22819096.11749 119915158.66049     -1770.62949        50.000  

  23625301.88349 124151798.63749     -7577.69949        50.000  

  22350831.03949 117454410.14149      2316.60549        49.000  

 16 04 02 13 18 28.1000000  0  3G19G12G15                                       
  22819129.84449 119915335.88349     -1774.09849        50.000  

  23625446.10949 124152556.53149     -7580.77349        50.000  

  22350787.01649 117454178.79349      2310.09049        49.000  

 16 04 02 13 18 28.2000000  0  3G19G12G15                                       
  22819163.64149 119915513.50049     -1778.12549        50.000  

  23625590.39849 124153314.78949     -7584.36349        50.000  

  22350743.14149 117453948.18849      2302.55149        49.000  

 16 04 02 13 18 28.3000000  0  3G19G12G15                                       
  22819197.51649 119915691.50049     -1781.99249        50.000  

  23625734.75049 124154073.37949     -7587.77049        50.000  

  22350699.38349 117453718.28149      2295.51249        49.000  

 16 04 02 13 18 28.4000000  0  3G19G12G15                                       
  22819231.44549 119915869.79349     -1784.88749        50.000  

  23625879.14849 124154832.23849     -7590.38749        50.000  

  22350655.75849 117453489.01249      2289.24249        49.000  

 16 04 02 13 18 28.5000000  0  3G19G12G15                                       
  22819265.43849 119916048.44149     -1788.41849        50.000  

  23626023.61749 124155591.39149     -7593.34849        50.000  

  22350612.25049 117453260.40649      2282.60249        49.000  

 16 04 02 13 18 28.6000000  0  3G19G12G15                                       
  22819299.50049 119916227.43849     -1791.69549        50.000  

  23626168.13349 124156350.86349     -7596.23449        50.000  

  22350568.88349 117453032.48449      2275.88349        49.000  

 16 04 02 13 18 28.7000000  0  3G19G12G15                                       
  22819333.64849 119916406.84449     -1796.04349        50.000  

  23626312.72749 124157110.70749     -7600.28549        50.000  

  22350525.64849 117452805.30149      2268.21149        49.000  

 16 04 02 13 18 28.8000000  0  3G19G12G15                                       
  22819367.85249 119916586.59849     -1799.64149        50.000  

  23626457.37549 124157870.85949     -7603.45749        50.000  

  22350482.54749 117452578.79749      2261.35949        49.000  

 16 04 02 13 18 28.9000000  0  3G19G12G15                                       
  22819402.11749 119916766.69549     -1802.64849        50.000  

  23626602.08649 124158631.30949     -7606.03149        50.000  

  22350439.57849 117452352.96549      2254.95349        49.000  

 16 04 02 13 18 29.0000000  0  3G19G12G15                                       
  22819436.44549 119916947.07849     -1805.55949        50.000  

  23626746.83649 124159391.99649     -7608.53549        50.000  

  22350396.71949 117452127.73449      2248.81249        49.000  

 16 04 02 13 18 29.1000000  0  3G19G12G15                                       
  22819470.85249 119917127.85249     -1809.58649        50.000  

  23626891.66449 124160153.05549     -7612.36749        50.000  

  22350354.00049 117451903.24649      2241.46149        49.000  

 16 04 02 13 18 29.2000000  0  3G19G12G15                                       
  22819505.32049 119917308.97749     -1812.82849        50.000  

  23627036.54749 124160914.41049     -7615.05549        50.000  

  22350311.40649 117451679.41849      2234.99649        49.000  

 16 04 02 13 18 29.3000000  0  3G19G12G15                                       
  22819539.85249 119917490.44549     -1816.52049        50.000  

  23627181.48449 124161676.06649     -7618.38749        50.000  

  22350268.94549 117451456.27049      2228.04749        49.000  

 16 04 02 13 18 29.4000000  0  3G19G12G15                                       
  22819574.45349 119917672.28549     -1820.00849        50.000  

  23627326.48449 124162438.05549     -7621.39849        50.000  

  22350226.61749 117451233.81649      2221.28149        49.000  

 16 04 02 13 18 29.5000000  0  3G19G12G15                                       
  22819609.11749 119917854.46949     -1823.74249        50.000  

  23627471.54749 124163200.35949     -7624.88749        50.000  

  22350184.41449 117451012.04349      2214.23049        49.000  

 16 04 02 13 18 29.6000000  0  3G19G12G15                                       
  22819643.86749 119918037.07449     -1828.11349        50.000  

  23627616.68049 124163963.03149     -7628.64849        50.000  

  22350142.35249 117450791.02049      2206.67249        49.000  

 16 04 02 13 18 29.7000000  0  3G19G12G15                                       
  22819678.68049 119918219.99249     -1830.97349        50.000  

  23627761.86749 124164725.98049     -7631.10249        50.000  

  22350100.41449 117450570.62549      2200.52349        49.000  

 16 04 02 13 18 29.8000000  0  3G19G12G15                                       
  22819713.55549 119918403.25449     -1834.45349        50.000  

  23627907.10949 124165489.23049     -7634.19549        50.000  

  22350058.60249 117450350.91849      2193.71949        49.000  

 16 04 02 13 18 29.9000000  0  3G19G12G15                                       
  22819748.48449 119918586.83649     -1837.55149        50.000  

  23628052.39849 124166252.76249     -7636.92249        50.000  

  22350016.92249 117450131.85249      2187.27049        49.000  

 16 04 02 13 18 30.0000000  0  3G19G12G15                                       
  22819783.48449 119918770.77749     -1841.27049        50.000  

  23628197.75849 124167016.61749     -7640.32449        50.000  

  22349975.36749 117449913.48049      2180.30149        49.000  

 16 04 02 13 18 30.1000000  0  3G19G12G15                                       
  22819818.55549 119918955.06249     -1844.70349        50.000  

  23628343.17249 124167780.76249     -7643.08649        50.000  

  22349933.93849 117449695.77049      2173.66849        49.000  

 16 04 02 13 18 30.2000000  0  3G19G12G15                                       
  22819853.69549 119919139.74249     -1848.78149        50.000  

  23628488.65649 124168545.27749     -7647.05149        50.000  

  22349892.64149 117449478.78549      2166.22749        49.000  

 16 04 02 13 18 30.3000000  0  3G19G12G15                                       
  22819888.91449 119919324.78149     -1852.16449        50.000  

  23628634.19549 124169310.10949     -7650.04749        50.000  

  22349851.49249 117449262.50849      2159.31649        49.000  

 16 04 02 13 18 30.4000000  0  3G19G12G15                                       
  22819924.19549 119919510.17249     -1855.77349        50.000  

  23628779.79749 124170075.25049     -7653.19949        50.000  

  22349810.46149 117449046.90249      2152.48049        49.000  

 16 04 02 13 18 30.5000000  0  3G19G12G15                                       
  22819959.53149 119919695.88749     -1858.72349        50.000  

  23628925.45349 124170840.65649     -7655.66449        50.000  

  22349769.55549 117448831.93049      2146.27049        49.000  

 16 04 02 13 18 30.6000000  0  3G19G12G15                                       
  22819994.94549 119919881.98049     -1862.80549        50.000  

  23629071.17249 124171606.42249     -7659.39549        50.000  

  22349728.78149 117448617.68449      2139.01649        49.000  

 16 04 02 13 18 30.7000000  0  3G19G12G15                                       
  22820030.43049 119920068.47749     -1866.86349        50.000  

  23629216.96149 124172372.54349     -7663.05949        50.000  

  22349688.14849 117448404.15249      2131.72349        49.000  

 16 04 02 13 18 30.8000000  0  3G19G12G15                                       
  22820065.98449 119920255.31249     -1870.04749        50.000  

  23629362.80549 124173138.96549     -7665.77349        50.000  

  22349647.64849 117448191.31649      2125.06649        49.000  

 16 04 02 13 18 30.9000000  0  3G19G12G15                                       
  22820101.60249 119920442.49249     -1873.69949        50.000  

  23629508.70349 124173905.68049     -7668.88749        50.000  

  22349607.26649 117447979.11749      2118.45749        49.000  

 16 04 02 13 18 31.0000000  0  3G19G12G15                                       
  22820137.28949 119920630.02349     -1877.17649        50.000  

  23629654.66449 124174672.71949     -7672.06649        50.000  

  22349567.01649 117447767.62549      2111.57849        49.000  

 16 04 02 13 18 31.1000000  0  3G19G12G15                                       
  22820173.03949 119920817.93449     -1881.05549        50.000  

  23629800.69549 124175440.09849     -7675.66049        50.000  

  22349526.91449 117447556.84049      2104.24249        49.000  

 16 04 02 13 18 31.2000000  0  3G19G12G15                                       
  22820208.85949 119921006.19149     -1884.28549        50.000  

  23629946.77349 124176207.77749     -7678.44549        50.000  

  22349486.93049 117447346.72749      2097.74249        49.000  

 16 04 02 13 18 31.3000000  0  3G19G12G15                                       
  22820244.74249 119921194.76649     -1887.66849        50.000  

  23630092.91449 124176975.73849     -7681.43449        50.000  

  22349447.07049 117447137.25849      2091.14849        49.000  

 16 04 02 13 18 31.4000000  0  3G19G12G15                                       
  22820280.70349 119921383.73849     -1891.48049        50.000  

  23630239.11749 124177744.04749     -7684.66849        50.000  

  22349407.35249 117446928.51249      2084.05549        49.000  

 16 04 02 13 18 31.5000000  0  3G19G12G15                                       
  22820316.71949 119921573.00849     -1894.54349        50.000  

  23630385.37549 124178512.62149     -7687.49249        50.000  

  22349367.75049 117446720.39549      2077.69949        49.000  

 16 04 02 13 18 31.6000000  0  3G19G12G15                                       
  22820352.81249 119921762.68849     -1898.65249        50.000  

  23630531.69549 124179281.56249     -7691.15649        50.000  

  22349328.28949 117446513.02049      2070.32049        49.000  

 16 04 02 13 18 31.7000000  0  3G19G12G15                                       
  22820388.96949 119921952.68449     -1901.64149        50.000  

  23630678.07049 124180050.78549     -7693.75849        50.000  

  22349288.95349 117446306.28949      2063.98849        49.000  

 16 04 02 13 18 31.8000000  0  3G19G12G15                                       
  22820425.18049 119922142.96549     -1904.57449        50.000  

  23630824.48449 124180820.24249     -7696.23049        50.000  

  22349249.73449 117446100.17249      2057.86749        49.000  

 16 04 02 13 18 31.9000000  0  3G19G12G15                                       
  22820461.47749 119922333.68449     -1908.96149        50.000  

  23630970.98449 124181590.09849     -7700.21549        50.000  

  22349210.65649 117445894.82049      2050.20349        49.000  

 16 04 02 13 18 32.0000000  0  3G19G12G15                                       
  22820497.83649 119922524.75049     -1912.53549        50.000  

  23631117.53949 124182360.26249     -7703.30949        50.000  

  22349171.70349 117445690.13749      2043.36349        49.000  

 16 04 02 13 18 32.1000000  0  3G19G12G15                                       
  22820534.25049 119922716.11749     -1915.56249        50.000  

  23631264.14849 124183130.69549     -7706.09449        50.000  

  22349132.87549 117445486.10949      2036.82449        49.000  

 16 04 02 13 18 32.2000000  0  3G19G12G15                                       
  22820570.74249 119922907.86749     -1919.38349        50.000  

  23631410.82049 124183901.47349     -7709.55949        50.000  

  22349094.18849 117445282.77349      2029.81649        49.000  

 16 04 02 13 18 32.3000000  0  3G19G12G15                                       
  22820607.29749 119923099.92649     -1922.37549        50.000  

  23631557.54749 124184672.50449     -7711.98049        50.000  

  22349055.61749 117445080.08249      2023.57449        49.000  

 16 04 02 13 18 32.4000000  0  3G19G12G15                                       
  22820643.92249 119923292.41849     -1926.84849        50.000  

  23631704.33649 124185443.92249     -7716.01649        50.000  

  22349017.18849 117444878.14149      2015.92649        49.000  

 16 04 02 13 18 32.5000000  0  3G19G12G15                                       
  22820680.62549 119923485.27349     -1930.36749        50.000  

  23631851.20349 124186215.68449     -7719.17249        50.000  

  22348978.89149 117444676.90249      2008.98449        49.000  

 16 04 02 13 18 32.6000000  0  3G19G12G15                                       
  22820717.38349 119923678.45349     -1933.73849        50.000  

  23631998.10949 124186987.71149     -7722.12549        50.000  

  22348940.72749 117444476.31649      2002.29749        49.000  

 16 04 02 13 18 32.7000000  0  3G19G12G15                                       
  22820754.22749 119923872.02049     -1937.48449        50.000  

  23632145.09449 124187760.10249     -7725.54349        50.000  

  22348902.69549 117444276.44949      1995.31649        49.000  

 16 04 02 13 18 32.8000000  0  3G19G12G15                                       
  22820791.12549 119924065.93049     -1941.02349        50.000  

  23632292.13349 124188532.78949     -7728.62149        50.000  

  22348864.78949 117444077.25449      1988.42249        49.000  

 16 04 02 13 18 32.9000000  0  3G19G12G15                                       
  22820828.09449 119924260.19949     -1944.59449        50.000  

  23632439.22749 124189305.79749     -7731.80149        50.000  

  22348827.01649 117443878.74249      1981.58249        49.000  

 16 04 02 13 18 33.0000000  0  3G19G12G15                                       
  22820865.12549 119924454.81249     -1947.76249        50.000  

  23632586.39149 124190079.10249     -7734.46949        50.000  

  22348789.36749 117443680.91049      1975.03149        49.000  

 16 04 02 13 18 33.1000000  0  3G19G12G15                                       
  22820902.21949 119924649.72749     -1950.96949        50.000  

  23632733.59449 124190852.67649     -7737.49249        50.000  

  22348751.84449 117443483.69949      1968.62949        49.000  

 16 04 02 13 18 33.2000000  0  3G19G12G15                                       
  22820939.37549 119924845.02349     -1954.75449        50.000  

  23632880.85949 124191626.57849     -7740.67649        50.000  

  22348714.45349 117443287.21149      1961.47749        49.000  

 16 04 02 13 18 33.3000000  0  3G19G12G15                                       
  22820976.60249 119925040.64149     -1958.13349        50.000  

  23633028.18849 124192400.77049     -7743.69949        50.000  

  22348677.17249 117443091.35949      1954.97749        49.000  

 16 04 02 13 18 33.4000000  0  3G19G12G15                                       
  22821013.89149 119925236.61349     -1961.51649        50.000  

  23633175.57049 124193175.28149     -7746.84849        50.000  

  22348640.03949 117442896.20349      1948.22349        49.000  

 16 04 02 13 18 33.5000000  0  3G19G12G15                                       
  22821051.25849 119925432.97749     -1965.60549        50.000  

  23633323.02349 124193950.13749     -7750.48049        50.000  

  22348603.03949 117442701.76249      1940.80149        49.000  

 16 04 02 13 18 33.6000000  0  3G19G12G15                                       
  22821088.69549 119925629.71549     -1969.30149        50.000  

  23633470.53949 124194725.31649     -7753.61749        50.000  

  22348566.17249 117442508.02749      1933.93049        49.000  

 16 04 02 13 18 33.7000000  0  3G19G12G15                                       
  22821126.20349 119925826.81249     -1972.90649        50.000  

  23633618.11749 124195500.83649     -7756.90249        50.000  

  22348529.43849 117442314.98449      1926.90649        49.000  

 16 04 02 13 18 33.8000000  0  3G19G12G15                                       
  22821163.77349 119926024.25449     -1976.31249        50.000  

  23633765.75049 124196276.64549     -7759.87149        50.000  

  22348492.82849 117442122.60549      1920.29349        49.000  

 16 04 02 13 18 33.9000000  0  3G19G12G15                                       
  22821201.40649 119926222.01249     -1979.21949        50.000  

  23633913.43849 124197052.73849     -7762.49649        50.000  

  22348456.34449 117441930.88349      1913.98049        49.000  

 16 04 02 13 18 34.0000000  0  3G19G12G15                                       
  22821239.10949 119926420.13349     -1982.99649        50.000  

  23634061.18049 124197829.14149     -7765.68449        50.000  

  22348419.99249 117441739.83649      1907.12549        49.000  

 16 04 02 13 18 34.1000000  0  3G19G12G15                                       
  22821276.87549 119926618.59449     -1986.63349        50.000  

  23634208.98449 124198605.85549     -7769.01249        50.000  

  22348383.76649 117441549.48049      1900.05549        49.000  

 16 04 02 13 18 34.2000000  0  3G19G12G15                                       
  22821314.71949 119926817.46549     -1990.69549        50.000  

  23634356.85949 124199382.93449     -7772.69549        50.000  

  22348347.68049 117441359.85249      1892.71149        49.000  

 16 04 02 13 18 34.3000000  0  3G19G12G15                                       
  22821352.62549 119927016.67249     -1993.85249        50.000  

  23634504.78949 124200160.31649     -7775.46149        50.000  

  22348311.72749 117441170.89549      1886.17649        49.000  

 16 04 02 13 18 34.4000000  0  3G19G12G15                                       
  22821390.60249 119927216.21149     -1997.30149        50.000  

  23634652.77349 124200937.97749     -7778.44949        50.000  

  22348275.89149 117440982.59049      1879.52349        49.000  

 16 04 02 13 18 34.5000000  0  3G19G12G15                                       
  22821428.64149 119927416.09849     -2000.48849        50.000  

  23634800.82049 124201715.95349     -7781.17249        50.000  

  22348240.18849 117440794.96949      1872.99249        49.000  

 16 04 02 13 18 34.6000000  0  3G19G12G15                                       
  22821466.75049 119927616.34049     -2004.35249        50.000  

  23634948.93049 124202494.24649     -7784.76249        50.000  

  22348204.60949 117440608.02749      1865.85249        49.000  

 16 04 02 13 18 34.7000000  0  3G19G12G15                                       
  22821504.92249 119927816.98449     -2008.42649        50.000  

  23635097.10249 124203272.89849     -7788.34049        50.000  

  22348169.18049 117440421.82049      1858.57849        49.000  

 16 04 02 13 18 34.8000000  0  3G19G12G15                                       
  22821543.17249 119928017.97349     -2011.73849        50.000  

  23635245.32849 124204051.84849     -7791.21949        50.000  

  22348133.87549 117440236.28949      1851.80949        49.000  

 16 04 02 13 18 34.9000000  0  3G19G12G15                                       
  22821581.47749 119928219.24649     -2014.53549        50.000  

  23635393.60949 124204831.04349     -7793.52749        50.000  

  22348098.68049 117440051.37549      1845.81249        49.000  

 16 04 02 13 18 35.0000000  0  3G19G12G15                                       
  22821619.83649 119928420.83249     -2017.43449        50.000  

  23635541.93849 124205610.52049     -7796.17249        50.000  

  22348063.60949 117439867.09449      1839.65249        49.000  

 16 04 02 13 18 35.1000000  0  3G19G12G15                                       
  22821658.25849 119928622.78949     -2021.32049        50.000  

  23635690.32849 124206390.32449     -7799.65649        50.000  

  22348028.68049 117439683.51649      1832.51649        49.000  

 16 04 02 13 18 35.2000000  0  3G19G12G15                                       
  22821696.75849 119928825.09849     -2024.92649        50.000  

  23635838.77349 124207170.43449     -7802.78549        50.000  

  22347993.88349 117439500.62949      1825.47749        49.000  

 16 04 02 13 18 35.3000000  0  3G19G12G15                                       
  22821735.32849 119929027.78149     -2028.73849        50.000  

  23635987.28949 124207950.88349     -7806.37549        50.000  

  22347959.21949 117439318.43849      1818.34049        49.000  

 16 04 02 13 18 35.4000000  0  3G19G12G15                                       
  22821773.95349 119929230.78949     -2031.81649        50.000  

  23636135.85949 124208731.60949     -7808.85249        50.000  

  22347924.67249 117439136.91049      1811.86349        49.000  

 16 04 02 13 18 35.5000000  0  3G19G12G15                                       
  22821812.65649 119929434.14549     -2035.40649        50.000  

  23636284.48449 124209512.64849     -7812.18049        50.000  

  22347890.24249 117438956.03949      1805.23849        49.000  

 16 04 02 13 18 35.6000000  0  3G19G12G15                                       
  22821851.43049 119929637.91449     -2039.44149        50.000  

  23636433.18849 124210294.07049     -7815.80149        50.000  

  22347855.96949 117438775.93049      1797.78549        49.000  

 16 04 02 13 18 35.7000000  0  3G19G12G15                                       
  22821890.26649 119929842.00049     -2042.82849        50.000  

  23636581.93849 124211075.74649     -7818.72749        50.000  

  22347821.82049 117438596.46149      1791.11749        49.000  

 16 04 02 13 18 35.8000000  0  3G19G12G15                                       
  22821929.18849 119930046.50849     -2047.03549        50.000  

  23636730.75849 124211857.82049     -7822.50449        50.000  

  22347787.81249 117438417.74649      1783.67649        49.000  

 16 04 02 13 18 35.9000000  0  3G19G12G15                                       
  22821968.16449 119930251.36749     -2050.54349        50.000  

  23636879.64149 124212640.19949     -7825.55949        50.000  

  22347753.93849 117438239.70749      1776.84049        49.000  

 16 04 02 13 18 36.0000000  0  3G19G12G15                                       
  22822007.21149 119930456.54749     -2053.69149        50.000  

  23637028.57049 124213422.85949     -7828.38349        50.000  

  22347720.18049 117438062.32049      1770.32849        49.000  

 16 04 02 13 18 36.1000000  0  3G19G12G15                                       
  22822046.31249 119930662.01649     -2056.37949        50.000  

  23637177.55549 124214205.77749     -7830.70349        50.000  

  22347686.54749 117437885.55149      1764.43849        49.000  

 16 04 02 13 18 36.2000000  0  3G19G12G15                                       
  22822085.48449 119930867.85249     -2060.10549        50.000  

  23637326.59449 124214989.00449     -7833.91849        50.000  

  22347653.03949 117437709.47749      1757.44549        49.000  

 16 04 02 13 18 36.3000000  0  3G19G12G15                                       
  22822124.71149 119931074.00449     -2063.27749        50.000  

  23637475.69549 124215772.51649     -7836.72749        50.000  

  22347619.65649 117437534.06249      1750.83649        49.000  

 16 04 02 13 18 36.4000000  0  3G19G12G15                                       
  22822164.00049 119931280.46149     -2066.22349        50.000  

  23637624.84449 124216556.28949     -7839.31249        50.000  

  22347586.39849 117437359.26649      1744.65649        49.000  

 16 04 02 13 18 36.5000000  0  3G19G12G15                                       
  22822203.35949 119931487.32449     -2070.37949        50.000  

  23637774.05549 124217340.43449     -7843.00849        50.000  

  22347553.27349 117437185.21949      1737.13749        49.000  

 16 04 02 13 18 36.6000000  0  3G19G12G15                                       
  22822242.79749 119931694.55949     -2074.28949        50.000  

  23637923.34449 124218124.90249     -7846.52049        50.000  

  22347520.28149 117437011.85949      1729.95749        49.000  

 16 04 02 13 18 36.7000000  0  3G19G12G15                                       
  22822282.29749 119931902.13349     -2077.36349        50.000  

  23638072.68049 124218909.67249     -7849.11749        50.000  

  22347487.43049 117436839.17249      1723.66049        49.000  

 16 04 02 13 18 36.8000000  0  3G19G12G15                                       
  22822321.86749 119932110.06649     -2081.42649        50.000  

  23638222.07849 124219694.76649     -7852.89549        50.000  

  22347454.69549 117436667.18449      1716.21949        49.000  

 16 04 02 13 18 36.9000000  0  3G19G12G15                                       
  22822361.50049 119932318.37149     -2084.81649        50.000  

  23638371.53949 124220480.18849     -7855.89149        50.000  

  22347422.10249 117436495.89549      1709.51249        49.000  

 16 04 02 13 18 37.0000000  0  3G19G12G15                                       
  22822401.20349 119932527.01649     -2088.49649        50.000  

  23638521.05549 124221265.90249     -7859.10949        50.000  

  22347389.63349 117436325.27049      1702.61349        49.000  

 16 04 02 13 18 37.1000000  0  3G19G12G15                                       
  22822440.99249 119932736.09849     -2092.59449        50.000  

  23638670.64849 124222052.02749     -7862.83249        50.000  

  22347357.31249 117436155.41449      1695.13749        49.000  

 16 04 02 13 18 37.2000000  0  3G19G12G15                                       
  22822480.83649 119932945.50449     -2096.10249        50.000  

  23638820.29749 124222838.42649     -7865.96949        50.000  

  22347325.10949 117435986.20749      1688.40649        49.000  

 16 04 02 13 18 37.3000000  0  3G19G12G15                                       
  22822520.75849 119933155.27749     -2099.52349        50.000  

  23638970.00849 124223625.14849     -7868.91049        50.000  

  22347293.04749 117435817.69949      1681.71149        49.000  

 16 04 02 13 18 37.4000000  0  3G19G12G15                                       
  22822560.73449 119933365.33249     -2102.45349        50.000  

  23639119.75849 124224412.11749     -7871.43449        50.000  

  22347261.10249 117435649.81249      1675.40249        49.000  

 16 04 02 13 18 37.5000000  0  4G19G17G12G15                                    
  22822600.77349 119933575.79749     -2106.34449        50.000  

  24469813.21149 128589734.87959     16617.94149        50.000  

  23639269.58649 124225199.46149     -7875.02749        50.000  

  22347229.28949 117435482.65649      1668.28949        49.000  

 16 04 02 13 18 37.6000000  0  4G19G17G12G15                                    
  22822640.89149 119933786.60249     -2109.98449        50.000  

  24469497.00849 128588073.23049     16615.29349        50.000  

  23639419.46949 124225987.10249     -7878.23449        50.000  

  22347197.60949 117435316.18849      1661.18849        49.000  

 16 04 02 13 18 37.7000000  0  4G19G17G12G15                                    
  22822681.08649 119933997.83249     -2114.09449        50.000  

  24469180.85249 128586411.88749     16612.22749        50.000  

  23639569.42249 124226775.11349     -7881.83649        50.000  

  22347166.07049 117435150.44149      1653.98449        49.000  

 16 04 02 13 18 37.8000000  0  4G19G17G12G15                                    
  22822721.34449 119934209.38749     -2117.52049        50.000  

  24468864.75049 128584750.77749     16609.80149        50.000  

  23639719.43049 124227563.42249     -7884.88349        50.000  

  22347134.66449 117434985.37949      1647.07049        49.000  

 16 04 02 13 18 37.9000000  0  4G19G17G12G15                                    
  22822761.66449 119934421.27749     -2120.81649        50.000  

  24468548.68849 128583089.89149     16607.62549        50.000  

  23639869.50049 124228352.02349     -7887.84449        50.000  

  22347103.36749 117434820.96549      1640.56249        49.000  

 16 04 02 13 18 38.0000000  0  4G19G17G12G15                                    
  22822802.05549 119934633.52749     -2124.18449        50.000  

  24468232.68049 128581429.27049     16605.19949        50.000  

  23640019.62549 124229140.94549     -7890.75449        50.000  

  22347072.21149 117434657.23849      1633.94149        49.000  

 16 04 02 13 18 38.1000000  0  4G19G17G12G15                                    
  22822842.50049 119934846.08249     -2127.32449        50.000  

  24467916.72749 128579768.84849     16603.12949        50.000  

  23640169.80549 124229930.12949     -7893.51249        50.000  

  22347041.18049 117434494.16449      1627.38749        49.000  

 16 04 02 13 18 38.2000000  0  4G19G17G12G15                                    
  22822883.02349 119935059.00849     -2131.06249        50.000  

  24467600.81249 128578108.69149     16600.49249        50.000  

  23640320.03949 124230719.64149     -7896.75449        50.000  

  22347010.28149 117434331.78549      1620.39549        49.000  

 16 04 02 13 18 38.3000000  0  4G19G17G12G15                                    
  22822923.60249 119935272.27349     -2134.38349        50.000  

  24467284.96949 128576448.78549     16597.94149        50.000  

  23640470.33649 124231509.46149     -7899.75449        50.000  

  22346979.50849 117434170.06649      1613.75449        49.000  

 16 04 02 13 18 38.4000000  0  4G19G17G12G15                                    
  22822964.25849 119935485.90649     -2138.26649        50.000  

  24466969.14849 128574789.13749     16595.10249        50.000  

  23640620.70349 124232299.60249     -7903.30949        50.000  

  22346948.86749 117434009.05549      1606.57849        49.000  

 16 04 02 13 18 38.5000000  0  4G19G17G12G15                                    
  22823004.96149 119935699.84849     -2141.40649        50.000  

  24466653.36749 128573129.69549     16593.09049        50.000  

  23640771.10949 124233090.01649     -7906.05149        50.000  

  22346918.34449 117433848.67649      1600.14149        49.000  

 16 04 02 13 18 38.6000000  0  4G19G17G12G15                                    
  22823045.75849 119935914.23449     -2145.53549        50.000  

  24466337.64149 128571470.57849     16590.08249        50.000  

  23640921.59449 124233880.81249     -7909.57049        50.000  

  22346887.97749 117433689.06649      1592.70749        49.000  

 16 04 02 13 18 38.7000000  0  4G19G17G12G15                                    
  22823086.61749 119936128.98449     -2149.59049        50.000  

  24466021.94549 128569811.74649     16586.91849        50.000  

  23641072.14849 124234671.95749     -7913.39149        50.000  

  22346857.73449 117433530.16449      1585.35249        49.000  

 16 04 02 13 18 38.8000000  0  4G19G17G12G15                                    
  22823127.54749 119936344.05149     -2152.55149        50.000  

  24465706.32049 128568153.12949     16584.90649        50.000  

  23641222.75049 124235463.37549     -7915.93449        50.000  

  22346827.61749 117433371.90649      1579.06649        49.000  

 16 04 02 13 18 38.9000000  0  4G19G17G12G15                                    
  22823168.53949 119936559.48449     -2156.09449        50.000  

  24465390.76649 128566494.75849     16582.59449        50.000  

  23641373.40649 124236255.10549     -7918.92649        50.000  

  22346797.63349 117433214.33249      1572.39549        49.000  

 16 04 02 13 18 39.0000000  0  4G19G17G12G15                                    
  22823209.60949 119936775.28949     -2159.88749        50.000  

  24465075.24249 128564836.67249     16579.74649        50.000  

  23641524.13349 124237047.17649     -7922.37149        50.000  

  22346767.78149 117433057.47349      1565.20349        49.000  

 16 04 02 13 18 39.1000000  0  4G19G17G12G15                                    
  22823250.73449 119936991.40249     -2162.90249        50.000  

  24464759.78149 128563178.78549     16577.74649        50.000  

  23641674.91449 124237839.52049     -7925.03149        50.000  

  22346738.06249 117432901.25449      1558.77749        49.000  

 16 04 02 13 18 39.2000000  0  4G19G17G12G15                                    
  22823291.92249 119937207.87949     -2166.48849        50.000  

  24464444.34449 128561521.16049     16575.11349        50.000  

  23641825.74249 124238632.18049     -7928.23449        50.000  

  22346708.46149 117432745.71549      1551.93049        49.000  

 16 04 02 13 18 39.3000000  0  4G19G17G12G15                                    
  22823333.18849 119937424.71949     -2170.28549        50.000  

  24464128.95349 128559863.79749     16572.43449        50.000  

  23641976.64149 124239425.15649     -7931.39149        50.000  

  22346679.00049 117432590.87149      1545.14849        49.000  

 16 04 02 13 18 39.4000000  0  4G19G17G12G15                                    
  22823374.51649 119937641.87949     -2173.44149        50.000  

  24463813.60249 128558206.64849     16570.21149        50.000  

  23642127.59449 124240218.43049     -7934.53549        50.000  

  22346649.66449 117432436.69549      1538.32849        49.000  

 16 04 02 13 18 39.5000000  0  4G19G17G12G15                                    
  22823415.92249 119937859.45749     -2177.77749        50.000  

  24463498.32049 128556549.82449     16566.94549        50.000  

  23642278.61749 124241012.06249     -7938.28549        50.000  

  22346620.46149 117432283.25449      1530.78949        49.000  

 16 04 02 13 18 39.6000000  0  4G19G17G12G15                                    
  22823457.39149 119938077.38349     -2181.00049        50.000  

  24463183.07849 128554893.24249     16564.61349        50.000  

  23642429.70349 124241806.01249     -7941.15249        50.000  

  22346591.39149 117432130.48849      1524.23849        49.000  

 16 04 02 13 18 39.7000000  0  4G19G17G12G15                                    
  22823498.90649 119938295.56649     -2183.69949        50.000  

  24462867.88349 128553236.80949     16563.08649        50.000  

  23642580.82049 124242600.16849     -7943.26249        50.000  

  22346562.42249 117431978.32049      1518.26649        49.000  

 16 04 02 13 18 39.8000000  0  4G19G17G12G15                                    
  22823540.50849 119938514.16849     -2187.90649        50.000  

  24462552.74249 128551580.70749     16559.74649        50.000  

  23642732.02349 124243394.72349     -7947.38749        50.000  

  22346533.60949 117431826.90249      1510.67249        49.000  

 16 04 02 13 18 39.9000000  0  4G19G17G12G15                                    
  22823582.18049 119938733.14549     -2191.64549        50.000  

  24462237.64849 128549924.86749     16557.16049        50.000  

  23642883.28949 124244189.60249     -7950.55549        50.000  

  22346504.93049 117431676.18849      1503.63349        49.000  

 16 04 02 13 18 40.0000000  0  4G19G17G12G15                                    
  22823623.92249 119938952.51649     -2195.67649        50.000  

  24461922.60249 128548269.31249     16554.23049        50.000  

  23643034.60949 124244984.82449     -7954.09049        50.000  

  22346476.39149 117431526.18049      1496.44949        49.000  

 16 04 02 13 18 40.1000000  0  4G19G17G12G15                                    
  22823665.71949 119939172.18449     -2198.44949        50.000  

  24461607.60249 128546613.95749     16552.42249        50.000  

  23643185.98449 124245780.30949     -7956.51249        50.000  

  22346447.96949 117431376.81649      1490.23849        49.000  

 16 04 02 13 18 40.2000000  0  4G19G17G12G15                                    
  22823707.59449 119939392.22749     -2202.38749        50.000  

  24461292.65649 128544958.89549     16549.34449        50.000  

  23643337.43049 124246576.14149     -7960.17649        50.000  

  22346419.68049 117431228.15649      1482.97349        49.000  

 16 04 02 13 18 40.3000000  0  4G19G17G12G15                                    
  22823749.54749 119939612.68449     -2206.46149        50.000  

  24460977.78949 128543304.12149     16546.45749        50.000  

  23643488.93849 124247372.32849     -7963.66449        50.000  

  22346391.53149 117431080.23449      1475.69949        49.000  

 16 04 02 13 18 40.4000000  0  4G19G17G12G15                                    
  22823791.55549 119939833.44549     -2209.32449        50.000  

  24460662.93049 128541649.55949     16544.51649        50.000  

  23643640.50049 124248168.78949     -7966.25849        50.000  

  22346363.50049 117430932.96149      1469.38349        49.000  

 16 04 02 13 18 40.5000000  0  4G19G17G12G15                                    
  22823833.62549 119940054.55149     -2212.92249        50.000  

  24460348.12549 128539995.24649     16541.94549        50.000  

  23643792.11749 124248965.55549     -7969.41849        50.000  

  22346335.60249 117430786.34849      1462.69949        49.000  

 16 04 02 13 18 40.6000000  0  4G19G17G12G15                                    
  22823875.78149 119940276.05549     -2216.85249        50.000  

  24460033.37549 128538341.22349     16538.96949        50.000  

  23643943.79749 124249762.67249     -7972.94949        50.000  

  22346307.84449 117430640.47749      1455.22749        49.000  

 16 04 02 13 18 40.7000000  0  4G19G17G12G15                                    
  22823917.99249 119940497.85949     -2219.76249        50.000  

  24459718.65649 128536687.39849     16537.07049        50.000  

  23644095.53949 124250560.05549     -7975.44949        50.000  

  22346280.20349 117430495.22349      1449.03549        49.000  

 16 04 02 13 18 40.8000000  0  4G19G17G12G15                                    
  22823960.26649 119940720.00449     -2223.30149        50.000  

  24459403.99249 128535033.80949     16534.69949        50.000  

  23644247.32849 124251357.73049     -7978.49249        50.000  

  22346252.68849 117430350.63749      1442.48849        49.000  

 16 04 02 13 18 40.9000000  0  4G19G17G12G15                                    
  22824002.60949 119940942.53549     -2227.28949        50.000  

  24459089.38349 128533380.50449     16531.75849        50.000  

  23644399.18849 124252155.75449     -7982.18449        50.000  

  22346225.30549 117430206.77749      1434.98049        49.000  

 16 04 02 13 18 41.0000000  0  4G19G17G12G15                                    
  22824045.03149 119941165.44949     -2231.26649        50.000  

  24458774.82849 128531727.48849     16528.84849        50.000  

  23644551.10949 124252954.12549     -7985.61749        50.000  

  22346198.07049 117430063.64149      1427.75049        49.000  

 16 04 02 13 18 41.1000000  0  4G19G17G12G15                                    
  22824087.51649 119941388.74649     -2234.86349        50.000  

  24458460.34449 128530074.75449     16526.06649        50.000  

  23644703.10249 124253752.83249     -7988.79349        50.000  

  22346170.96949 117429921.19549      1420.91849        49.000  

 16 04 02 13 18 41.2000000  0  4G19G17G12G15                                    
  22824130.07049 119941612.34049     -2237.78549        50.000  

  24458145.87549 128528422.21149     16524.23049        50.000  

  23644855.14149 124254551.80949     -7991.41049        50.000  

  22346143.98449 117429779.40649      1414.49649        49.000  

 16 04 02 13 18 41.3000000  0  4G19G17G12G15                                    
  22824172.67249 119941836.25049     -2240.70349        50.000  

  24457831.44549 128526769.87549     16522.34449        50.000  

  23645007.23449 124255351.03949     -7993.91449        50.000  

  22346117.11749 117429638.23849      1408.36749        49.000  

 16 04 02 13 18 41.4000000  0  4G19G17G12G15                                    
  22824215.35249 119942060.52749     -2244.64549        50.000  

  24457517.07049 128525117.81649     16519.48449        50.000  

  23645159.38349 124256150.61749     -7997.46949        50.000  

  22346090.39149 117429497.77749      1401.12149        49.000  

 16 04 02 13 18 41.5000000  0  4G19G17G12G15                                    
  22824258.10249 119942285.17249     -2248.12549        50.000  

  24457202.73449 128523466.02749     16516.88349        50.000  

  23645311.60249 124256950.51649     -8000.44549        50.000  

  22346063.78949 117429358.01649      1394.35949        49.000  

 16 04 02 13 18 41.6000000  0  4G19G17G12G15                                    
  22824300.89849 119942510.10249     -2251.18449        50.000  

  24456888.44549 128521814.41449     16514.84849        50.000  

  23645463.86749 124257750.64849     -8003.16449        50.000  

  22346037.31249 117429218.85949      1388.05149        49.000  

 16 04 02 13 18 41.7000000  0  4G19G17G12G15                                    
  22824343.76649 119942735.38749     -2254.74249        50.000  

  24456574.19549 128520163.04749     16512.48849        50.000  

  23645616.18849 124258551.10249     -8006.29749        50.000  

  22346010.96149 117429080.39849      1381.16449        49.000  

 16 04 02 13 18 41.8000000  0  4G19G17G12G15                                    
  22824386.71949 119942961.07449     -2258.68849        50.000  

  24456260.01649 128518511.99249     16509.48049        50.000  

  23645768.57049 124259351.92249     -8009.81249        50.000  

  22345984.75849 117428942.66849      1373.92249        49.000  

 16 04 02 13 18 41.9000000  0  4G19G17G12G15                                    
  22824429.72749 119943187.05549     -2261.73849        50.000  

  24455945.85949 128516861.13749     16507.29749        50.000  

  23645921.01649 124260152.99649     -8012.55549        50.000  

  22345958.67249 117428805.57049      1367.53949        49.000  

 16 04 02 13 18 42.0000000  0  4G19G17G12G15                                    
  22824472.80549 119943413.43049     -2265.55549        50.000  

  24455631.76649 128515210.55949     16504.66849        50.000  

  23646073.51649 124260954.41449     -8015.89149        50.000  

  22345932.71949 117428669.19149      1360.37549        49.000  

 16 04 02 13 18 42.1000000  0  4G19G17G12G15                                    
  22824515.94549 119943640.14849     -2268.95749        50.000  

  24455317.73449 128513560.22749     16502.21149        50.000  

  23646226.07849 124261756.13749     -8018.78149        50.000  

  22345906.89149 117428533.48049      1353.69949        49.000  

 16 04 02 13 18 42.2000000  0  4G19G17G12G15                                    
  22824559.14849 119943867.17649     -2272.15249        50.000  

  24455003.72749 128511910.10249     16500.05949        50.000  

  23646378.69549 124262558.13349     -8021.68049        50.000  

  22345881.18849 117428398.40649      1347.27749        49.000  

 16 04 02 13 18 42.3000000  0  4G19G17G12G15                                    
  22824602.42249 119944094.57849     -2275.84849        50.000  

  24454689.78149 128510260.26249     16497.27049        50.000  

  23646531.37549 124263360.46949     -8025.08649        50.000  

  22345855.61749 117428264.04749      1340.19549        49.000  

 16 04 02 13 18 42.4000000  0  4G19G17G12G15                                    
  22824645.77349 119944322.37549     -2279.95349        50.000  

  24454375.88349 128508610.70749     16494.30549        50.000  

  23646684.11749 124264163.15649     -8028.70349        50.000  

  22345830.19549 117428130.42249      1332.75849        49.000  

 16 04 02 13 18 42.5000000  0  4G19G17G12G15                                    
  22824689.18849 119944550.50449     -2283.20749        50.000  

  24454062.03149 128506961.37549     16492.08249        50.000  

  23646836.91449 124264966.12149     -8031.39549        50.000  

  22345804.88349 117427997.43849      1326.33649        49.000  

 16 04 02 13 18 42.6000000  0  4G19G17G12G15                                    
  22824732.67249 119944779.01649     -2286.94549        50.000  

  24453748.22749 128505312.34049     16489.19149        50.000  

  23646989.78149 124265769.44949     -8034.89549        50.000  

  22345779.71949 117427865.18449      1319.18849        49.000  

 16 04 02 13 18 42.7000000  0  4G19G17G12G15                                    
  22824776.21149 119945007.81249     -2289.84449        50.000  

  24453434.46149 128503663.48849     16487.31649        50.000  

  23647142.69549 124266573.01249     -8037.30549        50.000  

  22345754.67249 117427733.53949      1312.98049        49.000  

 16 04 02 13 18 42.8000000  0  4G19G17G12G15                                    
  22824819.82049 119945236.98449     -2293.49249        50.000  

  24453120.74249 128502014.89149     16484.83649        50.000  

  23647295.66449 124267376.90649     -8040.57049        50.000  

  22345729.75049 117427602.59049      1306.14849        49.000  

 16 04 02 13 18 42.9000000  0  4G19G17G12G15                                    
  22824863.50049 119945466.53549     -2297.49649        50.000  

  24452807.07849 128500366.59849     16481.62949        50.000  

  23647448.71149 124268181.14549     -8044.35949        50.000  

  22345704.97749 117427472.37549      1298.62149        49.000  

 16 04 02 13 18 43.0000000  0  4G19G17G12G15                                    
  22824907.25849 119945696.50449     -2301.67649        50.000  

  24452493.47749 128498718.60549     16478.58249        50.000    24452494.53941
 100128876.91051     12840.45341        20.000  
  23647601.82849 124268985.75049     -8047.91849        50.000  

  22345680.33649 117427342.89849      1291.13349        49.000  

 16 04 02 13 18 43.1000000  0  4G19G17G12G15                                    
  22824951.08649 119945926.81649     -2305.00449        50.000  

  24452179.93849 128497070.85949     16476.20749        50.000    24452180.98441
 100127592.96541     12838.60241        20.000  
  23647754.99249 124269790.66449     -8050.90249        50.000  

  22345655.81249 117427214.09049      1284.60949        49.000  

 16 04 02 13 18 43.2000000  0  4G19G17G12G15                                    
  22824994.97749 119946157.45749     -2308.16049        50.000  

  24451866.42249 128495423.33649     16474.01649        50.000    24451863.83641
 100126309.19941     12836.89541        20.000  
  23647908.21949 124270595.86349     -8053.69949        50.000  

  22345631.43049 117427085.93849      1278.04349        49.000  

 16 04 02 13 18 43.3000000  0  4G19G17G12G15                                    
  22825038.92249 119946388.41049     -2311.48849        50.000  

  24451552.96149 128493776.03549     16471.75849        50.000    24451550.36741
 100125025.59841     12835.13741        20.000  
  23648061.50049 124271401.34849     -8056.67249        50.000  

  22345607.16449 117426958.43449      1271.43049        49.000  

 16 04 02 13 18 43.4000000  0  4G19G17G12G15                                    
  22825082.96949 119946619.85949     -2316.45349        50.000  

  24451239.56249 128492129.12149     16467.73449        50.000    24451240.87541
 100123742.31241     12832.00041        20.000  
  23648214.86749 124272207.27049     -8061.17649        50.000  

  22345583.06249 117426831.76249      1263.14549        49.000  

 16 04 02 13 18 43.5000000  0  4G19G17G12G15                                    
  22825127.07049 119946851.60949     -2319.68849        50.000  

  24450926.18049 128490482.40649     16465.60549        50.000    24450927.52341
 100122459.17641     12830.34441        20.000  
  23648368.27349 124273013.46149     -8063.94549        50.000  

  22345559.07849 117426705.71949      1256.63349        49.000  

 16 04 02 13 18 43.6000000  0  4G19G17G12G15                                    
  22825171.23449 119947083.69949     -2322.65649        50.000  

  24450612.86749 128488835.93849     16463.52749        50.000  

  23648521.74249 124273819.95349     -8066.50849        50.000  

  22345535.21949 117426580.33649      1250.48449        49.000  

 16 04 02 13 18 43.7000000  0  4G19G17G12G15                                    
  22825215.46149 119947316.11749     -2325.95349        50.000  

  24450299.59449 128487189.69949     16461.27749        50.000  

  23648675.27349 124274626.73049     -8069.46149        50.000  

  22345511.48449 117426455.63749      1243.57849        49.000  

 16 04 02 13 18 43.8000000  0  4G19G17G12G15                                    
  22825259.75849 119947548.89849     -2329.53949        50.000  

  24449986.37549 128485543.70349     16458.85549        50.000  

  23648828.85249 124275433.82049     -8072.48849        50.000  

  22345487.88349 117426331.60249      1236.94549        49.000  

 16 04 02 13 18 43.9000000  0  4G19G17G12G15                                    
  22825304.13349 119947782.04749     -2333.69549        50.000  

  24449673.20349 128483897.99649     16455.66049        50.000  

  23648982.50049 124276241.26249     -8076.41849        50.000  

  22345464.40649 117426208.28949      1229.41049        49.000  

 16 04 02 13 18 44.0000000  0  4G19G17G12G15                                    
  22825348.57049 119948015.60249     -2337.36349        50.000  

  24449360.09449 128482252.58249     16452.94549        50.000  

  23649136.21949 124277049.04749     -8079.60249        50.000  

  22345441.07849 117426085.70349      1222.39149        49.000  

 16 04 02 13 18 44.1000000  0  4G19G17G12G15                                    
  22825393.07849 119948249.48849     -2340.67649        50.000  

  24449047.02349 128480607.40249     16450.64549        50.000  

  23649289.99249 124277857.12549     -8082.54349        50.000  

  22345417.88349 117425963.77349      1215.84449        49.000  

 16 04 02 13 18 44.2000000  0  4G19G17G12G15                                    
  22825437.64849 119948483.69149     -2343.99249        50.000  

  24448733.99249 128478962.44549     16448.36349        50.000  

  23649443.82849 124278665.49649     -8085.41449        50.000  

  22345394.80549 117425842.51249      1209.13749        49.000  

 16 04 02 13 18 44.3000000  0  4G19G17G12G15                                    
  22825482.28949 119948718.29749     -2347.82449        50.000  

  24448421.03149 128477317.78149     16445.47749        50.000  

  23649597.71949 124279474.21149     -8088.83649        50.000  

  22345371.86749 117425721.95349      1202.16849        49.000  

 16 04 02 13 18 44.4000000  0  4G19G17G12G15                                    
  22825527.00049 119948953.23849     -2351.39849        50.000  

  24448108.10949 128475673.36349     16442.92649        50.000  

  23649751.67249 124280283.23849     -8092.15249        50.000  

  22345349.05549 117425602.09849      1195.04349        49.000  

 16 04 02 13 18 44.5000000  0  4G19G17G12G15                                    
  22825571.77349 119949188.53949     -2354.56649        50.000  

  24447795.24249 128474029.18849     16440.74649        50.000  

  23649905.68049 124281092.55949     -8094.63749        50.000  

  22345326.37549 117425482.91049      1188.62549        49.000  

 16 04 02 13 18 44.6000000  0  4G19G17G12G15                                    
  22825616.60249 119949424.11749     -2357.63349        50.000  

  24447482.40649 128472385.20749     16438.70749        50.000  

  23650059.74249 124281902.13749     -8097.46149        50.000  

  22345303.81249 117425364.32849      1182.39849        49.000  

 16 04 02 13 18 44.7000000  0  4G19G17G12G15                                    
  22825661.50849 119949660.09049     -2361.37549        50.000  

  24447169.60949 128470741.50849     16435.96549        50.000  

  23650213.85949 124282712.05949     -8100.67249        50.000  

  22345281.38349 117425246.48449      1175.17649        49.000  

 16 04 02 13 18 44.8000000  0  4G19G17G12G15                                    
  22825706.47749 119949896.41449     -2365.23849        50.000  

  24446856.87549 128469098.05949     16433.16049        50.000  

  23650368.04749 124283522.29749     -8104.29749        50.000  

  22345259.08649 117425129.31649      1167.95749        49.000  

 16 04 02 13 18 44.9000000  0  4G19G17G12G15                                    
  22825751.51649 119950133.10949     -2368.82849        50.000  

  24446544.19549 128467454.89549     16430.44549        50.000  

  23650522.28949 124284332.86749     -8107.32849        50.000  

  22345236.93049 117425012.84049      1161.31249        49.000  

 16 04 02 13 18 45.0000000  0  4G19G17G12G15                                    
  22825796.61749 119950370.09449     -2371.63749        50.000  

  24446231.53949 128465811.89849     16428.84449        50.000  

  23650676.58649 124285143.67649     -8109.70349        50.000  

  22345214.88349 117424896.99649      1155.07049        49.000  

 16 04 02 13 18 45.1000000  0  4G19G17G12G15                                    
  22825841.78949 119950607.47349     -2375.73049        50.000  

  24445918.96149 128464169.22749     16425.50449        50.000  

  23650830.94549 124285954.86349     -8113.56649        50.000  

  22345192.97749 117424781.89149      1147.54749        49.000  

 16 04 02 13 18 45.2000000  0  4G19G17G12G15                                    
  22825887.03149 119950845.22349     -2379.24649        50.000  

  24445606.41449 128462526.80549     16422.94949        50.000  

  23650985.36749 124286766.35549     -8116.56249        50.000  

  22345171.20349 117424667.46549      1140.80149        49.000  

 16 04 02 13 18 45.3000000  0  4G19G17G12G15                                    
  22825932.32849 119951083.27349     -2382.55549        50.000  

  24445293.92249 128460884.58249     16420.83249        50.000  

  23651139.84449 124287578.11749     -8119.56649        50.000  

  22345149.54749 117424553.68049      1134.22349        49.000  

 16 04 02 13 18 45.4000000  0  4G19G17G12G15                                    
  22825977.71149 119951321.77749     -2386.83249        50.000  

  24444981.48449 128459242.71549     16417.48449        50.000    24444977.14141
 100098093.86751     12792.84441        20.000  
  23651294.39149 124288390.28949     -8123.43849        50.000  

  22345128.04749 117424440.68049      1126.58649        49.000  

 16 04 02 13 18 45.5000000  0  4G19G17G12G15                                    
  22826023.16449 119951560.59049     -2389.94549        50.000  

  24444669.08649 128457601.05149     16415.44549        50.000    24444664.73441
 100096814.63341     12791.25441        20.000  
  23651448.99249 124289202.73049     -8126.09849        50.000  

  22345106.66449 117424328.30949      1120.21549        49.000  

 16 04 02 13 18 45.6000000  0  4G19G17G12G15                                    
  22826068.66449 119951799.72749     -2393.37549        50.000  

  24444356.72749 128455959.62949     16412.93449        50.000    24444348.47741
 100095535.58641     12789.29741        20.000  
  23651603.65649 124290015.46149     -8129.22349        50.000  

  22345085.41449 117424216.61349      1113.37149        49.000  

 16 04 02 13 18 45.7000000  0  4G19G17G12G15                                    
  22826114.25049 119952039.30149     -2397.53549        50.000  

  24444044.45349 128454318.53149     16409.74649        50.000    24444036.18041
 100094256.79341     12786.81241        20.000  
  23651758.38349 124290828.58249     -8132.87149        50.000  

  22345064.30549 117424105.67249      1105.91849        49.000  

 16 04 02 13 18 45.8000000  0  4G19G17G12G15                                    
  22826159.89149 119952279.14149     -2400.29349        50.000  

  24443732.19549 128452677.60549     16408.02749        50.000    24443727.82841
 100092978.16841     12785.47741        20.000  
  23651913.15649 124291641.92249     -8135.16849        50.000  

  22345043.30549 117423995.33249      1099.91049        49.000  

 16 04 02 13 18 45.9000000  0  4G19G17G12G15                                    
  22826205.60249 119952519.37149     -2404.11749        50.000  

  24443420.00049 128451036.96549     16405.20749        50.000    24443415.63341
 100091699.76241     12783.27741        20.000  
  23652068.00049 124292455.62549     -8138.73449        50.000  

  22345022.44549 117423885.71149      1092.74649        49.000  

 16 04 02 13 18 46.0000000  0  4G19G17G12G15                                    
  22826251.39149 119952759.99249     -2408.07849        50.000  

  24443107.85249 128449396.61349     16402.25449        50.000    24443099.77341
 100090421.58241     12780.97741        20.000  
  23652222.91449 124293269.66849     -8142.28549        50.000  

  22345001.72749 117423776.81649      1085.48049        49.000  

 16 04 02 13 18 46.1000000  0  4G19G17G12G15                                    
  22826297.25049 119953000.94549     -2411.25849        50.000  

  24442795.74249 128447756.49649     16400.00449        50.000    24442787.67241
 100089143.59041     12779.22341        20.000  
  23652377.87549 124294084.01649     -8145.03549        50.000  

  22344981.12549 117423668.57849      1079.02749        49.000  

 16 04 02 13 18 46.2000000  0  4G19G17G12G15                                    
  22826343.15649 119953242.19149     -2414.21149        50.000  

  24442483.67249 128446116.57449     16398.08649        50.000    24442475.48441
 100087865.74241     12777.72741        20.000  
  23652532.88349 124294898.59449     -8147.47349        50.000  

  22344960.64849 117423560.96949      1072.75449        49.000  

 16 04 02 13 18 46.3000000  0  4G19G17G12G15                                    
  22826389.12549 119953483.78549     -2417.89849        50.000  

  24442171.65649 128444476.90249     16395.50449        50.000    24442163.46941
 100086588.09041     12775.71541        20.000  
  23652687.95349 124295713.50049     -8150.81249        50.000  

  22344940.30549 117423454.03949      1065.85949        49.000  

 16 04 02 13 18 46.4000000  0  4G19G17G12G15                                    
  22826435.18049 119953725.78149     -2421.94149        50.000  

  24441859.68849 128442837.52349     16392.52749        50.000    24441855.41441
 100085310.66841     12773.39841        20.000  
  23652843.09449 124296528.75849     -8154.52049        50.000  

  22344920.09449 117423347.84049      1058.41449        49.000  

 16 04 02 13 18 46.5000000  0  4G19G17G12G15                                    
  22826481.30549 119953968.16049     -2425.57449        50.000  

  24441547.77349 128441198.43849     16389.66849        50.000    24441543.50841
 100084033.47741     12771.17241        20.000  
  23652998.29749 124297344.36349     -8157.75449        50.000  

  22344900.01649 117423242.36749      1051.30549        49.000  

 16 04 02 13 18 46.6000000  0  4G19G17G12G15                                    
  22826527.47749 119954210.82849     -2428.66849        50.000  

  24441235.89849 128439559.53949     16387.69149        50.000    24441227.74241
 100082756.43041     12769.62941        20.000  
  23653153.55549 124298160.21149     -8160.25449        50.000  

  22344880.06249 117423137.50449      1045.03149        49.000  

 16 04 02 13 18 46.7000000  0  4G19G17G12G15                                    
  22826573.74249 119954453.90249     -2432.50849        50.000  

  24440924.07849 128437920.94149     16384.80149        50.000    24440915.93041
 100081479.61741     12767.37541        20.000  
  23653308.87549 124298976.42249     -8163.84049        50.000  

  22344860.25049 117423033.37149      1037.89549        49.000  

 16 04 02 13 18 46.8000000  0  4G19G17G12G15                                    
  22826620.06249 119954697.31249     -2435.99249        50.000  

  24440612.30549 128436282.59049     16382.23449        50.000  

  23653464.25049 124299792.94549     -8166.93849        50.000  

  22344840.56249 117422929.91849      1031.00049        49.000  

 16 04 02 13 18 46.9000000  0  4G19G17G12G15                                    
  22826666.45349 119954941.10249     -2439.68049        50.000  

  24440300.61749 128434644.50849     16379.56649        50.000  

  23653619.69549 124300609.78149     -8170.05949        50.000  

  22344821.00849 117422827.16849      1024.15249        49.000  

 16 04 02 13 18 47.0000000  0  4G19G17G12G15                                    
  22826712.91449 119955185.25849     -2443.58649        50.000  

  24439988.94549 128433006.69549     16376.81649        50.000  

  23653775.19549 124301426.96549     -8173.68449        50.000  

  22344801.59449 117422725.12149      1016.82849        49.000  

 16 04 02 13 18 47.1000000  0  4G19G17G12G15                                    
  22826759.43849 119955429.74249     -2446.66449        50.000  

  24439677.32849 128431369.11349     16374.59849        50.000  

  23653930.75849 124302244.43049     -8176.30149        50.000  

  22344782.29749 117422623.73049      1010.39849        49.000  

 16 04 02 13 18 47.2000000  0  4G19G17G12G15                                    
  22826806.02349 119955674.55149     -2449.91849        50.000  

  24439365.75049 128429731.76249     16372.29349        50.000  

  23654086.36749 124303062.18449     -8179.14849        50.000  

  22344763.12549 117422523.00049      1003.92649        49.000  

 16 04 02 13 18 47.3000000  0  4G19G17G12G15                                    
  22826852.68849 119955919.75849     -2453.84449        50.000  

  24439054.23449 128428094.69949     16369.42649        50.000  

  23654242.04749 124303880.28149     -8182.74649        50.000  

  22344744.10249 117422422.99249       996.67249        49.000  

 16 04 02 13 18 47.4000000  0  4G19G17G12G15                                    
  22826899.42249 119956165.33649     -2457.76249        50.000  

  24438742.76649 128426457.91449     16366.58249        50.000  

  23654397.79749 124304698.72749     -8186.27049        50.000  

  22344725.20349 117422323.69549       989.38749        49.000  

 16 04 02 13 18 47.5000000  0  4G19G17G12G15                                    
  22826946.21949 119956411.28149     -2461.22349        50.000  

  24438431.35949 128424821.39149     16364.04749        50.000  

  23654553.60249 124305517.48449     -8189.28149        50.000  

  22344706.44549 117422225.08649       982.64549        49.000  

 16 04 02 13 18 47.6000000  0  4G19G17G12G15                                    
  22826993.08649 119956657.57049     -2464.91449        50.000  

  24438119.98449 128423185.11749     16361.34849        50.000  

  23654709.46149 124306336.53949     -8192.50049        50.000  

  22344687.81249 117422127.16049       975.67649        49.000  

 16 04 02 13 18 47.7000000  0  4G19G17G12G15                                    
  22827040.01649 119956904.19949     -2467.97749        50.000  

  24437808.66449 128421549.08249     16359.24649        50.000  

  23654865.38349 124307155.91449     -8195.16849        50.000  

  22344669.30549 117422029.90649       969.23849        49.000  

 16 04 02 13 18 47.8000000  0  4G19G17G12G15                                    
  22827087.00049 119957151.09049     -2470.67649        50.000  

  24437497.36749 128419913.21149     16357.60549        50.000  

  23655021.34449 124307975.49649     -8197.51249        50.000  

  22344650.90649 117421933.23849       963.32849        49.000  

 16 04 02 13 18 47.9000000  0  4G19G17G12G15                                    
  22827134.05549 119957398.35249     -2474.44549        50.000  

  24437186.11749 128418277.60949     16354.88349        50.000  

  23655177.37549 124308795.41849     -8200.95349        50.000  

  22344632.64849 117421837.28549       956.10549        49.000  

 16 04 02 13 18 48.0000000  0  4G19G17G12G15                                    
  22827181.18849 119957646.05949     -2478.74249        50.000  

  24436874.93849 128416642.35549     16351.46549        50.000  

  23655333.46949 124309615.73049     -8204.70749        50.000  

  22344614.53149 117421742.10249       948.53949        49.000  

 16 04 02 13 18 48.1000000  0  4G19G17G12G15                                    
  22827228.38349 119957894.05149     -2482.08249        50.000  

  24436563.79749 128415007.28949     16349.20749        50.000  

  23655489.61749 124310436.30149     -8207.64549        50.000  

  22344596.53149 117421647.52749       941.98849        49.000  

 16 04 02 13 18 48.2000000  0  4G19G17G12G15                                    
  22827275.64849 119958142.44149     -2485.84849        50.000  

  24436252.71149 128413372.52049     16346.41849        50.000  

  23655645.83649 124311257.22749     -8211.15249        50.000  

  22344578.68049 117421553.69949       934.79749        49.000  

 16 04 02 13 18 48.3000000  0  4G19G17G12G15                                    
  22827323.00049 119958391.22349     -2489.71949        50.000  

  24435941.68849 128411738.04349     16343.52349        50.000  

  23655802.11749 124312078.50049     -8214.48849        50.000  

  22344560.96149 117421460.57849       927.62149        49.000  

 16 04 02 13 18 48.4000000  0  4G19G17G12G15                                    
  22827370.39849 119958640.29349     -2492.38349        50.000  

  24435630.69549 128410103.76249     16341.64849        50.000  

  23655958.45349 124312900.02749     -8216.87149        50.000  

  22344543.36749 117421368.09849       921.47749        49.000  

 16 04 02 13 18 48.5000000  0  4G19G17G12G15                                    
  22827417.86749 119958889.75449     -2496.46949        50.000  

  24435319.74249 128408469.75849     16338.80549        50.000  

  23656114.84449 124313721.89549     -8220.38349        50.000  

  22344525.89149 117421276.31249       914.33249        49.000  

 16 04 02 13 18 48.6000000  0  4G19G17G12G15                                    
  22827465.40649 119959139.54749     -2499.66049        50.000  

  24435008.85249 128406835.99249     16336.55949        50.000  

  23656271.29749 124314544.05149     -8223.16449        50.000  

  22344508.55549 117421185.20749       907.68849        49.000  

 16 04 02 13 18 48.7000000  0  4G19G17G12G15                                    
  22827513.00849 119959389.65649     -2502.84849        50.000  

  24434698.00049 128405202.45349     16334.32849        50.000  

  23656427.80549 124315366.49649     -8225.98849        50.000  

  22344491.34449 117421094.74649       901.29349        49.000  

 16 04 02 13 18 48.8000000  0  4G19G17G12G15                                    
  22827560.67249 119959640.15249     -2506.95749        50.000  

  24434387.20349 128403569.18849     16331.34049        50.000  

  23656584.37549 124316189.28549     -8229.82449        50.000  

  22344474.26649 117421005.00849       893.75049        49.000  

 16 04 02 13 18 48.9000000  0  4G19G17G12G15                                    
  22827608.40649 119959891.00049     -2510.26249        50.000  

  24434076.45349 128401936.17649     16328.90649        50.000  

  23656741.00049 124317012.37149     -8232.69149        50.000  

  22344457.32049 117420915.94149       887.21949        49.000  

 16 04 02 13 18 49.0000000  0  4G19G17G12G15                                    
  22827656.21949 119960142.24649     -2514.43049        50.000  

  24433765.75849 128400303.47749     16325.75049        50.000  

  23656897.69549 124317835.83249     -8236.23049        50.000  

  22344440.50849 117420827.62149       879.65649        49.000  

 16 04 02 13 18 49.1000000  0  4G19G17G12G15                                    
  22827704.08649 119960393.78949     -2517.28149        50.000  

  24433455.11749 128398670.96949     16323.87149        50.000  

  23657054.44549 124318659.54749     -8238.82449        50.000  

  22344423.82049 117420739.92649       873.53149        49.000  

 16 04 02 13 18 49.2000000  0  4G19G17G12G15                                    
  22827752.02349 119960645.71949     -2521.02049        50.000  

  24433144.51649 128397038.74249     16321.11349        50.000  

  23657211.25849 124319483.60249     -8242.27349        50.000  

  22344407.26649 117420652.93049       866.50449        49.000  

 16 04 02 13 18 49.3000000  0  4G19G17G12G15                                    
  22827800.03149 119960897.98049     -2524.54749        50.000  

  24432833.94549 128395406.76249     16318.69949        50.000  

  23657368.12549 124320307.94549     -8245.28549        50.000  

  22344390.84449 117420566.62549       859.62149        49.000  

 16 04 02 13 18 49.4000000  0  4G19G17G12G15                                    
  22827848.10249 119961150.61749     -2528.11749        50.000  

  24432523.44549 128393775.04749     16316.03149        50.000  

  23657525.05549 124321132.63349     -8248.48849        50.000  

  22344374.55549 117420481.00849       852.77049        49.000  

 16 04 02 13 18 49.5000000  0  4G19G17G12G15                                    
  22827896.24249 119961403.60949     -2531.69949        50.000  

  24432212.99249 128392143.59849     16313.32849        50.000  

  23657682.04749 124321957.63749     -8251.76649        50.000  

  22344358.39849 117420396.08649       845.73449        49.000  

 16 04 02 13 18 49.6000000  0  4G19G17G12G15                                    
  22827944.44549 119961656.93449     -2535.25449        50.000  

  24431902.57849 128390512.37149     16310.98449        50.000  

  23657839.08649 124322782.91049     -8254.61349        50.000  

  22344342.35949 117420311.81649       839.14849        49.000  

 16 04 02 13 18 49.7000000  0  4G19G17G12G15                                    
  22827992.72749 119961910.62949     -2538.68849        50.000  

  24431592.21149 128388881.42649     16308.36749        50.000  

  23657996.19549 124323608.53149     -8257.77749        50.000  

  22344326.46149 117420228.26249       832.24649        49.000  

 16 04 02 13 18 49.8000000  0  4G19G17G12G15                                    
  22828041.06249 119962164.65649     -2542.12949        50.000  

  24431281.89149 128387250.70749     16305.94149        50.000  

  23658153.36749 124324434.44949     -8260.87549        50.000  

  22344310.68849 117420145.37149       825.39849        49.000  

 16 04 02 13 18 49.9000000  0  4G19G17G12G15                                    
  22828089.46949 119962419.05549     -2545.87549        50.000  

  24430971.61749 128385620.27049     16303.10549        50.000  

  23658310.59449 124325260.68849     -8264.11749        50.000  

  22344295.04749 117420063.18049       818.41449        49.000  

 16 04 02 13 18 50.0000000  0  4G19G17G12G15                                    
  22828137.94549 119962673.80149     -2549.33649        50.000  

  24430661.39849 128383990.07049     16300.66049        50.000  

  23658467.88349 124326087.23849     -8267.22749        50.000  

  22344279.53949 117419981.66849       811.60249        49.000  

 16 04 02 13 18 50.1000000  0  4G19G17G12G15                                    
  22828186.48449 119962928.85249     -2552.22749        50.000  

  24430351.21949 128382360.08249     16298.75049        50.000  

  23658625.21949 124326914.05149     -8269.72749        50.000  

  22344264.14849 117419900.79749       805.30149        49.000  

 16 04 02 13 18 50.2000000  0  4G19G17G12G15                                    
  22828235.08649 119963184.24249     -2555.72349        50.000  

  24430041.08649 128380730.32849     16296.43449        50.000  

  23658782.61749 124327741.16049     -8272.78149        50.000  

  22344248.88349 117419820.59049       798.62549        49.000  

 16 04 02 13 18 50.3000000  0  4G19G17G12G15                                    
  22828283.74249 119963439.97749     -2559.10549        50.000  

  24429731.00049 128379100.84049     16293.79749        50.000  

  23658940.06249 124328568.57449     -8275.86349        50.000  

  22344233.75849 117419741.06649       791.82849        49.000  

 16 04 02 13 18 50.4000000  0  4G19G17G12G15                                    
  22828332.49249 119963696.14149     -2563.40649        50.000  

  24429420.97749 128377471.66449     16290.60549        50.000  

  23659097.59449 124329396.37949     -8279.67249        50.000  

  22344218.76649 117419662.30149       784.23049        49.000  

 16 04 02 13 18 50.5000000  0  4G19G17G12G15                                    
  22828381.30549 119963952.67649     -2567.32049        50.000  

  24429111.00049 128375842.77349     16287.60949        50.000  

  23659255.18049 124330224.51649     -8283.12549        50.000  

  22344203.91449 117419584.23449       777.12149        49.000  

 16 04 02 13 18 50.6000000  0  4G19G17G12G15                                    
  22828430.18849 119964209.54749     -2570.77049        50.000  

  24428801.07049 128374214.09849     16285.39149        50.000  

  23659412.82849 124331052.94549     -8286.20349        50.000  

  22344189.18849 117419506.83649       770.36349        49.000  

 16 04 02 13 18 50.7000000  0  4G19G17G12G15                                    
  22828479.14149 119964466.81649     -2574.50449        50.000  

  24428491.21149 128372585.74249     16282.39149        50.000  

  23659570.53949 124331881.72749     -8289.45749        50.000  

  22344174.59449 117419430.17249       763.14849        49.000  

 16 04 02 13 18 50.8000000  0  4G19G17G12G15                                    
  22828528.13349 119964724.30549     -2576.93049        50.000  

  24428181.37549 128370957.52049     16280.93849        50.000  

  23659728.28949 124332710.70349     -8291.60249        50.000  

  22344160.10949 117419354.07049       757.37949        49.000  

 16 04 02 13 18 50.9000000  0  4G19G17G12G15                                    
  22828577.21949 119964982.24249     -2580.93849        50.000  

  24427871.59449 128369329.61349     16277.97349        50.000  

  23659886.11749 124333540.07049     -8295.23849        50.000  

  22344145.77349 117419278.71949       750.18049        49.000  

 16 04 02 13 18 51.0000000  0  4G19G17G12G15                                    
  22828626.36749 119965240.52049     -2584.77049        50.000  

  24427561.85949 128367701.96549     16275.20749        50.000  

  23660044.00049 124334369.74649     -8298.62549        50.000  

  22344131.57049 117419204.06249       742.96949        49.000  

 16 04 02 13 18 51.1000000  0  4G19G17G12G15                                    
  22828675.57049 119965499.10949     -2587.61749        50.000  

  24427252.17249 128366074.53549     16273.16049        50.000  

  23660201.93049 124335199.68849     -8301.07449        50.000  

  22344117.48449 117419130.04749       736.87149        49.000  

 16 04 02 13 18 51.2000000  0  4G19G17G12G15                                    
  22828724.83649 119965758.00449     -2590.42249        50.000  

  24426942.52349 128364447.31249     16271.24249        50.000  

  23660359.91449 124336029.90249     -8303.41449        50.000  

  22344103.51649 117419056.66849       730.69549        49.000  

 16 04 02 13 18 51.3000000  0  4G19G17G12G15                                    
  22828774.16449 119966017.19949     -2593.84849        50.000  

  24426632.89849 128362820.28949     16268.95749        50.000  

  23660517.95349 124336860.37149     -8306.53949        50.000  

  22344089.68049 117418983.92249       723.95349        49.000  

 16 04 02 13 18 51.4000000  0  4G19G17G12G15                                    
  22828823.56249 119966276.80549     -2597.80149        50.000  

  24426323.35249 128361193.57849     16265.85949        50.000  

  23660676.05549 124337691.21149     -8310.14149        50.000  

  22344075.97749 117418911.91849       716.69549        49.000  

 16 04 02 13 18 51.5000000  0  4G19G17G12G15                                    
  22828873.02349 119966536.72349     -2600.96149        50.000  

  24426013.82849 128359567.07849     16263.79749        50.000  

  23660834.21149 124338522.32449     -8312.77349        50.000  

  22344062.39849 117418840.55949       710.24249        49.000  

 16 04 02 13 18 51.6000000  0  4G19G17G12G15                                    
  22828922.55549 119966797.00049     -2604.63349        50.000  

  24425704.36749 128357940.84849     16261.05149        50.000  

  23660992.42249 124339353.75049     -8315.99649        50.000  

  22344048.94549 117418769.89149       703.15649        49.000  

 16 04 02 13 18 51.7000000  0  4G19G17G12G15                                    
  22828972.15649 119967057.67249     -2608.58249        50.000  

  24425394.96149 128356314.89849     16258.19149        50.000  

  23661150.70349 124340185.53149     -8319.64849        50.000  

  22344035.64149 117418699.94149       695.94149        49.000  

 16 04 02 13 18 51.8000000  0  4G19G17G12G15                                    
  22829021.82849 119967318.67649     -2611.84049        50.000  

  24425085.60249 128354689.19549     16255.77049        50.000  

  23661309.04749 124341017.61349     -8322.52749        50.000  

  22344022.45349 117418630.66849       689.34049        49.000  

 16 04 02 13 18 51.9000000  0  4G19G17G12G15                                    
  22829071.55549 119967580.02049     -2615.58249        50.000  

  24424776.28949 128353063.73049     16253.21549        50.000  

  23661467.44549 124341849.98449     -8325.82049        50.000  

  22344009.39849 117418562.05549       682.41449        49.000  

 16 04 02 13 18 52.0000000  0  4G19G17G12G15                                    
  22829121.36749 119967841.80949     -2619.39149        50.000  

  24424467.03949 128351438.60949     16250.14549        50.000  

  23661625.91449 124342682.76249     -8329.32049        50.000  

  22343996.49249 117418494.21949       675.25049        49.000  

 16 04 02 13 18 52.1000000  0  4G19G17G12G15                                    
  22829171.23449 119968103.83249     -2622.18849        50.000  

  24424157.81249 128349813.62549     16248.60549        50.000  

  23661784.42249 124343515.73049     -8331.44149        50.000  

  22343983.69549 117418426.96949       668.95349        49.000  

 16 04 02 13 18 52.2000000  0  4G19G17G12G15                                    
  22829221.17249 119968366.23449     -2625.71549        50.000  

  24423848.64149 128348188.92649     16245.96549        50.000  

  23661942.99249 124344349.03949     -8334.64549        50.000  

  22343971.03149 117418360.41449       662.18849        49.000  

 16 04 02 13 18 52.3000000  0  4G19G17G12G15                                    
  22829271.17249 119968629.00049     -2629.51249        50.000  

  24423539.52349 128346564.49249     16243.13349        50.000  

  23662101.63349 124345182.68049     -8338.11749        50.000  

  22343958.50049 117418294.54749       655.24649        49.000  

 16 04 02 13 18 52.4000000  0  4G19G17G12G15                                    
  22829321.23449 119968892.08649     -2632.80949        50.000  

  24423230.44549 128344940.28149     16240.86349        50.000  

  23662260.32049 124346016.57849     -8340.87949        50.000  

  22343946.09449 117418229.35549       648.39849        49.000  

 16 04 02 13 18 52.5000000  0  4G19G17G12G15                                    
  22829371.38349 119969155.57849     -2636.78149        50.000  

  24422921.43049 128343316.38349     16237.77049        50.000  

  23662419.07849 124346850.87549     -8344.69949        50.000  

  22343933.82849 117418164.88749       641.26649        49.000  

 16 04 02 13 18 52.6000000  0  4G19G17G12G15                                    
  22829421.59449 119969419.45749     -2640.59049        50.000  

  24422612.46949 128341692.75449     16235.09449        50.000  

  23662577.90649 124347685.49249     -8347.79749        50.000  

  22343921.69549 117418101.12949       634.07849        49.000  

 16 04 02 13 18 52.7000000  0  4G19G17G12G15                                    
  22829471.87549 119969683.69949     -2644.53149        50.000  

  24422303.57049 128340069.41449     16232.00449        50.000  

  23662736.78949 124348520.43849     -8351.41849        50.000  

  22343909.70349 117418038.08649       626.71549        49.000  

 16 04 02 13 18 52.8000000  0  4G19G17G12G15                                    
  22829522.22749 119969948.27749     -2647.59049        50.000  

  24421994.70349 128338446.30949     16229.76249        50.000  

  23662895.73449 124349355.68449     -8354.05549        50.000  

  22343897.82849 117417975.70349       620.42649        49.000  

 16 04 02 13 18 52.9000000  0  4G19G17G12G15                                    
  22829572.64149 119970213.21149     -2651.17249        50.000  

  24421685.88349 128336823.44549     16227.41049        50.000  

  23663054.73449 124350191.24249     -8357.25849        50.000  

  22343886.09449 117417914.00049       613.47749        49.000  

 16 04 02 13 18 53.0000000  0  4G19G17G12G15                                    
  22829623.11749 119970478.47349     -2654.14849        50.000  

  24421377.10949 128335200.82449     16225.25049        50.000  

  23663213.79749 124351027.09449     -8359.94949        50.000  

  22343874.48449 117417852.97749       607.09449        49.000  

 16 04 02 13 18 53.1000000  0  4G19G17G12G15                                    
  22829673.65649 119970744.06649     -2657.86749        50.000  

  24421068.37549 128333578.43849     16222.65649        50.000  

  23663372.90649 124351863.22349     -8363.10249        50.000  

  22343862.99249 117417792.59449       600.26249        49.000  

 16 04 02 13 18 53.2000000  0  4G19G17G12G15                                    
  22829724.26649 119971010.02049     -2661.31249        50.000  

  24420759.69549 128331956.30949     16220.16049        50.000  

  23663532.07849 124352699.67649     -8366.19949        50.000  

  22343851.63349 117417732.91849       593.44149        49.000  

 16 04 02 13 18 53.3000000  0  4G19G17G12G15                                    
  22829774.94549 119971276.34849     -2665.18049        50.000  

  24420451.07049 128330334.45749     16217.31249        50.000  

  23663691.31249 124353536.47749     -8369.66449        50.000  

  22343840.41449 117417673.94949       586.26649        49.000  

 16 04 02 13 18 53.4000000  0  4G19G17G12G15                                    
  22829825.68049 119971542.97349     -2668.12549        50.000  

  24420142.48449 128328712.80949     16215.26249        50.000  

  23663850.59449 124354373.50849     -8372.14149        50.000  

  22343829.31249 117417615.59449       580.00449        49.000  

 16 04 02 13 18 53.5000000  0  4G19G17G12G15                                    
  22829876.49249 119971810.00049     -2672.08249        50.000  

  24419833.94549 128327091.46549     16212.24649        50.000  

  23664009.95349 124355210.92249     -8375.80949        50.000  

  22343818.34449 117417557.99249       572.61349        49.000  

 16 04 02 13 18 53.6000000  0  4G19G17G12G15                                    
  22829927.36749 119972077.33249     -2675.05149        50.000  

  24419525.46149 128325470.32849     16210.22749        50.000  

  23664169.35949 124356048.59449     -8378.29349        50.000  

  22343807.50049 117417501.02049       566.34049        49.000  

 16 04 02 13 18 53.7000000  0  4G19G17G12G15                                    
  22829978.31249 119972345.05149     -2678.94149        50.000  

  24419217.01649 128323849.47349     16207.39549        50.000  

  23664328.82849 124356886.60949     -8381.80149        50.000  

  22343796.79749 117417444.76649       559.10549        49.000  

 16 04 02 13 18 53.8000000  0  4G19G17G12G15                                    
  22830029.31249 119972613.07049     -2682.29749        50.000  

  24418908.61749 128322228.82849     16205.10249        50.000  

  23664488.34449 124357724.88349     -8384.70349        50.000  

  22343786.21949 117417389.14849       552.49249        49.000  

 16 04 02 13 18 53.9000000  0  4G19G17G12G15                                    
  22830080.39149 119972881.48849     -2685.84849        50.000  

  24418600.27349 128320608.48849     16202.33249        50.000  

  23664647.93049 124358563.52749     -8387.90249        50.000  

  22343775.77349 117417334.26249       545.60949        49.000  

 16 04 02 13 18 54.0000000  0  4G19G17G12G15                                    
  22830131.52349 119973150.21149     -2689.17249        50.000  

  24418291.97749 128318988.34849     16200.16849        50.000  

  23664807.57049 124359402.42249     -8390.70349        50.000  

  22343765.45349 117417280.00849       539.04349        49.000  

 16 04 02 13 18 54.1000000  0  4G19G17G12G15                                    
  22830182.73449 119973419.33649     -2693.00049        50.000  

  24417983.72749 128317368.52049     16197.17249        50.000  

  23664967.27349 124360241.68849     -8394.29749        50.000  

  22343755.27349 117417226.49249       531.73849        49.000  

 16 04 02 13 18 54.2000000  0  4G19G17G12G15                                    
  22830234.01649 119973688.80149     -2696.42649        50.000  

  24417675.53149 128315748.92649     16194.71149        50.000  

  23665127.03149 124361081.24649     -8397.25449        50.000  

  22343745.21149 117417173.64149       525.13349        49.000  

 16 04 02 13 18 54.3000000  0  4G19G17G12G15                                    
  22830285.34449 119973958.58649     -2699.83249        50.000  

  24417367.39149 128314129.57049     16192.23449        50.000  

  23665286.85249 124361921.09449     -8400.32849        50.000  

  22343735.28149 117417121.45749       518.28149        49.000  

 16 04 02 13 18 54.4000000  0  4G19G17G12G15                                    
  22830336.75849 119974228.78149     -2703.82449        50.000  

  24417059.28949 128312510.50049     16189.43849        50.000  

  23665446.73449 124362761.28949     -8403.78149        50.000  

  22343725.49249 117417070.00049       511.07049        49.000  

 16 04 02 13 18 54.5000000  0  4G19G17G12G15                                    
  22830388.25049 119974499.34849     -2707.58249        50.000  

  24416751.24249 128310891.73049     16186.52749        50.000  

  23665606.68849 124363601.83249     -8407.11749        50.000  

  22343715.83649 117417019.25449       504.01249        49.000  

 16 04 02 13 18 54.6000000  0  4G19G17G12G15                                    
  22830439.79749 119974770.25049     -2710.93849        50.000  

  24416443.24249 128309273.18849     16184.14149        50.000  

  23665766.69549 124364442.67249     -8410.05149        50.000  

  22343706.30549 117416969.18049       497.24249        49.000  

 16 04 02 13 18 54.7000000  0  4G19G17G12G15                                    
  22830491.42249 119975041.51649     -2714.36749        50.000  

  24416135.29749 128307654.91849     16181.57449        50.000  

  23665926.75849 124365283.83649     -8413.23849        50.000  

  22343696.90649 117416919.80149       490.53549        49.000  

 16 04 02 13 18 54.8000000  0  4G19G17G12G15                                    
  22830543.09449 119975313.05549     -2717.23849        50.000  

  24415827.38349 128306036.82049     16179.80549        50.000  

  23666086.87549 124366125.22749     -8415.62549        50.000  

  22343687.62549 117416871.02049       484.32049        49.000  

 16 04 02 13 18 54.9000000  0  4G19G17G12G15                                    
  22830594.84449 119975585.01249     -2721.09449        50.000  

  24415519.53149 128304419.04349     16176.81649        50.000  

  23666247.05549 124366966.98449     -8419.02049        50.000  

  22343678.49249 117416823.00049       477.05549        49.000  

 16 04 02 13 18 55.0000000  0  4G19G17G12G15                                    
  22830646.64849 119975857.26649     -2724.52349        50.000  

  24415211.71949 128302801.46149     16174.48049        50.000  

  23666407.28949 124367809.01649     -8422.12949        50.000  

  22343669.46949 117416775.59449       470.49249        49.000  

 16 04 02 13 18 55.1000000  0  4G19G17G12G15                                    
  22830698.53149 119976129.91849     -2728.23049        50.000  

  24414903.96149 128301184.19149     16171.60949        50.000  

  23666567.59449 124368651.39849     -8425.39549        50.000  

  22343660.58649 117416728.93849       463.27749        49.000  

 16 04 02 13 18 55.2000000  0  4G19G17G12G15                                    
  22830750.48449 119976402.93449     -2732.34449        50.000  

  24414596.25049 128299567.18049     16168.64149        50.000  

  23666727.95349 124369494.09849     -8429.03549        50.000  

  22343651.83649 117416682.96149       455.99649        49.000  

 16 04 02 13 18 55.3000000  0  4G19G17G12G15                                    
  22830802.50849 119976676.30949     -2735.59849        50.000  

  24414288.59449 128297950.43449     16166.13349        50.000  

  23666888.37549 124370337.12549     -8432.05549        50.000  

  22343643.22749 117416637.68449       449.20749        49.000  

 16 04 02 13 18 55.4000000  0  4G19G17G12G15                                    
  22830854.59449 119976950.00049     -2738.56249        50.000  

  24413980.97749 128296333.89849     16164.20349        50.000  

  23667048.85249 124371180.42649     -8434.57449        50.000  

  22343634.73449 117416593.05549       442.96549        49.000  

 16 04 02 13 18 55.5000000  0  4G19G17G12G15                                    
  22830906.73449 119977224.01249     -2741.98849        50.000  

  24413673.41449 128294717.59049     16161.95349        50.000  

  23667209.37549 124372024.00449     -8437.62149        50.000  

  22343626.35949 117416549.07449       436.31249        49.000  

 16 04 02 13 18 55.6000000  0  4G19G17G12G15                                    
  22830958.94549 119977498.40649     -2745.65249        50.000  

  24413365.89849 128293101.57849     16159.15249        50.000  

  23667369.96949 124372867.92649     -8440.75849        50.000  

  22343618.13349 117416505.82049       429.26649        49.000  

 16 04 02 13 18 55.7000000  0  4G19G17G12G15                                    
  22831011.22749 119977773.14149     -2749.18849        50.000  

  24413058.42249 128291485.80549     16156.48849        50.000  

  23667530.62549 124373712.14849     -8443.98449        50.000  

  22343610.02349 117416463.23449       422.33649        49.000  

 16 04 02 13 18 55.8000000  0  4G19G17G12G15                                    
  22831063.57849 119978048.24649     -2752.95349        50.000  

  24412751.00049 128289870.29349     16153.86349        50.000  

  23667691.32849 124374556.68449     -8447.11749        50.000  

  22343602.05549 117416421.33649       415.50849        49.000  

 16 04 02 13 18 55.9000000  0  4G19G17G12G15                                    
  22831115.99249 119978323.68049     -2756.27749        50.000  

  24412443.63349 128288255.03549     16151.40249        50.000  

  23667852.10249 124375401.54749     -8450.25849        50.000  

  22343594.21149 117416380.12949       408.61749        49.000  

 16 04 02 13 18 56.0000000  0  4G19G17G12G15                                    
  22831168.46949 119978599.46949     -2759.67249        50.000  

  24412136.30549 128286640.02049     16148.98449        50.000  

  23668012.93849 124376246.68049     -8452.99649        50.000  

  22343586.50049 117416339.57849       402.07849        49.000  

 16 04 02 13 18 56.1000000  0  4G19G17G12G15                                    
  22831221.00849 119978875.53149     -2762.27049        50.000  

  24411829.01649 128285025.19949     16147.08249        50.000  

  23668173.81249 124377092.09049     -8455.57049        50.000  

  22343578.90649 117416299.66849       395.77049        49.000  

 16 04 02 13 18 56.2000000  0  4G19G17G12G15                                    
  22831273.60949 119979151.97749     -2766.09049        50.000  

  24411521.77349 128283410.64549     16144.46949        50.000  

  23668334.75049 124377937.81649     -8458.80949        50.000  

  22343571.43849 117416260.44949       388.85949        49.000  

 16 04 02 13 18 56.3000000  0  4G19G17G12G15                                    
  22831326.28949 119979428.80949     -2770.37549        50.000  

  24411214.58649 128281796.38749     16141.26649        50.000  

  23668495.75049 124378783.88349     -8462.64149        50.000  

  22343564.10949 117416221.94549       381.33249        49.000  

 16 04 02 13 18 56.4000000  0  4G19G17G12G15                                    
  22831379.03949 119979705.98049     -2773.49649        50.000  

  24410907.44549 128280182.35549     16139.17649        50.000  

  23668656.81249 124379630.25049     -8465.32849        50.000  

  22343556.90649 117416184.10949       375.02049        49.000  

 16 04 02 13 18 56.5000000  0  4G19G17G12G15                                    
  22831431.84449 119979983.45749     -2776.71949        50.000  

  24410600.36749 128278568.57049     16136.73449        50.000  

  23668817.92249 124380476.89149     -8468.13349        50.000  

  22343549.83649 117416146.93449       368.36749        49.000  

 16 04 02 13 18 56.6000000  0  4G19G17G12G15                                    
  22831484.72749 119980261.37149     -2781.00449        50.000  

  24410293.33649 128276955.09849     16133.50049        50.000  

  23668979.10949 124381323.93449     -8472.08649        50.000  

  22343542.90649 117416110.52349       360.70349        49.000  

 16 04 02 13 18 56.7000000  0  4G19G17G12G15                                    
  22831537.68049 119980539.62949     -2784.60949        50.000  

  24409986.35249 128275341.88349     16130.71949        50.000  

  23669140.34449 124382171.26249     -8475.25049        50.000  

  22343536.10949 117416074.77749       353.77349        49.000  

 16 04 02 13 18 56.8000000  0  4G19G17G12G15                                    
  22831590.69549 119980818.21949     -2787.73449        50.000  

  24409679.41449 128273728.90249     16128.47749        50.000  

  23669301.64849 124383018.89149     -8478.05549        50.000  

  22343529.43049 117416039.70349       347.23449        49.000  

 16 04 02 13 18 56.9000000  0  4G19G17G12G15                                    
  22831643.77349 119981097.15649     -2791.08649        50.000  

  24409372.52349 128272116.16849     16126.09849        50.000  

  23669463.00849 124383866.83249     -8480.99649        50.000  

  22343522.88349 117416005.31649       340.46149        49.000  

 16 04 02 13 18 57.0000000  0  4G19G17G12G15                                    
  22831696.93849 119981376.50449     -2795.36749        50.000  

  24409065.69549 128270503.75449     16122.85949        50.000  

  23669624.43049 124384715.14549     -8484.92249        50.000  

  22343516.48449 117415971.66449       333.04349        49.000  

 16 04 02 13 18 57.1000000  0  4G19G17G12G15                                    
  22831750.14149 119981656.13349     -2798.04749        50.000  

  24408758.89849 128268891.52049     16121.10949        50.000  

  23669785.90649 124385563.68049     -8487.14149        50.000  

  22343510.19549 117415938.62949       326.88749        49.000  

 16 04 02 13 18 57.2000000  0  4G19G17G12G15                                    
  22831803.43049 119981936.15249     -2802.11749        50.000  

  24408452.15649 128267279.57849     16118.12149        50.000  

  23669947.44549 124386412.57849     -8490.87149        50.000  

  22343504.04749 117415906.30949       319.66849        49.000  

 16 04 02 13 18 57.3000000  0  4G19G17G12G15                                    
  22831856.78949 119982216.54749     -2805.77349        50.000  

  24408145.46949 128265667.91849     16115.38349        50.000  

  23670109.04749 124387261.80149     -8493.98449        50.000  

  22343498.03149 117415874.70749       312.46949        49.000  

 16 04 02 13 18 57.4000000  0  4G19G17G12G15                                    
  22831910.21949 119982497.32049     -2809.75849        50.000  

  24407838.83649 128264056.53949     16112.39149        50.000  

  23670270.71149 124388111.37149     -8497.64149        50.000  

  22343492.15649 117415843.80149       305.31249        49.000  

 16 04 02 13 18 57.5000000  0  4G19G17G12G15                                    
  22831963.70349 119982778.41449     -2812.58249        50.000  

  24407532.24249 128262445.38749     16110.44949        50.000  

  23670432.43849 124388961.22349     -8500.00049        50.000  

  22343486.39849 117415813.57049       299.05949        49.000  

 16 04 02 13 18 57.6000000  0  4G19G17G12G15                                    
  22832017.26649 119983059.89549     -2816.84849        50.000  

  24407225.70349 128260834.52349     16107.28549        50.000  

  23670594.21949 124389811.41849     -8503.83649        50.000  

  22343480.78149 117415784.04749       291.63349        49.000  

 16 04 02 13 18 57.7000000  0  4G19G17G12G15                                    
  22832070.90649 119983341.76249     -2820.61349        50.000  

  24406919.23449 128259223.94949     16104.48049        50.000  

  23670756.07049 124390661.96149     -8507.15649        50.000  

  22343475.29749 117415755.25049       284.34849        49.000  

 16 04 02 13 18 57.8000000  0  4G19G17G12G15                                    
  22832124.58649 119983623.85549     -2822.84449        50.000  

  24406612.78149 128257613.51649     16103.15649        50.000  

  23670917.96149 124391512.68449     -8508.98049        50.000  

  22343469.92249 117415727.00849       278.92649        49.000  

 16 04 02 13 18 57.9000000  0  4G19G17G12G15                                    
  22832178.34449 119983906.36349     -2826.79349        50.000  

  24406306.38349 128256003.39149     16100.21149        50.000  

  23671079.91449 124392363.77749     -8512.53149        50.000  

  22343464.68849 117415699.50049       271.64549        49.000  

 16 04 02 13 18 58.0000000  0  4G19G17G12G15                                    
  22832232.17249 119984189.22349     -2830.47349        50.000  

  24406000.03149 128254393.52749     16097.41449        50.000  

  23671241.94549 124393215.19949     -8515.89849        50.000  

  22343459.58649 117415672.70349       264.59049        49.000  

 16 04 02 13 18 58.1000000  0  4G19G17G12G15                                    
  22832286.07049 119984472.44549     -2834.18049        50.000  

  24405693.73449 128252783.91849     16094.72349        50.000  

  23671404.01649 124394066.91849     -8519.12549        50.000  

  22343454.60949 117415646.57449       257.72349        49.000  

 16 04 02 13 18 58.2000000  0  4G19G17G12G15                                    
  22832340.03149 119984756.02049     -2837.81649        50.000  

  24405387.49249 128251174.57449     16092.09449        50.000  

  23671566.15649 124394918.96149     -8522.34849        50.000  

  22343449.77349 117415621.14549       250.73849        49.000  

 16 04 02 13 18 58.3000000  0  4G19G17G12G15                                    
  22832394.06249 119985039.96149     -2841.38749        50.000  

  24405081.28949 128249565.50449     16089.47749        50.000  

  23671728.35949 124395771.34049     -8525.59449        50.000  

  22343445.07049 117415596.42649       243.68049        49.000  

 16 04 02 13 18 58.4000000  0  4G19G17G12G15                                    
  22832448.16449 119985324.27049     -2845.06249        50.000  

  24404775.14849 128247956.70749     16086.66049        50.000  

  23671890.62549 124396624.04349     -8528.82849        50.000  

  22343440.49249 117415572.39149       236.76249        49.000  

 16 04 02 13 18 58.5000000  0  4G19G17G12G15                                    
  22832502.32849 119985608.91449     -2848.16449        50.000  

  24404469.03949 128246348.14549     16084.55949        50.000  

  23672052.93849 124397477.03149     -8531.44149        50.000  

  22343436.04749 117415549.02749       230.27749        49.000  

 16 04 02 13 18 58.6000000  0  4G19G17G12G15                                    
  22832556.55549 119985893.87149     -2851.39149        50.000  

  24404162.98449 128244739.78949     16082.41449        50.000  

  23672215.31249 124398330.29749     -8534.37149        50.000  

  22343431.72749 117415526.31649       223.77049        49.000  

 16 04 02 13 18 58.7000000  0  4G19G17G12G15                                    
  22832610.85949 119986179.23449     -2855.52349        50.000  

  24403856.98449 128243131.77349     16078.92649        50.000  

  23672377.75049 124399183.92649     -8538.15649        50.000  

  22343427.54749 117415504.32849       216.25449        49.000  

 16 04 02 13 18 58.8000000  0  4G19G17G12G15                                    
  22832665.22749 119986464.93449     -2858.71549        50.000  

  24403551.03149 128241523.95749     16076.93049        50.000  

  23672540.25049 124400037.84449     -8540.80949        50.000  

  22343423.49249 117415483.02049       209.77749        49.000  

 16 04 02 13 18 58.9000000  0  4G19G17G12G15                                    
  22832719.65649 119986750.99249     -2862.67649        50.000  

  24403245.12549 128239916.42249     16074.14549        50.000  

  23672702.80549 124400892.09449     -8544.39549        50.000  

  22343419.56249 117415462.41049       202.46149        49.000  

 16 04 02 13 18 59.0000000  0  4G19G17G12G15                                    
  22832774.16449 119987037.43049     -2866.38749        50.000  

  24402939.28149 128238309.19549     16070.92249        50.000  

  23672865.43049 124401746.68049     -8547.74649        50.000  

  22343415.78149 117415442.50849       195.41049        49.000  

 16 04 02 13 18 59.1000000  0  4G19G17G12G15                                    
  22832828.74249 119987324.20349     -2869.61749        50.000  

  24402633.46949 128236702.17249     16068.87949        50.000  

  23673028.10249 124402601.55549     -8550.60549        50.000  

  22343412.11749 117415423.27349       188.75049        49.000  

 16 04 02 13 18 59.2000000  0  4G19G17G12G15                                    
  22832883.38349 119987611.34449     -2873.40249        50.000  

  24402327.71949 128235095.44549     16065.91449        50.000  

  23673190.84449 124403456.76249     -8553.88349        50.000  

  22343408.58649 117415404.73449       181.72749        49.000  

 16 04 02 13 18 59.3000000  0  4G19G17G12G15                                    
  22832938.08649 119987898.83249     -2876.64849        50.000  

  24402022.03149 128233488.96149     16063.59049        50.000  

  23673353.64149 124404312.26649     -8556.62549        50.000  

  22343405.18849 117415386.87949       175.26249        49.000  

 16 04 02 13 18 59.4000000  0  4G19G17G12G15                                    
  22832992.85249 119988186.62949     -2879.84849        50.000  

  24401716.36749 128231882.68849     16061.43049        50.000  

  23673516.49249 124405168.04349     -8559.52049        50.000  

  22343401.91449 117415369.67249       168.56649        49.000  

 16 04 02 13 18 59.5000000  0  4G19G17G12G15                                    
  22833047.70349 119988474.85249     -2884.07449        50.000  

  24401410.75849 128230276.73849     16058.31649        50.000  

  23673679.41449 124406024.20749     -8563.35949        50.000  

  22343398.78949 117415353.21549       161.07049        49.000  

 16 04 02 13 18 59.6000000  0  4G19G17G12G15                                    
  22833102.60949 119988763.39849     -2887.35949        50.000  

  24401105.20349 128228671.04349     16055.64549        50.000  

  23673842.39149 124406880.66049     -8566.30949        50.000  

  22343395.78149 117415337.42249       154.35549        49.000  

 16 04 02 13 18 59.7000000  0  4G19G17G12G15                                    
  22833157.58649 119989052.29349     -2890.68049        50.000  

  24400799.68849 128227065.57849     16053.35949        50.000  

  23674005.43049 124407737.41849     -8569.23449        50.000  

  22343392.90649 117415322.30149       147.87149        49.000  

 16 04 02 13 18 59.8000000  0  4G19G17G12G15                                    
  22833212.62549 119989341.55149     -2894.44549        50.000  

  24400494.22749 128225460.37149     16050.73449        50.000  

  23674168.52349 124408594.47749     -8572.39549        50.000  

  22343390.15649 117415307.87149       140.80149        49.000  

 16 04 02 13 18 59.9000000  0  4G19G17G12G15                                    
  22833267.73449 119989631.17249     -2898.01249        50.000  

  24400188.82049 128223855.45749     16047.97349        50.000  

  23674331.68049 124409451.88749     -8575.75849        50.000  

  22343387.54749 117415294.15249       133.69149        49.000  

 16 04 02 13 19  0.0000000  0  4G19G17G12G15                                    
  22833322.91449 119989921.12549     -2901.39149        50.000  

  24399883.46149 128222250.76249     16045.66849        50.000  

  23674494.89849 124410309.57049     -8578.59449        50.000  

  22343385.06249 117415281.09849       127.04349        49.000  

 16 04 02 13 19  0.1000000  0  4G19G17G12G15                                    
  22833378.15649 119990211.44949     -2905.19949        50.000  

  24399578.14849 128220646.35949     16042.74249        50.000  

  23674658.18049 124411167.60249     -8582.21549        50.000  

  22343382.71149 117415268.74649       119.91049        49.000  

 16 04 02 13 19  0.2000000  0  4G19G17G12G15                                    
  22833433.47749 119990502.15649     -2909.05949        50.000  

  24399272.89849 128219042.23449     16039.94549        50.000  

  23674821.52349 124412025.96949     -8585.52749        50.000  

  22343380.50049 117415257.11349       112.79349        49.000  

 16 04 02 13 19  0.3000000  0  4G19G17G12G15                                    
  22833488.87549 119990793.25849     -2912.78149        50.000  

  24398967.69549 128217438.39549     16037.25849        50.000  

  23674984.93049 124412884.67249     -8588.69149        50.000  

  22343378.41449 117415246.19149       105.79349        49.000  

 16 04 02 13 19  0.4000000  0  4G19G17G12G15                                    
  22833544.33649 119991084.72349     -2916.55549        50.000  

  24398662.54749 128215834.83649     16034.33649        50.000  

  23675148.39849 124413743.71149     -8592.12949        50.000  

  22343376.46949 117415235.98449        98.54349        49.000  

 16 04 02 13 19  0.5000000  0  4G19G17G12G15                                    
  22833599.85949 119991376.50449     -2919.81249        50.000  

  24398357.44549 128214231.52049     16031.84849        50.000  

  23675311.92249 124414603.04349     -8595.17649        50.000  

  22343374.65649 117415226.41849        92.06649        49.000  

 16 04 02 13 19  0.6000000  0  4G19G17G12G15                                    
  22833655.46149 119991668.68049     -2923.69549        50.000  

  24398052.39149 128212628.45749     16029.35949        50.000  

  23675475.51649 124415462.69549     -8598.36349        50.000  

  22343372.97749 117415217.56649        85.09849        49.000  

 16 04 02 13 19  0.7000000  0  4G19G17G12G15                                    
  22833711.12549 119991961.19149     -2926.99249        50.000  

  24397747.39149 128211025.67249     16026.74649        50.000  

  23675639.16449 124416322.66849     -8601.41049        50.000  

  22343371.42249 117415209.42249        78.06649        49.000  

 16 04 02 13 19  0.8000000  0  4G19G17G12G15                                    
  22833766.84449 119992254.00849     -2929.75049        50.000  

  24397442.42249 128209423.08649     16024.80549        50.000  

  23675802.85949 124417182.89549     -8603.83249        50.000  

  22343369.98449 117415201.87949        72.03149        49.000  

 16 04 02 13 19  0.9000000  0  4G19G17G12G15                                    
  22833822.63349 119992547.16449     -2933.35949        50.000  

  24397137.50849 128207820.75049     16022.25449        50.000  

  23675966.60949 124418043.42249     -8606.96949        50.000  

  22343368.68049 117415195.02049        65.18449        49.000  

 16 04 02 13 19  1.0000000  0  4G19G17G12G15                                    
  22833878.48449 119992840.68849     -2936.80949        50.000  

  24396832.64149 128206218.66849     16019.78149        50.000  

  23676130.42249 124418904.27749     -8609.93449        50.000  

  22343367.51649 117415188.86749        58.31649        49.000  

 16 04 02 13 19  1.1000000  0  4G19G17G12G15                                    
  22833934.39849 119993134.51249     -2940.16849        50.000  

  24396527.82049 128204616.82049     16017.23849        50.000  

  23676294.28949 124419765.39549     -8613.03149        50.000  

  22343366.46149 117415183.34049        51.77349        49.000  

 16 04 02 13 19  1.2000000  0  4G19G17G12G15                                    
  22833990.39149 119993428.74649     -2944.44149        50.000  

  24396223.05549 128203015.26249     16014.09449        50.000  

  23676458.22749 124420626.87949     -8616.81249        50.000  

  22343365.55549 117415178.56649        44.12149        49.000  

 16 04 02 13 19  1.3000000  0  4G19G17G12G15                                    
  22834046.46149 119993723.36749     -2948.17649        50.000  

  24395918.35249 128201414.00449     16011.35949        50.000  

  23676622.22749 124421488.70349     -8620.02049        50.000  

  22343364.77349 117415174.50049        37.18049        49.000  

 16 04 02 13 19  1.4000000  0  4G19G17G12G15                                    
  22834102.60249 119994018.39849     -2952.40649        50.000  

  24395613.70349 128199813.06649     16007.95349        50.000  

  23676786.29749 124422350.89849     -8623.91049        50.000  

  22343364.14849 117415171.18849        29.48049        49.000  

 16 04 02 13 19  1.5000000  0  5G19G17G12G18G15                                 
  22834158.80549 119994313.73849     -2955.34049        50.000  

  24395309.08649 128198212.33249     16006.03949        50.000  

  23676950.42249 124423213.37149     -8626.57849        50.000  

  26650709.04749 140050421.21159     12504.23449        48.000  

  22343363.64149 117415168.52349        23.06249        49.000  

 16 04 02 13 19  1.6000000  0  5G19G17G12G18G15                                 
  22834215.07049 119994609.43449     -2958.61749        50.000  

  24395004.53149 128196611.86749     16003.53949        50.000  

  23677114.60249 124424076.15649     -8629.41049        50.000  

  26650471.11749 140049170.89849     12501.44949        48.000  

  22343363.25849 117415166.53149        16.50849        49.000  

 16 04 02 13 19  1.7000000  0  5G19G17G12G18G15                                 
  22834271.40649 119994905.48449     -2962.37549        50.000  

  24394700.01649 128195011.65649     16000.87549        50.000  

  23677278.84449 124424939.25049     -8632.67649        50.000  

  26650233.23449 140047920.89549     12498.34049        48.000  

  22343363.01649 117415165.23849         9.47749        49.000  

 16 04 02 13 19  1.8000000  0  5G19G17G12G18G15                                 
  22834327.80549 119995201.88349     -2965.96149        50.000  

  24394395.56249 128193411.71149     15998.26649        50.000  

  23677443.14849 124425802.65649     -8635.83649        50.000  

  26649995.43049 140046671.19949     12495.26649        48.000  

  22343362.89849 117415164.62149         2.55149        49.000  

 16 04 02 13 19  1.9000000  0  5G19G17G12G18G15                                 
  22834384.28149 119995498.65249     -2969.48049        50.000  

  24394091.14149 128191812.02749     15995.60249        50.000  

  23677607.50849 124426666.38349     -8638.92249        50.000  

  26649757.60249 140045421.80149     12492.32049        48.000  

  22343362.91449 117415164.70749        -4.37549        49.000  

 16 04 02 13 19  2.0000000  0  5G19G17G12G18G15                                 
  22834440.82049 119995795.74649     -2972.90249        50.000  

  24393786.78149 128190212.57849     15993.23049        50.000  

  23677771.93049 124427530.40649     -8642.07849        50.000  

  26649519.90649 140044172.71549     12489.17649        48.000  

  22343363.05549 117415165.45349       -11.00849        49.000  

 16 04 02 13 19  2.1000000  0  5G19G17G12G18G15                                 
  22834497.40649 119996093.15649     -2975.75049        50.000  

  24393482.44549 128188613.35549     15991.16449        50.000  

  23677936.39849 124428394.70349     -8644.38349        50.000  

  26649282.28949 140042923.84849     12487.09449        48.000  

  22343363.32049 117415166.85549       -17.28549        49.000  

 16 04 02 13 19  2.2000000  0  5G19G17G12G18G15                                 
  22834554.07049 119996390.91049     -2979.26249        50.000  

  24393178.17249 128187014.37949     15988.62549        50.000  

  23678100.92249 124429259.30149     -8647.57049        50.000  

  26649044.69549 140041675.30149     12483.91849        48.000  

  22343363.71949 117415168.92649       -24.21149        49.000  

 16 04 02 13 19  2.3000000  0  5G19G17G12G18G15                                 
  22834610.79749 119996689.01649     -2982.78949        50.000  

  24392873.95349 128185415.65649     15986.00449        50.000  

  23678265.50849 124430124.20349     -8650.78149        50.000  

  26648807.15649 140040427.05149     12480.86749        48.000  

  22343364.24249 117415171.68849       -31.02349        49.000  

 16 04 02 13 19  2.4000000  0  5G19G17G12G18G15                                 
  22834667.58649 119996987.44949     -2986.00849        50.000  

  24392569.77349 128183817.17249     15983.71949        50.000  

  23678430.14849 124430989.40249     -8653.49249        50.000  

  26648569.67249 140039179.07449     12478.29349        48.000  

  22343364.89149 117415175.09849       -37.43449        49.000  

 16 04 02 13 19  2.5000000  0  5G19G17G12G18G15                                 
  22834724.43849 119997286.21549     -2989.57049        50.000  

  24392265.64149 128182218.91449     15981.35949        50.000  

  23678594.84449 124431854.88749     -8656.59049        50.000  

  26648332.28949 140037931.37549     12475.24649        48.000  

  22343365.67249 117415179.19149       -44.40649        49.000  

 16 04 02 13 19  2.6000000  0  5G19G17G12G18G15                                 
  22834781.35949 119997585.34449     -2993.14149        50.000  

  24391961.55549 128180620.93449     15978.66449        50.000  

  23678759.60949 124432720.69549     -8659.78949        50.000  

  26648094.92249 140036683.99249     12472.18449        48.000  

  22343366.58649 117415183.97349       -51.24649        49.000  

 16 04 02 13 19  2.7000000  0  5G19G17G12G18G15                                 
  22834838.35249 119997884.82049     -2996.55149        50.000  

  24391657.51649 128179023.20749     15976.18049        50.000  

  23678924.43049 124433586.81649     -8662.73849        50.000  

  26647857.64849 140035436.90649     12469.25049        48.000  

  22343367.62549 117415189.44149       -58.09849        49.000  

 16 04 02 13 19  2.8000000  0  5G19G17G12G18G15                                 
  22834895.39849 119998184.62549     -2999.86349        50.000  

  24391353.52349 128177425.71949     15973.67649        50.000  

  23679089.29749 124434453.21549     -8665.75849        50.000  

  26647620.39149 140034190.09849     12466.45749        48.000  

  22343368.78949 117415195.55549       -64.60549        49.000  

 16 04 02 13 19  2.9000000  0  5G19G17G12G18G15                                 
  22834952.53149 119998484.81649     -3003.70349        50.000  

  24391049.58649 128175828.51249     15970.72749        50.000  

  23679254.23449 124435319.96149     -8669.09449        50.000  

  26647383.18049 140032943.61749     12463.01649        48.000  

  22343370.08649 117415202.39849       -71.77349        49.000  

 16 04 02 13 19  3.0000000  0  5G19G17G12G18G15                                 
  22835009.71949 119998785.34049     -3007.27349        50.000  

  24390745.68849 128174231.55149     15968.30549        50.000  

  23679419.22749 124436187.00449     -8672.27049        50.000  

  26647146.03949 140031697.43049     12460.13349        48.000  

  22343371.51649 117415209.91449       -78.68449        49.000  

 16 04 02 13 19  3.1000000  0  5G19G17G12G18G15                                 
  22835066.97749 119999086.23049     -3010.89849        50.000  

  24390441.85949 128172634.85549     15965.59449        50.000  

  23679584.28149 124437054.36749     -8675.55149        50.000  

  26646908.93849 140030451.55149     12456.93449        48.000  

  22343373.07849 117415218.12549       -85.71549        49.000  

 16 04 02 13 19  3.2000000  0  5G19G17G12G18G15                                 
  22835124.30549 119999387.49249     -3014.30149        50.000  

  24390138.07049 128171038.43849     15962.98849        50.000  

  23679749.39849 124437922.06649     -8678.58249        50.000  

  26646671.91449 140029205.98849     12454.09449        48.000  

  22343374.77349 117415227.03949       -92.48849        49.000  

 16 04 02 13 19  3.3000000  0  5G19G17G12G18G15                                 
  22835181.68049 119999689.02049     -3016.91849        50.000  

  24389834.32049 128169442.20749     15961.18049        50.000  

  23679914.56249 124438789.99249     -8680.81249        50.000  

  26646434.90649 140027960.64849     12451.93449        48.000  

  22343376.59449 117415236.55949       -98.55149        49.000  

 16 04 02 13 19  3.4000000  0  5G19G17G12G18G15                                 
  22835239.12549 119999990.89549     -3020.50449        50.000  

  24389530.60949 128167846.21549     15958.71949        50.000  

  23680079.77349 124439658.21949     -8683.99649        50.000  

  26646197.98449 140026715.60249     12448.92649        48.000  

  22343378.53149 117415246.75049      -105.31249        49.000  

 16 04 02 13 19  3.5000000  0  5G19G17G12G18G15                                 
  22835296.64149 120000293.14549     -3024.38349        50.000  

  24389226.96149 128166250.49649     15955.87149        50.000  

  23680245.06249 124440526.78549     -8687.37949        50.000  

  26645961.12549 140025470.88749     12445.41849        48.000  

  22343380.60249 117415257.65649      -112.58649        49.000  

 16 04 02 13 19  3.6000000  0  5G19G17G12G18G15                                 
  22835354.21949 120000595.75049     -3027.93049        50.000  

  24388923.35949 128164655.05949     15953.11349        50.000  

  23680410.39849 124441395.66849     -8690.71949        50.000  

  26645724.32049 140024226.47349     12442.28149        48.000  

  22343382.80549 117415269.25049      -119.54749        49.000  

 16 04 02 13 19  3.7000000  0  5G19G17G12G18G15                                 
  22835411.88349 120000898.75849     -3031.94549        50.000  

  24388619.80549 128163059.91049     15950.17649        50.000  

  23680575.81249 124442264.90249     -8694.12149        50.000  

  26645487.64849 140022982.39849     12438.96549        48.000  

  22343385.15649 117415281.57449      -126.78149        49.000  

 16 04 02 13 19  3.8000000  0  5G19G17G12G18G15                                 
  22835469.60249 120001202.09049     -3035.18849        50.000  

  24388316.30549 128161465.00449     15947.73049        50.000  

  23680741.27349 124443134.42649     -8696.96549        50.000  

  26645250.96149 140021738.60549     12436.22349        48.000  

  22343387.62549 117415294.56649      -133.45749        49.000  

 16 04 02 13 19  3.9000000  0  5G19G17G12G18G15                                 
  22835527.39149 120001505.73449     -3038.20349        50.000  

  24388012.85249 128159870.30149     15945.80949        50.000  

  23680906.78949 124444004.21549     -8699.60249        50.000  

  26645014.30549 140020495.06649     12433.79349        48.000  

  22343390.21949 117415308.19149      -139.68449        49.000  

 16 04 02 13 19  4.0000000  0  5G19G17G12G18G15                                 
  22835585.22749 120001809.68849     -3041.09449        50.000  

  24387709.43049 128158275.82849     15943.76649        50.000  

  23681072.35949 124444874.28149     -8702.05949        50.000  

  26644777.71949 140019251.79749     12431.35249        48.000  

  22343392.93049 117415322.46549      -145.86349        49.000  

 16 04 02 13 19  4.1000000  0  5G19G17G12G18G15                                 
  22835643.13349 120002113.96949     -3044.65249        50.000  

  24387406.06249 128156681.58649     15941.19949        50.000  

  23681237.97749 124445744.62949     -8705.18049        50.000  

  26644541.14149 140018008.80149     12428.34049        48.000  

  22343395.77349 117415337.40249      -152.79349        49.000  

 16 04 02 13 19  4.2000000  0  5G19G17G12G18G15                                 
  22835701.10249 120002418.62149     -3048.24249        50.000  

  24387102.74249 128155087.62949     15938.44949        50.000  

  23681403.66449 124446615.32049     -8708.48049        50.000  

  26644304.67249 140016766.12549     12425.25849        48.000  

  22343398.75049 117415353.05149      -159.79749        49.000  

 16 04 02 13 19  4.3000000  0  5G19G17G12G18G15                                 
  22835759.15649 120002723.65649     -3052.10549        50.000  

  24386799.47749 128153493.94149     15935.73849        50.000  

  23681569.41449 124447486.33649     -8711.82449        50.000  

  26644068.28949 140015523.78549     12421.96149        48.000  

  22343401.86749 117415369.40649      -166.94149        49.000  

 16 04 02 13 19  4.4000000  0  5G19G17G12G18G15                                 
  22835817.25849 120003028.98049     -3055.03949        50.000  

  24386496.24249 128151900.46549     15933.57049        50.000  

  23681735.21149 124448357.60949     -8714.40649        50.000  

  26643831.93049 140014281.68849     12419.39149        48.000  

  22343405.09449 117415386.38749      -173.27049        49.000  

 16 04 02 13 19  4.5000000  0  5G19G17G12G18G15                                 
  22835875.42249 120003334.64849     -3058.56249        50.000  

  24386193.06249 128150307.22749     15931.24249        50.000  

  23681901.06249 124449229.18449     -8717.48849        50.000  

  26643595.58649 140013039.86749     12416.44149        48.000  

  22343408.46149 117415404.04349      -180.02049        49.000  

 16 04 02 13 19  4.9000000  0  5G19G17G12G18G15                                 
  20675568.72749 108650846.34849     -3073.52349        50.000  

  22224414.75049 116790085.50449     15920.05549        50.000  

  21522032.80549 113099044.87149     -8730.46549        50.000  

  24482089.68049 128654249.60549     12403.84449        48.000  

  20182879.24249 106061746.38749      -208.70749        49.000  

 16 04 02 13 19  5.0000000  0  5G19G17G12G18G15                                 
  20675627.24249 108651153.84449     -3076.85949        50.000  

  22224111.82849 116788493.62949     15917.38349        50.000  

  21522198.96949 113099918.07049     -8733.50849        50.000  

  24481853.67249 128653009.37149     12400.89149        48.000  

  20182883.27349 106061767.57449      -215.63349        49.000  

 16 04 02 13 19  5.1000000  0  5G19G17G12G18G15                                 
  20675685.82849 108651461.70749     -3080.46549        50.000  

  22223808.96149 116786902.03949     15914.60549        50.000  

  21522365.19549 113100791.60249     -8736.81249        50.000  

  24481617.71149 128651769.45749     12397.68049        48.000  

  20182887.43049 106061789.45749      -222.40649        49.000  

 16 04 02 13 19  5.2000000  0  5G19G17G12G18G15                                 
  20675744.46949 108651769.86749     -3083.34049        50.000  

  22223506.12549 116785310.62549     15913.00849        50.000  

  21522531.46949 113101665.37549     -8739.11349        50.000  

  24481381.80549 128650529.77349     12395.52349        48.000  

  20182891.71149 106061811.95349      -228.52749        49.000  

 16 04 02 13 19  5.3000000  0  5G19G17G12G18G15                                 
  20675803.18049 108652078.37949     -3087.19549        50.000  

  22223203.34449 116783719.47749     15910.17249        50.000  

  21522697.80549 113102539.46549     -8742.43449        50.000  

  24481145.94549 128649290.39149     12392.43449        48.000  

  20182896.12549 106061835.15249      -235.68049        49.000  

 16 04 02 13 19  5.4000000  0  5G19G17G12G18G15                                 
  20675861.93849 108652387.14149     -3089.06249        50.000  

  22222900.59449 116782128.48049     15909.00449        50.000  

  21522864.18049 113103413.75849     -8744.11749        50.000  

  24480910.14149 128648051.22349     12390.62949        48.000  

  20182900.64849 106061858.92649      -241.01649        49.000  

 16 04 02 13 19  5.5000000  0  5G19G17G12G18G15                                 
  20675920.74249 108652696.19549     -3092.23449        50.000  

  22222597.86749 116780537.70349     15906.82449        50.000  

  21523030.60249 113104288.31249     -8746.75449        50.000  

  24480674.37549 128646812.29749     12388.08249        48.000  

  20182905.29749 106061883.33249      -247.37549        49.000  

 16 04 02 13 19  5.6000000  0  5G19G17G12G18G15                                 
  20675979.60249 108653005.51249     -3094.77749        50.000  

  22222295.18049 116778947.06649     15905.39549        50.000  

  21523197.06249 113105163.08249     -8748.91849        50.000  

  24480438.65649 128645573.57049     12386.07049        48.000  

  20182910.05549 106061908.33249      -253.30549        49.000  

 16 04 02 13 19  5.7000000  0  5G19G17G12G18G15                                 
  20676038.53149 108653315.17649     -3098.39149        50.000  

  22221992.53949 116777356.70749     15902.57049        50.000  

  21523363.58649 113106038.16449     -8752.11749        50.000  

  24480202.97749 128644335.14549     12383.07049        48.000  

  20182914.94549 106061934.02049      -260.28949        49.000  

 16 04 02 13 19  5.8000000  0  5G19G17G12G18G15                                 
  20676097.53149 108653625.19149     -3102.05549        50.000  

  22221689.95349 116775766.60249     15899.84449        50.000  

  21523530.17249 113106913.55549     -8755.36349        50.000  

  24479967.36749 128643097.03149     12379.76249        48.000  

  20182919.96149 106061960.38349      -267.27049        49.000  

 16 04 02 13 19  5.9000000  0  5G19G17G12G18G15                                 
  20676156.58649 108653935.56249     -3105.38349        50.000  

  22221387.40649 116774176.73449     15897.53149        50.000  

  21523696.81249 113107789.25049     -8758.29349        50.000  

  24479731.78149 128641859.21149     12376.85549        48.000  

  20182925.10949 106061987.43449      -273.89149        49.000  

 16 04 02 13 19  6.0000000  0  5G19G17G12G18G15                                 
  20676215.71149 108654246.24649     -3108.88749        50.000  

  22221084.91449 116772587.12549     15894.78549        50.000  

  21523863.50849 113108665.23449     -8761.40249        50.000  

  24479496.28949 128640621.66049     12374.02749        48.000  

  20182930.38349 106062015.14149      -280.89549        49.000  

 16 04 02 13 19  6.1000000  0  5G19G17G12G18G15                                 
  20676274.89849 108654557.28949     -3112.23849        50.000  

  22220782.46949 116770997.75049     15892.64149        50.000  

  21524030.25849 113109541.52749     -8764.32049        50.000  

  24479260.83649 128639384.42249     12371.07449        48.000  

  20182935.78149 106062043.53949      -287.49249        49.000  

