     2.10           OBSERVATION DATA    G (GPS)             RINEX VERSION / TYPE
Convert v1.8.0                          07-Jun-2016 18:55   PGM / RUN BY / DATE 
Signal Strength values S1,S2 are in dBHz                    COMMENT             
                                                            MARKER NAME         
                                                            MARKER NUMBER       
                                                            OBSERVER / AGENCY   
                    NovAtel GPSCard                         REC # / TYPE / VERS 
                                                            ANT # / TYPE        
0.0000        0.0000        0.0000                          APPROX POSITION XYZ 
        0.0000        0.0000        0.0000                  ANTENNA: DELTA H/E/N
     1     1                                                WAVELENGTH FACT L1/2
     1     1     3   G09   G25   G29                        WAVELENGTH FACT L1/2
                                                            COMMENT             
                                                            COMMENT             
                                                            COMMENT             
                                                            COMMENT             
                                                            COMMENT             
                                                            COMMENT             
     8    C1    L1    D1    S1    P2    L2    D2    S2      # / TYPES OF OBSERV 
     0.100                                                  INTERVAL            
  2016    04    02    12    46    37.1000000    GPS         TIME OF FIRST OBS   
  2016    04    02    12    50    27.6000000    GPS         TIME OF LAST OBS    
Leap Seconds Unknown                                        COMMENT             
                                                            END OF HEADER       
 16 04 02 12 46 37.1000000  0  1G09                                             
  22443781.36749 117942866.54749      8302.30549        50.000  

 16 04 02 12 46 37.2000000  0  2G29G09                                          
  21105332.78949 110909272.15259      5302.21549        50.000  

  22443623.42249 117942036.52349      8297.73449        50.000  

 16 04 02 12 46 37.3000000  0  2G29G09                                          
  21105231.93049 110908742.13749      5298.58249        50.000  

  22443465.57049 117941207.04349      8292.13749        50.000  

 16 04 02 12 46 37.4000000  0  2G29G09                                          
  21105131.14849 110908212.51249      5294.78949        50.000  

  22443307.83649 117940378.14149      8286.48849        50.000  

 16 04 02 12 46 37.5000000  0  2G29G09                                          
  21105030.43049 110907683.25049      5290.82049        50.000  

  22443150.19549 117939549.75449      8280.87549        50.000  

 16 04 02 12 46 37.6000000  0  2G29G09                                          
  21104929.79749 110907154.33649      5287.39849        50.000  

  22442992.66449 117938721.91449      8275.73849        50.000  

 16 04 02 12 46 37.7000000  0  2G29G09                                          
  21104829.21149 110906625.74249      5284.41849        50.000  

  22442835.21949 117937894.57449      8270.85249        50.000  

 16 04 02 12 46 37.8000000  0  2G29G09                                          
  21104728.69549 110906097.51649      5280.64149        50.000  

  22442677.89149 117937067.78149      8265.15649        50.000  

 16 04 02 12 46 37.9000000  0  2G29G09                                          
  21104628.24249 110905569.62549      5277.23849        50.000  

  22442520.64149 117936241.47349      8260.41849        50.000  

 16 04 02 12 46 38.0000000  0  2G29G09                                          
  21104527.86749 110905042.18049      5272.60949        50.000  

  22442363.53149 117935415.82449      8253.60249        50.000  

 16 04 02 12 46 38.1000000  0  2G29G09                                          
  21104427.53949 110904514.96549      5270.45349        50.000  

  22442206.49249 117934590.56649      8249.88349        50.000  

 16 04 02 12 46 38.2000000  0  2G29G09                                          
  21104327.28949 110903988.13349      5266.89849        50.000  

  22442049.55549 117933765.87149      8244.54349        50.000  

 16 04 02 12 46 38.3000000  0  2G29G09                                          
  21104227.09449 110903461.59849      5263.71949        50.000  

  22441892.71149 117932941.65649      8239.39849        50.000  

 16 04 02 12 46 38.4000000  0  2G29G09                                          
  21104126.98449 110902935.50049      5259.46949        50.000  

  22441735.97749 117932118.05149      8233.59049        50.000  

 16 04 02 12 46 38.5000000  0  2G29G09                                          
  21104026.92249 110902409.66849      5256.49249        50.000  

  22441579.35249 117931294.90649      8228.50449        50.000  

 16 04 02 12 46 38.6000000  0  2G29G09                                          
  21103926.93849 110901884.23049      5252.98049        50.000  

  22441422.81249 117930472.30949      8223.49249        50.000  

 16 04 02 12 46 38.7000000  0  2G29G09                                          
  21103827.01649 110901359.11749      5249.43449        50.000  

  22441266.38349 117929650.23049      8218.06249        50.000  

 16 04 02 12 46 38.8000000  0  2G29G09                                          
  21103727.15649 110900834.41849      5245.44149        50.000  

  22441110.05549 117928828.73849      8212.31649        50.000  

 16 04 02 12 46 38.9000000  0  2G29G09                                          
  21103627.36749 110900309.98849      5242.67249        50.000  

  22440953.82849 117928007.70349      8207.75449        50.000  

 16 04 02 12 46 39.0000000  0  2G29G09                                          
  21103527.64849 110899785.94549      5238.87949        50.000  

  22440797.69549 117927187.22349      8202.18449        50.000  

 16 04 02 12 46 39.1000000  0  2G29G09                                          
  21103428.00049 110899262.27749      5235.02349        50.000  

  22440641.66449 117926367.31249      8196.39849        50.000  

 16 04 02 12 46 39.2000000  0  2G29G09                                          
  21103328.42249 110898738.96949      5231.35949        50.000  

  22440485.74249 117925547.92249      8190.98849        50.000  

 16 04 02 12 46 39.3000000  0  2G29G09                                          
  21103228.91449 110898216.05949      5227.54749        50.000  

  22440329.92249 117924729.11349      8185.43849        50.000  

 16 04 02 12 46 39.4000000  0  2G29G09                                          
  21103129.47749 110897693.48049      5224.14149        50.000  

  22440174.20349 117923910.82449      8180.12949        50.000  

 16 04 02 12 46 39.5000000  0  2G29G09                                          
  21103030.10949 110897171.28149      5220.50049        50.000  

  22440018.58649 117923093.07449      8174.87949        50.000  

 16 04 02 12 46 39.6000000  0  2G29G09                                          
  21102930.80549 110896649.41049      5216.96949        50.000  

  22439863.07049 117922275.84449      8169.52349        50.000  

 16 04 02 12 46 39.7000000  0  2G29G09                                          
  21102831.57049 110896127.96149      5212.73849        50.000  

  22439707.68849 117921459.21549      8163.43849        50.000  

 16 04 02 12 46 39.8000000  0  2G29G09                                          
  21102732.40649 110895606.86349      5209.25049        50.000  

  22439552.38349 117920643.10949      8158.27349        50.000  

 16 04 02 12 46 39.9000000  0  2G29G09                                          
  21102633.30549 110895086.06249      5206.27049        50.000  

  22439397.17249 117919827.48849      8153.46149        50.000  

 16 04 02 12 46 40.0000000  0  2G29G09                                          
  21102534.26649 110894565.64849      5202.51649        50.000  

  22439242.07049 117919012.42649      8147.97349        50.000  

 16 04 02 12 46 40.1000000  0  2G29G09                                          
  21102435.29749 110894045.55949      5199.19949        50.000  

  22439087.06249 117918197.86749      8142.82849        50.000  

 16 04 02 12 46 40.2000000  0  2G29G09                                          
  21102336.39849 110893525.83249      5195.61749        50.000  

  22438932.15649 117917383.85949      8137.31249        50.000  

 16 04 02 12 46 40.3000000  0  2G29G09                                          
  21102237.57049 110893006.48449      5191.86349        50.000  

  22438777.35249 117916570.39849      8131.85549        50.000  

 16 04 02 12 46 40.4000000  0  2G29G09                                          
  21102138.81249 110892487.46149      5188.72749        50.000  

  22438622.65649 117915757.43449      8127.10549        50.000  

 16 04 02 12 46 40.5000000  0  2G29G09                                          
  21102040.10949 110891968.78149      5185.12949        50.000  

  22438468.05549 117914945.01249      8121.52349        50.000  

 16 04 02 12 46 40.6000000  0  2G29G09                                          
  21101941.48449 110891450.50849      5181.21549        50.000  

  22438313.57049 117914133.15649      8116.02049        50.000  

 16 04 02 12 46 40.7000000  0  2G29G09                                          
  21101842.91449 110890932.53949      5177.91449        50.000  

  22438159.17249 117913321.79749      8110.66049        50.000  

 16 04 02 12 46 40.8000000  0  2G29G09                                          
  21101744.43049 110890414.94549      5174.33249        50.000  

  22438004.88349 117912510.98049      8105.50049        50.000  

 16 04 02 12 46 40.9000000  0  2G29G09                                          
  21101646.00049 110889897.68849      5171.02749        50.000  

  22437850.68849 117911700.68849      8100.49249        50.000  

 16 04 02 12 46 41.0000000  0  2G29G09                                          
  21101547.62549 110889380.73049      5168.04749        50.000  

  22437696.58649 117910890.87149      8095.60549        50.000  

 16 04 02 12 46 41.1000000  0  2G29G09                                          
  21101449.33649 110888864.22749      5163.37549        50.000  

  22437542.60949 117910081.69149      8089.01249        50.000  

 16 04 02 12 46 41.2000000  0  2G29G09                                          
  21101351.12549 110888348.09049      5159.47749        50.000  

  22437388.72749 117909273.05549      8083.39849        50.000  

 16 04 02 12 46 41.3000000  0  2G29G09                                          
  21101252.96149 110887832.25849      5156.64849        50.000  

  22437234.94549 117908464.89549      8078.71949        50.000  

 16 04 02 12 46 41.4000000  0  2G29G09                                          
  21101154.87549 110887316.81249      5152.93449        50.000  

  22437081.26649 117907657.30549      8073.38749        50.000  

 16 04 02 12 46 41.5000000  0  2G29G09                                          
  21101056.85249 110886801.68049      5149.63349        50.000  

  22436927.68049 117906850.20749      8068.23449        50.000  

 16 04 02 12 46 41.6000000  0  2G29G09                                          
  21100958.89149 110886286.89849      5146.25049        50.000  

  22436774.19549 117906043.64549      8063.07849        50.000  

 16 04 02 12 46 41.7000000  0  2G29G09                                          
  21100861.00049 110885772.50049      5142.28149        50.000  

  22436620.80549 117905237.63349      8057.33649        50.000  

 16 04 02 12 46 41.8000000  0  2G29G09                                          
  21100763.18849 110885258.47349      5138.45749        50.000  

  22436467.53149 117904432.18049      8051.66849        50.000  

 16 04 02 12 46 41.9000000  0  2G29G09                                          
  21100665.44549 110884744.82849      5134.82049        50.000  

  22436314.36749 117903627.28949      8046.21149        50.000  

 16 04 02 12 46 42.0000000  0  2G29G09                                          
  21100567.75849 110884231.46149      5132.09449        50.000  

  22436161.28949 117902822.84849      8041.84049        50.000  

 16 04 02 12 46 42.1000000  0  2G29G09                                          
  21100470.12549 110883718.38749      5129.17649        50.000  

  22436008.29749 117902018.87949      8037.10949        50.000  

 16 04 02 12 46 42.2000000  0  2G29G09                                          
  21100372.58649 110883205.75849      5124.70349        50.000  

  22435855.43049 117901215.53549      8030.81249        50.000  

 16 04 02 12 46 42.3000000  0  2G29G09                                          
  21100275.10249 110882693.48849      5120.88349        50.000  

  22435702.66449 117900412.73849      8025.15249        50.000  

 16 04 02 12 46 42.4000000  0  2G29G09                                          
  21100177.68849 110882181.56249      5117.57049        50.000  

  22435550.00049 117899610.45749      8020.01649        50.000  

 16 04 02 12 46 42.5000000  0  2G29G09                                          
  21100080.34449 110881670.00849      5113.81249        50.000  

  22435397.43849 117898808.72749      8014.49649        50.000  

 16 04 02 12 46 42.6000000  0  2G29G09                                          
  21099983.07849 110881158.84049      5110.05949        50.000  

  22435244.98449 117898007.56249      8008.98849        50.000  

 16 04 02 12 46 42.7000000  0  2G29G09                                          
  21099885.85949 110880647.96949      5107.06249        50.000  

  22435092.61749 117897206.87149      8004.20749        50.000  

 16 04 02 12 46 42.8000000  0  2G29G09                                          
  21099788.71149 110880137.41849      5104.00049        50.000  

  22434940.34449 117896406.68849      7999.36749        50.000  

 16 04 02 12 46 42.9000000  0  2G29G09                                          
  21099691.62549 110879627.24249      5100.12149        50.000  

  22434788.18049 117895607.04749      7993.68849        50.000  

 16 04 02 12 46 43.0000000  0  2G29G09                                          
  21099594.63349 110879117.46949      5096.00449        50.000  

  22434636.12549 117894808.00049      7987.60249        50.000  

 16 04 02 12 46 43.1000000  0  2G29G09                                          
  21099497.69549 110878608.03949      5092.65649        50.000  

  22434484.16449 117894009.47749      7982.55149        50.000  

 16 04 02 12 46 43.2000000  0  2G29G09                                          
  21099400.81249 110878098.93449      5089.30149        50.000  

  22434332.30549 117893211.43449      7977.52049        50.000  

 16 04 02 12 46 43.3000000  0  2G29G09                                          
  21099304.00849 110877590.19549      5085.74249        50.000  

  22434180.54749 117892413.95349      7972.13349        50.000  

 16 04 02 12 46 43.4000000  0  2G29G09                                          
  21099207.25849 110877081.79749      5082.41049        50.000  

  22434028.89149 117891616.99649      7966.98049        50.000  

 16 04 02 12 46 43.5000000  0  2G29G09                                          
  21099110.57849 110876573.73449      5079.06649        50.000  

  22433877.32849 117890820.54749      7961.87949        50.000  

 16 04 02 12 46 43.6000000  0  2G29G09                                          
  21099013.96949 110876066.06649      5075.17249        50.000  

  22433725.87549 117890024.67649      7956.15249        50.000  

 16 04 02 12 46 43.7000000  0  2G29G09                                          
  21098917.42249 110875558.69949      5072.05149        50.000  

  22433574.52349 117889229.28949      7951.19949        50.000  

 16 04 02 12 46 43.8000000  0  2G29G09                                          
  21098820.93849 110875051.67649      5068.66049        50.000  

  22433423.25849 117888434.41449      7946.04749        50.000  

 16 04 02 12 46 43.9000000  0  2G29G09                                          
  21098724.53149 110874545.06249      5064.46149        50.000  

  22433272.11749 117887640.13749      7940.00049        50.000  

 16 04 02 12 46 44.0000000  0  2G29G09                                          
  21098628.18849 110874038.76649      5061.18449        50.000  

  22433121.06249 117886846.34449      7934.99249        50.000  

 16 04 02 12 46 44.1000000  0  2G29G09                                          
  21098531.92249 110873532.85949      5057.55949        50.000  

  22432970.12549 117886053.13349      7929.55149        50.000  

 16 04 02 12 46 44.2000000  0  2G29G09                                          
  21098435.70349 110873027.22349      5054.84849        50.000  

  22432819.26649 117885260.36349      7925.09049        50.000  

 16 04 02 12 46 44.3000000  0  2G29G09                                          
  21098339.55549 110872521.98049      5050.78149        50.000  

  22432668.50849 117884468.16849      7919.18449        50.000  

 16 04 02 12 46 44.4000000  0  2G29G09                                          
  21098243.47749 110872017.11749      5046.97749        50.000  

  22432517.86749 117883676.53149      7913.61349        50.000  

 16 04 02 12 46 44.5000000  0  2G29G09                                          
  21098147.46149 110871512.53949      5044.21149        50.000  

  22432367.31249 117882885.36749      7909.02049        50.000  

 16 04 02 12 46 44.6000000  0  2G29G09                                          
  21098051.50849 110871008.34849      5040.37949        50.000  

  22432216.86749 117882094.76249      7903.36749        50.000  

 16 04 02 12 46 44.7000000  0  2G29G09                                          
  21097955.64149 110870504.53549      5036.52349        50.000  

  22432066.51649 117881304.71149      7897.82849        50.000  

 16 04 02 12 46 44.8000000  0  2G29G09                                          
  21097859.82049 110870001.03149      5033.40249        50.000  

  22431916.26649 117880515.15249      7892.96949        50.000  

 16 04 02 12 46 44.9000000  0  2G29G09                                          
  21097764.08649 110869497.93049      5029.34849        50.000  

  22431766.12549 117879726.17249      7887.12549        50.000  

 16 04 02 12 46 45.0000000  0  2G29G09                                          
  21097668.42249 110868995.18849      5025.61349        50.000  

  22431616.09449 117878937.73849      7881.46549        50.000  

 16 04 02 12 46 45.1000000  0  2G29G09                                          
  21097572.82049 110868492.79349      5022.34449        50.000  

  22431466.14849 117878149.82449      7876.47749        50.000  

 16 04 02 12 46 45.2000000  0  2G29G09                                          
  21097477.28949 110867990.75049      5018.78149        50.000  

  22431316.31249 117877362.44949      7871.05949        50.000  

 16 04 02 12 46 45.3000000  0  2G29G09                                          
  21097381.81249 110867489.00049      5016.07849        50.000  

  22431166.56249 117876575.53949      7866.55549        50.000  

 16 04 02 12 46 45.4000000  0  2G29G09                                          
  21097286.40649 110866987.61749      5012.32449        50.000  

  22431016.92249 117875789.17649      7860.94949        50.000  

 16 04 02 12 46 45.5000000  0  2G29G09                                          
  21097191.07849 110866486.63349      5008.17649        50.000  

  22430867.39149 117875003.38749      7855.11349        50.000  

 16 04 02 12 46 45.6000000  0  2G29G09                                          
  21097095.79749 110865985.93849      5005.31249        50.000  

  22430717.94549 117874218.07849      7850.50049        50.000  

 16 04 02 12 46 45.7000000  0  2G29G09                                          
  21097000.58649 110865485.60549      5001.64549        50.000  

  22430568.60249 117873433.30549      7844.96949        50.000  

 16 04 02 12 46 45.8000000  0  2G29G09                                          
  21096905.44549 110864985.63749      4998.08649        50.000  

  22430419.36749 117872649.07449      7839.64849        50.000  

 16 04 02 12 46 45.9000000  0  2G29G09                                          
  21096810.35949 110864485.98849      4994.84449        50.000  

  22430270.22749 117871865.34449      7834.59449        50.000  

 16 04 02 12 46 46.0000000  0  2G29G09                                          
  21096715.34449 110863986.68849      4991.37549        50.000  

  22430121.19549 117871082.14849      7829.23449        50.000  

 16 04 02 12 46 46.1000000  0  2G29G09                                          
  21096620.40649 110863487.78149      4987.44149        50.000  

  22429972.25849 117870299.52349      7823.57849        50.000  

 16 04 02 12 46 46.2000000  0  2G29G09                                          
  21096525.53149 110862989.21949      4983.96549        50.000  

  22429823.43049 117869517.41049      7818.41449        50.000  

 16 04 02 12 46 46.3000000  0  2G29G09                                          
  21096430.72749 110862491.00449      4980.51249        50.000  

  22429674.69549 117868735.83649      7813.04349        50.000  

 16 04 02 12 46 46.4000000  0  2G29G09                                          
  21096335.98449 110861993.13749      4977.14549        50.000  

  22429526.07049 117867954.77749      7808.01649        50.000  

 16 04 02 12 46 46.5000000  0  2G29G09                                          
  21096241.31249 110861495.62949      4973.30149        50.000  

  22429377.53949 117867174.26249      7802.30549        50.000  

 16 04 02 12 46 46.6000000  0  2G29G09                                          
  21096146.71149 110860998.50049      4969.63749        50.000  

  22429229.11749 117866394.30949      7796.81649        50.000  

 16 04 02 12 46 46.7000000  0  2G29G09                                          
  21096052.18049 110860501.73849      4965.83249        50.000  

  22429080.79749 117865614.90249      7791.21149        50.000  

 16 04 02 12 46 46.8000000  0  2G29G09                                          
  21095957.71149 110860005.29749      4962.77349        50.000  

  22428932.57849 117864836.00049      7786.37549        50.000  

 16 04 02 12 46 46.9000000  0  2G29G09                                          
  21095863.31249 110859509.21549      4959.28949        50.000  

  22428784.45349 117864057.62949      7781.13349        50.000  

 16 04 02 12 46 47.0000000  0  2G29G09                                          
  21095768.97749 110859013.46949      4955.92649        50.000  

  22428636.43049 117863279.78149      7775.90649        50.000  

 16 04 02 12 46 47.1000000  0  2G29G09                                          
  21095674.70349 110858518.07049      4952.34849        50.000  

  22428488.51649 117862502.45749      7770.42249        50.000  

 16 04 02 12 46 47.2000000  0  2G29G09                                          
  21095580.50049 110858023.06249      4948.53549        50.000  

  22428340.70349 117861725.69149      7765.02049        50.000  

 16 04 02 12 46 47.3000000  0  2G29G09                                          
  21095486.38349 110857528.43449      4944.62549        50.000  

  22428192.99249 117860949.50449      7759.24649        50.000  

 16 04 02 12 46 47.4000000  0  2G29G09                                          
  21095392.30549 110857034.03949      4942.32049        50.000  

  22428045.36749 117860173.72349      7755.00049        50.000  

 16 04 02 12 46 47.5000000  0  2G29G09                                          
  21095298.30549 110856540.07049      4938.25049        50.000  

  22427897.85949 117859398.54349      7749.19949        50.000  

 16 04 02 12 46 47.6000000  0  2G29G09                                          
  21095204.36749 110856046.46149      4934.50449        50.000  

  22427750.45349 117858623.90249      7743.69149        50.000  

 16 04 02 12 46 47.7000000  0  2G29G09                                          
  21095110.50049 110855553.19949      4931.01649        50.000  

  22427603.14849 117857849.78949      7738.45349        50.000  

 16 04 02 12 46 47.8000000  0  2G29G09                                          
  21095016.70349 110855060.29749      4927.33649        50.000  

  22427455.93849 117857076.21949      7732.98049        50.000  

 16 04 02 12 46 47.9000000  0  2G29G09                                          
  21094922.96949 110854567.70749      4924.28949        50.000  

  22427308.82049 117856303.14149      7728.16449        50.000  

 16 04 02 12 46 48.0000000  0  2G29G09                                          
  21094829.30549 110854075.48449      4920.62549        50.000  

  22427161.81249 117855530.60949      7722.57449        50.000  

 16 04 02 12 46 48.1000000  0  2G29G09                                          
  21094735.70349 110853583.61749      4916.90649        50.000  

  22427014.90649 117854758.60549      7717.23049        50.000  

 16 04 02 12 46 48.2000000  0  2G29G09                                          
  21094642.17249 110853092.08249      4913.77049        50.000  

  22426868.10249 117853987.12949      7712.18449        50.000  

 16 04 02 12 46 48.3000000  0  2G29G09                                          
  21094548.71149 110852600.92249      4909.95349        50.000  

  22426721.40649 117853216.19549      7706.57449        50.000  

 16 04 02 12 46 48.4000000  0  2G29G09                                          
  21094455.31249 110852110.09849      4906.47349        50.000  

  22426574.79749 117852445.77349      7701.39149        50.000  

 16 04 02 12 46 48.5000000  0  2G29G09                                          
  21094361.98449 110851619.63349      4903.06249        50.000  

  22426428.28949 117851675.90249      7696.02749        50.000  

 16 04 02 12 46 48.6000000  0  2G29G09                                          
  21094268.71949 110851129.53949      4899.25849        50.000  

  22426281.89149 117850906.57449      7690.54349        50.000  

 16 04 02 12 46 48.7000000  0  2G29G09                                          
  21094175.52349 110850639.81249      4895.60249        50.000  

  22426135.60249 117850137.79749      7685.09049        50.000  

 16 04 02 12 46 48.8000000  0  2G29G09                                          
  21094082.39849 110850150.41849      4892.11749        50.000  

  22425989.40649 117849369.53149      7679.73049        50.000  

 16 04 02 12 46 48.9000000  0  2G29G09                                          
  21093989.33649 110849661.37149      4889.06649        50.000  

  22425843.30549 117848601.79349      7674.94149        50.000  

 16 04 02 12 46 49.0000000  0  2G29G09                                          
  21093896.33649 110849172.62549      4885.97349        50.000  

  22425697.29749 117847834.53549      7670.02749        50.000  

 16 04 02 12 46 49.1000000  0  2G29G09                                          
  21093803.39849 110848684.23449      4882.31249        50.000  

  22425551.39149 117847067.81249      7664.45349        50.000  

 16 04 02 12 46 49.2000000  0  2G29G09                                          
  21093710.53149 110848196.21549      4878.64549        50.000  

  22425405.59449 117846301.63749      7659.11749        50.000  

 16 04 02 12 46 49.3000000  0  2G29G09                                          
  21093617.72749 110847708.53149      4875.16049        50.000  

  22425259.89149 117845535.97749      7653.92249        50.000  

 16 04 02 12 46 49.4000000  0  2G29G09                                          
  21093524.98449 110847221.15249      4872.26649        50.000  

  22425114.28949 117844770.81249      7649.12949        50.000  

 16 04 02 12 46 49.5000000  0  2G29G09                                          
  21093432.31249 110846734.13749      4868.40649        50.000  

  22424968.78949 117844006.18049      7643.44949        50.000  

 16 04 02 12 46 49.6000000  0  2G29G09                                          
  21093339.71149 110846247.47349      4865.09449        50.000  

  22424823.38349 117843242.08649      7638.37949        50.000  

 16 04 02 12 46 49.7000000  0  2G29G09                                          
  21093247.17249 110845761.16849      4861.49649        50.000  

  22424678.08649 117842478.53149      7632.91849        50.000  

 16 04 02 12 46 49.8000000  0  2G29G09                                          
  21093154.68049 110845275.16049      4858.52049        50.000  

  22424532.87549 117841715.44949      7628.14549        50.000  

 16 04 02 12 46 49.9000000  0  2G29G09                                          
  21093062.28149 110844789.59449      4854.09049        50.000  

  22424387.78149 117840952.98049      7622.08649        50.000  

 16 04 02 12 46 50.0000000  0  2G29G09                                          
  21092969.95349 110844304.34849      4850.56649        50.000  

  22424242.78149 117840191.03149      7616.56649        50.000  

 16 04 02 12 46 50.1000000  0  2G29G09                                          
  21092877.68849 110843819.48849      4846.88749        50.000  

  22424097.89149 117839429.62949      7611.28949        50.000  

 16 04 02 12 46 50.2000000  0  2G29G09                                          
  21092785.48449 110843334.94949      4843.75049        50.000  

  22423953.10249 117838668.74649      7606.16449        50.000  

 16 04 02 12 46 50.3000000  0  2G29G09                                          
  21092693.35949 110842850.80549      4839.82049        50.000  

  22423808.42249 117837908.42249      7600.57049        50.000  

 16 04 02 12 46 50.4000000  0  2G29G09                                          
  21092601.28149 110842366.94149      4837.09849        50.000  

  22423663.82849 117837148.57449      7595.98449        50.000  

 16 04 02 12 46 50.5000000  0  2G29G09                                          
  21092509.28149 110841883.47349      4833.05149        50.000  

  22423519.34449 117836389.28549      7590.16049        50.000  

 16 04 02 12 46 50.6000000  0  2G29G09                                          
  21092417.35249 110841400.39149      4829.20349        50.000  

  22423374.96149 117835630.57849      7584.36749        50.000  

 16 04 02 12 46 50.7000000  0  2G29G09                                          
  21092325.48449 110840917.65249      4825.53149        50.000  

  22423230.68049 117834872.37949      7579.13349        50.000  

 16 04 02 12 46 50.8000000  0  2G29G09                                          
  21092233.70349 110840435.28149      4822.07449        50.000  

  22423086.50049 117834114.73849      7573.71149        50.000  

 16 04 02 12 46 50.9000000  0  2G29G09                                          
  21092141.97749 110839953.28549      4818.26649        50.000  

  22422942.43849 117833357.65249      7568.15249        50.000  

 16 04 02 12 46 51.0000000  0  2G29G09                                          
  21092050.32049 110839471.64149      4814.75449        50.000  

  22422798.46949 117832601.09049      7562.89149        50.000  

 16 04 02 12 46 51.1000000  0  2G29G09                                          
  21091958.72749 110838990.30949      4811.63349        50.000  

  22422654.60249 117831845.03149      7557.92249        50.000  

 16 04 02 12 46 51.2000000  0  2G29G09                                          
  21091867.20349 110838509.37949      4807.53149        50.000  

  22422510.83649 117831089.54749      7551.94149        50.000  

 16 04 02 12 46 51.3000000  0  2G29G09                                          
  21091775.75049 110838028.78149      4804.41049        50.000  

  22422367.16449 117830334.58249      7546.96149        50.000  

 16 04 02 12 46 51.4000000  0  2G29G09                                          
  21091684.36749 110837548.59049      4800.19149        50.000  

  22422223.60949 117829580.19149      7541.00049        50.000  

 16 04 02 12 46 51.5000000  0  2G29G09                                          
  21091593.04749 110837068.67249      4797.44149        50.000  

  22422080.14149 117828826.26649      7536.45349        50.000  

 16 04 02 12 46 51.6000000  0  2G29G09                                          
  21091501.78949 110836589.09449      4794.32849        50.000  

  22421936.77349 117828072.84849      7531.70749        50.000  

 16 04 02 12 46 51.7000000  0  2G29G09                                          
  21091410.60249 110836109.91449      4790.23049        50.000  

  22421793.51649 117827320.02349      7525.57449        50.000  

 16 04 02 12 46 51.8000000  0  2G29G09                                          
  21091319.48449 110835631.09449      4786.57449        50.000  

  22421650.35949 117826567.72749      7520.21149        50.000  

 16 04 02 12 46 51.9000000  0  2G29G09                                          
  21091228.43049 110835152.59449      4783.27749        50.000  

  22421507.28949 117825815.93449      7515.13749        50.000  

 16 04 02 12 46 52.0000000  0  2G29G09                                          
  21091137.45349 110834674.50449      4779.12149        50.000  

  22421364.34449 117825064.73449      7509.19549        50.000  

 16 04 02 12 46 52.1000000  0  2G29G09                                          
  21091046.53949 110834196.72349      4776.12149        50.000  

  22421221.47749 117824314.02049      7504.43049        50.000  

 16 04 02 12 46 52.2000000  0  2G29G09                                          
  21090955.68849 110833719.26649      4772.95749        50.000  

  22421078.71949 117823563.82049      7499.30549        50.000  

 16 04 02 12 46 52.3000000  0  2G29G09                                          
  21090864.90649 110833242.21949      4768.97349        50.000  

  22420936.07049 117822814.20349      7493.54349        50.000  

 16 04 02 12 46 52.4000000  0  2G29G09                                          
  21090774.18849 110832765.48049      4765.75049        50.000  

  22420793.51649 117822065.07049      7488.57049        50.000  

 16 04 02 12 46 52.5000000  0  2G29G09                                          
  21090683.53949 110832289.11349      4762.09849        50.000  

  22420651.07049 117821316.49649      7483.11349        50.000  

 16 04 02 12 46 52.6000000  0  2G29G09                                          
  21090592.93849 110831813.04749      4759.11349        50.000  

  22420508.71149 117820568.39549      7478.41049        50.000  

 16 04 02 12 46 52.7000000  0  2G29G09                                          
  21090502.42249 110831337.39149      4754.84849        50.000  

  22420366.46949 117819820.90249      7472.11349        50.000  

 16 04 02 12 46 52.8000000  0  2G29G09                                          
  21090411.97749 110830862.10949      4751.25449        50.000  

  22420224.32849 117819073.94549      7466.88349        50.000  

 16 04 02 12 46 52.9000000  0  2G29G09                                          
  21090321.58649 110830387.10249      4748.50449        50.000  

  22420082.27349 117818327.46149      7462.19949        50.000  

 16 04 02 12 46 53.0000000  0  2G29G09                                          
  21090231.27349 110829912.48049      4744.65249        50.000  

  22419940.32849 117817581.52049      7456.78149        50.000  

 16 04 02 12 46 53.1000000  0  2G29G09                                          
  21090141.01649 110829438.17649      4741.37949        50.000  

  22419798.47749 117816836.08649      7451.60549        50.000  

 16 04 02 12 46 53.2000000  0  2G29G09                                          
  21090050.83649 110828964.26649      4737.37949        50.000  

  22419656.73449 117816091.23049      7445.73449        50.000  

 16 04 02 12 46 53.3000000  0  2G29G09                                          
  21089960.71949 110828490.70349      4733.99249        50.000  

  22419515.09449 117815346.89549      7440.73849        50.000  

 16 04 02 12 46 53.4000000  0  2G29G09                                          
  21089870.66449 110828017.44149      4730.93049        50.000  

  22419373.54749 117814603.05149      7435.77749        50.000  

 16 04 02 12 46 53.5000000  0  2G29G09                                          
  21089780.67249 110827544.53549      4727.41049        50.000  

  22419232.10249 117813859.74649      7430.28549        50.000  

 16 04 02 12 46 53.6000000  0  2G29G09                                          
  21089690.75049 110827071.99649      4723.73849        50.000  

  22419090.75849 117813116.97349      7424.98849        50.000  

 16 04 02 12 46 53.7000000  0  2G29G09                                          
  21089600.89149 110826599.80949      4720.18449        50.000  

  22418949.50849 117812374.73449      7419.66849        50.000  

 16 04 02 12 46 53.8000000  0  2G29G09                                          
  21089511.09449 110826127.93449      4717.13349        50.000  

  22418808.35949 117811633.00049      7414.70349        50.000  

 16 04 02 12 46 53.9000000  0  2G29G09                                          
  21089421.38349 110825656.48049      4712.85549        50.000  

  22418667.32849 117810891.85949      7408.73849        50.000  

 16 04 02 12 46 54.0000000  0  2G29G09                                          
  21089331.72749 110825185.32449      4709.75449        50.000  

  22418526.38349 117810151.19949      7403.64549        50.000  

 16 04 02 12 46 54.1000000  0  2G29G09                                          
  21089242.14849 110824714.58649      4705.63349        50.000  

  22418385.55549 117809411.14149      7397.84849        50.000  

 16 04 02 12 46 54.2000000  0  2G29G09                                          
  21089152.62549 110824244.16049      4702.66449        50.000  

  22418244.81249 117808671.57049      7393.14149        50.000  

 16 04 02 12 46 54.3000000  0  2G29G09                                          
  21089063.18049 110823774.11349      4698.83649        50.000  

  22418104.18849 117807932.56249      7387.47749        50.000  

 16 04 02 12 46 54.4000000  0  2G29G09                                          
  21088973.79749 110823304.41449      4695.36349        50.000  

  22417963.65649 117807194.09049      7382.03549        50.000  

 16 04 02 12 46 54.5000000  0  2G29G09                                          
  21088884.48449 110822835.05149      4691.97749        50.000  

  22417823.22749 117806456.10949      7377.03949        50.000  

 16 04 02 12 46 54.6000000  0  2G29G09                                          
  21088795.23449 110822366.07049      4688.16449        50.000  

  22417682.90649 117805718.71949      7371.30149        50.000  

 16 04 02 12 46 54.7000000  0  2G29G09                                          
  21088706.05549 110821897.41449      4684.90249        50.000  

  22417542.68049 117804981.82049      7366.29749        50.000  

 16 04 02 12 46 54.8000000  0  2G29G09                                          
  21088616.93849 110821429.05949      4681.87949        50.000  

  22417402.53949 117804245.41049      7361.33249        50.000  

 16 04 02 12 46 54.9000000  0  2G29G09                                          
  21088527.89149 110820961.10249      4678.00049        50.000  

  22417262.50849 117803509.57049      7355.74249        50.000  

 16 04 02 12 46 55.0000000  0  2G29G09                                          
  21088438.89849 110820493.46149      4674.67649        50.000  

  22417122.57849 117802774.23449      7350.53149        50.000  

 16 04 02 12 46 55.1000000  0  2G29G09                                          
  21088349.97749 110820026.15249      4671.48849        50.000  

  22416982.75049 117802039.41049      7345.52349        50.000  

 16 04 02 12 46 55.2000000  0  2G29G09                                          
  21088261.11749 110819559.21149      4667.94549        50.000  

  22416843.02349 117801305.12949      7340.15649        50.000  

 16 04 02 12 46 55.3000000  0  2G29G09                                          
  21088172.32049 110819092.55549      4665.14149        50.000  

  22416703.37549 117800571.32049      7335.55549        50.000  

 16 04 02 12 46 55.4000000  0  2G29G09                                          
  21088083.58649 110818626.28949      4661.14849        50.000  

  22416563.84449 117799838.06649      7329.85549        50.000  

 16 04 02 12 46 55.5000000  0  2G29G09                                          
  21087994.93849 110818160.43849      4656.78549        50.000  

  22416424.42249 117799105.41849      7323.69949        50.000  

 16 04 02 12 46 55.6000000  0  2G29G09                                          
  21087906.35949 110817694.91049      4653.39149        50.000  

  22416285.10249 117798373.28149      7318.41049        50.000  

 16 04 02 12 46 55.7000000  0  2G29G09                                          
  21087817.84449 110817229.75049      4650.03949        50.000  

  22416145.89149 117797641.69149      7313.15249        50.000  

 16 04 02 12 46 55.8000000  0  2G29G09                                          
  21087729.39149 110816764.96149      4646.25049        50.000  

  22416006.77349 117796910.64149      7307.78549        50.000  

 16 04 02 12 46 55.9000000  0  2G29G09                                          
  21087641.01649 110816300.52349      4642.66849        50.000  

  22415867.76649 117796180.12949      7302.32849        50.000  

 16 04 02 12 46 56.0000000  0  2G29G09                                          
  21087552.71149 110815836.43849      4639.14149        50.000  

  22415728.85249 117795450.16049      7296.90249        50.000  

 16 04 02 12 46 56.1000000  0  2G29G09                                          
  21087464.45349 110815372.64549      4636.22349        50.000  

  22415590.03949 117794720.65249      7292.23449        50.000  

 16 04 02 12 46 56.2000000  0  2G29G09                                          
  21087376.26649 110814909.22749      4632.80949        50.000  

  22415451.32049 117793991.69549      7287.11749        50.000  

 16 04 02 12 46 56.3000000  0  2G29G09                                          
  21087288.14149 110814446.10949      4629.56249        50.000  

  22415312.69549 117793263.24249      7281.92649        50.000  

 16 04 02 12 46 56.4000000  0  2G29G09                                          
  21087200.10249 110813983.43849      4625.02749        50.000  

  22415174.18849 117792535.39549      7275.61349        50.000  

 16 04 02 12 46 56.5000000  0  2G29G09                                          
  21087112.10949 110813521.05949      4622.17249        50.000  

  22415035.77349 117791808.03149      7270.95349        50.000  

 16 04 02 12 46 56.6000000  0  2G29G09                                          
  21087024.19549 110813059.06249      4618.32449        50.000  

  22414897.46949 117791081.21949      7265.37949        50.000  

 16 04 02 12 46 56.7000000  0  2G29G09                                          
  21086936.34449 110812597.39149      4615.09849        50.000  

  22414759.25849 117790354.92249      7260.21549        50.000  

 16 04 02 12 46 56.8000000  0  2G29G09                                          
  21086848.56249 110812136.08249      4611.54349        50.000  

  22414621.14849 117789629.17249      7254.87949        50.000  

 16 04 02 12 46 56.9000000  0  2G29G09                                          
  21086760.85949 110811675.19149      4607.25849        50.000  

  22414483.15649 117788904.01249      7248.87549        50.000  

 16 04 02 12 46 57.0000000  0  2G29G09                                          
  21086673.20349 110811214.58249      4604.41449        50.000  

  22414345.25849 117788179.32049      7244.21149        50.000  

 16 04 02 12 46 57.1000000  0  2G29G09                                          
  21086585.62549 110810754.35949      4600.69549        50.000  

  22414207.46149 117787455.19549      7238.71149        50.000  

 16 04 02 12 46 57.2000000  0  2G29G09                                          
  21086498.12549 110810294.51649      4596.67649        50.000  

  22414069.76649 117786731.62949      7232.78549        50.000  

 16 04 02 12 46 57.3000000  0  2G29G09                                          
  21086410.68849 110809835.03949      4593.07449        50.000  

  22413932.18049 117786008.60549      7227.49649        50.000  

 16 04 02 12 46 57.4000000  0  2G29G09                                          
  21086323.29749 110809375.80949      4590.65249        50.000  

  22413794.68049 117785286.02049      7223.21949        50.000  

 16 04 02 12 46 57.5000000  0  2G29G09                                          
  21086235.98449 110808916.98049      4586.71949        50.000  

  22413657.28149 117784564.00849      7217.37549        50.000  

 16 04 02 12 46 57.6000000  0  2G29G09                                          
  21086148.72749 110808458.42649      4584.02749        50.000  

  22413519.97749 117783842.45349      7213.00449        50.000  

 16 04 02 12 46 57.7000000  0  2G29G09                                          
  21086061.52349 110808000.19949      4580.83249        50.000  

  22413382.76649 117783121.41049      7207.96549        50.000  

 16 04 02 12 46 57.8000000  0  2G29G09                                          
  21085974.40649 110807542.35949      4576.90249        50.000  

  22413245.66449 117782400.93849      7202.11349        50.000  

 16 04 02 12 46 57.9000000  0  2G29G09                                          
  21085887.35949 110807084.91049      4572.72749        50.000  

  22413108.67249 117781681.03149      7196.18049        50.000  

 16 04 02 12 46 58.0000000  0  2G29G09                                          
  21085800.37549 110806627.84849      4568.89549        50.000  

  22412971.78149 117780961.69549      7190.50849        50.000  

 16 04 02 12 46 58.1000000  0  2G29G09                                          
  21085713.46149 110806171.14149      4565.23449        50.000  

  22412835.00049 117780242.88749      7185.15249        50.000  

 16 04 02 12 46 58.2000000  0  2G29G09                                          
  21085626.60249 110805714.69549      4562.84449        50.000  

  22412698.29749 117779524.53149      7180.91449        50.000  

 16 04 02 12 46 58.3000000  0  2G29G09                                          
  21085539.82049 110805258.64549      4558.93849        50.000  

  22412561.70349 117778806.73849      7175.25849        50.000  

 16 04 02 12 46 58.4000000  0  2G29G09                                          
  21085453.10949 110804802.98449      4554.95349        50.000  

  22412425.22749 117778089.54349      7169.32049        50.000  

 16 04 02 12 46 58.5000000  0  2G29G09                                          
  21085366.46949 110804347.68049      4551.39849        50.000  

  22412288.84449 117777372.86749      7164.01249        50.000  

 16 04 02 12 46 58.6000000  0  2G29G09                                          
  21085279.88349 110803892.70349      4548.14849        50.000  

  22412152.56249 117776656.69149      7158.97349        50.000  

 16 04 02 12 46 58.7000000  0  2G29G09                                          
  21085193.35949 110803438.03949      4545.17649        50.000  

  22412016.38349 117775941.03149      7154.09849        50.000  

 16 04 02 12 46 58.8000000  0  2G29G09                                          
  21085106.91449 110802983.73849      4541.46549        50.000  

  22411880.29749 117775225.89149      7148.75049        50.000  

 16 04 02 12 46 58.9000000  0  2G29G09                                          
  21085020.53949 110802529.83649      4537.24249        50.000  

  22411744.32049 117774511.35549      7142.50449        50.000  

 16 04 02 12 46 59.0000000  0  2G29G09                                          
  21084934.21949 110802076.24649      4534.34049        50.000  

  22411608.43849 117773797.29749      7137.85549        50.000  

 16 04 02 12 46 59.1000000  0  2G29G09                                          
  21084847.96949 110801623.00449      4530.98049        50.000  

  22411472.65649 117773083.76249      7132.82049        50.000  

 16 04 02 12 46 59.2000000  0  2G29G09                                          
  21084761.78149 110801170.08649      4527.62149        50.000  

  22411336.97749 117772370.74649      7127.53949        50.000  

 16 04 02 12 46 59.3000000  0  2G29G09                                          
  21084675.66449 110800717.52349      4523.94549        50.000  

  22411201.39149 117771658.26249      7122.05149        50.000  

 16 04 02 12 46 59.4000000  0  2G29G09                                          
  21084589.61749 110800265.33249      4520.34449        50.000  

  22411065.92249 117770946.33649      7116.59049        50.000  

 16 04 02 12 46 59.5000000  0  2G29G09                                          
  21084503.64149 110799813.53549      4516.39849        50.000  

  22410930.54749 117770234.96949      7111.03549        50.000  

 16 04 02 12 46 59.6000000  0  2G29G09                                          
  21084417.71949 110799362.02349      4513.33649        50.000  

  22410795.26649 117769524.08249      7106.02049        50.000  

 16 04 02 12 46 59.7000000  0  2G29G09                                          
  21084331.87549 110798910.89149      4509.73849        50.000  

  22410660.09449 117768813.74649      7100.68849        50.000  

 16 04 02 12 46 59.8000000  0  2G29G09                                          
  21084246.09449 110798460.10549      4506.29749        50.000  

  22410525.02349 117768103.95349      7095.27749        50.000  

 16 04 02 12 46 59.9000000  0  2G29G09                                          
  21084160.37549 110798009.65249      4502.96549        50.000  

  22410390.04749 117767394.66449      7090.19949        50.000  

 16 04 02 12 47  0.0000000  0  2G29G09                                          
  21084074.71949 110797559.57049      4499.25849        50.000  

  22410255.18049 117766685.93049      7084.69549        50.000  

 16 04 02 12 47  0.1000000  0  2G29G09                                          
  21083989.13349 110797109.82449      4495.80949        50.000  

  22410120.40649 117765977.70349      7079.49649        50.000  

 16 04 02 12 47  0.2000000  0  2G29G09                                          
  21083903.61749 110796660.41849      4492.56249        50.000  

  22409985.74249 117765270.00849      7074.33649        50.000  

 16 04 02 12 47  0.3000000  0  2G29G09                                          
  21083818.16449 110796211.35549      4489.12149        50.000  

  22409851.17249 117764562.84449      7068.98849        50.000  

 16 04 02 12 47  0.4000000  0  2G29G09                                          
  21083732.78149 110795762.68449      4485.11349        50.000  

  22409716.71149 117763856.23449      7063.36349        50.000  

 16 04 02 12 47  0.5000000  0  2G29G09                                          
  21083647.45349 110795314.28549      4482.47349        50.000  

  22409582.33649 117763150.08649      7058.87549        50.000  

 16 04 02 12 47  0.6000000  0  2G29G09                                          
  21083562.18849 110794866.25449      4478.69549        50.000  

  22409448.06249 117762444.48849      7053.34049        50.000  

 16 04 02 12 47  0.7000000  0  2G29G09                                          
  21083477.00849 110794418.64149      4474.39549        50.000  

  22409313.90649 117761739.49249      7047.04349        50.000  

 16 04 02 12 47  0.8000000  0  2G29G09                                          
  21083391.89849 110793971.37549      4470.93449        50.000  

  22409179.84449 117761035.02049      7041.94549        50.000  

 16 04 02 12 47  0.9000000  0  2G29G09                                          
  21083306.84449 110793524.43449      4467.66849        50.000  

  22409045.88349 117760331.05549      7036.89849        50.000  

 16 04 02 12 47  1.0000000  0  2G29G09                                          
  21083221.86749 110793077.87149      4464.02049        50.000  

  22408912.03149 117759627.65649      7031.47749        50.000  

 16 04 02 12 47  1.1000000  0  2G29G09                                          
  21083136.96149 110792631.69949      4460.05149        50.000  

  22408778.28949 117758924.82849      7025.50449        50.000  

 16 04 02 12 47  1.2000000  0  2G29G09                                          
  21083052.12549 110792185.88349      4456.49649        50.000  

  22408644.64149 117758222.52049      7020.30549        50.000  

 16 04 02 12 47  1.3000000  0  2G29G09                                          
  21082967.35249 110791740.38349      4453.33249        50.000  

  22408511.09449 117757520.73049      7015.31249        50.000  

 16 04 02 12 47  1.4000000  0  2G29G09                                          
  21082882.64149 110791295.23849      4449.76649        50.000  

  22408377.64849 117756819.46549      7009.87949        50.000  

 16 04 02 12 47  1.5000000  0  2G29G09                                          
  21082798.00049 110790850.44949      4446.18849        50.000  

  22408244.30549 117756118.74649      7004.37149        50.000  

 16 04 02 12 47  1.6000000  0  2G29G09                                          
  21082713.42249 110790405.98849      4443.08649        50.000  

  22408111.05549 117755418.53549      6999.48849        50.000  

 16 04 02 12 47  1.7000000  0  2G29G09                                          
  21082628.91449 110789961.89849      4439.39149        50.000  

  22407977.91449 117754718.86349      6994.07849        50.000  

 16 04 02 12 47  1.8000000  0  2G29G09                                          
  21082544.47749 110789518.14549      4436.01249        50.000  

  22407844.87549 117754019.73049      6988.77049        50.000  

 16 04 02 12 47  1.9000000  0  2G29G09                                          
  21082460.09449 110789074.73449      4432.51649        50.000  

  22407711.93049 117753321.09449      6983.70349        50.000  

 16 04 02 12 47  2.0000000  0  2G29G09                                          
  21082375.79749 110788631.69549      4428.82449        50.000  

  22407579.09449 117752623.03549      6978.03549        50.000  

 16 04 02 12 47  2.1000000  0  2G29G09                                          
  21082291.55549 110788189.00849      4425.15249        50.000  

  22407446.35249 117751925.50049      6972.60549        50.000  

 16 04 02 12 47  2.2000000  0  2G29G09                                          
  21082207.38349 110787746.67649      4421.60949        50.000  

  22407313.71949 117751228.50449      6967.21949        50.000  

 16 04 02 12 47  2.3000000  0  2G29G09                                          
  21082123.27349 110787304.67249      4418.51649        50.000  

  22407181.18049 117750532.02349      6962.23049        50.000  

 16 04 02 12 47  2.4000000  0  2G29G09                                          
  21082039.22749 110786863.00449      4415.12949        50.000  

  22407048.73449 117749836.03949      6957.28149        50.000  

 16 04 02 12 47  2.5000000  0  2G29G09                                          
  21081955.25049 110786421.69149      4411.47349        50.000  

  22406916.40649 117749140.62549      6951.39549        50.000  

 16 04 02 12 47  2.6000000  0  2G29G09                                          
  21081871.35249 110785980.78549      4407.45749        50.000  

  22406784.18049 117748445.78149      6945.65249        50.000  

 16 04 02 12 47  2.7000000  0  2G29G09                                          
  21081787.50049 110785540.17249      4404.51649        50.000  

  22406652.04749 117747751.40249      6941.04349        50.000  

 16 04 02 12 47  2.8000000  0  2G29G09                                          
  21081703.72749 110785099.90649      4400.95749        50.000  

  22406520.00849 117747057.56249      6935.56249        50.000  

 16 04 02 12 47  2.9000000  0  2G29G09                                          
  21081620.03149 110784660.06249      4396.84849        50.000  

  22406388.10249 117746364.32049      6929.73449        50.000  

 16 04 02 12 47  3.0000000  0  2G29G09                                          
  21081536.38349 110784220.48449      4394.18049        50.000  

  22406256.26649 117745671.52749      6925.32449        50.000  

 16 04 02 12 47  3.1000000  0  2G29G09                                          
  21081452.79749 110783781.23849      4390.83249        50.000  

  22406124.53149 117744979.25849      6919.96149        50.000  

 16 04 02 12 47  3.2000000  0  2G29G09                                          
  21081369.28149 110783342.40249      4386.74649        50.000  

  22405992.91449 117744287.56649      6914.15649        50.000  

 16 04 02 12 47  3.3000000  0  2G29G09                                          
  21081285.84449 110782903.91049      4383.41049        50.000  

  22405861.39149 117743596.40649      6908.96949        50.000  

 16 04 02 12 47  3.4000000  0  2G29G09                                          
  21081202.46149 110782465.73449      4380.18449        50.000  

  22405729.95349 117742905.73449      6904.02049        50.000  

 16 04 02 12 47  3.5000000  0  2G29G09                                          
  21081119.14849 110782027.91049      4376.61749        50.000  

  22405598.63349 117742215.61349      6898.60549        50.000  

 16 04 02 12 47  3.6000000  0  2G29G09                                          
  21081035.89149 110781590.42649      4373.31649        50.000  

  22405467.40649 117741526.01249      6893.49249        50.000  

 16 04 02 12 47  3.7000000  0  2G29G09                                          
  21080952.70349 110781153.25449      4370.06249        50.000  

  22405336.27349 117740836.89149      6888.42249        50.000  

 16 04 02 12 47  3.8000000  0  2G29G09                                          
  21080869.59449 110780716.49249      4366.09449        50.000  

  22405205.25049 117740148.37149      6882.61349        50.000  

 16 04 02 12 47  3.9000000  0  2G29G09                                          
  21080786.53949 110780280.05149      4362.82449        50.000  

  22405074.32049 117739460.34449      6877.63349        50.000  

 16 04 02 12 47  4.0000000  0  2G29G09                                          
  21080703.53949 110779843.91849      4359.68849        50.000  

  22404943.49249 117738772.82049      6872.65649        50.000  

 16 04 02 12 47  4.1000000  0  2G29G09                                          
  21080620.61749 110779408.14849      4356.20749        50.000  

  22404812.76649 117738085.83649      6867.17249        50.000  

 16 04 02 12 47  4.2000000  0  2G29G09                                          
  21080537.77349 110778972.78149      4352.12149        50.000  

  22404682.14149 117737399.42649      6861.47749        50.000  

 16 04 02 12 47  4.3000000  0  2G29G09                                          
  21080454.97749 110778537.71149      4348.94149        50.000  

  22404551.62549 117736713.51649      6856.28949        50.000  

 16 04 02 12 47  4.4000000  0  2G29G09                                          
  21080372.25849 110778103.05549      4344.95349        50.000  

  22404421.21149 117736028.18449      6850.50049        50.000  

 16 04 02 12 47  4.5000000  0  2G29G09                                          
  21080289.61749 110777668.76249      4341.30949        50.000  

  22404290.89849 117735343.40249      6845.10949        50.000  

 16 04 02 12 47  4.6000000  0  2G29G09                                          
  21080207.02349 110777234.75849      4338.46549        50.000  

  22404160.68049 117734659.08249      6840.58649        50.000  

 16 04 02 12 47  4.7000000  0  2G29G09                                          
  21080124.50049 110776801.07849      4335.31649        50.000  

  22404030.55549 117733975.29349      6835.44949        50.000  

 16 04 02 12 47  4.8000000  0  2G29G09                                          
  21080042.03949 110776367.77749      4331.46549        50.000  

  22403900.53949 117733292.04349      6829.79349        50.000  

 16 04 02 12 47  4.9000000  0  2G29G09                                          
  21079959.64849 110775934.82849      4327.91849        50.000  

  22403770.61749 117732609.33649      6824.35249        50.000  

 16 04 02 12 47  5.0000000  0  2G29G09                                          
  21079877.33649 110775502.22749      4324.44149        50.000  

  22403640.79749 117731927.14849      6819.28549        50.000  

 16 04 02 12 47  5.1000000  0  2G29G09                                          
  21079795.06249 110775069.88349      4321.79349        50.000  

  22403511.07049 117731245.41049      6814.68849        50.000  

 16 04 02 12 47  5.2000000  0  2G29G09                                          
  21079712.86749 110774637.96949      4317.57449        50.000  

  22403381.45349 117730564.28149      6808.62549        50.000  

 16 04 02 12 47  5.3000000  0  2G29G09                                          
  21079630.75049 110774206.44949      4313.48049        50.000  

  22403251.94549 117729883.71549      6802.82449        50.000  

 16 04 02 12 47  5.4000000  0  2G29G09                                          
  21079548.68049 110773775.18449      4310.91849        50.000  

  22403122.52349 117729203.60949      6798.19549        50.000  

 16 04 02 12 47  5.5000000  0  2G29G09                                          
  21079466.69549 110773344.33249      4307.01249        50.000  

  22402993.21949 117728524.08649      6792.55549        50.000  

 16 04 02 12 47  5.6000000  0  2G29G09                                          
  21079384.76649 110772913.80949      4303.69149        50.000  

  22402864.00049 117727845.05549      6787.79749        50.000  

 16 04 02 12 47  5.7000000  0  2G29G09                                          
  21079302.90649 110772483.61749      4300.24249        50.000  

  22402734.89149 117727166.57449      6782.16849        50.000  

 16 04 02 12 47  5.8000000  0  2G29G09                                          
  21079221.10249 110772053.77049      4296.89849        50.000  

  22402605.87549 117726488.59849      6777.20749        50.000  

 16 04 02 12 47  5.9000000  0  2G29G09                                          
  21079139.36749 110771624.26649      4293.45349        50.000  

  22402476.96149 117725811.14549      6771.77749        50.000  

 16 04 02 12 47  6.0000000  0  2G29G09                                          
  21079057.71149 110771195.14549      4289.59449        50.000  

  22402348.15649 117725134.27049      6766.16049        50.000  

 16 04 02 12 47  6.1000000  0  2G29G09                                          
  21078976.11749 110770766.35249      4286.19149        50.000  

  22402219.44549 117724457.89849      6760.89549        50.000  

 16 04 02 12 47  6.2000000  0  2G29G09                                          
  21078894.59449 110770337.93849      4282.45349        50.000  

  22402090.84449 117723782.08249      6755.32049        50.000  

 16 04 02 12 47  6.3000000  0  2G29G09                                          
  21078813.13349 110769909.85549      4279.16849        50.000  

  22401962.33649 117723106.78149      6750.15649        50.000  

 16 04 02 12 47  6.4000000  0  2G29G09                                          
  21078731.74249 110769482.15649      4275.46149        50.000  

  22401833.93849 117722432.04749      6744.73849        50.000  

 16 04 02 12 47  6.5000000  0  2G29G09                                          
  21078650.42249 110769054.80549      4271.87949        50.000  

  22401705.64149 117721757.84049      6739.41449        50.000  

 16 04 02 12 47  6.6000000  0  2G29G09                                          
  21078569.15649 110768627.76649      4268.73449        50.000  

  22401577.43849 117721084.13349      6734.38349        50.000  

 16 04 02 12 47  6.7000000  0  2G29G09                                          
  21078487.96949 110768201.10949      4264.95749        50.000  

  22401449.35249 117720410.99649      6728.73049        50.000  

 16 04 02 12 47  6.8000000  0  2G29G09                                          
  21078406.84449 110767774.79749      4261.62149        50.000  

  22401321.35949 117719738.36749      6723.74649        50.000  

 16 04 02 12 47  6.9000000  0  2G29G09                                          
  21078325.78149 110767348.78549      4258.30149        50.000  

  22401193.46149 117719066.23849      6718.44149        50.000  

 16 04 02 12 47  7.0000000  0  2G29G09                                          
  21078244.79749 110766923.19949      4254.37549        50.000  

  22401065.67249 117718394.70749      6712.68449        50.000  

 16 04 02 12 47  7.1000000  0  2G29G09                                          
  21078163.86749 110766497.93049      4250.99249        50.000  

  22400937.97749 117717723.67649      6707.46549        50.000  

 16 04 02 12 47  7.2000000  0  2G29G09                                          
  21078083.00849 110766072.97749      4248.00449        50.000  

  22400810.38349 117717053.13749      6702.87149        50.000  

 16 04 02 12 47  7.3000000  0  2G29G09                                          
  21078002.20349 110765648.37549      4244.43849        50.000  

  22400682.88349 117716383.14549      6697.27349        50.000  

 16 04 02 12 47  7.4000000  0  2G29G09                                          
  21077921.46149 110765224.05949      4241.57049        50.000  

  22400555.47749 117715713.61349      6692.60949        50.000  

 16 04 02 12 47  7.5000000  0  2G29G09                                          
  21077840.78949 110764800.11349      4237.93449        50.000  

  22400428.17249 117715044.63749      6687.18849        50.000  

 16 04 02 12 47  7.6000000  0  2G29G09                                          
  21077760.18849 110764376.57449      4233.59049        50.000  

  22400300.97749 117714376.24649      6680.97749        50.000  

 16 04 02 12 47  7.7000000  0  2G29G09                                          
  21077679.66449 110763953.41049      4229.95749        50.000  

  22400173.89849 117713708.41849      6675.62149        50.000  

 16 04 02 12 47  7.8000000  0  2G29G09                                          
  21077599.18849 110763530.52349      4227.18849        50.000  

  22400046.89849 117713041.03949      6671.04749        50.000  

 16 04 02 12 47  7.9000000  0  2G29G09                                          
  21077518.78949 110763108.00849      4223.49649        50.000  

  22399920.00049 117712374.22349      6665.50049        50.000  

 16 04 02 12 47  8.0000000  0  2G29G09                                          
  21077438.45349 110762685.85949      4219.91449        50.000  

  22399793.21949 117711707.95749      6660.07849        50.000  

 16 04 02 12 47  8.1000000  0  2G29G09                                          
  21077358.18849 110762264.04349      4216.44149        50.000  

  22399666.53149 117711042.19549      6654.80949        50.000  

 16 04 02 12 47  8.2000000  0  2G29G09                                          
  21077277.99249 110761842.64549      4212.25449        50.000  

  22399539.95349 117710377.03549      6648.74649        50.000  

 16 04 02 12 47  8.3000000  0  2G29G09                                          
  21077197.86749 110761421.55949      4209.20749        50.000  

  22399413.47749 117709712.37949      6643.89149        50.000  

 16 04 02 12 47  8.4000000  0  2G29G09                                          
  21077117.80549 110761000.84049      4205.59849        50.000  

  22399287.09449 117709048.26249      6638.52049        50.000  

 16 04 02 12 47  8.5000000  0  2G29G09                                          
  21077037.80549 110760580.43849      4202.47749        50.000  

  22399160.81249 117708384.65249      6633.48449        50.000  

 16 04 02 12 47  8.6000000  0  2G29G09                                          
  21076957.85949 110760160.33649      4199.52049        50.000  

  22399034.62549 117707721.51649      6628.79749        50.000  

 16 04 02 12 47  8.7000000  0  2G29G09                                          
  21076877.98449 110759740.60249      4195.69949        50.000  

  22398908.54749 117707058.93849      6623.04349        50.000  

 16 04 02 12 47  8.8000000  0  2G29G09                                          
  21076798.19549 110759321.29749      4191.34049        50.000  

  22398782.57849 117706396.96949      6616.85549        50.000  

 16 04 02 12 47  8.9000000  0  2G29G09                                          
  21076718.46949 110758902.32849      4187.99249        50.000  

  22398656.70349 117705735.51249      6611.75849        50.000  

 16 04 02 12 47  9.0000000  0  2G29G09                                          
  21076638.78949 110758483.65649      4185.21149        50.000  

  22398530.93049 117705074.53549      6607.22749        50.000  

 16 04 02 12 47  9.1000000  0  2G29G09                                          
  21076559.18049 110758065.27749      4182.23049        50.000  

  22398405.24249 117704414.04749      6602.38749        50.000  

 16 04 02 12 47  9.2000000  0  2G29G09                                          
  21076479.63349 110757647.28949      4178.35949        50.000  

  22398279.66449 117703754.11749      6596.72349        50.000  

 16 04 02 12 47  9.3000000  0  2G29G09                                          
  21076400.16449 110757229.68449      4174.25049        50.000  

  22398154.18849 117703094.76249      6590.72349        50.000  

 16 04 02 12 47  9.4000000  0  2G29G09                                          
  21076320.75849 110756812.40649      4170.95749        50.000  

  22398028.82049 117702435.91849      6585.58649        50.000  

 16 04 02 12 47  9.5000000  0  2G29G09                                          
  21076241.42249 110756395.48049      4167.72749        50.000  

  22397903.54749 117701777.59449      6580.62549        50.000  

 16 04 02 12 47  9.6000000  0  2G29G09                                          
  21076162.14149 110755978.84449      4164.82849        50.000  

  22397778.36749 117701119.75449      6575.82049        50.000  

 16 04 02 12 47  9.7000000  0  2G29G09                                          
  21076082.93049 110755562.57849      4161.05549        50.000  

  22397653.28949 117700462.46149      6570.28949        50.000  

 16 04 02 12 47  9.8000000  0  2G29G09                                          
  21076003.78149 110755146.63749      4157.83649        50.000  

  22397528.30549 117699805.67649      6565.12149        50.000  

 16 04 02 12 47  9.9000000  0  2G29G09                                          
  21075924.70349 110754731.09449      4153.92649        50.000  

  22397403.43049 117699149.46549      6559.62149        50.000  

 16 04 02 12 47 10.0000000  0  2G29G09                                          
  21075845.68049 110754315.84849      4150.60949        50.000  

  22397278.64849 117698493.75049      6554.25449        50.000  

 16 04 02 12 47 10.1000000  0  2G29G09                                          
  21075766.73449 110753900.99649      4146.93049        50.000  

  22397153.97749 117697838.60249      6548.90249        50.000  

 16 04 02 12 47 10.2000000  0  2G29G09                                          
  21075687.84449 110753486.41449      4144.19949        50.000  

  22397029.39149 117697183.90649      6544.26249        50.000  

 16 04 02 12 47 10.3000000  0  2G29G09                                          
  21075609.02349 110753072.18849      4140.75049        50.000  

  22396904.91449 117696529.74249      6538.97749        50.000  

 16 04 02 12 47 10.4000000  0  2G29G09                                          
  21075530.26649 110752658.31249      4137.23449        50.000  

  22396780.53149 117695876.12549      6533.63349        50.000  

 16 04 02 12 47 10.5000000  0  2G29G09                                          
  21075451.57049 110752244.78949      4133.64549        50.000  

  22396656.25049 117695223.03549      6528.18849        50.000  

 16 04 02 12 47 10.6000000  0  2G29G09                                          
  21075372.93849 110751831.58649      4130.41049        50.000  

  22396532.07049 117694570.44949      6523.10949        50.000  

 16 04 02 12 47 10.7000000  0  2G29G09                                          
  21075294.38349 110751418.78149      4126.46949        50.000  

  22396407.99249 117693918.44149      6517.39849        50.000  

 16 04 02 12 47 10.8000000  0  2G29G09                                          
  21075215.88349 110751006.28549      4123.27749        50.000  

  22396284.01649 117693266.92249      6512.35949        50.000  

 16 04 02 12 47 10.9000000  0  2G29G09                                          
  21075137.45349 110750594.13749      4119.89149        50.000  

  22396160.13349 117692615.94149      6507.23849        50.000  

 16 04 02 12 47 11.0000000  0  2G29G09                                          
  21075059.10949 110750182.37949      4116.02349        50.000  

  22396036.35949 117691965.52349      6501.54349        50.000  

 16 04 02 12 47 11.1000000  0  2G29G09                                          
  21074980.80549 110749770.90649      4112.96149        50.000  

  22395912.68849 117691315.58649      6496.55149        50.000  

 16 04 02 12 47 11.2000000  0  2G29G09                                          
  21074902.58649 110749359.85249      4108.99649        50.000  

  22395789.11749 117690666.23849      6490.68449        50.000  

 16 04 02 12 47 11.3000000  0  2G29G09                                          
  21074824.43849 110748949.14849      4105.48449        50.000  

  22395665.64849 117690017.43049      6485.53149        50.000  

 16 04 02 12 47 11.4000000  0  2G29G09                                          
  21074746.34449 110748538.76249      4102.17249        50.000  

  22395542.28149 117689369.11749      6480.28149        50.000  

 16 04 02 12 47 11.5000000  0  2G29G09                                          
  21074668.32049 110748128.76649      4098.29749        50.000  

  22395419.02349 117688721.37549      6474.73049        50.000  

 16 04 02 12 47 11.6000000  0  2G29G09                                          
  21074590.35949 110747719.10549      4094.95749        50.000  

  22395295.86749 117688074.15649      6469.47349        50.000  

 16 04 02 12 47 11.7000000  0  2G29G09                                          
  21074512.46949 110747309.76249      4091.87149        50.000  

  22395172.80549 117687427.44549      6464.46949        50.000  

 16 04 02 12 47 11.8000000  0  2G29G09                                          
  21074434.62549 110746900.71149      4089.12149        50.000  

  22395049.82849 117686781.19149      6460.02049        50.000  

 16 04 02 12 47 11.9000000  0  2G29G09                                          
  21074356.85949 110746492.03949      4085.20349        50.000  

  22394926.95349 117686135.50449      6454.23049        50.000  

 16 04 02 12 47 12.0000000  0  2G29G09                                          
  21074279.15649 110746083.72349      4081.50449        50.000  

  22394804.18849 117685490.36749      6448.62149        50.000  

 16 04 02 12 47 12.1000000  0  2G29G09                                          
  21074201.53149 110745675.77049      4077.97349        50.000  

  22394681.52349 117684845.75849      6443.49649        50.000  

 16 04 02 12 47 12.2000000  0  2G29G09                                          
  21074123.96149 110745268.14149      4074.58249        50.000  

  22394558.96149 117684201.66049      6438.17649        50.000  

 16 04 02 12 47 12.3000000  0  2G29G09                                          
  21074046.45349 110744860.83649      4071.40249        50.000  

  22394436.48449 117683558.07849      6433.18849        50.000  

 16 04 02 12 47 12.4000000  0  2G29G09                                          
  21073969.02349 110744453.93849      4067.29349        50.000  

  22394314.13349 117682915.08649      6427.09049        50.000  

 16 04 02 12 47 12.5000000  0  2G29G09                                          
  21073891.66449 110744047.39549      4063.89549        50.000  

  22394191.87549 117682272.61749      6421.97749        50.000  

 16 04 02 12 47 12.6000000  0  2G29G09                                          
  21073814.35249 110743641.13749      4060.87949        50.000  

  22394069.71149 117681630.63349      6417.11749        50.000  

 16 04 02 12 47 12.7000000  0  2G29G09                                          
  21073737.12549 110743235.28949      4056.89149        50.000  

  22393947.64849 117680989.22349      6411.51649        50.000  

 16 04 02 12 47 12.8000000  0  2G29G09                                          
  21073659.93849 110742829.70749      4054.16449        50.000  

  22393825.68849 117680348.28149      6406.71149        50.000  

 16 04 02 12 47 12.9000000  0  2G29G09                                          
  21073582.82049 110742424.47349      4051.04349        50.000  

  22393703.82049 117679707.86349      6401.77749        50.000  

 16 04 02 12 47 13.0000000  0  2G29G09                                          
  21073505.78149 110742019.59849      4047.23849        50.000  

  22393582.05549 117679067.97749      6396.30549        50.000  

 16 04 02 12 47 13.1000000  0  2G29G09                                          
  21073428.79749 110741615.05549      4043.77749        50.000  

  22393460.38349 117678428.60949      6390.88349        50.000  

 16 04 02 12 47 13.2000000  0  2G29G09                                          
  21073351.88349 110741210.85549      4040.54749        50.000  

  22393338.82049 117677789.77349      6385.79349        50.000  

 16 04 02 12 47 13.3000000  0  2G29G09                                          
  21073275.02349 110740806.99249      4037.02049        50.000  

  22393217.35249 117677151.45749      6380.35549        50.000  

 16 04 02 12 47 13.4000000  0  2G29G09                                          
  21073198.23449 110740403.48449      4033.41849        50.000  

  22393095.98449 117676513.66849      6375.10949        50.000  

 16 04 02 12 47 13.5000000  0  2G29G09                                          
  21073121.53149 110740000.39149      4029.35549        50.000  

  22392974.73449 117675876.49249      6369.11349        50.000  

 16 04 02 12 47 13.6000000  0  2G29G09                                          
  21073044.88349 110739597.57849      4026.39549        50.000  

  22392853.57049 117675239.76649      6364.43849        50.000  

 16 04 02 12 47 13.7000000  0  2G29G09                                          
  21072968.28949 110739195.09449      4023.45749        50.000  

  22392732.50049 117674603.55949      6359.60549        50.000  

 16 04 02 12 47 13.8000000  0  2G29G09                                          
  21072891.75849 110738792.93849      4020.02049        50.000  

  22392611.53149 117673967.85949      6354.31649        50.000  

 16 04 02 12 47 13.9000000  0  2G29G09                                          
  21072815.30549 110738391.18449      4015.98049        50.000  

  22392490.68049 117673332.73449      6348.50449        50.000  

 16 04 02 12 47 14.0000000  0  2G29G09                                          
  21072738.92249 110737989.76249      4012.43049        50.000  

  22392369.92249 117672698.14849      6343.02049        50.000  

 16 04 02 12 47 14.1000000  0  2G29G09                                          
  21072662.59449 110737588.65649      4009.52049        50.000  

  22392249.25049 117672064.04349      6338.46149        50.000  

 16 04 02 12 47 14.2000000  0  2G29G09                                          
  21072586.33649 110737187.89149      4006.05949        50.000  

  22392128.68849 117671430.46549      6333.07849        50.000  

 16 04 02 12 47 14.3000000  0  2G29G09                                          
  21072510.13349 110736787.46949      4002.67649        50.000  

  22392008.21949 117670797.41449      6327.93449        50.000  

 16 04 02 12 47 14.4000000  0  2G29G09                                          
  21072434.00849 110736387.42249      3998.81249        50.000  

  22391887.85949 117670164.93049      6322.06649        50.000  

 16 04 02 12 47 14.5000000  0  2G29G09                                          
  21072357.96149 110735987.77749      3994.85249        50.000  

  22391767.61749 117669533.01249      6316.42649        50.000  

 16 04 02 12 47 14.6000000  0  2G29G09                                          
  21072281.96949 110735588.45749      3991.44149        50.000  

  22391647.46149 117668901.60949      6311.26249        50.000  

 16 04 02 12 47 14.7000000  0  2G29G09                                          
  21072206.04749 110735189.47349      3988.16449        50.000  

  22391527.41449 117668270.72749      6306.05949        50.000  

 16 04 02 12 47 14.8000000  0  2G29G09                                          
  21072130.19549 110734790.87149      3984.41849        50.000  

  22391407.46949 117667640.41449      6300.48049        50.000  

 16 04 02 12 47 14.9000000  0  2G29G09                                          
  21072054.40649 110734392.57049      3981.43849        50.000  

  22391287.61749 117667010.57849      6295.74249        50.000  

 16 04 02 12 47 15.0000000  0  2G29G09                                          
  21071978.67249 110733994.64149      3977.67249        50.000  

  22391167.86749 117666381.30949      6289.93449        50.000  

 16 04 02 12 47 15.1000000  0  2G29G09                                          
  21071903.02349 110733597.07449      3974.12949        50.000  

  22391048.22749 117665752.56649      6284.78149        50.000  

 16 04 02 12 47 15.2000000  0  2G29G09                                          
  21071827.41449 110733199.75449      3971.62149        50.000  

  22390928.65649 117665124.25849      6280.50849        50.000  

 16 04 02 12 47 15.3000000  0  2G29G09                                          
  21071751.88349 110732802.84449      3967.50849        50.000  

  22390809.21149 117664496.55149      6274.39849        50.000  

 16 04 02 12 47 15.4000000  0  2G29G09                                          
  21071676.42249 110732406.30549      3963.69549        50.000  

  22390689.86749 117663869.39549      6268.80549        50.000  

 16 04 02 12 47 15.5000000  0  2G29G09                                          
  21071601.03149 110732010.12149      3960.18449        50.000  

  22390570.63349 117663242.77749      6263.44949        50.000  

 16 04 02 12 47 15.6000000  0  2G29G09                                          
  21071525.69549 110731614.23449      3957.27349        50.000  

  22390451.47749 117662616.62949      6258.81649        50.000  

 16 04 02 12 47 15.7000000  0  2G29G09                                          
  21071450.42249 110731218.66849      3954.21149        50.000  

  22390332.43049 117661991.00449      6253.75449        50.000  

 16 04 02 12 47 15.8000000  0  2G29G09                                          
  21071375.21949 110730823.43449      3951.00049        50.000  

  22390213.46949 117661365.88349      6248.71149        50.000  

 16 04 02 12 47 15.9000000  0  2G29G09                                          
  21071300.07049 110730428.56249      3947.18449        50.000  

  22390094.61749 117660741.29749      6243.21949        50.000  

 16 04 02 12 47 16.0000000  0  2G29G09                                          
  21071225.01649 110730034.11349      3942.81649        50.000  

  22389975.88349 117660117.34049      6236.85949        50.000  

 16 04 02 12 47 16.1000000  0  2G29G09                                          
  21071150.01649 110729639.97749      3939.61349        50.000  

  22389857.24249 117659493.85949      6231.95349        50.000  

 16 04 02 12 47 16.2000000  0  2G29G09                                          
  21071075.07049 110729246.14849      3936.69949        50.000  

  22389738.68849 117658870.88349      6227.13349        50.000  

 16 04 02 12 47 16.3000000  0  2G29G09                                          
  21071000.19549 110728852.67649      3933.20749        50.000  

  22389620.24249 117658248.43449      6221.82849        50.000  

 16 04 02 12 47 16.4000000  0  2G29G09                                          
  21070925.39149 110728459.59049      3929.25049        50.000  

  22389501.90649 117657626.55949      6216.14149        50.000  

 16 04 02 12 47 16.5000000  0  2G29G09                                          
  21070850.64849 110728066.81649      3925.93049        50.000  

  22389383.66449 117657005.17649      6210.97349        50.000  

 16 04 02 12 47 16.6000000  0  2G29G09                                          
  21070775.98449 110727674.46149      3921.88349        50.000  

  22389265.53149 117656384.39549      6205.03149        50.000  

 16 04 02 12 47 16.7000000  0  2G29G09                                          
  21070701.39149 110727282.42649      3918.54349        50.000  

  22389147.49249 117655764.12549      6199.92649        50.000  

 16 04 02 12 47 16.8000000  0  2G29G09                                          
  21070626.85249 110726890.73049      3915.38749        50.000  

  22389029.55549 117655144.37149      6194.91049        50.000  

 16 04 02 12 47 16.9000000  0  2G29G09                                          
  21070552.37549 110726499.37949      3911.89549        50.000  

  22388911.72749 117654525.14549      6189.61349        50.000  

 16 04 02 12 47 17.0000000  0  2G29G09                                          
  21070477.96149 110726108.32449      3909.02749        50.000  

  22388793.98449 117653906.40249      6184.79749        50.000  

 16 04 02 12 47 17.1000000  0  2G29G09                                          
  21070403.61749 110725717.63349      3905.40649        50.000  

  22388676.34449 117653288.20349      6179.35549        50.000  

 16 04 02 12 47 17.2000000  0  2G29G09                                          
  21070329.33649 110725327.30549      3901.59849        50.000  

  22388558.80549 117652670.54749      6173.80949        50.000  

 16 04 02 12 47 17.3000000  0  2G29G09                                          
  21070255.12549 110724937.32449      3898.14549        50.000  

  22388441.37549 117652053.43049      6168.47749        50.000  

 16 04 02 12 47 17.4000000  0  2G29G09                                          
  21070180.97749 110724547.68449      3894.63749        50.000  

  22388324.03949 117651436.82449      6163.12949        50.000  

 16 04 02 12 47 17.5000000  0  2G29G09                                          
  21070106.89849 110724158.42649      3890.90249        50.000  

  22388206.81249 117650820.79349      6157.52049        50.000  

 16 04 02 12 47 17.6000000  0  2G29G09                                          
  21070032.89149 110723769.48849      3887.77749        50.000  

  22388089.68049 117650205.27349      6152.48449        50.000  

 16 04 02 12 47 17.7000000  0  2G29G09                                          
  21069958.94549 110723380.89149      3884.32049        50.000  

  22387972.64849 117649590.25849      6147.36749        50.000  

 16 04 02 12 47 17.8000000  0  2G29G09                                          
  21069885.06249 110722992.63749      3880.99249        50.000  

  22387855.71949 117648975.78149      6142.25849        50.000  

 16 04 02 12 47 17.9000000  0  2G29G09                                          
  21069811.24249 110722604.70349      3877.74649        50.000  

  22387738.88349 117648361.79749      6137.07849        50.000  

 16 04 02 12 47 18.0000000  0  2G29G09                                          
  21069737.49249 110722217.15649      3873.90649        50.000  

  22387622.15649 117647748.39549      6131.47749        50.000  

 16 04 02 12 47 18.1000000  0  2G29G09                                          
  21069663.80549 110721829.93449      3870.64149        50.000  

  22387505.52349 117647135.49649      6126.26649        50.000  

 16 04 02 12 47 18.2000000  0  2G29G09                                          
  21069590.18849 110721443.09049      3866.81249        50.000  

  22387389.00049 117646523.15649      6120.65249        50.000  

 16 04 02 12 47 18.3000000  0  2G29G09                                          
  21069516.64849 110721056.61749      3863.07049        50.000  

  22387272.58649 117645911.36749      6115.10949        50.000  

 16 04 02 12 47 18.4000000  0  2G29G09                                          
  21069443.16449 110720670.44949      3860.14549        50.000  

  22387156.26649 117645300.08649      6110.23449        50.000  

 16 04 02 12 47 18.5000000  0  2G29G09                                          
  21069369.74249 110720284.63349      3856.55949        50.000  

  22387040.03949 117644689.31649      6104.92649        50.000  

 16 04 02 12 47 18.6000000  0  2G29G09                                          
  21069296.39149 110719899.14849      3853.35949        50.000  

  22386923.91449 117644079.07849      6099.89849        50.000  

 16 04 02 12 47 18.7000000  0  2G29G09                                          
  21069223.10249 110719514.01249      3849.78549        50.000  

  22386807.89149 117643469.35949      6094.40249        50.000  

 16 04 02 12 47 18.8000000  0  2G29G09                                          
  21069149.88349 110719129.23849      3846.21549        50.000  

  22386691.96949 117642860.18449      6089.11349        50.000  

 16 04 02 12 47 18.9000000  0  2G29G09                                          
  21069076.71949 110718744.74649      3843.33649        50.000  

  22386576.13349 117642251.49249      6084.27349        50.000  

 16 04 02 12 47 19.0000000  0  2G29G09                                          
  21069003.61749 110718360.63749      3839.51649        50.000  

  22386460.40649 117641643.34849      6078.71949        50.000  

 16 04 02 12 47 19.1000000  0  2G29G09                                          
  21068930.59449 110717976.86749      3836.04749        50.000  

  22386344.78149 117641035.73049      6073.51649        50.000  

 16 04 02 12 47 19.2000000  0  2G29G09                                          
  21068857.61749 110717593.41049      3832.91449        50.000  

  22386229.25049 117640428.61349      6068.37549        50.000  

 16 04 02 12 47 19.3000000  0  2G29G09                                          
  21068784.73449 110717210.42649      3828.20749        50.000  

  22386113.84449 117639822.15649      6061.85949        50.000  

 16 04 02 12 47 19.4000000  0  2G29G09                                          
  21068711.90649 110716827.73449      3825.02749        50.000  

  22385998.52349 117639216.16449      6056.85949        50.000  

 16 04 02 12 47 19.5000000  0  2G29G09                                          
  21068639.15649 110716445.41049      3821.58649        50.000  

  22385883.31249 117638610.73449      6051.60549        50.000  

 16 04 02 12 47 19.6000000  0  2G29G09                                          
  21068566.45349 110716063.38349      3818.77349        50.000  

  22385768.18849 117638005.77749      6046.92249        50.000  

 16 04 02 12 47 19.7000000  0  2G29G09                                          
  21068493.82849 110715681.72749      3815.05549        50.000  

  22385653.17249 117637401.37149      6041.32849        50.000  

 16 04 02 12 47 19.8000000  0  2G29G09                                          
  21068421.27349 110715300.46149      3811.13349        50.000  

  22385538.27349 117636797.55549      6035.52349        50.000  

 16 04 02 12 47 19.9000000  0  2G29G09                                          
  21068348.78149 110714919.51649      3807.80949        50.000  

  22385423.46149 117636194.21549      6030.61749        50.000  

 16 04 02 12 47 20.0000000  0  2G29G09                                          
  21068276.35249 110714538.89849      3804.77349        50.000  

  22385308.75049 117635591.41449      6025.61749        50.000  

 16 04 02 12 47 20.1000000  0  2G29G09                                          
  21068203.98449 110714158.59849      3801.47349        50.000  

  22385194.13349 117634989.09449      6020.45749        50.000  

 16 04 02 12 47 20.2000000  0  2G29G09                                          
  21068131.68849 110713778.67249      3797.64149        50.000  

  22385079.62549 117634387.35249      6014.66849        50.000  

 16 04 02 12 47 20.3000000  0  2G29G09                                          
  21068059.45349 110713399.09849      3794.17249        50.000  

  22384965.21149 117633786.12149      6009.55549        50.000  

 16 04 02 12 47 20.4000000  0  2G29G09                                          
  21067987.28949 110713019.82849      3791.09049        50.000  

  22384850.89849 117633185.38749      6004.68849        50.000  

 16 04 02 12 47 20.5000000  0  2G29G09                                          
  21067915.18049 110712640.89849      3787.75849        50.000  

  22384736.68049 117632585.18049      5999.57849        50.000  

 16 04 02 12 47 20.6000000  0  2G29G09                                          
  21067843.13349 110712262.31649      3784.11349        50.000  

  22384622.57049 117631985.50449      5993.94949        50.000  

 16 04 02 12 47 20.7000000  0  2G29G09                                          
  21067771.17249 110711884.13749      3779.98049        50.000  

  22384508.56249 117631386.41449      5988.02049        50.000  

 16 04 02 12 47 20.8000000  0  2G29G09                                          
  21067699.27349 110711506.32049      3776.62949        50.000  

  22384394.66449 117630787.87149      5982.87549        50.000  

 16 04 02 12 47 20.9000000  0  2G29G09                                          
  21067627.43849 110711128.81249      3773.45349        50.000  

  22384280.85949 117630189.80949      5977.90649        50.000  

 16 04 02 12 47 21.0000000  0  2G29G09                                          
  21067555.66449 110710751.62949      3770.40249        50.000  

  22384167.14849 117629592.27349      5972.93449        50.000  

 16 04 02 12 47 21.1000000  0  2G29G09                                          
  21067483.95349 110710374.78549      3766.85549        50.000  

  22384053.53949 117628995.25049      5967.55549        50.000  

 16 04 02 12 47 21.2000000  0  2G29G09                                          
  21067412.30549 110709998.28949      3763.45749        50.000  

  22383940.03149 117628398.75849      5962.28949        50.000  

 16 04 02 12 47 21.3000000  0  2G29G09                                          
  21067340.72749 110709622.13349      3759.90249        50.000  

  22383826.61749 117627802.79349      5956.96549        50.000  

 16 04 02 12 47 21.4000000  0  2G29G09                                          
  21067269.20349 110709246.29749      3756.81249        50.000  

  22383713.30549 117627207.32049      5952.14849        50.000  

 16 04 02 12 47 21.5000000  0  2G29G09                                          
  21067197.75049 110708870.81649      3753.21149        50.000  

  22383600.09449 117626612.39849      5946.57849        50.000  

 16 04 02 12 47 21.6000000  0  2G29G09                                          
  21067126.37549 110708495.75849      3748.81649        50.000  

  22383487.00049 117626018.08249      5940.28149        50.000  

 16 04 02 12 47 21.7000000  0  2G29G09                                          
  21067055.05549 110708120.98049      3746.19949        50.000  

  22383374.00049 117625424.23049      5935.92649        50.000  

 16 04 02 12 47 21.8000000  0  2G29G09                                          
  21066983.80549 110707746.55149      3742.68849        50.000  

  22383261.09449 117624830.90249      5930.54349        50.000  

 16 04 02 12 47 21.9000000  0  2G29G09                                          
  21066912.62549 110707372.47349      3739.30149        50.000  

  22383148.28149 117624238.11749      5925.26249        50.000  

 16 04 02 12 47 22.0000000  0  2G29G09                                          
  21066841.50049 110706998.75049      3735.59449        50.000  

  22383035.58649 117623645.86749      5919.74249        50.000  

 16 04 02 12 47 22.1000000  0  2G29G09                                          
  21066770.45349 110706625.39549      3732.01249        50.000  

  22382922.99249 117623054.16449      5914.30949        50.000  

 16 04 02 12 47 22.2000000  0  2G29G09                                          
  21066699.46949 110706252.34449      3728.96949        50.000  

  22382810.48449 117622462.96149      5909.42249        50.000  

 16 04 02 12 47 22.3000000  0  2G29G09                                          
  21066628.54749 110705879.65249      3725.30549        50.000  

  22382698.08649 117621872.28949      5904.05949        50.000  

 16 04 02 12 47 22.4000000  0  2G29G09                                          
  21066557.69549 110705507.30949      3721.68449        50.000  

  22382585.78949 117621282.15649      5898.45749        50.000  

 16 04 02 12 47 22.5000000  0  2G29G09                                          
  21066486.93049 110705135.40249      3717.44549        50.000  

  22382473.60949 117620692.63749      5892.45749        50.000  

 16 04 02 12 47 22.6000000  0  2G29G09                                          
  21066416.21149 110704763.80549      3714.27749        50.000  

  22382361.52349 117620103.61349      5887.48849        50.000  

 16 04 02 12 47 22.7000000  0  2G29G09                                          
  21066345.56249 110704392.52749      3711.09849        50.000  

  22382249.53149 117619515.09449      5882.43849        50.000  

 16 04 02 12 47 22.8000000  0  2G29G09                                          
  21066274.98449 110704021.66049      3707.14149        50.000  

  22382137.64849 117618927.17249      5876.69149        50.000  

 16 04 02 12 47 22.9000000  0  2G29G09                                          
  21066204.46949 110703651.06249      3704.39849        50.000  

  22382025.85249 117618339.69149      5872.17649        50.000  

 16 04 02 12 47 23.0000000  0  2G29G09                                          
  21066134.00049 110703280.79349      3701.13349        50.000  

  22381914.16449 117617752.73849      5866.95349        50.000  

 16 04 02 12 47 23.1000000  0  2G29G09                                          
  21066063.60949 110702910.89149      3697.42249        50.000  

  22381802.57049 117617166.32849      5861.41849        50.000  

 16 04 02 12 47 23.2000000  0  2G29G09                                          
  21065993.28949 110702541.31649      3694.11749        50.000  

  22381691.07849 117616580.43449      5856.19549        50.000  

 16 04 02 12 47 23.3000000  0  2G29G09                                          
  21065923.03149 110702172.11349      3690.42649        50.000  

  22381579.69549 117615995.08249      5850.87949        50.000  

 16 04 02 12 47 23.4000000  0  2G29G09                                          
  21065852.84449 110701803.30549      3686.37149        50.000  

  22381468.42249 117615410.32449      5844.82449        50.000  

 16 04 02 12 47 23.5000000  0  2G29G09                                          
  21065782.72749 110701434.81249      3683.25849        50.000  

  22381357.23449 117614826.05549      5839.99649        50.000  

 16 04 02 12 47 23.6000000  0  2G29G09                                          
  21065712.65649 110701066.59449      3680.78549        50.000  

  22381246.14849 117614242.25849      5835.57449        50.000  

 16 04 02 12 47 23.7000000  0  2G29G09                                          
  21065642.65649 110700698.72349      3677.23449        50.000  

  22381135.14849 117613658.97349      5830.21149        50.000  

 16 04 02 12 47 23.8000000  0  2G29G09                                          
  21065572.71949 110700331.23449      3673.43849        50.000  

  22381024.25849 117613076.25849      5824.62149        50.000  

 16 04 02 12 47 23.9000000  0  2G29G09                                          
  21065502.85249 110699964.06649      3669.92649        50.000  

  22380913.46949 117612494.05949      5819.25049        50.000  

 16 04 02 12 47 24.0000000  0  2G29G09                                          
  21065433.04749 110699597.24249      3666.68049        50.000  

  22380802.78149 117611912.37149      5814.22749        50.000  

 16 04 02 12 47 24.1000000  0  2G29G09                                          
  21065363.32049 110699230.83649      3662.44149        50.000  

  22380692.20349 117611331.30949      5807.96149        50.000  

 16 04 02 12 47 24.2000000  0  2G29G09                                          
  21065293.65649 110698864.74249      3659.21549        50.000  

  22380581.72749 117610750.72749      5802.96149        50.000  

 16 04 02 12 47 24.3000000  0  2G29G09                                          
  21065224.04749 110698498.94549      3656.39549        50.000  

  22380471.33649 117610170.61349      5798.46949        50.000  

 16 04 02 12 47 24.4000000  0  2G29G09                                          
  21065154.50049 110698133.48049      3653.01649        50.000  

  22380361.04749 117609591.04349      5793.09049        50.000  

 16 04 02 12 47 24.5000000  0  2G29G09                                          
  21065085.03149 110697768.40249      3649.28549        50.000  

  22380250.85949 117609012.02749      5787.60249        50.000  

 16 04 02 12 47 24.6000000  0  2G29G09                                          
  21065015.61749 110697403.65249      3645.78149        50.000  

  22380140.77349 117608433.52349      5782.21549        50.000  

 16 04 02 12 47 24.7000000  0  2G29G09                                          
  21064946.28149 110697039.28949      3641.95349        50.000  

  22380030.79749 117607855.59449      5776.50049        50.000  

 16 04 02 12 47 24.8000000  0  2G29G09                                          
  21064877.00849 110696675.28149      3638.41449        50.000  

  22379920.92249 117607278.19949      5771.25449        50.000  

 16 04 02 12 47 24.9000000  0  2G29G09                                          
  21064807.79749 110696311.58249      3635.37949        50.000  

  22379811.14149 117606701.29749      5766.41049        50.000  

 16 04 02 12 47 25.0000000  0  2G29G09                                          
  21064738.65649 110695948.23849      3631.73049        50.000  

  22379701.46149 117606124.93449      5760.84049        50.000  

 16 04 02 12 47 25.1000000  0  2G29G09                                          
  21064669.59449 110695585.27349      3627.96949        50.000  

  22379591.89149 117605549.14549      5755.19549        50.000  

 16 04 02 12 47 25.2000000  0  2G29G09                                          
  21064600.58649 110695222.62549      3624.78949        50.000  

  22379482.41449 117604973.84849      5750.19149        50.000  

 16 04 02 12 47 25.3000000  0  2G29G09                                          
  21064531.64149 110694860.32849      3621.39149        50.000  

  22379373.04749 117604399.08649      5744.97749        50.000  

 16 04 02 12 47 25.4000000  0  2G29G09                                          
  21064462.76649 110694498.39149      3617.77349        50.000  

  22379263.77349 117603824.85949      5739.53149        50.000  

 16 04 02 12 47 25.5000000  0  2G29G09                                          
  21064393.96149 110694136.79749      3614.25049        50.000  

  22379154.60249 117603251.16849      5734.23049        50.000  

 16 04 02 12 47 25.6000000  0  2G29G09                                          
  21064325.21149 110693775.55549      3610.68849        50.000  

  22379045.53949 117602678.02049      5728.73849        50.000  

 16 04 02 12 47 25.7000000  0  2G29G09                                          
  21064256.53949 110693414.66849      3607.19549        50.000  

  22378936.57049 117602105.39549      5723.53149        50.000  

 16 04 02 12 47 25.8000000  0  2G29G09                                          
  21064187.91449 110693054.06649      3604.41049        50.000  

  22378827.69549 117601533.26249      5718.77749        50.000  

 16 04 02 12 47 25.9000000  0  2G29G09                                          
  21064119.35949 110692693.80149      3601.24249        50.000  

  22378718.91449 117600961.63349      5713.67249        50.000  

 16 04 02 12 47 26.0000000  0  2G29G09                                          
  21064050.86749 110692333.89849      3597.54349        50.000  

  22378610.24249 117600390.54349      5708.30949        50.000  

 16 04 02 12 47 26.1000000  0  2G29G09                                          
  21063982.44549 110691974.31649      3594.27749        50.000  

  22378501.66449 117599819.96949      5703.15249        50.000  

 16 04 02 12 47 26.2000000  0  2G29G09                                          
  21063914.07849 110691615.05949      3590.97349        50.000  

  22378393.18849 117599249.91049      5697.85949        50.000  

 16 04 02 12 47 26.3000000  0  2G29G09                                          
  21063845.79749 110691256.23849      3586.53149        50.000  

  22378284.82049 117598680.45349      5691.85549        50.000  

 16 04 02 12 47 26.4000000  0  2G29G09                                          
  21063777.57849 110690897.71149      3583.46149        50.000  

  22378176.54749 117598111.48049      5686.74249        50.000  

 16 04 02 12 47 26.5000000  0  2G29G09                                          
  21063709.41449 110690539.53149      3580.29749        50.000  

  22378068.37549 117597543.05149      5681.82049        50.000  

 16 04 02 12 47 26.6000000  0  2G29G09                                          
  21063641.31249 110690181.65649      3577.21549        50.000  

  22377960.29749 117596975.10549      5676.80949        50.000  

 16 04 02 12 47 26.7000000  0  2G29G09                                          
  21063573.28149 110689824.14149      3573.59449        50.000  

  22377852.32849 117596407.69149      5671.43049        50.000  

 16 04 02 12 47 26.8000000  0  2G29G09                                          
  21063505.31249 110689466.98049      3570.12549        50.000  

  22377744.46149 117595840.83649      5666.10249        50.000  

 16 04 02 12 47 26.9000000  0  2G29G09                                          
  21063437.40649 110689110.14549      3566.83649        50.000  

  22377636.68049 117595274.47349      5661.01249        50.000  

 16 04 02 12 47 27.0000000  0  2G29G09                                          
  21063369.57049 110688753.62949      3563.48049        50.000  

  22377529.00049 117594708.62149      5655.78549        50.000  

 16 04 02 12 47 27.1000000  0  2G29G09                                          
  21063301.79749 110688397.49249      3559.76249        50.000  

  22377421.43049 117594143.32849      5650.04349        50.000  

 16 04 02 12 47 27.2000000  0  2G29G09                                          
  21063234.09449 110688041.70749      3556.23449        50.000  

  22377313.96149 117593578.57049      5644.81649        50.000  

 16 04 02 12 47 27.3000000  0  2G29G09                                          
  21063166.44549 110687686.21949      3553.30549        50.000  

  22377206.58649 117593014.30149      5639.95749        50.000  

 16 04 02 12 47 27.4000000  0  2G29G09                                          
  21063098.87549 110687331.12149      3549.40249        50.000  

  22377099.31249 117592450.59449      5634.32449        50.000  

 16 04 02 12 47 27.5000000  0  2G29G09                                          
  21063031.37549 110686976.37549      3545.87949        50.000  

  22376992.14849 117591887.43049      5629.03149        50.000  

 16 04 02 12 47 27.6000000  0  2G29G09                                          
  21062963.93049 110686621.96149      3542.50849        50.000  

  22376885.07849 117591324.78149      5623.69949        50.000  

 16 04 02 12 47 27.7000000  0  2G29G09                                          
  21062896.56249 110686267.93449      3538.73849        50.000  

  22376778.11749 117590762.69949      5618.11749        50.000  

 16 04 02 12 47 27.8000000  0  2G29G09                                          
  21062829.25049 110685914.21549      3535.60249        50.000  

  22376671.25049 117590201.12549      5613.15649        50.000  

 16 04 02 12 47 27.9000000  0  2G29G09                                          
  21062762.00849 110685560.84849      3532.05549        50.000  

  22376564.48449 117589640.06649      5607.80549        50.000  

 16 04 02 12 47 28.0000000  0  2G29G09                                          
  21062694.83649 110685207.85249      3528.27349        50.000  

  22376457.82849 117589079.57049      5602.19149        50.000  

 16 04 02 12 47 28.1000000  0  2G29G09                                          
  21062627.72749 110684855.18849      3525.09449        50.000  

  22376351.26649 117588519.59449      5597.17649        50.000  

 16 04 02 12 47 28.2000000  0  2G29G09                                          
  21062560.67249 110684502.82049      3522.04749        50.000  

  22376244.79749 117587960.09849      5592.25049        50.000  

 16 04 02 12 47 28.3000000  0  2G29G09                                          
  21062493.68849 110684150.79749      3518.82449        50.000  

  22376138.43849 117587401.13749      5587.19949        50.000  

 16 04 02 12 47 28.4000000  0  2G29G09                                          
  21062426.75849 110683799.09849      3515.43449        50.000  

  22376032.16449 117586842.66049      5582.06249        50.000  

 16 04 02 12 47 28.5000000  0  2G29G09                                          
  21062359.89149 110683447.68049      3512.51249        50.000  

  22375925.98449 117586284.67649      5577.19949        50.000  

 16 04 02 12 47 28.6000000  0  2G29G09                                          
  21062293.10249 110683096.69949      3508.27049        50.000  

  22375819.92249 117585727.30549      5571.01649        50.000  

 16 04 02 12 47 28.7000000  0  2G29G09                                          
  21062226.36749 110682746.00449      3505.34849        50.000  

  22375713.94549 117585170.39849      5566.34449        50.000  

 16 04 02 12 47 28.8000000  0  2G29G09                                          
  21062159.68849 110682395.62549      3502.29349        50.000  

  22375608.06249 117584613.98849      5561.56649        50.000  

 16 04 02 12 47 28.9000000  0  2G29G09                                          
  21062093.09449 110682045.66449      3497.93449        50.000  

  22375502.29749 117584058.19149      5555.15249        50.000  

 16 04 02 12 47 29.0000000  0  2G29G09                                          
  21062026.57049 110681696.04749      3494.49249        50.000  

  22375396.62549 117583502.91049      5550.04749        50.000  

 16 04 02 12 47 29.1000000  0  2G29G09                                          
  21061960.09449 110681346.72349      3491.62549        50.000  

  22375291.05549 117582948.11749      5545.34449        50.000  

 16 04 02 12 47 29.2000000  0  2G29G09                                          
  21061893.69549 110680997.80949      3487.71949        50.000  

  22375185.59449 117582393.92249      5539.45349        50.000  

 16 04 02 12 47 29.3000000  0  2G29G09                                          
  21061827.35949 110680649.21949      3484.16449        50.000  

  22375080.22749 117581840.22749      5534.16449        50.000  

 16 04 02 12 47 29.4000000  0  2G29G09                                          
  21061761.08649 110680300.94149      3481.06249        50.000  

  22374974.96149 117581287.02749      5529.13349        50.000  

 16 04 02 12 47 29.5000000  0  2G29G09                                          
  21061694.87549 110679953.00849      3477.82049        50.000  

  22374869.78949 117580734.35949      5524.05149        50.000  

 16 04 02 12 47 29.6000000  0  2G29G09                                          
  21061628.75049 110679605.52349      3473.21149        50.000  

  22374764.73449 117580182.31649      5517.57449        50.000  

 16 04 02 12 47 29.7000000  0  2G29G09                                          
  21061562.68849 110679258.33649      3470.20349        50.000  

  22374659.78149 117579630.77049      5512.77349        50.000  

 16 04 02 12 47 29.8000000  0  2G29G09                                          
  21061496.68049 110678911.47749      3466.98049        50.000  

  22374554.92249 117579079.72349      5507.77749        50.000  

 16 04 02 12 47 29.9000000  0  2G29G09                                          
  21061430.73449 110678564.93449      3463.85249        50.000  

  22374450.15649 117578529.18849      5502.73449        50.000  

 16 04 02 12 47 30.0000000  0  2G29G09                                          
  21061364.85949 110678218.74649      3460.34049        50.000  

  22374345.49249 117577979.18449      5497.36749        50.000  

 16 04 02 12 47 30.1000000  0  2G29G09                                          
  21061299.05549 110677872.93049      3456.59449        50.000  

  22374240.93849 117577429.72749      5491.86349        50.000  

 16 04 02 12 47 30.2000000  0  2G29G09                                          
  21061233.30549 110677527.41049      3453.66849        50.000  

  22374136.47749 117576880.77349      5486.98449        50.000  

 16 04 02 12 47 30.3000000  0  2G29G09                                          
  21061167.60949 110677182.21149      3450.44549        50.000  

  22374032.10249 117576332.30149      5482.10949        50.000  

 16 04 02 12 47 30.4000000  0  2G29G09                                          
  21061102.00049 110676837.39149      3446.59849        50.000  

  22373927.84449 117575784.40649      5476.32849        50.000  

 16 04 02 12 47 30.5000000  0  2G29G09                                          
  21061036.44549 110676492.92649      3442.99249        50.000  

  22373823.68049 117575237.05149      5470.80949        50.000  

 16 04 02 12 47 30.6000000  0  2G29G09                                          
  21060970.96149 110676148.80149      3439.60249        50.000  

  22373719.62549 117574690.22349      5465.50449        50.000  

 16 04 02 12 47 30.7000000  0  2G29G09                                          
  21060905.54749 110675805.03549      3435.96549        50.000  

  22373615.66449 117574143.92649      5460.12549        50.000  

 16 04 02 12 47 30.8000000  0  2G29G09                                          
  21060840.19549 110675461.61349      3432.67649        50.000  

  22373511.81249 117573598.16849      5454.95349        50.000  

 16 04 02 12 47 30.9000000  0  2G29G09                                          
  21060774.91449 110675118.53549      3429.10949        50.000  

  22373408.05549 117573052.93449      5449.52349        50.000  

 16 04 02 12 47 31.0000000  0  2G29G09                                          
  21060709.68849 110674775.78149      3426.04349        50.000  

  22373304.39849 117572508.21149      5444.59449        50.000  

 16 04 02 12 47 31.1000000  0  2G29G09                                          
  21060644.53149 110674433.39149      3422.32449        50.000  

  22373200.84449 117571964.02049      5439.28949        50.000  

 16 04 02 12 47 31.2000000  0  2G29G09                                          
  21060579.43049 110674091.30149      3419.23849        50.000  

  22373097.38349 117571420.33649      5434.17249        50.000  

 16 04 02 12 47 31.3000000  0  2G29G09                                          
  21060514.40649 110673749.57049      3415.73049        50.000  

  22372994.02349 117570877.19149      5428.70349        50.000  

 16 04 02 12 47 31.4000000  0  2G29G09                                          
  21060449.43849 110673408.16849      3412.47749        50.000  

  22372890.76649 117570334.55549      5423.69149        50.000  

 16 04 02 12 47 31.5000000  0  2G29G09                                          
  21060384.53949 110673067.12949      3408.86349        50.000  

  22372787.60949 117569792.46549      5418.32449        50.000  

 16 04 02 12 47 31.6000000  0  2G29G09                                          
  21060319.72749 110672726.48849      3404.73049        50.000  

  22372684.56249 117569250.96149      5412.35949        50.000  

 16 04 02 12 47 31.7000000  0  2G29G09                                          
  21060254.96949 110672386.19149      3401.30549        50.000  

  22372581.61749 117568709.98449      5406.93449        50.000  

 16 04 02 12 47 31.8000000  0  2G29G09                                          
  21060190.27349 110672046.21949      3398.21149        50.000  

  22372478.77349 117568169.51649      5402.09449        50.000  

 16 04 02 12 47 31.9000000  0  2G29G09                                          
  21060125.64849 110671706.60549      3394.49649        50.000  

  22372376.03149 117567629.60249      5396.23049        50.000  

 16 04 02 12 47 32.0000000  0  2G29G09                                          
  21060061.09449 110671367.40649      3390.51649        50.000  

  22372273.39849 117567090.26249      5390.87149        50.000  

 16 04 02 12 47 32.1000000  0  2G29G09                                          
  21059996.59449 110671028.43849      3387.92649        50.000  

  22372170.85249 117566551.35949      5386.22749        50.000  

 16 04 02 12 47 32.2000000  0  2G29G09                                          
  21059932.15649 110670689.82849      3384.51249        50.000  

  22372068.39849 117566012.98849      5380.96949        50.000  

 16 04 02 12 47 32.3000000  0  2G29G09                                          
  21059867.79749 110670351.60549      3380.65649        50.000  

  22371966.05549 117565475.16849      5375.53949        50.000  

 16 04 02 12 47 32.4000000  0  2G29G09                                          
  21059803.48449 110670013.68449      3377.59449        50.000  

  22371863.81249 117564937.88749      5370.12149        50.000  

 16 04 02 12 47 32.5000000  0  2G29G09                                          
  21059739.25049 110669676.12149      3374.17649        50.000  

  22371761.66449 117564401.09049      5365.30949        50.000  

 16 04 02 12 47 32.6000000  0  2G29G09                                          
  21059675.07849 110669338.85949      3370.90249        50.000  

  22371659.61749 117563864.82449      5360.02049        50.000  

 16 04 02 12 47 32.7000000  0  2G29G09                                          
  21059610.97749 110669002.00449      3366.89849        50.000  

  22371557.68049 117563329.13349      5354.20349        50.000  

 16 04 02 12 47 32.8000000  0  2G29G09                                          
  21059546.92249 110668665.38749      3364.64549        50.000  

  22371455.82049 117562793.87149      5350.05949        50.000  

 16 04 02 12 47 32.9000000  0  2G29G09                                          
  21059482.93849 110668329.14549      3360.95349        50.000  

  22371354.07049 117562259.15249      5344.54349        50.000  

 16 04 02 12 47 33.0000000  0  2G29G09                                          
  21059419.03149 110667993.33649      3356.48849        50.000  

  22371252.43849 117561725.06649      5338.21949        50.000  

 16 04 02 12 47 33.1000000  0  2G29G09                                          
  21059355.18049 110667657.78549      3353.85949        50.000  

  22371150.89149 117561191.41449      5333.69149        50.000  

 16 04 02 12 47 33.2000000  0  2G29G09                                          
  21059291.38349 110667322.57849      3350.43449        50.000  

  22371049.43849 117560658.28949      5328.44949        50.000  

 16 04 02 12 47 33.3000000  0  2G29G09                                          
  21059227.67249 110666987.74249      3346.75849        50.000  

  22370948.09449 117560125.72749      5323.06649        50.000  

 16 04 02 12 47 33.4000000  0  2G29G09                                          
  21059164.01649 110666653.23849      3343.19949        50.000  

  22370846.85249 117559593.68449      5317.60249        50.000  

 16 04 02 12 47 33.5000000  0  2G29G09                                          
  21059100.42249 110666319.05549      3340.26249        50.000  

  22370745.70349 117559062.13749      5312.90249        50.000  

 16 04 02 12 47 33.6000000  0  2G29G09                                          
  21059036.89849 110665985.23049      3336.71549        50.000  

  22370644.65649 117558531.13749      5307.35949        50.000  

 16 04 02 12 47 33.7000000  0  2G29G09                                          
  21058973.44549 110665651.79349      3332.56649        50.000  

  22370543.71949 117558000.70749      5301.38749        50.000  

 16 04 02 12 47 33.8000000  0  2G29G09                                          
  21058910.06249 110665318.68049      3329.56649        50.000  

  22370442.88349 117557470.79749      5296.54749        50.000  

 16 04 02 12 47 33.9000000  0  2G29G09                                          
  21058846.72749 110664985.87149      3326.53549        50.000  

  22370342.13349 117556941.35249      5291.86749        50.000  

 16 04 02 12 47 34.0000000  0  2G29G09                                          
  21058783.45349 110664653.38349      3323.24249        50.000  

  22370241.47749 117556412.43049      5286.60949        50.000  

 16 04 02 12 47 34.1000000  0  2G29G09                                          
  21058720.27349 110664321.34849      3318.68449        50.000  

  22370140.95349 117555884.13749      5280.23449        50.000  

 16 04 02 12 47 34.2000000  0  2G29G09                                          
  21058657.14149 110663989.55549      3316.28949        50.000  

  22370040.50049 117555356.28949      5275.77349        50.000  

 16 04 02 12 47 34.3000000  0  2G29G09                                          
  21058594.07049 110663658.15649      3312.53949        50.000  

  22369940.16449 117554829.01249      5270.19949        50.000  

 16 04 02 12 47 34.4000000  0  2G29G09                                          
  21058531.08649 110663327.14849      3308.48849        50.000  

  22369839.93849 117554302.29349      5264.44149        50.000  

 16 04 02 12 47 34.5000000  0  2G29G09                                          
  21058468.14849 110662996.42649      3305.56649        50.000  

  22369739.79749 117553776.06649      5259.64149        50.000  

 16 04 02 12 47 34.6000000  0  2G29G09                                          
  21058405.28149 110662666.03949      3302.37949        50.000  

  22369639.75849 117553250.34449      5254.60549        50.000  

 16 04 02 12 47 34.7000000  0  2G29G09                                          
  21058342.48449 110662336.02749      3298.64149        50.000  

  22369539.82049 117552725.19549      5248.98849        50.000  

 16 04 02 12 47 34.8000000  0  2G29G09                                          
  21058279.73449 110662006.31249      3295.50049        50.000  

  22369439.97749 117552200.51649      5244.10249        50.000  

 16 04 02 12 47 34.9000000  0  2G29G09                                          
  21058217.07049 110661676.98049      3291.76249        50.000  

  22369340.24249 117551676.40649      5238.46949        50.000  

 16 04 02 12 47 35.0000000  0  2G29G09                                          
  21058154.45349 110661347.96549      3288.60549        50.000  

  22369240.60949 117551152.80949      5233.32449        50.000  

 16 04 02 12 47 35.1000000  0  2G29G09                                          
  21058091.91449 110661019.31249      3284.95749        50.000  

  22369141.07049 117550629.75449      5227.85549        50.000  

 16 04 02 12 47 35.2000000  0  2G29G09                                          
  21058029.43849 110660690.98449      3281.73049        50.000  

  22369041.63349 117550107.19949      5222.90649        50.000  

 16 04 02 12 47 35.3000000  0  2G29G09                                          
  21057967.01649 110660362.96549      3278.68049        50.000  

  22368942.29749 117549585.14849      5217.87949        50.000  

 16 04 02 12 47 35.4000000  0  2G29G09                                          
  21057904.66449 110660035.32049      3274.96549        50.000  

  22368843.05549 117549063.65249      5212.41849        50.000  

 16 04 02 12 47 35.5000000  0  2G29G09                                          
  21057842.37549 110659707.96549      3271.96149        50.000  

  22368743.90649 117548542.62149      5207.73449        50.000  

 16 04 02 12 47 35.6000000  0  2G29G09                                          
  21057780.14849 110659380.96149      3268.42649        50.000  

  22368644.86749 117548022.14549      5202.08249        50.000  

 16 04 02 12 47 35.7000000  0  2G29G09                                          
  21057717.99249 110659054.35949      3264.31249        50.000  

  22368545.93849 117547502.23849      5196.11349        50.000  

 16 04 02 12 47 35.8000000  0  2G29G09                                          
  21057655.90649 110658728.07049      3261.21149        50.000  

  22368447.09449 117546982.83649      5191.25049        50.000  

 16 04 02 12 47 35.9000000  0  2G29G09                                          
  21057593.88349 110658402.12949      3257.81249        50.000  

  22368348.35949 117546463.96549      5186.06249        50.000  

 16 04 02 12 47 36.0000000  0  2G29G09                                          
  21057531.92249 110658076.51649      3254.59449        50.000  

  22368249.71949 117545945.61749      5180.88749        50.000  

 16 04 02 12 47 36.1000000  0  2G29G09                                          
  21057470.03149 110657751.27349      3250.73449        50.000  

  22368151.18049 117545427.80549      5175.34049        50.000  

 16 04 02 12 47 36.2000000  0  2G29G09                                          
  21057408.21149 110657426.43049      3246.77049        50.000  

  22368052.75849 117544910.59849      5169.34049        50.000  

 16 04 02 12 47 36.3000000  0  2G29G09                                          
  21057346.46149 110657101.92249      3243.35249        50.000  

  22367954.43849 117544393.89149      5164.24249        50.000  

 16 04 02 12 47 36.4000000  0  2G29G09                                          
  21057284.76649 110656777.71549      3240.34049        50.000  

  22367856.20349 117543877.68849      5159.32449        50.000  

 16 04 02 12 47 36.5000000  0  2G29G09                                          
  21057223.14149 110656453.89149      3236.61349        50.000  

  22367758.07849 117543362.05149      5153.68849        50.000  

 16 04 02 12 47 36.6000000  0  2G29G09                                          
  21057161.57849 110656130.40249      3233.34849        50.000  

  22367660.05549 117542846.93049      5148.55549        50.000  

 16 04 02 12 47 36.7000000  0  2G29G09                                          
  21057100.08649 110655807.25849      3229.73449        50.000  

  22367562.12549 117542332.32449      5143.18049        50.000  

 16 04 02 12 47 36.8000000  0  2G29G09                                          
  21057038.66449 110655484.46149      3226.44149        50.000  

  22367464.30549 117541818.27349      5137.93849        50.000  

 16 04 02 12 47 36.9000000  0  2G29G09                                          
  21056977.29749 110655161.96949      3223.40249        50.000  

  22367366.57849 117541304.69949      5133.05549        50.000  

 16 04 02 12 47 37.0000000  0  2G29G09                                          
  21056916.00849 110654839.87149      3219.47349        50.000  

  22367268.96149 117540791.69949      5127.44149        50.000  

 16 04 02 12 47 37.1000000  0  2G29G09                                          
  21056854.77349 110654518.10249      3215.98049        50.000  

  22367171.43849 117540279.22349      5121.99249        50.000  

 16 04 02 12 47 37.2000000  0  2G29G09                                          
  21056793.60949 110654196.67249      3212.71949        50.000  

  22367074.01649 117539767.27349      5116.86749        50.000  

 16 04 02 12 47 37.3000000  0  2G29G09                                          
  21056732.50049 110653875.56249      3209.50849        50.000  

  22366976.69549 117539255.82449      5111.87549        50.000  

 16 04 02 12 47 37.4000000  0  2G29G09                                          
  21056671.46149 110653554.79749      3206.02349        50.000  

  22366879.46949 117538744.89549      5106.55949        50.000  

 16 04 02 12 47 37.5000000  0  2G29G09                                          
  21056610.48449 110653234.36749      3202.60549        50.000  

  22366782.33649 117538234.49649      5101.18049        50.000  

 16 04 02 12 47 37.6000000  0  2G29G09                                          
  21056549.59449 110652914.35549      3198.50449        50.000  

  22366685.32849 117537724.71149      5095.12949        50.000  

 16 04 02 12 47 37.7000000  0  2G29G09                                          
  21056488.75849 110652594.66049      3195.34849        50.000  

  22366588.41449 117537215.40649      5090.30149        50.000  

 16 04 02 12 47 37.8000000  0  2G29G09                                          
  21056427.98449 110652275.28549      3192.08649        50.000  

  22366491.59449 117536706.61349      5085.15649        50.000  

 16 04 02 12 47 37.9000000  0  2G29G09                                          
  21056367.27349 110651956.24649      3188.94549        50.000  

  22366394.87549 117536198.35249      5080.13349        50.000  

 16 04 02 12 47 38.0000000  0  2G29G09                                          
  21056306.62549 110651637.52749      3185.64149        50.000  

  22366298.25049 117535690.59049      5074.95349        50.000  

 16 04 02 12 47 38.1000000  0  2G29G09                                          
  21056246.03949 110651319.16449      3182.09849        50.000  

  22366201.72749 117535183.35949      5069.68049        50.000  

 16 04 02 12 47 38.2000000  0  2G29G09                                          
  21056185.51649 110651001.10549      3179.03949        50.000  

  22366105.30549 117534676.62949      5064.70349        50.000  

 16 04 02 12 47 38.3000000  0  2G29G09                                          
  21056125.06249 110650683.42249      3175.30549        50.000  

  22366008.97749 117534170.44949      5059.13749        50.000  

 16 04 02 12 47 38.4000000  0  2G29G09                                          
  21056064.68049 110650366.10549      3171.52749        50.000  

  22365912.75849 117533664.82849      5053.54749        50.000  

 16 04 02 12 47 38.5000000  0  2G29G09                                          
  21056004.34449 110650049.05149      3168.83249        50.000  

  22365816.62549 117533159.65649      5048.91449        50.000  

 16 04 02 12 47 38.6000000  0  2G29G09                                          
  21055944.08649 110649732.38349      3165.17649        50.000  

  22365720.60249 117532655.05149      5043.34849        50.000  

 16 04 02 12 47 38.7000000  0  2G29G09                                          
  21055883.89849 110649416.09049      3161.27349        50.000  

  22365624.68849 117532151.01649      5037.56249        50.000  

 16 04 02 12 47 38.8000000  0  2G29G09                                          
  21055823.78149 110649100.20349      3157.17649        50.000  

  22365528.88349 117531647.55549      5031.81649        50.000  

 16 04 02 12 47 38.9000000  0  2G29G09                                          
  21055763.72749 110648784.57849      3154.57449        50.000  

  22365433.16449 117531144.54349      5027.34049        50.000  

 16 04 02 12 47 39.0000000  0  2G29G09                                          
  21055703.72749 110648469.32449      3150.87949        50.000  

  22365337.55549 117530642.09849      5021.79349        50.000  

 16 04 02 12 47 39.1000000  0  2G29G09                                          
  21055643.80549 110648154.41449      3147.52349        50.000  

  22365242.03949 117530140.17649      5016.58649        50.000  

 16 04 02 12 47 39.2000000  0  2G29G09                                          
  21055583.93849 110647839.83649      3144.21549        50.000  

  22365146.62549 117529638.77049      5011.45749        50.000  

 16 04 02 12 47 39.3000000  0  2G29G09                                          
  21055524.14849 110647525.62149      3140.49649        50.000  

  22365051.32049 117529137.91849      5005.77349        50.000  

 16 04 02 12 47 39.4000000  0  2G29G09                                          
  21055464.42249 110647211.73449      3137.32449        50.000  

  22364956.10949 117528637.58249      5000.83249        50.000  

 16 04 02 12 47 39.5000000  0  2G29G09                                          
  21055404.75849 110646898.19549      3133.72749        50.000  

  22364860.99249 117528137.77049      4995.31649        50.000  

 16 04 02 12 47 39.6000000  0  2G29G09                                          
  21055345.14149 110646584.95749      3130.94149        50.000  

  22364765.97749 117527638.44549      4990.70349        50.000  

 16 04 02 12 47 39.7000000  0  2G29G09                                          
  21055285.60249 110646272.07449      3127.36349        50.000  

  22364671.06249 117527139.66849      4985.14849        50.000  

 16 04 02 12 47 39.8000000  0  2G29G09                                          
  21055226.11749 110645959.50449      3124.23849        50.000  

  22364576.24249 117526641.38349      4980.23449        50.000  

 16 04 02 12 47 39.9000000  0  2G29G09                                          
  21055166.71149 110645647.29749      3120.52049        50.000  

  22364481.52349 117526143.63749      4974.75849        50.000  

 16 04 02 12 47 40.0000000  0  2G29G09                                          
  21055107.36749 110645335.47749      3116.52049        50.000  

  22364386.91449 117525646.48049      4968.82449        50.000  

 16 04 02 12 47 40.1000000  0  2G29G09                                          
  21055048.08649 110645023.96149      3113.49649        50.000  

  22364292.40649 117525149.79349      4964.13749        50.000  

 16 04 02 12 47 40.2000000  0  2G29G09                                          
  21054988.86749 110644712.77749      3110.22349        50.000  

  22364197.98449 117524653.63749      4958.87149        50.000  

 16 04 02 12 47 40.3000000  0  2G29G09                                          
  21054929.71149 110644401.91449      3107.05949        50.000  

  22364103.67249 117524157.98049      4953.88349        50.000  

 16 04 02 12 47 40.4000000  0  2G29G09                                          
  21054870.62549 110644091.38749      3103.79749        50.000  

  22364009.45349 117523662.85949      4948.75049        50.000  

 16 04 02 12 47 40.5000000  0  2G29G09                                          
  21054811.59449 110643781.19149      3100.37549        50.000  

  22363915.32849 117523168.24249      4943.45349        50.000  

 16 04 02 12 47 40.6000000  0  2G29G09                                          
  21054752.64849 110643471.41049      3096.27749        50.000  

  22363821.32049 117522674.21949      4937.58649        50.000  

 16 04 02 12 47 40.7000000  0  2G29G09                                          
  21054693.76649 110643161.98449      3092.61349        50.000  

  22363727.41449 117522180.74649      4932.04349        50.000  

 16 04 02 12 47 40.8000000  0  2G29G09                                          
  21054634.92249 110642852.76649      3090.49649        50.000  

  22363633.58649 117521687.66049      4928.15249        50.000  

 16 04 02 12 47 40.9000000  0  2G29G09                                          
  21054576.14149 110642543.89549      3087.38749        50.000  

  22363539.85249 117521195.11349      4923.06249        50.000  

 16 04 02 12 47 41.0000000  0  2G29G09                                          
  21054517.44549 110642235.41849      3083.27349        50.000  

  22363446.23449 117520703.14149      4917.14549        50.000  

 16 04 02 12 47 41.1000000  0  2G29G09                                          
  21054458.79749 110641927.25049      3080.02349        50.000  

  22363352.71149 117520211.68049      4911.84849        50.000  

 16 04 02 12 47 41.2000000  0  2G29G09                                          
  21054400.23449 110641619.47749      3076.01649        50.000  

  22363259.28949 117519720.76649      4906.16449        50.000  

 16 04 02 12 47 41.3000000  0  2G29G09                                          
  21054341.73449 110641312.07049      3072.34849        50.000  

  22363165.98449 117519230.42649      4900.70749        50.000  

 16 04 02 12 47 41.4000000  0  2G29G09                                          
  21054283.29749 110641004.98049      3069.29749        50.000  

  22363072.77349 117518740.58649      4895.71949        50.000  

 16 04 02 12 47 41.5000000  0  2G29G09                                          
  21054224.93849 110640698.27349      3065.53949        50.000  

  22362979.66449 117518251.30949      4890.08649        50.000  

 16 04 02 12 47 41.6000000  0  2G29G09                                          
  21054166.64149 110640391.91849      3061.75049        50.000  

  22362886.65649 117517762.57449      4884.37549        50.000  

 16 04 02 12 47 41.7000000  0  2G29G09                                          
  21054108.40649 110640085.91849      3058.55149        50.000  

  22362793.75849 117517274.36749      4879.56649        50.000  

 16 04 02 12 47 41.8000000  0  2G29G09                                          
  21054050.22749 110639780.18049      3055.88349        50.000  

  22362700.94549 117516786.62149      4874.79749        50.000  

 16 04 02 12 47 41.9000000  0  2G29G09                                          
  21053992.12549 110639474.87149      3051.51249        50.000  

  22362608.24249 117516299.49649      4868.59849        50.000  

 16 04 02 12 47 42.0000000  0  2G29G09                                          
  21053934.08649 110639169.87549      3048.39849        50.000  

  22362515.64149 117515812.85249      4863.84449        50.000  

 16 04 02 12 47 42.1000000  0  2G29G09                                          
  21053876.10249 110638865.16449      3045.66849        50.000  

  22362423.12549 117515326.68049      4859.16849        50.000  

 16 04 02 12 47 42.2000000  0  2G29G09                                          
  21053818.20349 110638560.86349      3041.43849        50.000  

  22362330.71949 117514841.11349      4853.08649        50.000  

 16 04 02 12 47 42.3000000  0  2G29G09                                          
  21053760.34449 110638256.84049      3038.68049        50.000  

  22362238.41449 117514356.01249      4848.39549        50.000  

 16 04 02 12 47 42.4000000  0  2G29G09                                          
  21053702.56249 110637953.16849      3035.21149        50.000  

  22362146.20349 117513871.44549      4842.96549        50.000  

 16 04 02 12 47 42.5000000  0  2G29G09                                          
  21053644.84449 110637649.85949      3031.48849        50.000  

  22362054.09449 117513387.41449      4837.41849        50.000  

 16 04 02 12 47 42.6000000  0  2G29G09                                          
  21053587.20349 110637346.94149      3027.56249        50.000  

  22361962.09449 117512903.96549      4831.67249        50.000  

 16 04 02 12 47 42.7000000  0  2G29G09                                          
  21053529.62549 110637044.37149      3024.08649        50.000  

  22361870.19549 117512421.05549      4826.37549        50.000  

 16 04 02 12 47 42.8000000  0  2G29G09                                          
  21053472.10949 110636742.14549      3020.69549        50.000  

  22361778.39849 117511938.65249      4821.38349        50.000  

 16 04 02 12 47 42.9000000  0  2G29G09                                          
  21053414.64849 110636440.19149      3017.95749        50.000  

  22361686.68849 117511456.73449      4816.69149        50.000  

 16 04 02 12 47 43.0000000  0  2G29G09                                          
  21053357.25849 110636138.59049      3014.48049        50.000  

  22361595.08649 117510975.34449      4811.35249        50.000  

 16 04 02 12 47 43.1000000  0  2G29G09                                          
  21053299.93849 110635837.35549      3010.82849        50.000  

  22361503.58649 117510494.51249      4805.73049        50.000  

 16 04 02 12 47 43.2000000  0  2G29G09                                          
  21053242.67249 110635536.41449      3007.81649        50.000  

  22361412.17249 117510014.14549      4800.96149        50.000  

 16 04 02 12 47 43.3000000  0  2G29G09                                          
  21053185.46949 110635235.80149      3004.44149        50.000  

  22361320.85949 117509534.30549      4795.55949        50.000  

 16 04 02 12 47 43.4000000  0  2G29G09                                          
  21053128.34449 110634935.62949      3000.23049        50.000  

  22361229.66449 117509055.07049      4789.73449        50.000  

 16 04 02 12 47 43.5000000  0  2G29G09                                          
  21053071.27349 110634635.71949      2997.53149        50.000  

  22361138.56249 117508576.31249      4785.03149        50.000  

 16 04 02 12 47 43.6000000  0  2G29G09                                          
  21053014.26649 110634336.14149      2994.30549        50.000  

  22361047.55549 117508098.06249      4779.94149        50.000  

 16 04 02 12 47 43.7000000  0  2G29G09                                          
  21052957.32849 110634036.93049      2990.54349        50.000  

  22360956.64849 117507620.34849      4774.46549        50.000  

 16 04 02 12 47 43.8000000  0  2G29G09                                          
  21052900.45349 110633738.07049      2986.97749        50.000  

  22360865.85249 117507143.19149      4768.94149        50.000  

 16 04 02 12 47 43.9000000  0  2G29G09                                          
  21052843.64149 110633439.51649      2984.09049        50.000  

  22360775.14849 117506666.52049      4764.20749        50.000  

 16 04 02 12 47 44.0000000  0  2G29G09                                          
  21052786.89849 110633141.35249      2980.13349        50.000  

  22360684.54749 117506190.41849      4758.31649        50.000  

 16 04 02 12 47 44.1000000  0  2G29G09                                          
  21052730.22749 110632843.52349      2976.69949        50.000  

  22360594.04749 117505714.83649      4753.14849        50.000  

 16 04 02 12 47 44.2000000  0  2G29G09                                          
  21052673.60949 110632545.97749      2973.77349        50.000  

  22360503.64149 117505239.73449      4748.18049        50.000  

 16 04 02 12 47 44.3000000  0  2G29G09                                          
  21052617.05549 110632248.77749      2970.62949        50.000  

  22360413.32849 117504765.15249      4743.26249        50.000  

 16 04 02 12 47 44.4000000  0  2G29G09                                          
  21052560.57049 110631951.97349      2966.48049        50.000  

  22360323.12549 117504291.14849      4737.28549        50.000  

 16 04 02 12 47 44.5000000  0  2G29G09                                          
  21052504.15649 110631655.48849      2963.06649        50.000  

  22360233.02349 117503817.66049      4732.07049        50.000  

 16 04 02 12 47 44.6000000  0  2G29G09                                          
  21052447.79749 110631359.36349      2959.55949        50.000  

  22360143.02349 117503344.71149      4726.62949        50.000  

 16 04 02 12 47 44.7000000  0  2G29G09                                          
  21052391.52349 110631063.62149      2955.70349        50.000  

  22360053.13349 117502872.33249      4720.97749        50.000  

 16 04 02 12 47 44.8000000  0  2G29G09                                          
  21052335.29749 110630768.17249      2952.96949        50.000  

  22359963.33649 117502400.43849      4716.35949        50.000  

 16 04 02 12 47 44.9000000  0  2G29G09                                          
  21052279.14149 110630473.04349      2949.86349        50.000  

  22359873.63349 117501929.04349      4711.44549        50.000  

 16 04 02 12 47 45.0000000  0  2G29G09                                          
  21052223.03949 110630178.25049      2946.49649        50.000  

  22359784.03149 117501458.16849      4706.18049        50.000  

 16 04 02 12 47 45.1000000  0  2G29G09                                          
  21052167.00849 110629883.78949      2943.04749        50.000  

  22359694.52349 117500987.81249      4700.86749        50.000  

 16 04 02 12 47 45.2000000  0  2G29G09                                          
  21052111.03949 110629589.68049      2939.59849        50.000  

  22359605.12549 117500518.00049      4695.56649        50.000  

 16 04 02 12 47 45.3000000  0  2G29G09                                          
  21052055.13349 110629295.91449      2935.94149        50.000  

  22359515.82049 117500048.69949      4690.13349        50.000  

 16 04 02 12 47 45.4000000  0  2G29G09                                          
  21051999.30549 110629002.54749      2931.93849        50.000  

  22359426.62549 117499579.99649      4684.14849        50.000  

 16 04 02 12 47 45.5000000  0  2G29G09                                          
  21051943.53149 110628709.46549      2929.36749        50.000  

  22359337.52349 117499111.76649      4679.78549        50.000  

 16 04 02 12 47 45.6000000  0  2G29G09                                          
  21051887.82849 110628416.72349      2925.84049        50.000  

  22359248.52349 117498644.05949      4674.34449        50.000  

 16 04 02 12 47 45.7000000  0  2G29G09                                          
  21051832.19549 110628124.35249      2922.22749        50.000  

  22359159.62549 117498176.90249      4668.95749        50.000  

 16 04 02 12 47 45.8000000  0  2G29G09                                          
  21051776.61749 110627832.28149      2919.02049        50.000  

  22359070.82049 117497710.23049      4663.94949        50.000  

 16 04 02 12 47 45.9000000  0  2G29G09                                          
  21051721.10249 110627540.55949      2915.62549        50.000  

  22358982.12549 117497244.10249      4658.60549        50.000  

 16 04 02 12 47 46.0000000  0  2G29G09                                          
  21051665.66449 110627249.21149      2911.98049        50.000  

  22358893.53149 117496778.53549      4653.03549        50.000  

 16 04 02 12 47 46.1000000  0  2G29G09                                          
  21051610.27349 110626958.14849      2909.04349        50.000  

  22358805.02349 117496313.42649      4648.33649        50.000  

 16 04 02 12 47 46.2000000  0  2G29G09                                          
  21051554.96149 110626667.49249      2904.95349        50.000  

  22358716.63349 117495848.91849      4642.28149        50.000  

 16 04 02 12 47 46.3000000  0  2G29G09                                          
  21051499.71149 110626377.15249      2901.87949        50.000  

  22358628.33649 117495384.90649      4637.57849        50.000  

 16 04 02 12 47 46.4000000  0  2G29G09                                          
  21051444.52349 110626087.14849      2898.29749        50.000  

  22358540.13349 117494921.42649      4631.97349        50.000  

 16 04 02 12 47 46.5000000  0  2G29G09                                          
  21051389.40649 110625797.50849      2894.92649        50.000  

  22358452.03949 117494458.48849      4626.93049        50.000  

 16 04 02 12 47 46.6000000  0  2G29G09                                          
  21051334.35249 110625508.16449      2891.94549        50.000  

  22358364.03949 117493996.03549      4621.88749        50.000  

 16 04 02 12 47 46.7000000  0  2G29G09                                          
  21051279.35249 110625219.16449      2888.45749        50.000  

  22358276.14149 117493534.10549      4616.61749        50.000  

 16 04 02 12 47 46.8000000  0  2G29G09                                          
  21051224.43849 110624930.57849      2884.36749        50.000  

  22358188.35249 117493072.78149      4610.57449        50.000  

 16 04 02 12 47 46.9000000  0  2G29G09                                          
  21051169.58649 110624642.32049      2880.84849        50.000  

  22358100.66449 117492611.96949      4605.25449        50.000  

 16 04 02 12 47 47.0000000  0  2G29G09                                          
  21051114.79749 110624354.44549      2877.16449        50.000  

  22358013.07849 117492151.71549      4599.78549        50.000  

 16 04 02 12 47 47.1000000  0  2G29G09                                          
  21051060.07849 110624066.87149      2874.14849        50.000  

  22357925.59449 117491691.96549      4594.91849        50.000  

 16 04 02 12 47 47.2000000  0  2G29G09                                          
  21051005.42249 110623779.65249      2870.69149        50.000  

  22357838.21149 117491232.74649      4589.64849        50.000  

 16 04 02 12 47 47.3000000  0  2G29G09                                          
  21050950.82849 110623492.73049      2867.58249        50.000  

  22357750.91449 117490774.01649      4584.57049        50.000  

 16 04 02 12 47 47.4000000  0  2G29G09                                          
  21050896.29749 110623206.16049      2864.23449        50.000  

  22357663.72749 117490315.82849      4579.30149        50.000  

 16 04 02 12 47 47.5000000  0  2G29G09                                          
  21050841.82849 110622919.94949      2860.64549        50.000  

  22357576.63349 117489858.16449      4574.03149        50.000  

 16 04 02 12 47 47.6000000  0  2G29G09                                          
  21050787.41449 110622634.00449      2857.87549        50.000  

  22357489.63349 117489400.96949      4569.23849        50.000  

 16 04 02 12 47 47.7000000  0  2G29G09                                          
  21050733.07849 110622348.45349      2854.01249        50.000  

  22357402.74249 117488944.35249      4563.62149        50.000  

 16 04 02 12 47 47.8000000  0  2G29G09                                          
  21050678.80549 110622063.21949      2850.77349        50.000  

  22357315.94549 117488488.22749      4558.54749        50.000  

 16 04 02 12 47 47.9000000  0  2G29G09                                          
  21050624.59449 110621778.35249      2847.04749        50.000  

  22357229.25049 117488032.66449      4552.93849        50.000  

 16 04 02 12 47 48.0000000  0  2G29G09                                          
  21050570.43849 110621493.78549      2844.09049        50.000  

  22357142.65649 117487577.58249      4548.21149        50.000  

 16 04 02 12 47 48.1000000  0  2G29G09                                          
  21050516.35249 110621209.56249      2840.53949        50.000  

  22357056.15649 117487123.03949      4542.59049        50.000  

 16 04 02 12 47 48.2000000  0  2G29G09                                          
  21050462.35249 110620925.78149      2836.24249        50.000  

  22356969.78149 117486669.11349      4536.55149        50.000  

 16 04 02 12 47 48.3000000  0  2G29G09                                          
  21050408.39849 110620642.24649      2833.67249        50.000  

  22356883.47749 117486215.61349      4532.23049        50.000  

 16 04 02 12 47 48.4000000  0  2G29G09                                          
  21050354.51649 110620359.08649      2830.05949        50.000  

  22356797.28949 117485762.69549      4526.57449        50.000  

 16 04 02 12 47 48.5000000  0  2G29G09                                          
  21050300.69549 110620076.26249      2826.70749        50.000  

  22356711.20349 117485310.28949      4521.45749        50.000  

 16 04 02 12 47 48.6000000  0  2G29G09                                          
  21050246.93849 110619793.79349      2823.15249        50.000  

  22356625.21149 117484858.41049      4516.16449        50.000  

 16 04 02 12 47 48.7000000  0  2G29G09                                          
  21050193.25849 110619511.68849      2819.34449        50.000  

  22356539.32849 117484407.09849      4510.37949        50.000  

 16 04 02 12 47 48.8000000  0  2G29G09                                          
  21050139.64149 110619229.94549      2815.61749        50.000  

  22356453.54749 117483956.33249      4504.74649        50.000  

 16 04 02 12 47 48.9000000  0  2G29G09                                          
  21050086.09449 110618948.53549      2812.52349        50.000  

  22356367.87549 117483506.09049      4499.69149        50.000  

 16 04 02 12 47 49.0000000  0  2G29G09                                          
  21050032.60949 110618667.47349      2809.17249        50.000  

  22356282.28949 117483056.36349      4494.81649        50.000  

 16 04 02 12 47 49.1000000  0  2G29G09                                          
  21049979.18049 110618386.68449      2806.33649        50.000  

  22356196.80549 117482607.10949      4489.94549        50.000  

 16 04 02 12 47 49.2000000  0  2G29G09                                          
  21049925.81249 110618106.25049      2802.59449        50.000  

  22356111.41449 117482158.39149      4484.23449        50.000  

 16 04 02 12 47 49.3000000  0  2G29G09                                          
  21049872.53149 110617826.22749      2798.75049        50.000  

  22356026.14149 117481710.26649      4478.59049        50.000  

 16 04 02 12 47 49.4000000  0  2G29G09                                          
  21049819.29749 110617546.49249      2795.75449        50.000  

  22355940.95349 117481262.61349      4473.94149        50.000  

 16 04 02 12 47 49.5000000  0  2G29G09                                          
  21049766.12549 110617267.07849      2792.48049        50.000  

  22355855.86749 117480815.48049      4468.57049        50.000  

 16 04 02 12 47 49.6000000  0  2G29G09                                          
  21049713.03149 110616988.07049      2788.45749        50.000  

  22355770.89149 117480368.93849      4462.76649        50.000  

 16 04 02 12 47 49.7000000  0  2G29G09                                          
  21049660.00049 110616709.37949      2785.23849        50.000  

  22355686.00849 117479922.88349      4457.84449        50.000  

 16 04 02 12 47 49.8000000  0  3G29G25G09                                       
  21049607.03149 110616431.00049      2782.25049        50.000  

  24283016.55549 127608112.43059     12070.94149        48.000  

  22355601.22749 117479477.34849      4452.82849        50.000  

 16 04 02 12 47 49.9000000  0  3G29G25G09                                       
  21049554.11749 110616152.92649      2779.12149        50.000  

  24282786.85949 127606905.37149     12069.90249        48.000  

  22355516.53949 117479032.28149      4447.95749        50.000  

 16 04 02 12 47 50.0000000  0  3G29G25G09                                       
  21049501.27349 110615875.23449      2775.41049        50.000  

  24282557.20349 127605698.49649     12068.18849        48.000  

  22355431.96149 117478587.80149      4442.24249        50.000  

 16 04 02 12 47 50.1000000  0  3G29G25G09                                       
  21049448.48449 110615597.82049      2772.56249        50.000  

  24282327.56249 127604491.69149     12067.44949        48.000  

  22355347.46149 117478143.77049      4437.64549        50.000  

 16 04 02 12 47 50.2000000  0  3G29G25G09                                       
  21049395.75849 110615320.77749      2768.87549        50.000  

  24282097.96149 127603285.04749     12065.88749        48.000  

  22355263.07849 117477700.29749      4432.03949        50.000  

 16 04 02 12 47 50.3000000  0  3G29G25G09                                       
  21049343.11749 110615044.11749      2764.87949        50.000  

  24281868.37549 127602078.59049     12063.88349        48.000  

  22355178.79749 117477257.40249      4426.33649        50.000  

 16 04 02 12 47 50.4000000  0  3G29G25G09                                       
  21049290.52349 110614767.76649      2761.78149        50.000  

  24281638.84449 127600872.23049     12062.86749        48.000  

  22355094.60949 117476814.99649      4421.24649        50.000  

 16 04 02 12 47 50.5000000  0  3G29G25G09                                       
  21049238.00849 110614491.79349      2758.19149        50.000  

  24281409.31249 127599666.04749     12061.26649        48.000  

  22355010.53149 117476373.16449      4415.71549        50.000  

 16 04 02 12 47 50.6000000  0  3G29G25G09                                       
  21049185.56249 110614216.15649      2754.78949        50.000  

  24281179.80549 127598459.99649     12059.89849        48.000  

  22354926.54749 117475931.84049      4410.58249        50.000  

 16 04 02 12 47 50.7000000  0  3G29G25G09                                       
  21049133.16449 110613940.82449      2751.65649        50.000  

  24280950.32049 127597254.04749     12058.71149        48.000  

  22354842.66449 117475491.01649      4405.46949        50.000  

 16 04 02 12 47 50.8000000  0  3G29G25G09                                       
  21049080.85249 110613665.91449      2747.54349        50.000  

  24280720.85949 127596048.30149     12056.77749        48.000  

  22354758.89149 117475050.78949      4399.71149        50.000  

 16 04 02 12 47 50.9000000  0  3G29G25G09                                       
  21049028.59449 110613391.28949      2744.64149        50.000  

  24280491.43049 127594842.64149     12055.97749        48.000  

  22354675.21149 117474611.04349      4394.90249        50.000  

 16 04 02 12 47 51.0000000  0  3G29G25G09                                       
  21048976.40649 110613117.02049      2741.05549        50.000  

  24280262.01649 127593637.13749     12054.35949        48.000  

  22354591.63349 117474171.83649      4389.27049        50.000  

 16 04 02 12 47 51.1000000  0  3G29G25G09                                       
  21048924.27349 110612843.09449      2737.72749        50.000  

  24280032.64149 127592431.76649     12053.14149        48.000  

  22354508.15649 117473733.16049      4384.21549        50.000  

 16 04 02 12 47 51.2000000  0  3G29G25G09                                       
  21048872.21149 110612569.49249      2734.30949        50.000  

  24279803.29749 127591226.50849     12051.88349        48.000  

  22354424.77349 117473294.98849      4378.93849        50.000  

 16 04 02 12 47 51.3000000  0  3G29G25G09                                       
  21048820.21149 110612296.25049      2730.78949        50.000  

  24279573.97749 127590021.41849     12050.27049        48.000  

  22354341.49249 117472857.36749      4373.50049        50.000  

 16 04 02 12 47 51.4000000  0  3G29G25G09                                       
  21048768.28149 110612023.37149      2727.14149        50.000  

  24279344.69549 127588816.47349     12048.73049        48.000  

  22354258.32049 117472420.29749      4368.07449        50.000  

 16 04 02 12 47 51.5000000  0  3G29G25G09                                       
  21048716.41449 110611750.80549      2724.06649        50.000  

  24279115.42249 127587611.64149     12047.68449        48.000  

  22354175.24249 117471983.72749      4362.96149        50.000  

 16 04 02 12 47 51.6000000  0  3G29G25G09                                       
  21048664.61749 110611478.61749      2720.45749        50.000  

  24278886.18049 127586406.98449     12046.08249        48.000  

  22354092.27349 117471547.71549      4357.54749        50.000  

 16 04 02 12 47 51.7000000  0  3G29G25G09                                       
  21048612.86749 110611206.66849      2717.93449        50.000  

  24278656.94549 127585202.35549     12045.61749        48.000  

  22354009.38349 117471112.13349      4353.13349        50.000  

 16 04 02 12 47 51.8000000  0  3G29G25G09                                       
  21048561.19549 110610935.12149      2713.98849        50.000  

  24278427.77349 127583997.91849     12043.82849        48.000  

  22353926.60249 117470677.12549      4347.44149        50.000  

 16 04 02 12 47 51.9000000  0  3G29G25G09                                       
  21048509.58649 110610663.90649      2710.54749        50.000  

  24278198.60249 127582793.61749     12042.39549        48.000  

  22353843.93049 117470242.65249      4342.11349        50.000  

 16 04 02 12 47 52.0000000  0  3G29G25G09                                       
  21048458.04749 110610393.03949      2707.07049        50.000  

  24277969.47749 127581589.46149     12040.84849        48.000  

  22353761.35249 117469808.70749      4336.68049        50.000  

 16 04 02 12 47 52.1000000  0  3G29G25G09                                       
  21048406.57849 110610122.56649      2703.11349        50.000  

  24277740.36749 127580385.48049     12039.20349        48.000  

  22353678.88349 117469375.34049      4331.00849        50.000  

 16 04 02 12 47 52.2000000  0  3G29G25G09                                       
  21048355.15649 110609852.36749      2700.41049        50.000  

  24277511.28149 127579181.57449     12038.49249        48.000  

  22353596.50049 117468942.43449      4326.40249        50.000  

 16 04 02 12 47 52.3000000  0  3G29G25G09                                       
  21048303.79749 110609582.46949      2697.48049        50.000  

  24277282.20349 127577977.77749     12037.40249        48.000  

  22353514.21949 117468510.02049      4321.42649        50.000  

 16 04 02 12 47 52.4000000  0  3G29G25G09                                       
  21048252.50849 110609312.93049      2694.02349        50.000  

  24277053.18849 127576774.11349     12036.17249        48.000  

  22353432.03149 117468078.14149      4316.28949        50.000  

 16 04 02 12 47 52.5000000  0  3G29G25G09                                       
  21048201.29749 110609043.78549      2689.83649        50.000  

  24276824.17249 127575570.64849     12033.97749        48.000  

  22353349.96149 117467646.84849      4310.28149        50.000  

 16 04 02 12 47 52.6000000  0  3G29G25G09                                       
  21048150.13349 110608774.94149      2686.89849        50.000  

  24276595.19549 127574367.28149     12033.05549        48.000  

  22353267.97749 117467216.04749      4305.36749        50.000  

 16 04 02 12 47 52.7000000  0  3G29G25G09                                       
  21048099.04749 110608506.46149      2683.19949        50.000  

  24276366.22749 127573164.05949     12031.50449        48.000  

  22353186.10249 117466785.78549      4299.92249        50.000  

 16 04 02 12 47 52.8000000  0  3G29G25G09                                       
  21048048.00849 110608238.29349      2680.12549        50.000  

  24276137.28149 127571960.95349     12030.48449        48.000  

  22353104.32849 117466356.03149      4294.95749        50.000  

 16 04 02 12 47 52.9000000  0  3G29G25G09                                       
  21047997.04749 110607970.46149      2676.87949        50.000  

  24275908.35949 127570757.97749     12029.23849        48.000  

  22353022.64149 117465926.78949      4289.78149        50.000  

 16 04 02 12 47 53.0000000  0  3G29G25G09                                       
  21047946.14849 110607702.98449      2673.18849        50.000  

  24275679.48449 127569555.14849     12027.63749        48.000  

  22352941.06249 117465498.09849      4284.19149        50.000  

 16 04 02 12 47 53.1000000  0  3G29G25G09                                       
  21047895.32049 110607435.88749      2669.35949        50.000  

  24275450.62549 127568352.50449     12025.75049        48.000  

  22352859.59449 117465069.97349      4278.42649        50.000  

 16 04 02 12 47 53.2000000  0  3G29G25G09                                       
  21047844.56249 110607169.12549      2666.00449        50.000  

  24275221.83649 127567149.97749     12024.55949        48.000  

  22352778.22749 117464642.36349      4273.32849        50.000  

 16 04 02 12 47 53.3000000  0  3G29G25G09                                       
  21047793.85949 110606902.68849      2662.86749        50.000  

  24274993.02349 127565947.57849     12023.43849        48.000  

  22352696.95349 117464215.26249      4268.36749        50.000  

 16 04 02 12 47 53.4000000  0  3G29G25G09                                       
  21047743.21949 110606636.55149      2659.82449        50.000  

  24274764.25049 127564745.26649     12022.44949        48.000  

  22352615.76649 117463788.64849      4263.45749        50.000  

 16 04 02 12 47 53.5000000  0  3G29G25G09                                       
  21047692.64849 110606370.79749      2656.04749        50.000  

  24274535.48449 127563543.12949     12020.82049        48.000  

  22352534.69549 117463362.60949      4257.82049        50.000  

 16 04 02 12 47 53.6000000  0  3G29G25G09                                       
  21047642.14849 110606105.44149      2651.89849        50.000  

  24274306.75849 127562341.19549     12018.68049        48.000  

  22352453.73449 117462937.14849      4251.87149        50.000  

 16 04 02 12 47 53.7000000  0  3G29G25G09                                       
  21047591.72749 110605840.46149      2648.03949        50.000  

  24274078.07049 127561139.42649     12016.87949        48.000  

  22352372.87549 117462512.25849      4246.02749        50.000  

 16 04 02 12 47 53.8000000  0  3G29G25G09                                       
  21047541.36749 110605575.82449      2644.56249        50.000  

  24273849.43049 127559937.78949     12015.56249        48.000  

  22352292.12549 117462087.88349      4240.86749        50.000  

 16 04 02 12 47 53.9000000  0  3G29G25G09                                       
  21047491.06249 110605311.47349      2641.83249        50.000  

  24273620.78149 127558736.25049     12014.62149        48.000  

  22352211.45349 117461663.99249      4236.12949        50.000  

 16 04 02 12 47 54.0000000  0  3G29G25G09                                       
  21047440.83649 110605047.51249      2638.05949        50.000  

  24273392.19549 127557534.87949     12013.06249        48.000  

  22352130.89849 117461240.67649      4230.52749        50.000  

 16 04 02 12 47 54.1000000  0  3G29G25G09                                       
  21047390.66449 110604783.83649      2635.31649        50.000  

  24273163.59449 127556333.59849     12012.39549        48.000  

  22352050.43849 117460817.83249      4225.93049        50.000  

 16 04 02 12 47 54.2000000  0  3G29G25G09                                       
  21047340.54749 110604520.50449      2631.82849        50.000  

  24272935.02349 127555132.44949     12011.02049        48.000  

  22351970.07049 117460395.51249      4220.54749        50.000  

 16 04 02 12 47 54.3000000  0  3G29G25G09                                       
  21047290.50049 110604257.51649      2628.39149        50.000  

  24272706.48449 127553931.43449     12009.58649        48.000  

  22351889.80549 117459973.71949      4215.38749        50.000  

 16 04 02 12 47 54.4000000  0  3G29G25G09                                       
  21047240.52349 110603994.88349      2624.72749        50.000  

  24272477.96149 127552730.59449     12007.67649        48.000  

  22351809.64849 117459552.48449      4209.64149        50.000  

 16 04 02 12 47 54.5000000  0  3G29G25G09                                       
  21047190.61749 110603732.60249      2621.24649        50.000  

  24272249.47749 127551529.86349     12006.64849        48.000  

  22351729.58649 117459131.76649      4204.57849        50.000  

 16 04 02 12 47 54.6000000  0  3G29G25G09                                       
  21047140.77349 110603470.66849      2617.64849        50.000  

  24272021.03949 127550329.30149     12004.95349        48.000  

  22351649.63349 117458711.59449      4198.98849        50.000  

 16 04 02 12 47 54.7000000  0  3G29G25G09                                       
  21047090.99249 110603209.07449      2614.43049        50.000  

  24271792.60249 127549128.86749     12003.71149        48.000  

  22351569.77349 117458291.94949      4193.88349        50.000  

 16 04 02 12 47 54.8000000  0  3G29G25G09                                       
  21047041.28149 110602947.84049      2610.64549        50.000  

  24271564.20349 127547928.57849     12002.06649        48.000  

  22351490.02349 117457872.84049      4188.20749        50.000  

 16 04 02 12 47 54.9000000  0  3G29G25G09                                       
  21046991.63349 110602686.94949      2607.22749        50.000  

  24271335.82049 127546728.43049     12000.81249        48.000  

  22351410.36749 117457454.27349      4182.95349        50.000  

 16 04 02 12 47 55.0000000  0  3G29G25G09                                       
  21046942.07049 110602426.44949      2603.25449        50.000  

  24271107.47749 127545528.47749     11998.83649        48.000    24271105.40641
  99386117.91851      9349.74241        20.000  
  22351330.82849 117457036.27349      4177.15249        50.000  

 16 04 02 12 47 55.1000000  0  3G29G25G09                                       
  21046892.56249 110602166.27349      2600.04349        50.000  

  24270879.14849 127544328.63349     11997.71549        48.000    24270877.08641
  99385182.98441      9348.86741        22.000  
  22351251.38349 117456618.78949      4172.06249        50.000  

 16 04 02 12 47 55.2000000  0  3G29G25G09                                       
  21046843.10949 110601906.39849      2597.16849        50.000  

  24270650.85949 127543128.89549     11996.84849        48.000    24270647.79741
  99384248.13341      9348.19541        21.000  
  22351172.03149 117456201.78949      4167.39149        50.000  

 16 04 02 12 47 55.3000000  0  3G29G25G09                                       
  21046793.71949 110601646.86349      2593.75449        50.000  

  24270422.57849 127541929.28949     11995.39849        48.000    24270419.52341
  99383313.39141      9347.06641        20.000  
  22351092.78149 117455785.31649      4162.03949        50.000  

 16 04 02 12 47 55.4000000  0  3G29G25G09                                       
  21046744.40649 110601387.71149      2589.97349        50.000  

  24270194.34449 127540729.85249     11993.77749        48.000    24270188.56241
  99382378.77741      9345.80141        20.000  
  22351013.64149 117455369.41449      4156.41849        50.000  

 16 04 02 12 47 55.5000000  0  3G29G25G09                                       
  21046695.14849 110601128.85549      2586.98049        50.000  

  24269966.11749 127539530.50449     11992.88749        48.000    24269960.34441
  99381444.24241      9345.10541        20.000  
  22350934.58649 117454953.99649      4151.55549        50.000  

 16 04 02 12 47 55.6000000  0  3G29G25G09                                       
  21046645.95349 110600870.34849      2583.47749        50.000  

  24269737.90649 127538331.31249     11991.34049        48.000    24269736.04741
  99380509.82441      9343.89841        20.000  
  22350855.63349 117454539.10949      4146.18049        50.000  

 16 04 02 12 47 55.7000000  0  3G29G25G09                                       
  21046596.83649 110600612.21549      2579.64849        50.000  

  24269509.74249 127537132.28949     11989.43049        48.000    24269507.89141
  99379575.53941      9342.41441        20.000  
  22350776.78949 117454124.78149      4140.48449        50.000  

 16 04 02 12 47 55.8000000  0  3G29G25G09                                       
  21046547.77349 110600354.42249      2576.26249        50.000  

  24269281.60249 127535933.39149     11988.14849        48.000    24269282.02341
  99378641.35241      9341.41441        22.000  
  22350698.04749 117453710.98849      4135.19149        50.000  

 16 04 02 12 47 55.9000000  0  3G29G25G09                                       
  21046498.78149 110600096.93849      2573.23049        50.000  

  24269053.47749 127534734.59049     11987.27049        48.000    24269053.89841
  99377707.21541      9340.73041        20.000  
  22350619.39849 117453297.68049      4130.40649        50.000  

 16 04 02 12 47 56.0000000  0  3G29G25G09                                       
  21046449.84449 110599839.79349      2569.85949        50.000  

  24268825.36749 127533535.93849     11985.98449        48.000    24268823.21141
  99376773.18841      9339.72741        20.000  
  22350540.85249 117452884.90249      4125.12549        50.000  

 16 04 02 12 47 56.1000000  0  3G29G25G09                                       
  21046400.98449 110599583.01649      2566.20349        50.000  

  24268597.29749 127532337.44149     11984.40649        48.000    24268595.14141
  99375839.28141      9338.50041        20.000  
  22350462.40649 117452472.67649      4119.66049        50.000  

 16 04 02 12 47 56.2000000  0  3G29G25G09                                       
  21046352.17249 110599326.52349      2563.37149        50.000  

  24268369.24249 127531139.01649     11983.68849        48.000    24268365.25841
  99374905.43041      9337.93841        20.000  
  22350384.04749 117452060.91849      4114.92649        50.000  

 16 04 02 12 47 56.3000000  0  3G29G25G09                                       
  21046303.43849 110599070.40649      2559.57049        50.000  

  24268141.22749 127529940.77749     11981.80549        48.000    24268137.24241
  99373971.72341      9336.47341        20.000  
  22350305.80549 117451649.72749      4109.28549        50.000  

 16 04 02 12 47 56.4000000  0  3G29G25G09                                       
  21046254.77349 110598814.67249      2555.71549        50.000  

  24267913.25049 127528742.71549     11979.94949        48.000    24267906.71941
  99373038.15241      9335.02341        20.000  
  22350227.66449 117451239.11349      4103.46549        50.000  

 16 04 02 12 47 56.5000000  0  3G29G25G09                                       
  21046206.16449 110598559.21549      2552.85949        50.000  

  24267685.28149 127527544.70749     11979.36349        48.000    24267678.74241
  99372104.62141      9334.57041        20.000  
  22350149.60949 117450828.94949      4098.80149        50.000  

 16 04 02 12 47 56.6000000  0  3G29G25G09                                       
  21046157.62549 110598304.16049      2548.99649        50.000  

  24267457.34449 127526346.91449     11977.37949        48.000    24267451.48441
  99371171.26241      9333.02341        20.000  
  22350071.67249 117450419.37949      4093.02349        50.000  

 16 04 02 12 47 56.7000000  0  3G29G25G09                                       
  21046109.16449 110598049.46949      2545.27049        50.000  

  24267229.44549 127525149.27749     11975.68449        48.000    24267223.57841
  99370238.02041      9331.70341        20.000  
  22349993.84449 117450010.36349      4087.37149        50.000  

 16 04 02 12 47 56.8000000  0  3G29G25G09                                       
  21046060.75049 110597795.09849      2542.17249        50.000  

  24267001.57849 127523951.75049     11974.65649        48.000    24266999.59441
  99369304.86741      9330.90241        20.000  
  22349916.10249 117449601.84049      4082.43849        50.000  

 16 04 02 12 47 56.9000000  0  3G29G25G09                                       
  21046012.40649 110597541.05549      2538.97349        50.000  

  24266773.71949 127522754.34849     11973.43849        48.000    24266771.73441
  99368371.82041      9329.95341        20.000  
  22349838.46149 117449193.84449      4077.39549        50.000  

 16 04 02 12 47 57.0000000  0  3G29G25G09                                       
  21045964.14149 110597287.37149      2535.43049        50.000  

  24266545.88349 127521557.09049     11972.05549        48.000    24266541.75041
  99367438.89141      9328.87541        20.000  
  22349760.92249 117448786.38349      4072.08249        50.000  

 16 04 02 12 47 57.1000000  0  3G29G25G09                                       
  21045915.93049 110597034.01249      2532.01249        50.000  

  24266318.07849 127520359.95349     11970.74649        48.000    24266313.93841
  99366506.05141      9327.85541        20.000  
  22349683.48449 117448379.44949      4066.57049        50.000  

 16 04 02 12 47 57.2000000  0  3G29G25G09                                       
  21045867.78149 110596781.01249      2528.49649        50.000  

  24266090.31249 127519162.97349     11969.33249        49.000    24266090.06241
  99365573.33641      9326.75441        20.000  
  22349606.14849 117447973.03149      4061.55549        50.000  

 16 04 02 12 47 57.3000000  0  3G29G25G09                                       
  21045819.70349 110596528.34049      2525.12549        50.000  

  24265862.56249 127517966.12949     11967.89149        48.000    24265862.31241
  99364640.72741      9325.62941        20.000  
  22349528.91449 117447567.16849      4056.08649        50.000  

 16 04 02 12 47 57.4000000  0  3G29G25G09                                       
  21045771.68849 110596276.01249      2521.63349        50.000  

  24265634.82849 127516769.41449     11966.43449        49.000    24265635.54741
  99363708.23841      9324.49641        20.000  
  22349451.78149 117447161.81249      4050.67249        50.000  

 16 04 02 12 47 57.5000000  0  3G29G25G09                                       
  21045723.73449 110596024.05549      2518.02349        50.000  

  24265407.12549 127515572.85949     11964.91049        49.000    24265407.85241
  99362775.87541      9323.30941        20.000  
  22349374.74249 117446757.00849      4045.36349        50.000  

 16 04 02 12 47 57.6000000  0  3G29G25G09                                       
  21045675.84449 110595772.39149      2515.14849        50.000  

  24265179.46149 127514376.40249     11964.03549        48.000    24265176.51641
  99361843.59041      9322.62541        20.000  
  22349297.80549 117446352.69549      4040.57849        50.000  

 16 04 02 12 47 57.7000000  0  3G29G25G09                                       
  21045628.01649 110595521.03549      2511.94149        50.000  

  24264951.79749 127513180.03949     11963.02749        48.000    24264948.85941
  99360911.37941      9321.84041        20.000  
  22349220.96149 117445948.86349      4035.57849        50.000  

 16 04 02 12 47 57.8000000  0  3G29G25G09                                       
  21045580.25849 110595270.04749      2508.41049        50.000  

  24264724.18049 127511983.84049     11961.43449        48.000    24264720.29741
  99359979.29741      9320.59841        21.000  
  22349144.22749 117445545.60949      4030.03549        50.000  

 16 04 02 12 47 57.9000000  0  3G29G25G09                                       
  21045532.57049 110595019.44949      2504.33249        50.000  

  24264496.57849 127510787.82049     11959.52749        48.000    24264492.70341
  99359047.34841      9319.11341        20.000  
  22349067.59449 117445142.90649      4024.23049        50.000  

 16 04 02 12 47 58.0000000  0  3G29G25G09                                       
  21045484.94549 110594769.16849      2501.20349        50.000  

  24264269.03949 127509591.93849     11958.09849        48.000    24264261.88341
  99358115.50841      9317.99641        20.000  
  22348991.06249 117444740.72349      4019.20349        50.000  

 16 04 02 12 47 58.1000000  0  3G29G25G09                                       
  21045437.37549 110594519.20749      2498.02349        50.000  

  24264041.48449 127508396.14149     11957.20749        48.000    24264034.33641
  99357183.73041      9317.30541        24.000  
  22348914.62549 117444339.04349      4014.06649        50.000  

 16 04 02 12 47 58.2000000  0  3G29G25G09                                       
  21045389.86749 110594269.57049      2495.01249        50.000  

  24263813.94549 127507200.46949     11956.38349        48.000    24263807.87541
  99356252.05541      9316.66041        21.000  
  22348838.28949 117443937.87149      4009.16449        50.000  

 16 04 02 12 47 58.3000000  0  3G29G25G09                                       
  21045342.44549 110594020.34049      2490.71549        50.000  

  24263586.46149 127506005.00449     11954.01649        48.000    24263580.39141
  99355320.54341      9314.81641        20.000  
  22348762.05549 117443537.29349      4003.08249        50.000  

 16 04 02 12 47 58.4000000  0  3G29G25G09                                       
  21045295.07849 110593771.45349      2487.13749        50.000  

  24263358.99249 127504809.66849     11952.58649        48.000  

  22348685.93049 117443137.23449      3997.70349        50.000  

 16 04 02 12 47 58.5000000  0  3G29G25G09                                       
  21045247.78149 110593522.90649      2483.87549        50.000  

  24263131.55549 127503614.48849     11951.24649        48.000  

  22348609.90649 117442737.71149      3992.64849        50.000  

 16 04 02 12 47 58.6000000  0  3G29G25G09                                       
  21045200.54749 110593274.68449      2480.66449        50.000  

  24262904.14149 127502419.40249     11950.23849        48.000  

  22348533.97749 117442338.70749      3987.32449        50.000  

 16 04 02 12 47 58.7000000  0  3G29G25G09                                       
  21045153.37549 110593026.77349      2477.55949        50.000  

  24262676.75049 127501224.44549     11948.97349        48.000  

  22348458.14149 117441940.19549      3982.53149        50.000  

 16 04 02 12 47 58.8000000  0  3G29G25G09                                       
  21045106.27349 110592779.25849      2473.53149        50.000  

  24262449.39849 127500029.66449     11947.04349        48.000  

  22348382.41449 117441542.25849      3976.59849        50.000  

 16 04 02 12 47 58.9000000  0  3G29G25G09                                       
  21045059.25049 110592532.14549      2469.39149        50.000  

  24262222.07849 127498835.07849     11944.99649        49.000  

  22348306.80549 117441144.92249      3970.52749        50.000  

 16 04 02 12 47 59.0000000  0  3G29G25G09                                       
  21045012.28949 110592285.34849      2466.26649        50.000  

  24261994.77349 127497640.60549     11943.89849        48.000  

  22348231.28949 117440748.07849      3965.59849        50.000  

 16 04 02 12 47 59.1000000  0  3G29G25G09                                       
  21044965.38349 110592038.85949      2463.33249        50.000  

  24261767.49249 127496446.23849     11943.07449        48.000  

  22348155.86749 117440351.73049      3960.92649        50.000  

 16 04 02 12 47 59.2000000  0  3G29G25G09                                       
  21044918.55549 110591792.77349      2459.29749        50.000  

  24261540.26649 127495252.06649     11941.21949        48.000  

  22348080.55549 117439955.97349      3954.94949        50.000  

 16 04 02 12 47 59.3000000  0  3G29G25G09                                       
  21044871.76649 110591546.91049      2457.07449        50.000  

  24261313.02349 127494057.91449     11940.93449        49.000  

  22348005.32849 117439560.63749      3950.69149        50.000  

 16 04 02 12 47 59.4000000  0  3G29G25G09                                       
  21044825.05549 110591301.46549      2452.97349        50.000  

  24261085.80549 127492863.97349     11938.94949        49.000  

  22347930.21149 117439165.88349      3944.84849        50.000  

 16 04 02 12 47 59.5000000  0  3G29G25G09                                       
  21044778.41449 110591056.35249      2449.62949        50.000  

  24260858.62549 127491670.16449     11937.53149        48.000    24260848.81241
  99344119.47751      9301.97341        21.000  
  22347855.19549 117438771.66449      3939.67249        50.000  

 16 04 02 12 47 59.6000000  0  3G29G25G09                                       
  21044731.82049 110590811.52749      2446.63349        50.000  

  24260631.45349 127490476.42649     11936.75449        48.000    24260622.46141
  99343189.28541      9301.36741        20.000  
  22347780.26649 117438377.91049      3934.81249        50.000  

 16 04 02 12 47 59.7000000  0  3G29G25G09                                       
  21044685.29749 110590567.03949      2443.33649        50.000  

  24260404.32049 127489282.82449     11935.40249        49.000    24260395.32841
  99342259.19541      9300.31241        20.000  
  22347705.43849 117437984.68849      3929.64849        50.000  

 16 04 02 12 47 59.8000000  0  3G29G25G09                                       
  21044638.85249 110590322.94949      2439.31649        50.000  

  24260177.22749 127488089.41849     11933.52749        48.000    24260170.28141
  99341329.26241      9298.85241        20.000  
  22347630.71949 117437592.03549      3923.75449        50.000  

 16 04 02 12 47 59.9000000  0  3G29G25G09                                       
  21044592.46949 110590079.21149      2435.66849        50.000  

  24259950.16449 127486896.17249     11931.70349        49.000    24259943.21141
  99340399.46541      9297.43041        20.000  
  22347556.10949 117437199.94549      3918.16449        50.000  

 16 04 02 12 48  0.0000000  0  3G29G25G09                                       
  21044546.15649 110589835.81249      2432.36349        50.000  

  24259723.08649 127485703.03949     11930.64849        49.000    24259715.92241
  99339469.75841      9296.60941        20.000  
  22347481.58649 117436808.35549      3913.10949        50.000  

 16 04 02 12 48  0.1000000  0  3G29G25G09                                       
  21044499.90649 110589592.77049      2428.98449        50.000  

  24259496.07049 127484510.07449     11929.10249        49.000    24259488.91441
  99338540.18441      9295.40641        20.000  
  22347407.18049 117436417.32849      3907.84049        50.000  

 16 04 02 12 48  0.2000000  0  3G29G25G09                                       
  21044453.71149 110589350.00849      2426.05549        50.000  

  24259269.07849 127483317.16849     11928.46149        49.000    24259262.77341
  99337610.65241      9294.90641        20.000  
  22347332.85249 117436026.75849      3902.99649        50.000  

 16 04 02 12 48  0.3000000  0  3G29G25G09                                       
  21044407.57849 110589107.58249      2422.81249        50.000  

  24259042.10249 127482124.39149     11927.26649        49.000    24259035.80541
  99336681.22341      9293.97341        20.000  
  22347258.63349 117435636.70349      3898.01249        50.000  

 16 04 02 12 48  0.4000000  0  3G29G25G09                                       
  21044361.50049 110588865.48449      2419.35549        50.000  

  24258815.14849 127480931.75849     11925.73849        49.000    24258808.61741
  99335751.90641      9292.78541        20.000  
  22347184.50849 117435247.18849      3892.54349        50.000  

 16 04 02 12 48  0.5000000  0  3G29G25G09                                       
  21044315.50849 110588623.78149      2415.53949        50.000  

  24258588.23449 127479739.28949     11924.04749        49.000    24258581.70341
  99334822.71941      9291.46541        20.000  
  22347110.49249 117434858.22749      3886.96149        50.000  

 16 04 02 12 48  0.6000000  0  3G29G25G09                                       
  21044269.57849 110588382.42649      2411.91049        50.000  

  24258361.35949 127478546.97749     11922.48049        49.000    24258355.15641
  99333893.65241      9290.24641        20.000  
  22347036.57849 117434469.81649      3881.39849        50.000  

 16 04 02 12 48  0.7000000  0  3G29G25G09                                       
  21044223.71949 110588141.42249      2408.39149        50.000  

  24258134.50049 127477354.81649     11920.91849        49.000    24258128.29741
  99332964.70341      9289.02741        20.000  
  22346962.76649 117434081.94149      3875.99249        50.000  

 16 04 02 12 48  0.8000000  0  3G29G25G09                                       
  21044177.93849 110587900.86749      2403.72349        50.000  

  24257907.66449 127476162.89149     11918.30149        49.000    24257903.32041
  99332035.93441      9286.98841        20.000  
  22346889.07849 117433694.69949      3869.49249        50.000  

 16 04 02 12 48  0.9000000  0  3G29G25G09                                       
  21044132.21949 110587660.58249      2401.12549        50.000  

  24257680.85949 127474971.02049     11917.94549        49.000    24257676.51641
  99331107.22341      9286.71141        24.000  
  22346815.47749 117433307.90649      3865.14149        50.000  

 16 04 02 12 48  1.0000000  0  3G29G25G09                                       
  21044086.54749 110587420.60949      2398.20749        50.000  

  24257454.07849 127473779.27749     11916.89849        49.000    24257449.90641
  99330178.60941      9285.89541        21.000  
  22346741.96949 117432921.62149      3860.25449        50.000  

 16 04 02 12 48  1.1000000  0  3G29G25G09                                       
  21044040.95349 110587180.97749      2394.84449        50.000  

  24257227.32049 127472587.66449     11915.58649        49.000    24257223.15641
  99329250.09841      9284.87141        20.000  
  22346668.55549 117432535.86749      3854.98049        50.000  

 16 04 02 12 48  1.2000000  0  3G29G25G09                                       
  21043995.41449 110586941.67249      2391.54749        50.000  

  24257000.57049 127471396.16449     11914.37949        49.000    24256994.70341
  99328321.67641      9283.93041        20.000  
  22346595.24249 117432150.61349      3849.94149        50.000  

 16 04 02 12 48  1.3000000  0  3G29G25G09                                       
  21043949.95349 110586702.75449      2387.57049        50.000  

  24256773.87549 127470204.85949     11912.42249        49.000    24256768.00841
  99327393.40241      9282.40641        20.000  
  22346522.04749 117431765.94949      3844.06249        50.000  

 16 04 02 12 48  1.4000000  0  3G29G25G09                                       
  21043904.53949 110586464.12549      2384.77749        50.000  

  24256547.18849 127469013.61749     11911.80549        49.000  

  22346448.93049 117431381.74249      3839.55549        50.000  

 16 04 02 12 48  1.5000000  0  3G29G25G09                                       
  21043859.20349 110586225.86349      2381.06649        50.000  

  24256320.53949 127467822.55549     11910.05149        49.000  

  22346375.93049 117430998.10949      3833.82449        50.000  

 16 04 02 12 48  1.6000000  0  3G29G25G09                                       
  21043813.93049 110585987.96549      2377.24249        50.000  

  24256093.91449 127466631.64149     11908.32049        48.000  

  22346303.02349 117430615.01249      3828.10549        50.000  

 16 04 02 12 48  1.7000000  0  3G29G25G09                                       
  21043768.72749 110585750.42649      2373.56649        50.000  

  24255867.32049 127465440.89549     11906.59049        49.000  

  22346230.22749 117430232.46549      3822.56249        50.000  

 16 04 02 12 48  1.8000000  0  3G29G25G09                                       
  21043723.59449 110585513.25049      2370.11349        50.000  

  24255640.75849 127464250.28149     11905.48049        49.000  

  22346157.53949 117429850.46949      3817.39149        50.000  

 16 04 02 12 48  1.9000000  0  3G29G25G09                                       
  21043678.50849 110585276.35549      2367.21949        50.000  

  24255414.21149 127463059.77349     11904.42649        49.000  

  22346084.93849 117429468.94149      3812.43449        50.000  

 16 04 02 12 48  2.0000000  0  3G29G25G09                                       
  21043633.50049 110585039.84049      2363.66449        50.000  

  24255187.71149 127461869.41849     11902.98049        49.000  

  22346012.44549 117429087.98049      3807.05149        50.000  

 16 04 02 12 48  2.1000000  0  3G29G25G09                                       
  21043588.55549 110584803.63349      2360.48049        50.000  

  24254961.21949 127460679.17249     11901.91449        49.000  

  22345940.04749 117428707.50849      3801.97349        50.000  

 16 04 02 12 48  2.2000000  0  3G29G25G09                                       
  21043543.68849 110584567.84049      2356.32049        50.000  

  24254734.75849 127459489.14549     11899.62149        49.000  

  22345867.75849 117428327.64549      3795.87949        50.000  

 16 04 02 12 48  2.3000000  0  3G29G25G09                                       
  21043498.87549 110584332.35949      2353.17249        50.000  

  24254508.32049 127458299.21149     11898.61749        49.000  

  22345795.56249 117427948.27349      3790.99249        50.000  

 16 04 02 12 48  2.4000000  0  3G29G25G09                                       
  21043454.14149 110584097.26249      2349.37949        50.000  

  24254281.91449 127457109.46549     11896.66849        49.000  

  22345723.48449 117427569.48049      3785.23449        50.000  

 16 04 02 12 48  2.5000000  0  3G29G25G09                                       
  21043409.46949 110583862.53549      2345.61349        50.000  

  24254055.54749 127455919.86749     11895.21549        49.000    24254044.32841
  99316256.06651      9269.00041        20.000  
  22345651.50049 117427191.22749      3779.84049        50.000  

 16 04 02 12 48  2.6000000  0  3G29G25G09                                       
  21043364.85249 110583628.03549      2343.32049        50.000  

  24253829.18849 127454730.31649     11894.82849        49.000    24253819.39841
  99315329.14541      9268.69941        20.000  
  22345579.60949 117426813.41049      3775.38349        50.000  

 16 04 02 12 48  2.7000000  0  3G29G25G09                                       
  21043320.29749 110583393.89149      2340.11349        50.000  

  24253602.85249 127453540.90649     11893.71149        49.000    24253593.06241
  99314402.33641      9267.82841        20.000  
  22345507.81249 117426436.12149      3770.38749        50.000  

 16 04 02 12 48  2.8000000  0  3G29G25G09                                       
  21043275.81249 110583160.12949      2336.02749        50.000  

  24253376.56249 127452351.65649     11891.78149        49.000    24253365.35941
  99313475.65241      9266.32441        21.000  
  22345436.12549 117426059.40249      3764.46549        50.000  

 16 04 02 12 48  2.9000000  0  3G29G25G09                                       
  21043231.38349 110582926.64849      2333.23049        50.000  

  24253150.27349 127451162.50849     11890.86749        49.000  

  22345364.53149 117425683.15649      3759.82449        50.000  

 16 04 02 12 48  3.0000000  0  3G29G25G09                                       
  21043187.01649 110582693.48849      2330.16449        50.000  

  24252924.02349 127449973.45749     11889.93049        49.000  

  22345293.02349 117425307.41049      3754.89149        50.000  

 16 04 02 12 48  3.1000000  0  3G29G25G09                                       
  21043142.71949 110582460.72749      2326.09049        50.000  

  24252697.78949 127448784.60949     11887.89849        49.000  

  22345221.64149 117424932.25849      3749.00449        50.000  

 16 04 02 12 48  3.2000000  0  3G29G25G09                                       
  21043098.48449 110582228.23449      2323.27349        50.000  

  24252471.57049 127447595.82049     11887.22749        49.000  

  22345150.33649 117424557.55949      3744.19149        50.000  

 16 04 02 12 48  3.3000000  0  3G29G25G09                                       
  21043054.31249 110581996.13349      2319.52349        50.000  

  24252245.38349 127446407.21949     11885.46549        49.000  

  22345079.14149 117424183.43049      3738.70749        50.000  

 16 04 02 12 48  3.4000000  0  3G29G25G09                                       
  21043010.20349 110581764.30949      2316.78549        50.000  

  24252019.22749 127445218.68849     11884.80149        49.000  

  22345008.03949 117423809.77049      3734.02349        50.000  

 16 04 02 12 48  3.5000000  0  3G29G25G09                                       
  21042966.15649 110581532.85549      2312.86749        50.000  

  24251793.09449 127444030.33249     11882.80949        49.000  

  22344937.03949 117423436.67249      3728.24249        50.000  

 16 04 02 12 48  3.6000000  0  3G29G25G09                                       
  21042922.18849 110581301.78549      2309.12149        50.000  

  24251566.99249 127442842.13749     11881.28549        49.000  

  22344866.14849 117423064.14149      3722.64549        50.000  

 16 04 02 12 48  3.7000000  0  3G29G25G09                                       
  21042878.28949 110581071.10549      2305.03149        50.000  

  24251340.92249 127441654.12549     11879.36349        49.000  

  22344795.36749 117422692.18049      3716.75449        50.000  

 16 04 02 12 48  3.8000000  0  3G29G25G09                                       
  21042834.46149 110580840.77349      2301.62949        50.000  

  24251114.88349 127440466.28149     11877.73849        49.000  

  22344724.68849 117422320.77349      3711.34849        50.000  

 16 04 02 12 48  3.9000000  0  3G29G25G09                                       
  21042790.68849 110580610.74649      2298.60949        50.000  

  24250888.85249 127439278.51249     11877.01649        49.000  

  22344654.10249 117421949.82849      3706.68449        50.000  

 16 04 02 12 48  4.0000000  0  3G29G25G09                                       
  21042746.96949 110580381.01649      2295.69149        50.000  

  24250662.85249 127438090.85549     11875.87949        49.000  

  22344583.60949 117421579.39849      3701.50849        50.000  

 16 04 02 12 48  4.1000000  0  3G29G25G09                                       
  21042703.33649 110580151.71549      2291.57049        50.000  

  24250436.89149 127436903.42249     11873.59449        49.000  

  22344513.23449 117421209.57049      3695.57049        50.000  

 16 04 02 12 48  4.2000000  0  3G29G25G09                                       
  21042659.76649 110579922.78149      2287.85549        50.000  

  24250210.96949 127435716.11349     11872.50049        49.000  

  22344442.96149 117420840.28949      3690.16049        50.000  

 16 04 02 12 48  4.3000000  0  3G29G25G09                                       
  21042616.26649 110579694.17649      2284.46549        50.000  

  24249985.07049 127434528.97349     11870.91049        49.000  

  22344372.78949 117420471.52749      3684.95349        50.000  

 16 04 02 12 48  4.4000000  0  3G29G25G09                                       
  21042572.82049 110579465.87149      2281.38749        50.000  

  24249759.17249 127433341.90249     11870.00449        49.000  

  22344302.71149 117420103.25049      3680.10549        50.000  

 16 04 02 12 48  4.5000000  0  3G29G25G09                                       
  21042529.44549 110579237.92249      2277.80549        50.000  

  24249533.31249 127432154.98849     11868.50449        49.000  

  22344232.72749 117419735.52049      3674.59049        50.000  

 16 04 02 12 48  4.6000000  0  3G29G25G09                                       
  21042486.13349 110579010.32449      2274.41449        50.000  

  24249307.47749 127430968.22749     11867.09449        49.000  

  22344162.85949 117419368.33249      3669.25049        50.000  

 16 04 02 12 48  4.7000000  0  3G29G25G09                                       
  21042442.87549 110578783.03549      2271.25049        50.000  

  24249081.66449 127429781.56249     11865.88749        49.000  

  22344093.07849 117419001.63349      3664.19949        50.000  

 16 04 02 12 48  4.8000000  0  3G29G25G09                                       
  21042399.70349 110578556.15649      2267.26649        50.000  

  24248855.88349 127428595.10949     11863.93449        49.000  

  22344023.40649 117418635.53549      3658.38349        50.000  

 16 04 02 12 48  4.9000000  0  3G29G25G09                                       
  21042356.60249 110578329.64549      2263.40249        50.000  

  24248630.14149 127427408.80549     11862.34449        49.000    24248642.39841
  99294136.12151      9243.38341        20.000  
  22343953.85249 117418269.98449      3652.71149        50.000  

 16 04 02 12 48  5.0000000  0  3G29G25G09                                       
  21042313.56249 110578103.44949      2260.21549        50.000  

  24248404.40649 127426222.63349     11861.00049        49.000    24248418.45341
  99293211.82441      9242.34041        21.000  
  22343884.38349 117417904.94949      3647.53549        50.000  

 16 04 02 12 48  5.1000000  0  3G29G25G09                                       
  21042270.57849 110577877.57849      2257.13349        50.000  

  24248178.71149 127425036.56649     11860.03149        49.000    24248192.75841
  99292287.60941      9241.58241        20.000  
  22343815.01649 117417540.41849      3642.67249        50.000  

 16 04 02 12 48  5.2000000  0  3G29G25G09                                       
  21042227.67249 110577652.09049      2253.38749        50.000  

  24247953.04749 127423850.68049     11858.29349        49.000    24247963.18041
  99291363.53141      9240.23041        21.000  
  22343745.75049 117417176.46149      3636.96949        50.000  

 16 04 02 12 48  5.3000000  0  3G29G25G09                                       
  21042184.82049 110577426.91449      2250.16049        50.000  

  24247727.39849 127422664.90249     11857.10549        49.000  

  22343676.58649 117416812.99249      3631.97349        50.000  

 16 04 02 12 48  5.4000000  0  3G29G25G09                                       
  21042142.02349 110577202.02749      2247.37549        50.000  

  24247501.75849 127421479.19549     11856.60949        49.000  

  22343607.50849 117416450.00449      3627.32049        50.000  

 16 04 02 12 48  5.5000000  0  3G29G25G09                                       
  21042099.29749 110576977.48449      2243.81649        50.000  

  24247276.15649 127420293.64849     11854.90249        49.000  

  22343538.53949 117416087.54749      3621.89549        50.000  

 16 04 02 12 48  5.6000000  0  3G29G25G09                                       
  21042056.65649 110576753.38749      2239.34449        50.000  

  24247050.59449 127419108.32449     11852.60949        49.000  

  22343469.68849 117415725.72349      3615.59449        50.000  

 16 04 02 12 48  5.7000000  0  3G29G25G09                                       
  21042014.07049 110576529.60249      2236.13749        50.000  

  24246825.06249 127417923.11749     11851.34449        49.000  

  22343400.93049 117415364.39549      3610.55549        50.000  

 16 04 02 12 48  5.8000000  0  3G29G25G09                                       
  21041971.53949 110576306.10549      2233.30949        50.000  

  24246599.55549 127416737.99649     11850.48849        49.000  

  22343332.25849 117415003.55949      3605.60549        50.000  

 16 04 02 12 48  5.9000000  0  3G29G25G09                                       
  21041929.07849 110576082.98449      2229.88349        50.000  

  24246374.06249 127415553.03949     11849.07049        49.000  

  22343263.70349 117414643.27049      3600.43849        50.000  

 16 04 02 12 48  6.0000000  0  3G29G25G09                                       
  21041886.67249 110575860.12149      2227.18049        50.000  

  24246148.58649 127414368.13749     11848.44549        49.000  

  22343195.22749 117414283.42249      3595.86749        50.000  

 16 04 02 12 48  6.1000000  0  3G29G25G09                                       
  21041844.33649 110575637.63349      2223.50449        50.000  

  24245923.13349 127413183.40249     11846.87149        49.000  

  22343126.85249 117413924.14549      3590.24249        50.000  

 16 04 02 12 48  6.2000000  0  3G29G25G09                                       
  21041802.07049 110575415.55949      2219.06649        50.000  

  24245697.71949 127411998.87149     11844.57449        49.000  

  22343058.60249 117413565.46549      3584.00449        50.000  

 16 04 02 12 48  6.3000000  0  3G29G25G09                                       
  21041759.86749 110575193.75849      2216.30949        50.000  

  24245472.32849 127410814.41849     11843.84849        49.000  

  22342990.43049 117413207.24649      3579.41849        50.000  

 16 04 02 12 48  6.4000000  0  3G29G25G09                                       
  21041717.72749 110574972.34449      2212.60949        50.000  

  24245246.97749 127409630.14549     11842.16849        49.000  

  22342922.37549 117412849.59449      3573.96149        50.000  

 16 04 02 12 48  6.5000000  0  3G29G25G09                                       
  21041675.66449 110574751.27049      2208.98049        50.000  

  24245021.64149 127408446.00849     11840.53549        49.000  

  22342854.41449 117412492.48049      3568.29349        50.000  

 16 04 02 12 48  6.6000000  0  3G29G25G09                                       
  21041633.65649 110574530.53949      2205.85249        50.000  

  24244796.32049 127407262.00449     11839.53149        49.000  

  22342786.55549 117412135.89149      3563.40649        50.000  

 16 04 02 12 48  6.7000000  0  3G29G25G09                                       
  21041591.71149 110574310.10249      2202.80549        50.000  

  24244571.03149 127406078.08649     11838.56649        49.000  

  22342718.78949 117411779.78149      3558.39149        50.000  

 16 04 02 12 48  6.8000000  0  3G29G25G09                                       
  21041549.83649 110574090.04749      2198.94549        50.000  

  24244345.77349 127404894.35549     11836.68849        49.000  

  22342651.13349 117411424.23449      3552.85249        50.000  

 16 04 02 12 48  6.9000000  0  3G29G25G09                                       
  21041508.02349 110573870.31649      2195.66849        50.000  

  24244120.53949 127403710.73449     11835.50449        49.000    24244120.25841
  99275619.00451      9222.47341        20.000  
  22342583.57849 117411069.21949      3547.56649        50.000  

 16 04 02 12 48  7.0000000  0  3G29G25G09                                       
  21041466.27349 110573650.90249      2192.48449        50.000  

  24243895.34449 127402527.23849     11834.30549        49.000    24243891.68041
  99274696.79341      9221.53541        20.000  
  22342516.10949 117410714.69149      3542.46949        50.000  

 16 04 02 12 48  7.1000000  0  3G29G25G09                                       
  21041424.59449 110573431.89549      2188.65649        50.000  

  24243670.16449 127401343.92649     11832.56649        49.000    24243666.50041
  99273774.72341      9220.18441        20.000  
  22342448.75849 117410360.75449      3536.94549        50.000  

 16 04 02 12 48  7.2000000  0  3G29G25G09                                       
  21041382.97749 110573213.19149      2185.35949        50.000  

  24243445.00049 127400160.72749     11831.30549        49.000    24243443.50041
  99272852.74241      9219.19941        20.000  
  22342381.50049 117410007.32049      3531.64849        50.000  

 16 04 02 12 48  7.3000000  0  3G29G25G09                                       
  21041341.42249 110572994.82849      2182.05949        50.000  

  24243219.86749 127398977.65649     11830.03149        49.000  

  22342314.34449 117409654.40249      3526.50049        50.000  

 16 04 02 12 48  7.4000000  0  3G29G25G09                                       
  21041299.93849 110572776.82449      2178.43449        50.000  

  24242994.77349 127397794.73849     11828.55949        49.000  

  22342247.29749 117409302.04349      3520.91449        50.000  

 16 04 02 12 48  7.5000000  0  3G29G25G09                                       
  21041258.52349 110572559.19149      2174.71549        50.000  

  24242769.70349 127396611.99649     11826.77049        48.000  

  22342180.34449 117408950.23849      3515.30149        50.000  

 16 04 02 12 48  7.6000000  0  3G29G25G09                                       
  21041217.18049 110572341.90249      2171.18049        50.000  

  24242544.64849 127395429.38749     11825.24249        48.000  

  22342113.50049 117408598.95349      3509.89849        50.000  

 16 04 02 12 48  7.7000000  0  3G29G25G09                                       
  21041175.89849 110572124.97749      2167.72349        50.000  

  24242319.64149 127394246.93449     11823.82849        49.000  

  22342046.75849 117408248.22349      3504.57849        50.000  

 16 04 02 12 48  7.8000000  0  3G29G25G09                                       
  21041134.68049 110571908.35549      2164.59449        50.000  

  24242094.64149 127393064.56649     11822.98049        49.000  

  22341980.10949 117407897.98849      3499.67649        50.000  

 16 04 02 12 48  7.9000000  0  3G29G25G09                                       
  21041093.53949 110571692.17249      2160.33249        50.000  

  24241869.69549 127391882.45349     11820.52749        49.000  

  22341913.57849 117407548.37949      3493.41449        50.000  

 16 04 02 12 48  8.0000000  0  3G29G25G09                                       
  21041052.46149 110571476.27749      2157.43049        50.000  

  24241644.76649 127390700.41049     11819.82449        49.000  

  22341847.14149 117407199.23449      3488.84849        50.000  

 16 04 02 12 48  8.1000000  0  3G29G25G09                                       
  21041011.43049 110571260.66849      2154.48449        50.000  

  24241419.84449 127389518.46949     11818.79349        49.000  

  22341780.78949 117406850.57849      3483.85549        50.000  

 16 04 02 12 48  8.2000000  0  3G29G25G09                                       
  21040970.48449 110571045.50049      2150.18449        50.000  

  24241194.95349 127388336.73849     11816.64149        49.000  

  22341714.56249 117406502.53549      3477.79349        50.000  

 16 04 02 12 48  8.3000000  0  3G29G25G09                                       
  21040929.59449 110570830.62149      2147.21949        50.000  

  24240970.09449 127387155.11349     11815.61749        49.000  

  22341648.42249 117406154.98449      3472.87149        50.000  

 16 04 02 12 48  8.4000000  0  3G29G25G09                                       
  21040888.77349 110570616.13349      2143.29349        50.000  

  24240745.27349 127385973.65649     11813.88349        49.000  

  22341582.39849 117405808.00449      3467.10249        50.000  

 16 04 02 12 48  8.5000000  0  3G29G25G09                                       
  21040848.03149 110570402.02049      2139.52749        50.000  

  24240520.48449 127384792.37149     11812.16849        49.000  

  22341516.47749 117405461.57849      3461.55949        50.000  

 16 04 02 12 48  8.6000000  0  3G29G25G09                                       
  21040807.35249 110570188.23049      2136.21149        50.000  

  24240295.72749 127383611.21149     11810.75449        49.000  

  22341450.64849 117405115.66849      3456.23049        50.000  

 16 04 02 12 48  8.7000000  0  3G29G25G09                                       
  21040766.73449 110569974.80949      2132.59049        50.000  

  24240070.99249 127382430.21549     11809.15249        49.000  

  22341384.93049 117404770.32049      3450.74649        50.000  

 16 04 02 12 48  8.8000000  0  3G29G25G09                                       
  21040726.18849 110569761.70749      2129.35249        50.000  

  24239846.26649 127381249.33649     11808.02749        49.000  

  22341319.31249 117404425.46949      3445.68849        50.000  

 16 04 02 12 48  8.9000000  0  3G29G25G09                                       
  21040685.68849 110569548.90249      2126.54749        50.000  

  24239621.57049 127380068.53949     11807.30949        48.000  

  22341253.78149 117404081.10549      3440.95349        50.000  

 16 04 02 12 48  9.0000000  0  3G29G25G09                                       
  21040645.27349 110569336.53149      2122.19549        50.000  

  24239396.91449 127378887.97749     11804.91849        48.000  

  22341188.36749 117403737.36349      3434.71949        50.000  

 16 04 02 12 48  9.1000000  0  3G29G25G09                                       
  21040604.91449 110569124.45349      2119.16449        50.000  

  24239172.27349 127377707.49649     11804.13349        48.000  

  22341123.04749 117403394.09849      3430.01249        50.000  

 16 04 02 12 48  9.2000000  0  3G29G25G09                                       
  21040564.62549 110568912.75049      2115.51649        50.000  

  24238947.66449 127376527.18849     11802.52349        48.000  

  22341057.82849 117403051.39549      3424.46149        50.000  

 16 04 02 12 48  9.3000000  0  3G29G25G09                                       
  21040524.39149 110568701.32449      2112.81249        50.000  

  24238723.07849 127375346.96549     11801.71549        48.000  

  22340992.71149 117402709.16449      3419.86749        50.000  

 16 04 02 12 48  9.4000000  0  3G29G25G09                                       
  21040484.23449 110568490.27349      2108.81649        50.000  

  24238498.51649 127374166.89149     11799.98849        48.000  

  22340927.68849 117402367.48849      3414.03149        50.000  

 16 04 02 12 48  9.5000000  0  3G29G25G09                                       
  21040444.14849 110568279.62949      2104.82849        50.000  

  24238273.99249 127372987.03549     11797.92649        48.000  

  22340862.78149 117402026.40649      3408.14149        50.000  

 16 04 02 12 48  9.6000000  0  3G29G25G09                                       
  21040404.11749 110568069.25049      2102.15249        50.000  

  24238049.48449 127371807.23049     11797.28949        48.000  

  22340797.96149 117401685.77749      3403.60249        50.000  

 16 04 02 12 48  9.7000000  0  3G29G25G09                                       
  21040364.14149 110567859.18049      2099.08649        50.000  

  24237824.99249 127370627.53149     11796.33649        48.000  

  22340733.23449 117401345.64149      3398.69549        50.000  

 16 04 02 12 48  9.8000000  0  3G29G25G09                                       
  21040324.25849 110567649.56249      2094.53149        50.000  

  24237600.53949 127369448.09049     11793.72749        48.000  

  22340668.63349 117401006.15649      3392.14849        50.000  

 16 04 02 12 48  9.9000000  0  3G29G25G09                                       
  21040284.42249 110567440.24649      2091.60949        50.000  

  24237376.10949 127368268.72349     11792.93849        48.000  

  22340604.12549 117400667.14849      3387.35949        50.000  

 16 04 02 12 48 10.0000000  0  3G29G25G09                                       
  21040244.65649 110567231.25049      2088.46949        50.000  

  24237151.71949 127367089.49249     11791.74249        48.000  

  22340539.71149 117400328.64149      3382.46149        50.000  

 16 04 02 12 48 10.1000000  0  3G29G25G09                                       
  21040204.95349 110567022.60949      2084.80549        50.000  

  24236927.34449 127365910.40649     11790.17249        48.000  

  22340475.39849 117399990.70349      3376.70349        50.000  

 16 04 02 12 48 10.2000000  0  3G29G25G09                                       
  21040165.30549 110566814.28949      2081.70349        50.000  

  24236702.98449 127364731.42649     11789.21149        48.000  

  22340411.18049 117399653.23849      3372.00049        50.000  

 16 04 02 12 48 10.3000000  0  3G29G25G09                                       
  21040125.73449 110566606.32449      2078.14149        50.000  

  24236478.65649 127363552.60249     11787.57849        48.000  

  22340347.07049 117399316.33249      3366.51249        50.000  

 16 04 02 12 48 10.4000000  0  3G29G25G09                                       
  21040086.22749 110566398.71549      2074.30949        50.000  

  24236254.36749 127362373.92649     11785.96549        48.000  

  22340283.06249 117398979.97749      3360.72749        50.000  

 16 04 02 12 48 10.5000000  0  3G29G25G09                                       
  21040046.79749 110566191.51249      2070.40649        50.000  

  24236030.11749 127361195.46949     11783.90649        48.000  

  22340219.17249 117398644.20749      3355.01649        50.000  

 16 04 02 12 48 10.6000000  0  3G29G25G09                                       
  21040007.41449 110565984.58249      2067.67249        50.000  

  24235805.86749 127360017.06249     11783.26649        48.000  

  22340155.35949 117398308.89849      3350.39149        50.000  

 16 04 02 12 48 10.7000000  0  3G29G25G09                                       
  21039968.10949 110565778.03149      2063.90649        50.000  

  24235581.66449 127358838.83649     11781.53549        48.000  

  22340091.66449 117397974.16449      3344.66449        50.000  

 16 04 02 12 48 10.8000000  0  3G29G25G09                                       
  21039928.85949 110565571.77349      2061.07849        50.000  

  24235357.45349 127357660.68449     11780.89849        48.000  

  22340028.05549 117397639.89149      3340.01649        50.000  

 16 04 02 12 48 10.9000000  0  3G29G25G09                                       
  21039889.68849 110565365.91049      2057.06249        50.000  

  24235133.29749 127356482.73449     11778.85249        48.000    24235139.60941
  99238844.44551      9178.32441        20.000  
  22339964.55549 117397306.21149      3334.09049        50.000  

 16 04 02 12 48 11.0000000  0  3G29G25G09                                       
  21039850.57849 110565160.37549      2053.74249        50.000  

  24234909.16449 127355304.91449     11777.59849        48.000    24234915.48441
  99237926.66441      9177.34841        20.000  
  22339901.15649 117396973.04749      3328.99249        50.000  

 16 04 02 12 48 11.1000000  0  3G29G25G09                                       
  21039811.51649 110564955.13349      2050.85549        50.000  

  24234685.04749 127354127.16449     11776.79749        49.000    24234692.46141
  99237008.94141      9176.72741        20.000  
  22339837.84449 117396640.35949      3324.14549        50.000  

 16 04 02 12 48 11.2000000  0  3G29G25G09                                       
  21039772.53149 110564750.26249      2047.23849        50.000  

  24234460.97749 127352949.59049     11775.29349        49.000    24234468.37541
  99236091.34841      9175.55541        23.000  
  22339774.64149 117396308.23049      3318.67249        50.000  

 16 04 02 12 48 11.3000000  0  3G29G25G09                                       
  21039733.61749 110564545.77049      2043.34449        50.000  

  24234236.92249 127351772.19149     11773.28949        48.000    24234242.35241
  99235173.89541      9173.99241        20.000  
  22339711.54749 117395976.66849      3312.91849        50.000  

 16 04 02 12 48 11.4000000  0  3G29G25G09                                       
  21039694.76649 110564341.57849      2040.14549        50.000  

  24234012.90649 127350594.88349     11772.38349        48.000    24234018.31241
  99234256.48441      9173.28541        21.000  
  22339648.54749 117395645.59049      3308.01649        50.000  

 16 04 02 12 48 11.5000000  0  3G29G25G09                                       
  21039655.96949 110564137.70749      2037.26249        50.000  

  24233788.89849 127349417.71149     11771.24249        48.000    24233790.39141
  99233339.18441      9172.39841        20.000  
  22339585.64149 117395315.02749      3303.16049        50.000  

 16 04 02 12 48 11.6000000  0  3G29G25G09                                       
  21039617.23449 110563934.16449      2033.86749        50.000  

  24233564.89849 127348240.64149     11770.00849        48.000    24233566.39841
  99232421.96541      9171.43441        20.000  
  22339522.83649 117394984.97749      3297.78949        50.000  

 16 04 02 12 48 11.7000000  0  3G29G25G09                                       
  21039578.57049 110563730.96549      2030.43849        50.000  

  24233340.93849 127347063.71149     11768.57449        48.000    24233343.76641
  99231504.85241      9170.31641        20.000  
  22339460.13349 117394655.45749      3292.51649        50.000  

 16 04 02 12 48 11.8000000  0  3G29G25G09                                       
  21039539.97749 110563528.16849      2026.32049        50.000  

  24233117.02349 127345886.98049     11766.63349        48.000  

  22339397.53949 117394326.52349      3286.51649        50.000  

 16 04 02 12 48 11.9000000  0  3G29G25G09                                       
  21039501.45349 110563325.72349      2022.70749        50.000  

  24232893.12549 127344710.39149     11765.20749        48.000  

  22339335.04749 117393998.12949      3281.25449        50.000  

 16 04 02 12 48 12.0000000  0  3G29G25G09                                       
  21039462.98449 110563123.58249      2019.68049        50.000  

  24232669.25049 127343533.91849     11763.93449        48.000  

  22339272.64849 117393670.23449      3276.10549        50.000  

 16 04 02 12 48 12.1000000  0  3G29G25G09                                       
  21039424.59449 110562921.84449      2015.78149        50.000  

  24232445.41449 127342357.62949     11762.20749        48.000  

  22339210.36749 117393342.91849      3270.44949        50.000  

 16 04 02 12 48 12.2000000  0  3G29G25G09                                       
  21039386.25849 110562720.38349      2013.04349        50.000  

  24232221.58649 127341181.41849     11761.42249        48.000  

  22339148.17249 117393016.08249      3265.69549        50.000  

 16 04 02 12 48 12.3000000  0  3G29G25G09                                       
  21039348.00049 110562519.32449      2009.11349        49.000  

  24231997.78949 127340005.39549     11759.69149        48.000  

  22339086.08649 117392689.81249      3260.13749        50.000  

 16 04 02 12 48 12.4000000  0  3G29G25G09                                       
  21039309.79749 110562318.60949      2005.47749        49.000  

  24231774.03949 127338829.52749     11758.06249        48.000  

  22339024.10249 117392364.09849      3254.42649        50.000  

 16 04 02 12 48 12.5000000  0  3G29G25G09                                       
  21039271.66449 110562118.21949      2002.26649        50.000  

  24231550.29749 127337653.77049     11756.74649        48.000  

  22338962.21949 117392038.87949      3249.42249        50.000  

 16 04 02 12 48 12.6000000  0  2G29G09                                          
  21039233.60249 110561918.16049      1999.24249        50.000  

  22338900.43049 117391714.19149      3244.40649        50.000  

 16 04 02 12 48 12.7000000  0  2G29G09                                          
  21039195.60249 110561718.48849      1995.02349        50.000  

  22338838.75049 117391390.05949      3238.47349        50.000  

 16 04 02 12 48 12.8000000  0  2G29G09                                          
  21039157.67249 110561519.15249      1991.74649        50.000  

  22338777.17249 117391066.47349      3233.15249        50.000  

 16 04 02 12 48 12.9000000  0  2G29G09                                          
  21039119.80549 110561320.17249      1988.18449        50.000  

  22338715.69549 117390743.41049      3227.91449        50.000  

 16 04 02 12 48 13.0000000  0  2G29G09                                          
  21039082.02349 110561121.61749      1983.96549        50.000  

  22338654.33649 117390420.96549      3221.77749        50.000  

 16 04 02 12 48 13.1000000  0  2G29G09                                          
  21039044.28149 110560923.28949      1981.69949        50.000  

  22338593.05549 117390098.94149      3217.50849        50.000  

 16 04 02 12 48 13.2000000  0  2G29G09                                          
  21039006.60949 110560725.29749      1978.55149        50.000  

  22338531.87549 117389777.42649      3212.70749        50.000  

 16 04 02 12 48 13.3000000  0  2G29G09                                          
  21038968.99249 110560527.63349      1975.21549        50.000  

  22338470.79749 117389456.44549      3207.33249        50.000  

 16 04 02 12 48 13.4000000  0  2G29G09                                          
  21038931.43849 110560330.26649      1972.18849        50.000  

  22338409.80549 117389135.93049      3202.53149        50.000  

 16 04 02 12 48 13.5000000  0  2G29G09                                          
  21038893.94549 110560133.24249      1968.69549        50.000  

  22338348.91449 117388815.95749      3197.03549        50.000  

 16 04 02 12 48 13.6000000  0  2G29G09                                          
  21038856.53149 110559936.62149      1964.77349        50.000  

  22338288.13349 117388496.56649      3191.40249        50.000  

 16 04 02 12 48 13.7000000  0  2G29G09                                          
  21038819.17249 110559740.31249      1961.44149        50.000  

  22338227.45349 117388177.68849      3185.99649        50.000  

 16 04 02 12 48 13.8000000  0  2G29G09                                          
  21038781.89149 110559544.37549      1957.71549        50.000  

  22338166.87549 117387859.35249      3180.64149        50.000  

 16 04 02 12 48 13.9000000  0  2G29G09                                          
  21038744.67249 110559348.80149      1954.07449        50.000  

  22338106.40649 117387541.58249      3175.11749        50.000  

 16 04 02 12 48 14.0000000  0  2G29G09                                          
  21038707.51649 110559153.53149      1951.03549        50.000  

  22338046.03149 117387224.29349      3170.06649        50.000  

 16 04 02 12 48 14.1000000  0  2G29G09                                          
  21038670.43049 110558958.62949      1947.48449        50.000  

  22337985.75849 117386907.57049      3164.58249        50.000  

 16 04 02 12 48 14.2000000  0  2G29G09                                          
  21038633.40649 110558764.06649      1944.03549        49.000  

  22337925.58649 117386591.36349      3159.30149        50.000  

 16 04 02 12 48 14.3000000  0  2G29G09                                          
  21038596.44549 110558569.83249      1940.90249        49.000  

  22337865.50849 117386275.66849      3154.41849        50.000  

 16 04 02 12 48 14.4000000  0  2G29G09                                          
  21038559.55549 110558375.96549      1937.05549        49.000  

  22337805.54749 117385960.54349      3148.47349        50.000  

 16 04 02 12 48 14.5000000  0  2G29G09                                          
  21038522.74249 110558182.50049      1932.91049        50.000  

  22337745.68849 117385645.98849      3142.72749        50.000  

 16 04 02 12 48 14.6000000  0  2G29G09                                          
  21038485.97749 110557989.33249      1930.14149        50.000  

  22337685.92249 117385331.92649      3137.98849        50.000  

 16 04 02 12 48 14.7000000  0  2G29G09                                          
  21038449.29749 110557796.54749      1926.21149        50.000  

  22337626.27349 117385018.44149      3132.02749        50.000  

 16 04 02 12 48 14.8000000  0  2G29G09                                          
  21038412.67249 110557604.10549      1922.85949        49.000  

  22337566.71949 117384705.48449      3126.94149        50.000  

 16 04 02 12 48 14.9000000  0  2G29G09                                          
  21038376.14149 110557412.10549      1918.44949        49.000  

  22337507.28149 117384393.15249      3120.69949        50.000  

 16 04 02 12 48 15.0000000  0  2G29G09                                          
  21038339.65649 110557220.38349      1915.45749        49.000  

  22337447.93849 117384081.27749      3115.87149        50.000  

 16 04 02 12 48 15.1000000  0  2G29G09                                          
  21038303.23449 110557029.01249      1912.09049        50.000  

  22337388.69549 117383769.94549      3110.71149        50.000  

 16 04 02 12 48 15.2000000  0  2G29G09                                          
  21038266.88349 110556837.96149      1908.84849        49.000  

  22337329.54749 117383459.13749      3105.45749        50.000  

 16 04 02 12 48 15.3000000  0  2G29G09                                          
  21038230.58649 110556647.21949      1905.77349        49.000  

  22337270.50049 117383148.81249      3100.49249        50.000  

 16 04 02 12 48 15.4000000  0  2G29G09                                          
  21038194.37549 110556456.94949      1900.94549        49.000  

  22337211.57049 117382839.14849      3093.75449        50.000  

 16 04 02 12 48 15.5000000  0  2G29G09                                          
  21038158.22749 110556266.97349      1898.26649        49.000  

  22337152.73449 117382529.96149      3089.31249        50.000  

 16 04 02 12 48 15.6000000  0  2G29G09                                          
  21038122.14149 110556077.34449      1894.62149        49.000  

  22337094.00049 117382221.30949      3083.82449        50.000  

 16 04 02 12 48 15.7000000  0  2G29G09                                          
  21038086.11749 110555888.04749      1891.28149        49.000  

  22337035.36749 117381913.18049      3078.58649        50.000  

 16 04 02 12 48 15.8000000  0  2G29G09                                          
  21038050.16449 110555699.09049      1887.99649        49.000  

  22336976.83649 117381605.57849      3073.34849        50.000  

 16 04 02 12 48 15.9000000  0  2G29G09                                          
  21038014.27349 110555510.51249      1884.31249        49.000  

  22336918.40649 117381298.54749      3067.75849        50.000  

 16 04 02 12 48 16.0000000  0  2G29G09                                          
  21037978.45349 110555322.27049      1880.72349        50.000  

  22336860.07849 117380992.02749      3062.49249        50.000  

 16 04 02 12 48 16.1000000  0  2G29G09                                          
  21037942.69549 110555134.36749      1877.37149        49.000  

  22336801.85249 117380686.05149      3057.10249        50.000  

 16 04 02 12 48 16.2000000  0  2G29G09                                          
  21037907.00849 110554946.80949      1873.95349        49.000  

  22336743.72749 117380380.58649      3051.86749        50.000  

 16 04 02 12 48 16.3000000  0  2G29G09                                          
  21037871.37549 110554759.56249      1870.91449        49.000  

  22336685.69549 117380075.64149      3046.86349        50.000  

 16 04 02 12 48 16.4000000  0  2G29G09                                          
  21037835.81249 110554572.70349      1867.03949        49.000  

  22336627.77349 117379771.26249      3041.16849        50.000  

 16 04 02 12 48 16.5000000  0  2G29G09                                          
  21037800.32049 110554386.18049      1863.61749        49.000  

  22336569.95349 117379467.40649      3035.85949        50.000  

 16 04 02 12 48 16.6000000  0  2G29G09                                          
  21037764.89149 110554199.96949      1860.52049        49.000  

  22336512.22749 117379164.04349      3030.91049        50.000  

 16 04 02 12 48 16.7000000  0  2G29G09                                          
  21037729.51649 110554014.09449      1857.29349        49.000  

  22336454.60249 117378861.21549      3025.70349        50.000  

 16 04 02 12 48 16.8000000  0  2G29G09                                          
  21037694.21949 110553828.56249      1853.73849        49.000  

  22336397.07049 117378558.90649      3020.32849        50.000  

 16 04 02 12 48 16.9000000  0  2G29G09                                          
  21037658.98449 110553643.40249      1850.00449        49.000  

  22336339.65649 117378257.16049      3014.86749        50.000  

 16 04 02 12 48 17.0000000  0  2G29G09                                          
  21037623.78949 110553458.47349      1847.69549        49.000  

  22336282.32049 117377955.84049      3010.42249        50.000  

 16 04 02 12 48 17.1000000  0  2G29G09                                          
  21037588.68049 110553273.96949      1843.57849        49.000  

  22336225.09449 117377655.12149      3004.57449        50.000  

 16 04 02 12 48 17.2000000  0  2G29G09                                          
  21037553.64149 110553089.82049      1839.78949        49.000  

  22336167.96949 117377354.94149      2999.00449        50.000  

 16 04 02 12 48 17.3000000  0  2G29G09                                          
  21037518.66449 110552906.01249      1836.47349        49.000  

  22336110.94549 117377055.30549      2993.77349        50.000  

 16 04 02 12 48 17.4000000  0  2G29G09                                          
  21037483.74249 110552722.51649      1833.46149        49.000  

  22336054.02349 117376756.16849      2988.82049        50.000  

 16 04 02 12 48 17.5000000  0  2G29G09                                          
  21037448.90649 110552539.43049      1829.15249        49.000  

  22335997.21949 117376457.61749      2982.59049        50.000  

 16 04 02 12 48 17.6000000  0  2G29G09                                          
  21037414.14149 110552356.73449      1825.23049        49.000  

  22335940.51649 117376159.65249      2976.82449        50.000  

 16 04 02 12 48 17.7000000  0  2G29G09                                          
  21037379.43849 110552174.38349      1821.80149        49.000  

  22335883.91449 117375862.21149      2971.59449        50.000  

 16 04 02 12 48 17.8000000  0  2G29G09                                          
  21037344.79749 110551992.32449      1818.93449        49.000  

  22335827.40649 117375565.25849      2966.66049        50.000  

 16 04 02 12 48 17.9000000  0  2G29G09                                          
  21037310.22749 110551810.66449      1815.05149        49.000  

  22335771.00849 117375268.88749      2961.07849        50.000  

 16 04 02 12 48 18.0000000  0  2G29G09                                          
  21037275.72749 110551629.35949      1811.42649        49.000  

  22335714.71149 117374973.05949      2955.52049        50.000  

 16 04 02 12 48 18.1000000  0  2G29G09                                          
  21037241.28949 110551448.40649      1808.02049        49.000  

  22335658.52349 117374677.77749      2950.09849        50.000  

 16 04 02 12 48 18.2000000  0  2G29G09                                          
  21037206.92249 110551267.75849      1804.77749        49.000  

  22335602.42249 117374382.96949      2945.17649        49.000  

 16 04 02 12 48 18.3000000  0  2G29G09                                          
  21037172.60949 110551087.43449      1801.78949        49.000  

  22335546.42249 117374088.68449      2940.31249        49.000  

 16 04 02 12 48 18.4000000  0  2G29G09                                          
  21037138.35949 110550907.44949      1798.29749        49.000  

  22335490.52349 117373794.93849      2934.75849        50.000  

 16 04 02 12 48 18.5000000  0  2G29G09                                          
  21037104.18849 110550727.86349      1794.22749        49.000  

  22335434.73449 117373501.75449      2929.06649        50.000  

 16 04 02 12 48 18.6000000  0  2G29G09                                          
  21037070.07049 110550548.59449      1791.03149        49.000  

  22335379.04749 117373209.09449      2923.85949        50.000  

 16 04 02 12 48 18.7000000  0  2G29G09                                          
  21037036.02349 110550369.64549      1788.00449        49.000  

  22335323.44549 117372916.92249      2919.14549        50.000  

 16 04 02 12 48 18.8000000  0  2G29G09                                          
  21037002.03949 110550191.05949      1784.25449        49.000  

  22335267.95349 117372625.32049      2913.30949        50.000  

 16 04 02 12 48 18.9000000  0  2G29G09                                          
  21036968.11749 110550012.80549      1781.04749        49.000  

  22335212.56249 117372334.22749      2908.30949        50.000  

 16 04 02 12 48 19.0000000  0  2G29G09                                          
  21036934.25849 110549834.89549      1777.50849        49.000  

  22335157.26649 117372043.66849      2902.89849        50.000  

 16 04 02 12 48 19.1000000  0  2G29G09                                          
  21036900.46149 110549657.27349      1774.65249        49.000  

  22335102.07049 117371753.58649      2898.12549        50.000  

 16 04 02 12 48 19.2000000  0  2G29G09                                          
  21036866.74249 110549480.06249      1770.68449        49.000  

  22335046.98449 117371464.10549      2892.28549        50.000  

 16 04 02 12 48 19.3000000  0  2G29G09                                          
  21036833.07849 110549303.17649      1767.27349        49.000  

  22334991.99249 117371175.12949      2886.96549        50.000  

 16 04 02 12 48 19.4000000  0  2G29G09                                          
  21036799.47749 110549126.62149      1764.09849        49.000  

  22334937.10249 117370886.66849      2882.10549        50.000  

 16 04 02 12 48 19.5000000  0  2G29G09                                          
  21036765.94549 110548950.41049      1760.39849        49.000  

  22334882.31249 117370598.75849      2876.26249        50.000  

 16 04 02 12 48 19.6000000  0  2G29G09                                          
  21036732.49249 110548774.62149      1756.31249        49.000  

  22334827.63349 117370311.43449      2870.50049        50.000  

 16 04 02 12 48 19.7000000  0  2G29G09                                          
  21036699.10249 110548599.12949      1753.26649        49.000  

  22334773.05549 117370024.60549      2865.46549        50.000  

 16 04 02 12 48 19.8000000  0  2G29G09                                          
  21036665.78949 110548424.05149      1749.09449        49.000  

  22334718.58649 117369738.38749      2859.41849        50.000  

 16 04 02 12 48 19.9000000  0  2G29G09                                          
  21036632.53149 110548249.28149      1746.02049        49.000  

  22334664.21949 117369452.65249      2854.48849        50.000  

 16 04 02 12 48 20.0000000  0  2G29G09                                          
  21036599.34449 110548074.89849      1742.10249        49.000  

  22334609.95349 117369167.48049      2849.00449        50.000  

 16 04 02 12 48 20.1000000  0  2G29G09                                          
  21036566.21949 110547900.82049      1739.18449        49.000  

  22334555.78149 117368882.83249      2844.00849        50.000  

 16 04 02 12 48 20.2000000  0  2G29G09                                          
  21036533.15649 110547727.06249      1736.16449        49.000  

  22334501.71149 117368598.68049      2838.90649        50.000  

 16 04 02 12 48 20.3000000  0  2G29G09                                          
  21036500.16449 110547553.68449      1732.22749        49.000  

  22334447.74249 117368315.08249      2833.21549        50.000  

 16 04 02 12 48 20.4000000  0  2G29G09                                          
  21036467.24249 110547380.67649      1728.31649        49.000  

  22334393.88349 117368032.04349      2827.49649        50.000  

 16 04 02 12 48 20.5000000  0  2G29G09                                          
  21036434.37549 110547207.96549      1725.57049        49.000  

  22334340.11749 117367749.49249      2822.94949        50.000  

 16 04 02 12 48 20.6000000  0  2G29G09                                          
  21036401.56249 110547035.54349      1722.70749        49.000  

  22334286.44549 117367467.42249      2818.15649        50.000  

 16 04 02 12 48 20.7000000  0  2G29G09                                          
  21036368.83649 110546863.53949      1718.57049        49.000  

  22334232.88349 117367185.96549      2812.11749        50.000  

 16 04 02 12 48 20.8000000  0  2G29G09                                          
  21036336.15649 110546691.82449      1715.54749        49.000  

  22334179.41449 117366904.97349      2807.14549        50.000  

 16 04 02 12 48 20.9000000  0  2G29G09                                          
  21036303.55549 110546520.50049      1711.78949        49.000  

  22334126.05549 117366624.56649      2801.55149        50.000  

 16 04 02 12 48 21.0000000  0  2G29G09                                          
  21036271.00849 110546349.45749      1708.80949        49.000  

  22334072.78949 117366344.63349      2796.53149        49.000  

 16 04 02 12 48 21.1000000  0  2G29G09                                          
  21036238.53149 110546178.79349      1705.15649        49.000  

  22334019.61749 117366065.24649      2791.26649        49.000  

 16 04 02 12 48 21.2000000  0  2G29G09                                          
  21036206.11749 110546008.46949      1701.68449        49.000  

  22333966.55549 117365786.39849      2785.75849        50.000  

 16 04 02 12 48 21.3000000  0  2G29G09                                          
  21036173.78149 110545838.55149      1697.53549        49.000  

  22333913.60949 117365508.14549      2779.75849        50.000  

 16 04 02 12 48 21.4000000  0  2G29G09                                          
  21036141.50049 110545668.90249      1695.01649        49.000  

  22333860.74249 117365230.35549      2775.26249        50.000  

 16 04 02 12 48 21.5000000  0  2G29G09                                          
  21036109.28949 110545499.65249      1691.07049        49.000  

  22333807.99249 117364953.12949      2769.72349        50.000  

 16 04 02 12 48 21.6000000  0  2G29G09                                          
  21036077.12549 110545330.62549      1688.73049        49.000  

  22333755.32049 117364676.34049      2765.21949        50.000  

 16 04 02 12 48 21.7000000  0  2G29G09                                          
  21036045.03949 110545162.02049      1684.65649        49.000  

  22333702.76649 117364400.14549      2759.26249        50.000  

 16 04 02 12 48 21.8000000  0  2G29G09                                          
  21036013.02349 110544993.77049      1680.85949        49.000  

  22333650.31249 117364124.49649      2753.65249        50.000  

 16 04 02 12 48 21.9000000  0  2G29G09                                          
  21035981.08649 110544825.91449      1676.84049        49.000  

  22333597.96149 117363849.42249      2747.82449        50.000  

 16 04 02 12 48 22.0000000  0  2G29G09                                          
  21035949.19549 110544658.33649      1674.26649        49.000  

  22333545.71149 117363574.82849      2743.35549        50.000  

 16 04 02 12 48 22.1000000  0  2G29G09                                          
  21035917.36749 110544491.08249      1671.16049        49.000  

  22333493.54749 117363300.73049      2738.43049        50.000  

 16 04 02 12 48 22.2000000  0  2G29G09                                          
  21035885.60249 110544324.14549      1667.78149        49.000  

  22333441.48449 117363027.14549      2733.17649        50.000  

 16 04 02 12 48 22.3000000  0  2G29G09                                          
  21035853.89849 110544157.55149      1664.44149        49.000  

  22333389.53149 117362754.09449      2727.82449        50.000  

 16 04 02 12 48 22.4000000  0  2G29G09                                          
  21035822.27349 110543991.35949      1660.43049        49.000  

  22333337.68049 117362481.63349      2722.01649        50.000  

 16 04 02 12 48 22.5000000  0  2G29G09                                          
  21035790.71149 110543825.50449      1657.07849        49.000  

  22333285.93849 117362209.69149      2716.77349        50.000  

 16 04 02 12 48 22.6000000  0  2G29G09                                          
  21035759.21949 110543659.99649      1653.53549        49.000  

  22333234.28949 117361938.28949      2711.28549        50.000  

 16 04 02 12 48 22.7000000  0  2G29G09                                          
  21035727.78149 110543494.79749      1650.47749        49.000  

  22333182.73449 117361667.36749      2706.56249        50.000  

 16 04 02 12 48 22.8000000  0  2G29G09                                          
  21035696.40649 110543329.93049      1647.06249        49.000  

  22333131.28149 117361396.98049      2701.24249        50.000  

 16 04 02 12 48 22.9000000  0  2G29G09                                          
  21035665.10249 110543165.41849      1643.55549        49.000  

  22333079.93049 117361127.14149      2695.67249        50.000  

 16 04 02 12 48 23.0000000  0  2G29G09                                          
  21035633.86749 110543001.26249      1640.02049        49.000  

  22333028.68849 117360857.83249      2690.41849        50.000  

 16 04 02 12 48 23.1000000  0  2G29G09                                          
  21035602.68849 110542837.41849      1636.78549        49.000  

  22332977.53149 117360589.02049      2685.46949        50.000  

 16 04 02 12 48 23.2000000  0  2G29G09                                          
  21035571.58649 110542673.95749      1632.97749        49.000  

  22332926.49249 117360320.80149      2679.53149        50.000  

 16 04 02 12 48 23.3000000  0  2G29G09                                          
  21035540.53949 110542510.83249      1629.69949        49.000  

  22332875.54749 117360053.08649      2674.40649        50.000  

 16 04 02 12 48 23.4000000  0  2G29G09                                          
  21035509.57049 110542348.09049      1625.77749        49.000  

  22332824.71149 117359785.93449      2668.70349        50.000  

 16 04 02 12 48 23.5000000  0  2G29G09                                          
  21035478.65649 110542185.61749      1623.20349        49.000  

  22332773.96149 117359519.26249      2664.05549        50.000  

 16 04 02 12 48 23.6000000  0  2G29G09                                          
  21035447.81249 110542023.52049      1619.62149        49.000  

  22332723.32049 117359253.14149      2658.67249        50.000  

 16 04 02 12 48 23.7000000  0  2G29G09                                          
  21035417.02349 110541861.74249      1616.30949        49.000  

  22332672.78149 117358987.53149      2653.60949        50.000  

 16 04 02 12 48 23.8000000  0  2G29G09                                          
  21035386.30549 110541700.30949      1612.64549        49.000  

  22332622.33649 117358722.44149      2648.15249        50.000  

 16 04 02 12 48 23.9000000  0  2G29G09                                          
  21035355.67249 110541539.33249      1607.98049        49.000  

  22332572.01649 117358458.00849      2641.56249        50.000  

 16 04 02 12 48 24.0000000  0  2G29G09                                          
  21035325.10249 110541378.69149      1604.57849        49.000  

  22332521.79749 117358194.09049      2636.32449        50.000  

 16 04 02 12 48 24.1000000  0  2G29G09                                          
  21035294.59449 110541218.35249      1601.75849        49.000  

  22332471.66449 117357930.68849      2631.25449        50.000  

 16 04 02 12 48 24.2000000  0  2G29G09                                          
  21035264.14149 110541058.35549      1598.39549        49.000  

  22332421.63349 117357667.77349      2626.53149        50.000  

 16 04 02 12 48 24.3000000  0  2G29G09                                          
  21035233.75849 110540898.67249      1595.19149        49.000  

  22332371.71149 117357405.39549      2621.10249        50.000  

 16 04 02 12 48 24.4000000  0  2G29G09                                          
  21035203.44549 110540739.35949      1591.55549        49.000  

  22332321.88349 117357143.55949      2615.67649        50.000  

 16 04 02 12 48 24.5000000  0  2G29G09                                          
  21035173.19549 110540580.40249      1587.92249        49.000  

  22332272.16449 117356882.27349      2610.15649        50.000  

 16 04 02 12 48 24.6000000  0  2G29G09                                          
  21035143.00849 110540421.78549      1584.64849        49.000  

  22332222.53949 117356621.50049      2605.13749        50.000  

 16 04 02 12 48 24.7000000  0  2G29G09                                          
  21035112.89149 110540263.52749      1580.87949        49.000  

  22332173.02349 117356361.28949      2599.34849        50.000  

 16 04 02 12 48 24.8000000  0  2G29G09                                          
  21035082.84449 110540105.63749      1577.31249        49.000  

  22332123.61749 117356101.63749      2593.77349        50.000  

 16 04 02 12 48 24.9000000  0  2G29G09                                          
  21035052.86749 110539948.08649      1573.73049        49.000  

  22332074.29749 117355842.49649      2588.54349        50.000  

 16 04 02 12 48 25.0000000  0  2G29G09                                          
  21035022.96149 110539790.93849      1569.85249        49.000  

  22332025.10249 117355583.95349      2582.75849        50.000  

 16 04 02 12 48 25.1000000  0  2G29G09                                          
  21034993.10249 110539634.00849      1567.63749        49.000  

  22331975.98449 117355325.82449      2578.49249        50.000  

 16 04 02 12 48 25.2000000  0  2G29G09                                          
  21034963.31249 110539477.50449      1563.53549        49.000  

  22331926.97749 117355068.29749      2572.60249        50.000  

 16 04 02 12 48 25.3000000  0  2G29G09                                          
  21034933.60249 110539321.36349      1559.74249        49.000  

  22331878.07849 117354811.32049      2566.92249        50.000  

 16 04 02 12 48 25.4000000  0  2G29G09                                          
  21034903.95349 110539165.54349      1556.67649        49.000  

  22331829.27349 117354554.84849      2562.15249        50.000  

 16 04 02 12 48 25.5000000  0  2G29G09                                          
  21034874.36749 110539010.07049      1553.00049        49.000  

  22331780.57049 117354298.91849      2556.48449        50.000  

 16 04 02 12 48 25.6000000  0  2G29G09                                          
  21034844.85249 110538854.96949      1549.50849        49.000  

  22331731.97749 117354043.55549      2551.23449        50.000  

 16 04 02 12 48 25.7000000  0  2G29G09                                          
  21034815.40649 110538700.22349      1545.61749        49.000  

  22331683.48449 117353788.73449      2545.02349        50.000  

 16 04 02 12 48 25.8000000  0  2G29G09                                          
  21034786.03949 110538545.89149      1541.62949        49.000  

  22331635.10249 117353534.49649      2539.69949        50.000  

 16 04 02 12 48 25.9000000  0  2G29G09                                          
  21034756.71949 110538391.83249      1538.93849        49.000  

  22331586.81249 117353280.73049      2534.93849        50.000  

 16 04 02 12 48 26.0000000  0  2G29G09                                          
  21034727.46949 110538238.11749      1535.57049        49.000  

  22331538.63349 117353027.51649      2529.48849        50.000  

 16 04 02 12 48 26.1000000  0  2G29G09                                          
  21034698.28949 110538084.77049      1532.00049        49.000  

  22331490.54749 117352774.82049      2524.47749        50.000  

 16 04 02 12 48 26.2000000  0  2G29G09                                          
  21034669.16449 110537931.70349      1528.96949        49.000  

  22331442.54749 117352522.62149      2519.31649        50.000  

 16 04 02 12 48 26.3000000  0  2G29G09                                          
  21034640.10949 110537779.02749      1525.24249        49.000  

  22331394.66449 117352270.99649      2513.53949        50.000  

 16 04 02 12 48 26.4000000  0  2G29G09                                          
  21034611.11749 110537626.67249      1521.94549        49.000  

  22331346.87549 117352019.86749      2508.54749        50.000  

 16 04 02 12 48 26.5000000  0  2G29G09                                          
  21034582.19549 110537474.68449      1518.19949        49.000  

  22331299.19549 117351769.29749      2502.87949        50.000  

 16 04 02 12 48 26.6000000  0  2G29G09                                          
  21034553.33649 110537323.05549      1514.53549        49.000  

  22331251.61749 117351519.27049      2497.42649        50.000  

 16 04 02 12 48 26.7000000  0  2G29G09                                          
  21034524.54749 110537171.76249      1511.40649        49.000  

  22331204.14149 117351269.78949      2492.13349        50.000  

 16 04 02 12 48 26.8000000  0  2G29G09                                          
  21034495.82849 110537020.82049      1507.82849        49.000  

  22331156.76649 117351020.82849      2486.88349        50.000  

 16 04 02 12 48 26.9000000  0  2G29G09                                          
  21034467.18049 110536870.27349      1503.82849        49.000  

  22331109.50049 117350772.44549      2481.03949        50.000  

 16 04 02 12 48 27.0000000  0  2G29G09                                          
  21034438.59449 110536720.03549      1500.68049        49.000  

  22331062.32849 117350524.57049      2475.98049        50.000  

 16 04 02 12 48 27.1000000  0  2G29G09                                          
  21034410.07049 110536570.14149      1497.35549        49.000  

  22331015.25849 117350277.21549      2470.87149        50.000  

 16 04 02 12 48 27.2000000  0  2G29G09                                          
  21034381.60249 110536420.55149      1494.27349        49.000  

  22330968.28949 117350030.36749      2465.78549        50.000  

 16 04 02 12 48 27.3000000  0  2G29G09                                          
  21034353.21149 110536271.38349      1490.12149        49.000  

  22330921.43049 117349784.10949      2459.92249        50.000  

 16 04 02 12 48 27.4000000  0  2G29G09                                          
  21034324.88349 110536122.48849      1487.22749        49.000  

  22330874.66449 117349538.34449      2454.93849        50.000  

 16 04 02 12 48 27.5000000  0  2G29G09                                          
  21034296.60949 110535973.90649      1484.49649        49.000  

  22330827.98449 117349293.05949      2450.35949        50.000  

 16 04 02 12 48 27.6000000  0  2G29G09                                          
  21034268.39849 110535825.68449      1480.68449        49.000  

  22330781.40649 117349048.31649      2444.59849        50.000  

 16 04 02 12 48 27.7000000  0  2G29G09                                          
  21034240.27349 110535677.87149      1476.58249        49.000  

  22330734.95349 117348804.18449      2438.55149        49.000  

 16 04 02 12 48 27.8000000  0  2G29G09                                          
  21034212.21949 110535530.46949      1472.25049        49.000  

  22330688.60949 117348560.64149      2432.49249        49.000  

 16 04 02 12 48 27.9000000  0  2G29G09                                          
  21034184.23449 110535383.38349      1469.19149        49.000  

  22330642.35949 117348317.60549      2427.47349        49.000  

 16 04 02 12 48 28.0000000  0  2G29G09                                          
  21034156.29749 110535236.59449      1466.37149        49.000  

  22330596.20349 117348075.05149      2422.99649        50.000  

 16 04 02 12 48 28.1000000  0  2G29G09                                          
  21034128.43049 110535090.13349      1462.99249        49.000  

  22330550.14849 117347833.01249      2417.59049        50.000  

 16 04 02 12 48 28.2000000  0  2G29G09                                          
  21034100.63349 110534944.07449      1459.02749        49.000  

  22330504.20349 117347591.56649      2411.75849        50.000  

 16 04 02 12 48 28.3000000  0  2G29G09                                          
  21034072.92249 110534798.41849      1454.73449        49.000  

  22330458.36749 117347350.70349      2405.75449        49.000  

 16 04 02 12 48 28.4000000  0  2G29G09                                          
  21034045.26649 110534653.09449      1451.45749        49.000  

  22330412.63349 117347110.37149      2400.51649        50.000  

 16 04 02 12 48 28.5000000  0  2G29G09                                          
  21034017.67249 110534508.08649      1448.61749        49.000  

  22330366.99249 117346870.53949      2395.81649        49.000  

 16 04 02 12 48 28.6000000  0  2G29G09                                          
  21033990.14149 110534363.41449      1445.19549        49.000  

  22330321.45349 117346631.23049      2390.45349        49.000  

 16 04 02 12 48 28.7000000  0  2G29G09                                          
  21033962.68049 110534219.08249      1441.77749        49.000  

  22330276.01649 117346392.45349      2385.22749        49.000  

 16 04 02 12 48 28.8000000  0  2G29G09                                          
  21033935.28149 110534075.11349      1438.15249        49.000  

  22330230.68049 117346154.22349      2379.66849        49.000  

 16 04 02 12 48 28.9000000  0  2G29G09                                          
  21033907.95349 110533931.48849      1434.55149        49.000  

  22330185.44549 117345916.52749      2374.03149        49.000  

 16 04 02 12 48 29.0000000  0  2G29G09                                          
  21033880.69549 110533788.25049      1430.65649        49.000  

  22330140.32049 117345679.39549      2368.51249        49.000  

 16 04 02 12 48 29.1000000  0  2G29G09                                          
  21033853.49249 110533645.32049      1427.70749        49.000  

  22330095.29749 117345442.77349      2363.64549        49.000  

 16 04 02 12 48 29.2000000  0  2G29G09                                          
  21033826.36749 110533502.76649      1423.96149        49.000  

  22330050.37549 117345206.71149      2357.83249        49.000  

 16 04 02 12 48 29.3000000  0  2G29G09                                          
  21033799.30549 110533360.52749      1420.91049        49.000  

  22330005.54749 117344971.14549      2353.13749        49.000  

 16 04 02 12 48 29.4000000  0  2G29G09                                          
  21033772.32049 110533218.70349      1416.57449        49.000  

  22329960.83649 117344736.18849      2346.91849        49.000  

 16 04 02 12 48 29.5000000  0  2G29G09                                          
  21033745.39149 110533077.19549      1413.39849        49.000  

  22329916.22749 117344501.73849      2341.73449        49.000  

 16 04 02 12 48 29.6000000  0  2G29G09                                          
  21033718.52349 110532935.98049      1410.62549        49.000  

  22329871.70349 117344267.77349      2337.03149        49.000  

 16 04 02 12 48 29.7000000  0  2G29G09                                          
  21033691.71149 110532795.11349      1407.10949        49.000  

  22329827.27349 117344034.32449      2331.79349        49.000  

 16 04 02 12 48 29.8000000  0  2G29G09                                          
  21033664.97749 110532654.61749      1403.39149        49.000  

  22329782.96149 117343801.45349      2326.03949        49.000  

 16 04 02 12 48 29.9000000  0  2G29G09                                          
  21033638.30549 110532514.46149      1399.97349        49.000  

  22329738.74249 117343569.08649      2321.00449        49.000  

 16 04 02 12 48 30.0000000  0  2G29G09                                          
  21033611.70349 110532374.68449      1396.09049        49.000  

  22329694.64149 117343337.31649      2314.99249        50.000  

 16 04 02 12 48 30.1000000  0  2G29G09                                          
  21033585.17249 110532235.23449      1392.93449        49.000  

  22329650.63349 117343106.04349      2310.09849        49.000  

 16 04 02 12 48 30.2000000  0  2G29G09                                          
  21033558.70349 110532096.14549      1389.34049        49.000  

  22329606.72749 117342875.33249      2304.46149        49.000  

 16 04 02 12 48 30.3000000  0  2G29G09                                          
  21033532.30549 110531957.43849      1385.44549        49.000  

  22329562.93049 117342645.17249      2298.87949        49.000  

 16 04 02 12 48 30.4000000  0  2G29G09                                          
  21033505.96949 110531819.02049      1382.46149        49.000  

  22329519.22749 117342415.50449      2293.93049        49.000  

 16 04 02 12 48 30.5000000  0  2G29G09                                          
  21033479.69549 110531680.94949      1379.14849        49.000  

  22329475.61749 117342186.36349      2288.71949        49.000  

 16 04 02 12 48 30.6000000  0  2G29G09                                          
  21033453.48449 110531543.22749      1375.58649        49.000  

  22329432.11749 117341957.75849      2283.36749        49.000  

 16 04 02 12 48 30.7000000  0  2G29G09                                          
  21033427.35249 110531405.89849      1371.62149        49.000  

  22329388.73449 117341729.75049      2277.32449        49.000  

 16 04 02 12 48 30.8000000  0  2G29G09                                          
  21033401.28149 110531268.88749      1368.48049        49.000  

  22329345.43849 117341502.23449      2272.33649        50.000  

 16 04 02 12 48 30.9000000  0  2G29G09                                          
  21033375.28149 110531132.25449      1364.69549        49.000  

  22329302.25049 117341275.28549      2266.64149        49.000  

 16 04 02 12 48 31.0000000  0  2G29G09                                          
  21033349.33649 110530995.93449      1361.78949        49.000  

  22329259.15649 117341048.82849      2262.03549        49.000  

 16 04 02 12 48 31.1000000  0  2G29G09                                          
  21033323.44549 110530859.88349      1358.98049        49.000  

  22329216.15649 117340822.83649      2257.29349        49.000  

 16 04 02 12 48 31.2000000  0  2G29G09                                          
  21033297.63349 110530724.21549      1355.14549        49.000  

  22329173.25849 117340597.41849      2251.55149        49.000  

 16 04 02 12 48 31.3000000  0  2G29G09                                          
  21033271.89149 110530588.93049      1351.08649        49.000  

  22329130.46949 117340372.56649      2245.74249        49.000  

 16 04 02 12 48 31.4000000  0  2G29G09                                          
  21033246.21949 110530453.99649      1347.62149        49.000  

  22329087.78949 117340148.26249      2240.19949        49.000  

 16 04 02 12 48 31.5000000  0  2G29G09                                          
  21033220.60249 110530319.41049      1344.21949        49.000  

  22329045.20349 117339924.48449      2235.02749        49.000  

 16 04 02 12 48 31.6000000  0  2G29G09                                          
  21033195.07049 110530185.21149      1340.30949        49.000  

  22329002.73449 117339701.28549      2229.24649        49.000  

 16 04 02 12 48 31.7000000  0  2G29G09                                          
  21033169.59449 110530051.35549      1337.02349        49.000  

  22328960.35949 117339478.61749      2224.06649        49.000  

 16 04 02 12 48 31.8000000  0  2G29G09                                          
  21033144.18049 110529917.78549      1334.07849        49.000  

  22328918.07049 117339256.42249      2219.18849        49.000  

 16 04 02 12 48 31.9000000  0  2G29G09                                          
  21033118.83649 110529784.60549      1330.24249        49.000  

  22328875.89849 117339034.79749      2213.59449        49.000  

 16 04 02 12 48 32.0000000  0  2G29G09                                          
  21033093.55549 110529651.73849      1327.03549        49.000  

  22328833.82849 117338813.68449      2208.42649        49.000  

 16 04 02 12 48 32.1000000  0  2G29G09                                          
  21033068.32849 110529519.19949      1323.91449        49.000  

  22328791.84449 117338593.08649      2203.36749        49.000  

 16 04 02 12 48 32.2000000  0  2G29G09                                          
  21033043.18849 110529387.06649      1319.79349        49.000  

  22328749.97749 117338373.07449      2197.46949        49.000  

 16 04 02 12 48 32.3000000  0  2G29G09                                          
  21033018.10949 110529255.26649      1316.44949        49.000  

  22328708.21149 117338153.59849      2192.18449        49.000  

 16 04 02 12 48 32.4000000  0  2G29G09                                          
  21032993.07849 110529123.75449      1313.40649        49.000  

  22328666.53949 117337934.58649      2187.32449        49.000  

 16 04 02 12 48 32.5000000  0  2G29G09                                          
  21032968.13349 110528992.66449      1309.35949        49.000  

  22328624.97749 117337716.18049      2181.37949        49.000  

 16 04 02 12 48 32.6000000  0  2G29G09                                          
  21032943.25049 110528861.91049      1306.00049        49.000  

  22328583.51649 117337498.30549      2176.14549        50.000  

 16 04 02 12 48 32.7000000  0  2G29G09                                          
  21032918.43049 110528731.46549      1302.99249        49.000  

  22328542.15649 117337280.93049      2171.21549        50.000  

 16 04 02 12 48 32.8000000  0  2G29G09                                          
  21032893.65649 110528601.30949      1300.04349        49.000  

  22328500.87549 117337064.02749      2166.29749        50.000  

 16 04 02 12 48 32.9000000  0  2G29G09                                          
  21032868.97749 110528471.62149      1295.31249        49.000  

  22328459.72749 117336847.78149      2159.64849        50.000  

 16 04 02 12 48 33.0000000  0  2G29G09                                          
  21032844.35949 110528342.22749      1292.45749        49.000  

  22328418.67249 117336632.02049      2155.18049        50.000  

 16 04 02 12 48 33.1000000  0  2G29G09                                          
  21032819.78949 110528213.12949      1289.38349        49.000  

  22328377.70349 117336416.73049      2150.12949        50.000  

 16 04 02 12 48 33.2000000  0  2G29G09                                          
  21032795.29749 110528084.41849      1285.61349        49.000  

  22328336.85249 117336202.03949      2144.38749        50.000  

 16 04 02 12 48 33.3000000  0  2G29G09                                          
  21032770.86749 110527956.01649      1282.43049        49.000  

  22328296.08649 117335987.82449      2139.41849        50.000  

 16 04 02 12 48 33.4000000  0  2G29G09                                          
  21032746.51649 110527828.04749      1278.00849        49.000  

  22328255.43849 117335774.23849      2132.93849        49.000  

 16 04 02 12 48 33.5000000  0  2G29G09                                          
  21032722.23449 110527700.46549      1274.09049        49.000  

  22328214.89849 117335561.21549      2127.38749        50.000  

 16 04 02 12 48 33.6000000  0  2G29G09                                          
  21032698.00049 110527573.13749      1271.62549        49.000  

  22328174.44549 117335348.64549      2122.98049        50.000  

 16 04 02 12 48 33.7000000  0  2G29G09                                          
  21032673.83649 110527446.12949      1268.60249        49.000  

  22328134.09449 117335136.59049      2118.08649        50.000  

 16 04 02 12 48 33.8000000  0  2G29G09                                          
  21032649.73449 110527319.46149      1265.30149        49.000  

  22328093.84449 117334925.05549      2112.75449        50.000  

 16 04 02 12 48 33.9000000  0  2G29G09                                          
  21032625.70349 110527193.19949      1261.07449        49.000  

  22328053.70349 117334714.11749      2106.76249        49.000  

 16 04 02 12 48 34.0000000  0  2G29G09                                          
  21032601.75049 110527067.29749      1257.27049        49.000  

  22328013.66449 117334503.72349      2101.07849        49.000  

 16 04 02 12 48 34.1000000  0  2G29G09                                          
  21032577.84449 110526941.66849      1254.68049        49.000  

  22327973.71949 117334293.78949      2096.67249        50.000  

 16 04 02 12 48 34.2000000  0  2G29G09                                          
  21032554.00849 110526816.41049      1251.07049        49.000  

  22327933.87549 117334084.41849      2091.05549        50.000  

 16 04 02 12 48 34.3000000  0  2G29G09                                          
  21032530.24249 110526691.53149      1247.16849        49.000  

  22327894.14149 117333875.60949      2085.28949        50.000  

 16 04 02 12 48 34.4000000  0  2G29G09                                          
  21032506.54749 110526566.99649      1243.68049        49.000  

  22327854.51649 117333667.34449      2079.88749        50.000  

 16 04 02 12 48 34.5000000  0  2G29G09                                          
  21032482.90649 110526442.76249      1240.72349        49.000  

  22327814.96949 117333459.55149      2075.18849        50.000  

 16 04 02 12 48 34.6000000  0  2G29G09                                          
  21032459.32849 110526318.85549      1237.53149        49.000  

  22327775.53149 117333252.27749      2070.15649        50.000  

 16 04 02 12 48 34.7000000  0  2G29G09                                          
  21032435.81249 110526195.27349      1234.32049        49.000  

  22327736.18849 117333045.53149      2064.86349        50.000  

 16 04 02 12 48 34.8000000  0  2G29G09                                          
  21032412.36749 110526072.06649      1230.60249        49.000  

  22327696.94549 117332839.33249      2059.39849        50.000  

 16 04 02 12 48 34.9000000  0  2G29G09                                          
  21032388.98449 110525949.18049      1227.28149        49.000  

  22327657.80549 117332633.65249      2054.06649        50.000  

 16 04 02 12 48 35.0000000  0  2G29G09                                          
  21032365.67249 110525826.67649      1223.40649        49.000  

  22327618.77349 117332428.53149      2048.41849        50.000  

 16 04 02 12 48 35.1000000  0  2G29G09                                          
  21032342.42249 110525704.48849      1220.21949        49.000  

  22327579.83649 117332223.91849      2043.34449        50.000  

 16 04 02 12 48 35.2000000  0  2G29G09                                          
  21032319.23449 110525582.64549      1216.89549        49.000  

  22327541.00849 117332019.84049      2038.18849        50.000  

 16 04 02 12 48 35.3000000  0  2G29G09                                          
  21032296.10949 110525461.15649      1213.30149        49.000  

  22327502.27349 117331816.30549      2032.72349        50.000  

 16 04 02 12 48 35.4000000  0  2G29G09                                          
  21032273.06249 110525340.00449      1209.88349        49.000  

  22327463.64149 117331613.28949      2027.35249        50.000  

 16 04 02 12 48 35.5000000  0  2G29G09                                          
  21032250.07049 110525219.19149      1206.56249        49.000  

  22327425.10949 117331410.80949      2022.13349        50.000  

 16 04 02 12 48 35.6000000  0  2G29G09                                          
  21032227.15649 110525098.77049      1202.41849        49.000  

  22327386.68849 117331208.90249      2016.11749        50.000  

 16 04 02 12 48 35.7000000  0  2G29G09                                          
  21032204.31249 110524978.71949      1198.81649        49.000  

  22327348.37549 117331007.56249      2010.60549        50.000  

 16 04 02 12 48 35.8000000  0  2G29G09                                          
  21032181.53149 110524859.02349      1195.32849        49.000  

  22327310.16449 117330806.75849      2005.25049        50.000  

 16 04 02 12 48 35.9000000  0  2G29G09                                          
  21032158.82049 110524739.65649      1191.92249        49.000  

  22327272.04749 117330606.46149      2000.11749        50.000  

 16 04 02 12 48 36.0000000  0  2G29G09                                          
  21032136.16449 110524620.61749      1188.90249        49.000  

  22327234.03949 117330406.70349      1995.13349        50.000  

 16 04 02 12 48 36.1000000  0  2G29G09                                          
  21032113.57849 110524501.91849      1185.32849        49.000  

  22327196.11749 117330207.46149      1989.60249        50.000  

 16 04 02 12 48 36.2000000  0  2G29G09                                          
  21032091.06249 110524383.57449      1181.80949        49.000  

  22327158.31249 117330008.75849      1984.29749        50.000  

 16 04 02 12 48 36.3000000  0  2G29G09                                          
  21032068.60949 110524265.59049      1178.34449        49.000  

  22327120.60249 117329810.60949      1978.95749        50.000  

 16 04 02 12 48 36.4000000  0  2G29G09                                          
  21032046.21949 110524147.93049      1174.99249        49.000  

  22327082.99249 117329612.97749      1973.65649        50.000  

 16 04 02 12 48 36.5000000  0  2G29G09                                          
  21032023.89849 110524030.66049      1171.01249        49.000  

  22327045.49249 117329415.90649      1967.83649        50.000  

 16 04 02 12 48 36.6000000  0  2G29G09                                          
  21032001.64849 110523913.75049      1167.37949        49.000  

  22327008.10249 117329219.39549      1962.30949        50.000  

 16 04 02 12 48 36.7000000  0  2G29G09                                          
  21031979.45349 110523797.10949      1164.83249        49.000  

  22326970.79749 117329023.34049      1957.88749        50.000  

 16 04 02 12 48 36.8000000  0  2G29G09                                          
  21031957.33649 110523680.85949      1161.00849        49.000  

  22326933.59449 117328827.86749      1952.07449        50.000  

 16 04 02 12 48 36.9000000  0  2G29G09                                          
  21031935.28149 110523564.95349      1157.44149        49.000  

  22326896.49249 117328632.91449      1946.82049        50.000  

 16 04 02 12 48 37.0000000  0  2G29G09                                          
  21031913.29749 110523449.41849      1153.57849        49.000  

  22326859.50849 117328438.52749      1941.05149        50.000  

 16 04 02 12 48 37.1000000  0  2G29G09                                          
  21031891.38349 110523334.25049      1149.91049        49.000  

  22326822.62549 117328244.70349      1935.43049        50.000  

 16 04 02 12 48 37.2000000  0  2G29G09                                          
  21031869.53149 110523219.43049      1146.68849        49.000  

  22326785.83649 117328051.40649      1930.35549        50.000  

 16 04 02 12 48 37.3000000  0  2G29G09                                          
  21031847.72749 110523104.85549      1144.10549        49.000  

  22326749.13349 117327858.54349      1925.92249        50.000  

 16 04 02 12 48 37.4000000  0  2G29G09                                          
  21031826.00049 110522990.70749      1140.05149        49.000  

  22326712.55549 117327666.30149      1919.93449        50.000  

 16 04 02 12 48 37.5000000  0  2G29G09                                          
  21031804.33649 110522876.85549      1136.88349        49.000  

  22326676.06249 117327474.53149      1914.99649        50.000  

 16 04 02 12 48 37.6000000  0  2G29G09                                          
  21031782.74249 110522763.36749      1133.26249        49.000  

  22326639.68049 117327283.33249      1909.21149        50.000  

 16 04 02 12 48 37.7000000  0  2G29G09                                          
  21031761.21149 110522650.22349      1129.86749        49.000  

  22326603.39149 117327092.64149      1904.17249        50.000  

 16 04 02 12 48 37.8000000  0  2G29G09                                          
  21031739.74249 110522537.40249      1126.61749        49.000  

  22326567.20349 117326902.48449      1898.86349        50.000  

 16 04 02 12 48 37.9000000  0  2G29G09                                          
  21031718.35249 110522424.98049      1122.54349        49.000  

  22326531.12549 117326712.89549      1893.16449        50.000  

 16 04 02 12 48 38.0000000  0  2G29G09                                          
  21031697.01649 110522312.87149      1119.37549        49.000  

  22326495.14849 117326523.81649      1887.96149        50.000  

 16 04 02 12 48 38.1000000  0  2G29G09                                          
  21031675.75049 110522201.11749      1116.06249        49.000  

  22326459.26649 117326335.28149      1882.70749        50.000  

 16 04 02 12 48 38.2000000  0  2G29G09                                          
  21031654.54749 110522089.70349      1112.51249        49.000  

  22326423.49249 117326147.27049      1877.26249        50.000  

 16 04 02 12 48 38.3000000  0  2G29G09                                          
  21031633.43049 110521978.73049      1108.05149        49.000  

  22326387.83649 117325959.89549      1870.97749        50.000  

 16 04 02 12 48 38.4000000  0  2G29G09                                          
  21031612.37549 110521868.06249      1105.00049        49.000  

  22326352.27349 117325773.01249      1866.10949        50.000  

 16 04 02 12 48 38.5000000  0  2G29G09                                          
  21031591.37549 110521757.74249      1101.59849        49.000  

  22326316.81249 117325586.65249      1860.87949        50.000  

 16 04 02 12 48 38.6000000  0  2G29G09                                          
  21031570.44549 110521647.72749      1098.47749        49.000  

  22326281.44549 117325400.80149      1855.80549        50.000  

 16 04 02 12 48 38.7000000  0  2G29G09                                          
  21031549.57849 110521538.05949      1095.21149        49.000  

  22326246.18049 117325215.47349      1850.61349        50.000  

 16 04 02 12 48 38.8000000  0  2G29G09                                          
  21031528.78149 110521428.77749      1091.23449        49.000  

  22326211.02349 117325030.73049      1844.80949        50.000  

 16 04 02 12 48 38.9000000  0  2G29G09                                          
  21031508.04749 110521319.80949      1088.11749        49.000  

  22326175.96149 117324846.48049      1839.80949        50.000  

 16 04 02 12 48 39.0000000  0  2G29G09                                          
  21031487.36749 110521211.15649      1084.94149        49.000  

  22326141.00049 117324662.74249      1834.73049        50.000  

 16 04 02 12 48 39.1000000  0  2G29G09                                          
  21031466.75849 110521102.86349      1081.45349        49.000  

  22326106.13349 117324479.54349      1829.41449        50.000  

 16 04 02 12 48 39.2000000  0  2G29G09                                          
  21031446.21949 110520994.91449      1077.89849        49.000  

  22326071.37549 117324296.87549      1823.98049        50.000  

 16 04 02 12 48 39.3000000  0  2G29G09                                          
  21031425.75049 110520887.33649      1074.14149        49.000  

  22326036.71949 117324114.77749      1818.24649        50.000  

 16 04 02 12 48 39.4000000  0  2G29G09                                          
  21031405.34449 110520780.13349      1070.42249        49.000  

  22326002.18049 117323933.23849      1812.74249        50.000  

 16 04 02 12 48 39.5000000  0  2G29G09                                          
  21031385.00049 110520673.21149      1067.53149        49.000  

  22325967.71949 117323752.16849      1807.93049        50.000  

 16 04 02 12 48 39.6000000  0  2G29G09                                          
  21031364.73449 110520566.69549      1063.65649        49.000  

  22325933.37549 117323571.69149      1802.08649        50.000  

 16 04 02 12 48 39.7000000  0  2G29G09                                          
  21031344.53149 110520460.52049      1060.20349        49.000  

  22325899.13349 117323391.73849      1796.90249        50.000  

 16 04 02 12 48 39.8000000  0  2G29G09                                          
  21031324.39149 110520354.66849      1057.01249        49.000  

  22325864.98449 117323212.30549      1791.71549        50.000  

 16 04 02 12 48 39.9000000  0  2G29G09                                          
  21031304.31249 110520249.17649      1053.28549        49.000  

  22325830.94549 117323033.41449      1786.12549        50.000  

 16 04 02 12 48 40.0000000  0  2G29G09                                          
  21031284.30549 110520144.03549      1049.87949        49.000  

  22325797.00849 117322855.06249      1780.84849        50.000  

 16 04 02 12 48 40.1000000  0  2G29G09                                          
  21031264.35949 110520039.21149      1046.64849        49.000  

  22325763.15649 117322677.22349      1775.78149        50.000  

 16 04 02 12 48 40.2000000  0  2G29G09                                          
  21031244.48449 110519934.78149      1042.65249        49.000  

  22325729.43049 117322499.96149      1769.80149        50.000  

 16 04 02 12 48 40.3000000  0  2G29G09                                          
  21031224.68049 110519830.71549      1039.12149        49.000  

  22325695.79749 117322323.24649      1764.48849        50.000  

 16 04 02 12 48 40.4000000  0  2G29G09                                          
  21031204.93049 110519726.94149      1036.25049        49.000  

  22325662.26649 117322147.02049      1759.68849        50.000  

 16 04 02 12 48 40.5000000  0  2G29G09                                          
  21031185.25049 110519623.51649      1032.73049        49.000  

  22325628.82849 117321971.32049      1754.28149        50.000  

 16 04 02 12 48 40.6000000  0  2G29G09                                          
  21031165.64149 110519520.46149      1028.90249        49.000  

  22325595.50049 117321796.18449      1748.61349        50.000  

 16 04 02 12 48 40.7000000  0  2G29G09                                          
  21031146.10249 110519417.77749      1025.28149        49.000  

  22325562.28149 117321621.61349      1743.10949        50.000  

 16 04 02 12 48 40.8000000  0  2G29G09                                          
  21031126.62549 110519315.41449      1021.78949        49.000  

  22325529.15649 117321447.54349      1737.78149        50.000  

 16 04 02 12 48 40.9000000  0  2G29G09                                          
  21031107.21949 110519213.44949      1018.08649        49.000  

  22325496.14149 117321274.06649      1732.09049        50.000  

 16 04 02 12 48 41.0000000  0  2G29G09                                          
  21031087.87549 110519111.79749      1014.93049        49.000  

  22325463.22749 117321101.08649      1727.08649        50.000  

 16 04 02 12 48 41.1000000  0  2G29G09                                          
  21031068.59449 110519010.47349      1011.50449        49.000  

  22325430.40649 117320928.62149      1721.72349        50.000  

 16 04 02 12 48 41.2000000  0  2G29G09                                          
  21031049.38349 110518909.50849      1008.38349        49.000  

  22325397.69549 117320756.70349      1716.80949        50.000  

 16 04 02 12 48 41.3000000  0  2G29G09                                          
  21031030.23449 110518808.87149      1004.79349        49.000  

  22325365.07849 117320585.29749      1711.34449        50.000  

 16 04 02 12 48 41.4000000  0  2G29G09                                          
  21031011.16449 110518708.64149      1000.72749        49.000  

  22325332.57849 117320414.49649      1705.38749        50.000  

 16 04 02 12 48 41.5000000  0  2G29G09                                          
  21030992.15649 110518608.77049       996.96549        49.000  

  22325300.17249 117320244.24249      1699.64849        50.000  

 16 04 02 12 48 41.6000000  0  2G29G09                                          
  21030973.21949 110518509.25049       993.45349        49.000  

  22325267.87549 117320074.51249      1694.34049        50.000  

 16 04 02 12 48 41.7000000  0  2G29G09                                          
  21030954.35249 110518410.12949       989.45749        49.000  

  22325235.69549 117319905.38749      1688.41449        50.000  

 16 04 02 12 48 41.8000000  0  2G29G09                                          
  21030935.54749 110518311.30549       986.59849        49.000  

  22325203.60249 117319736.74249      1683.74249        50.000  

 16 04 02 12 48 41.9000000  0  2G29G09                                          
  21030916.79749 110518212.78549       983.67249        49.000  

  22325171.60249 117319568.58649      1678.95349        50.000  

 16 04 02 12 48 42.0000000  0  2G29G09                                          
  21030898.11749 110518114.57849       980.48049        49.000  

  22325139.70349 117319400.93449      1673.75449        50.000  

 16 04 02 12 48 42.1000000  0  2G29G09                                          
  21030879.50849 110518016.79349       976.30549        49.000  

  22325107.91449 117319233.88349      1667.93049        50.000  

 16 04 02 12 48 42.2000000  0  2G29G09                                          
  21030860.96149 110517919.33649       972.85949        49.000  

  22325076.22749 117319067.36349      1662.41049        50.000  

 16 04 02 12 48 42.3000000  0  2G29G09                                          
  21030842.46949 110517822.17249       970.12949        49.000  

  22325044.62549 117318901.30949      1657.94149        50.000  

 16 04 02 12 48 42.4000000  0  2G29G09                                          
  21030824.05549 110517725.39149       966.27349        49.000  

  22325013.14149 117318735.84049      1652.02749        50.000  

 16 04 02 12 48 42.5000000  0  2G29G09                                          
  21030805.70349 110517628.95349       962.82849        49.000  

  22324981.75049 117318570.89549      1646.74649        50.000  

 16 04 02 12 48 42.6000000  0  2G29G09                                          
  21030787.40649 110517532.82849       959.65249        49.000  

  22324950.46149 117318406.44949      1641.75849        50.000  

 16 04 02 12 48 42.7000000  0  2G29G09                                          
  21030769.18849 110517437.07849       956.00849        50.000  

  22324919.27349 117318242.57449      1636.24649        50.000  

 16 04 02 12 48 42.8000000  0  2G29G09                                          
  21030751.03149 110517341.64849       952.64149        50.000  

  22324888.18849 117318079.19949      1631.02349        50.000  

 16 04 02 12 48 42.9000000  0  2G29G09                                          
  21030732.94549 110517246.60949       948.62949        50.000  

  22324857.20349 117317916.41049      1625.10249        50.000  

 16 04 02 12 48 43.0000000  0  2G29G09                                          
  21030714.93049 110517151.95349       944.78949        50.000  

  22324826.33649 117317754.18849      1619.32849        50.000  

 16 04 02 12 48 43.1000000  0  2G29G09                                          
  21030696.99249 110517057.67249       941.15249        50.000  

  22324795.57049 117317592.52749      1613.87549        50.000  

 16 04 02 12 48 43.2000000  0  2G29G09                                          
  21030679.09449 110516963.63349       938.77049        49.000  

  22324764.89149 117317431.29349      1609.62149        50.000  

 16 04 02 12 48 43.3000000  0  2G29G09                                          
  21030661.27349 110516869.98449       934.96549        50.000  

  22324734.32049 117317270.65249      1603.82049        50.000  

 16 04 02 12 48 43.4000000  0  2G29G09                                          
  21030643.52349 110516776.69549       931.29349        50.000  

  22324703.85949 117317110.55149      1598.31249        50.000  

 16 04 02 12 48 43.5000000  0  2G29G09                                          
  21030625.82849 110516683.71949       928.14549        50.000  

  22324673.48449 117316950.94949      1593.28949        50.000  

 16 04 02 12 48 43.6000000  0  2G29G09                                          
  21030608.21149 110516591.11349       924.42649        50.000  

  22324643.21949 117316791.90649      1587.66849        50.000  

 16 04 02 12 48 43.7000000  0  2G29G09                                          
  21030590.64849 110516498.84449       921.18849        49.000  

  22324613.05549 117316633.37949      1582.62949        50.000  

 16 04 02 12 48 43.8000000  0  2G29G09                                          
  21030573.16449 110516406.94149       917.35249        49.000  

  22324582.99249 117316475.42649      1576.74649        50.000  

 16 04 02 12 48 43.9000000  0  2G29G09                                          
  21030555.73449 110516315.35549       914.23049        49.000  

  22324553.03149 117316317.97349      1571.84049        50.000  

 16 04 02 12 48 44.0000000  0  2G29G09                                          
  21030538.38349 110516224.18449       910.09049        49.000  

  22324523.18049 117316161.10949      1565.84049        50.000  

 16 04 02 12 48 44.1000000  0  2G29G09                                          
  21030521.09449 110516133.31249       907.03549        50.000  

  22324493.42249 117316004.75049      1560.85949        50.000  

 16 04 02 12 48 44.2000000  0  2G29G09                                          
  21030503.85949 110516042.79349       903.73449        50.000  

  22324463.77349 117315848.92249      1555.67249        50.000  

 16 04 02 12 48 44.3000000  0  2G29G09                                          
  21030486.71149 110515952.66049       899.73849        49.000  

  22324434.22749 117315693.66849      1549.86349        50.000  

 16 04 02 12 48 44.4000000  0  2G29G09                                          
  21030469.62549 110515862.87549       896.04749        49.000  

  22324404.78149 117315538.95349      1544.22349        50.000  

