     2.10           OBSERVATION DATA    G (GPS)             RINEX VERSION / TYPE
Convert v1.8.0                          07-Jun-2016 18:56   PGM / RUN BY / DATE 
Signal Strength values S1,S2 are in dBHz                    COMMENT             
                                                            MARKER NAME         
                                                            MARKER NUMBER       
                                                            OBSERVER / AGENCY   
                    NovAtel GPSCard                         REC # / TYPE / VERS 
                                                            ANT # / TYPE        
0.0000        0.0000        0.0000                          APPROX POSITION XYZ 
        0.0000        0.0000        0.0000                  ANTENNA: DELTA H/E/N
     1     1                                                WAVELENGTH FACT L1/2
     1     1     4   G03   G08   G27   G31                  WAVELENGTH FACT L1/2
                                                            COMMENT             
                                                            COMMENT             
                                                            COMMENT             
                                                            COMMENT             
                                                            COMMENT             
                                                            COMMENT             
     4    C1    L1    D1    S1                              # / TYPES OF OBSERV 
     0.100                                                  INTERVAL            
  2016    04    02    13    56     7.1000000    GPS         TIME OF FIRST OBS   
  2016    04    02    14    00    27.6000000    GPS         TIME OF LAST OBS    
Leap Seconds Unknown                                        COMMENT             
                                                            END OF HEADER       
 16 04 02 13 56  7.1000000  0  1G08                                             
  22371337.11749 117562169.39559      1053.08649        49.000  
 16 04 02 13 56  7.2000000  0  1G08                                             
  22371317.12549 117562064.37149      1047.80949        49.000  
 16 04 02 13 56  7.3000000  0  1G08                                             
  22371297.23449 117561959.81249      1043.37549        49.000  
 16 04 02 13 56  7.4000000  0  1G08                                             
  22371277.41449 117561855.68849      1038.90649        49.000  
 16 04 02 13 56  7.5000000  0  1G08                                             
  22371257.70349 117561752.04349      1034.11749        49.000  
 16 04 02 13 56  7.6000000  0  1G08                                             
  22371238.07849 117561648.90649      1028.94149        49.000  
 16 04 02 13 56  7.7000000  0  1G08                                             
  22371218.53149 117561546.16449      1024.97749        49.000  
 16 04 02 13 56  7.8000000  0  1G08                                             
  22371199.07049 117561443.89149      1020.41849        49.000  
 16 04 02 13 56  7.9000000  0  1G08                                             
  22371179.71149 117561342.10249      1015.52349        49.000  
 16 04 02 13 56  8.0000000  0  1G08                                             
  22371160.43849 117561240.79749      1010.57049        49.000  
 16 04 02 13 56  8.1000000  0  1G08                                             
  22371141.26649 117561139.97749      1005.86749        49.000  
 16 04 02 13 56  8.2000000  0  1G08                                             
  22371122.18049 117561039.64849      1000.77749        49.000  
 16 04 02 13 56  8.3000000  0  1G08                                             
  22371103.17249 117560939.76249       996.47349        49.000  
 16 04 02 13 56  8.4000000  0  1G08                                             
  22371084.25849 117560840.33649       991.70749        49.000  
 16 04 02 13 56  8.5000000  0  1G08                                             
  22371065.43849 117560741.40249       987.09449        49.000  
 16 04 02 13 56  8.6000000  0  1G08                                             
  22371046.68849 117560642.89849       982.71549        49.000  
 16 04 02 13 56  8.7000000  0  1G08                                             
  22371028.02349 117560544.89149       977.55549        49.000  
 16 04 02 13 56  8.8000000  0  1G08                                             
  22371009.46149 117560447.36749       972.69149        49.000  
 16 04 02 13 56  8.9000000  0  1G08                                             
  22370991.00049 117560350.34849       967.85249        49.000  
 16 04 02 13 56  9.0000000  0  1G08                                             
  22370972.62549 117560253.76249       963.37549        49.000  
 16 04 02 13 56  9.1000000  0  1G08                                             
  22370954.34449 117560157.68449       958.27349        49.000  
 16 04 02 13 56  9.2000000  0  1G08                                             
  22370936.15649 117560062.07049       953.63749        49.000  
 16 04 02 13 56  9.3000000  0  1G08                                             
  22370918.06249 117559966.97349       948.56649        49.000  
 16 04 02 13 56  9.4000000  0  1G08                                             
  22370900.04749 117559872.30949       944.24649        49.000  
 16 04 02 13 56  9.5000000  0  1G08                                             
  22370882.13349 117559778.12549       939.51649        49.000  
 16 04 02 13 56  9.6000000  0  1G08                                             
  22370864.28949 117559684.38349       935.01649        49.000  
 16 04 02 13 56  9.7000000  0  1G08                                             
  22370846.54749 117559591.10249       930.51649        49.000  
 16 04 02 13 56  9.8000000  0  1G08                                             
  22370828.87549 117559498.26249       926.10549        49.000  
 16 04 02 13 56  9.9000000  0  1G08                                             
  22370811.31249 117559405.98049       920.45749        49.000  
 16 04 02 13 56 10.0000000  0  1G08                                             
  22370793.84449 117559314.16849       915.41849        49.000  
 16 04 02 13 56 10.1000000  0  1G08                                             
  22370776.46949 117559222.89149       910.37549        49.000  
 16 04 02 13 56 10.2000000  0  1G08                                             
  22370759.19549 117559132.09449       905.37549        49.000  
 16 04 02 13 56 10.3000000  0  1G08                                             
  22370741.98449 117559041.71149       901.46949        49.000  
 16 04 02 13 56 10.4000000  0  1G08                                             
  22370724.87549 117558951.78949       897.06249        49.000  
 16 04 02 13 56 10.5000000  0  1G08                                             
  22370707.85949 117558862.34449       892.07449        49.000  
 16 04 02 13 56 10.6000000  0  1G08                                             
  22370690.93849 117558773.41049       887.00849        49.000  
 16 04 02 13 56 10.7000000  0  1G08                                             
  22370674.09449 117558684.92649       882.30549        49.000  
 16 04 02 13 56 10.8000000  0  1G08                                             
  22370657.33649 117558596.85949       878.41849        49.000  
 16 04 02 13 56 10.9000000  0  1G08                                             
  22370640.67249 117558509.32449       873.14849        49.000  
 16 04 02 13 56 11.0000000  0  1G08                                             
  22370624.10249 117558422.24649       868.47749        49.000  
 16 04 02 13 56 11.1000000  0  1G08                                             
  22370607.60949 117558335.60949       863.81249        49.000  
 16 04 02 13 56 11.2000000  0  1G08                                             
  22370591.23449 117558249.53949       858.34449        49.000  
 16 04 02 13 56 11.3000000  0  1G08                                             
  22370574.93049 117558163.91849       853.56649        49.000  
 16 04 02 13 56 11.4000000  0  1G08                                             
  22370558.73449 117558078.80549       848.83649        49.000  
 16 04 02 13 56 11.5000000  0  1G08                                             
  22370542.62549 117557994.13349       844.05549        49.000  
 16 04 02 13 56 11.6000000  0  1G08                                             
  22370526.60949 117557909.96549       839.24249        49.000  
 16 04 02 13 56 11.7000000  0  1G08                                             
  22370510.68049 117557826.20749       835.30549        49.000  
 16 04 02 13 56 11.8000000  0  1G08                                             
  22370494.82849 117557742.91849       830.64149        49.000  
 16 04 02 13 56 11.9000000  0  1G08                                             
  22370479.07049 117557660.10949       825.62149        49.000  
 16 04 02 13 56 12.0000000  0  1G08                                             
  22370463.40649 117557577.81649       820.60249        49.000  
 16 04 02 13 56 12.1000000  0  1G08                                             
  22370447.82849 117557495.97749       815.72349        49.000  
 16 04 02 13 56 12.2000000  0  1G08                                             
  22370432.35249 117557414.64549       810.92649        49.000  
 16 04 02 13 56 12.3000000  0  1G08                                             
  22370416.96949 117557333.80549       805.91449        49.000  
 16 04 02 13 56 12.4000000  0  1G08                                             
  22370401.67249 117557253.41849       801.58649        49.000  
 16 04 02 13 56 12.5000000  0  1G08                                             
  22370386.42249 117557173.38349       798.11349        49.000  
 16 04 02 13 56 12.6000000  0  1G08                                             
  22370371.30549 117557093.94949       791.89849        49.000  
 16 04 02 13 56 12.7000000  0  1G08                                             
  22370356.29749 117557014.98449       787.04749        49.000  
 16 04 02 13 56 12.8000000  0  1G08                                             
  22370341.35249 117556936.44549       782.91449        49.000  
 16 04 02 13 56 12.9000000  0  1G08                                             
  22370326.52349 117556858.41849       778.01249        49.000  
 16 04 02 13 56 13.0000000  0  1G08                                             
  22370311.75049 117556780.78149       774.01249        49.000  
 16 04 02 13 56 13.1000000  0  1G08                                             
  22370297.08649 117556703.69949       768.41449        49.000  
 16 04 02 13 56 13.2000000  0  1G08                                             
  22370282.51649 117556627.13349       763.12949        49.000  
 16 04 02 13 56 13.3000000  0  1G08                                             
  22370268.03949 117556551.05149       758.30549        49.000  
 16 04 02 13 56 13.4000000  0  1G08                                             
  22370253.64849 117556475.40249       754.22349        49.000  
 16 04 02 13 56 13.5000000  0  1G08                                             
  22370239.34449 117556400.19149       749.64149        49.000  
 16 04 02 13 56 13.6000000  0  2G08G03                                          
  22370225.13349 117556325.51649       744.35249        49.000  
  23680410.33649 124441394.81259    -11497.22349        50.000  
 16 04 02 13 56 13.7000000  0  2G08G03                                          
  22370211.00849 117556251.28949       739.98049        49.000  
  23680629.16449 124442544.76249    -11502.56649        50.000  
 16 04 02 13 56 13.8000000  0  2G08G03                                          
  22370196.96949 117556177.53549       734.97749        49.000  
  23680848.08649 124443695.27749    -11508.50049        50.000  
 16 04 02 13 56 13.9000000  0  2G08G03                                          
  22370183.04749 117556104.34049       729.58249        49.000  
  23681067.14849 124444846.44549    -11514.84049        50.000  
 16 04 02 13 56 14.0000000  0  2G08G03                                          
  22370169.18849 117556031.50849       725.87549        49.000  
  23681286.26649 124445998.07849    -11519.60249        50.000  
 16 04 02 13 56 14.1000000  0  2G08G03                                          
  22370155.43049 117555959.21949       720.52749        49.000  
  23681505.53949 124447150.36349    -11525.97749        50.000  
 16 04 02 13 56 14.2000000  0  2G08G03                                          
  22370141.77349 117555887.43849       715.23049        49.000  
  23681724.91449 124448303.24249    -11532.12949        50.000  
 16 04 02 13 56 14.3000000  0  2G08G03                                          
  22370128.19549 117555816.12149       710.67649        49.000  
  23681944.40649 124449456.68849    -11537.71549        50.000  
 16 04 02 13 56 14.4000000  0  2G08G03                                          
  22370114.71149 117555745.26249       706.22749        49.000  
  23682164.03949 124450610.69149    -11543.14549        50.000  
 16 04 02 13 56 14.5000000  0  2G08G03                                          
  22370101.31249 117555674.86349       701.73449        49.000  
  23682383.75049 124451765.25049    -11548.52349        50.000  
 16 04 02 13 56 14.6000000  0  2G08G03                                          
  22370088.00849 117555604.91849       697.09049        49.000  
  23682603.56249 124452920.36749    -11554.24249        50.000  
 16 04 02 13 56 14.7000000  0  2G08G03                                          
  22370074.79749 117555535.46949       692.01249        49.000  
  23682823.48449 124454076.06649    -11560.31649        50.000  
 16 04 02 13 56 14.8000000  0  2G08G03                                          
  22370061.67249 117555466.53149       687.00849        49.000  
  23683043.50049 124455232.37949    -11566.19549        50.000  
 16 04 02 13 56 14.9000000  0  2G08G03                                          
  22370048.63349 117555398.01649       682.84449        49.000  
  23683263.64149 124456389.21549    -11571.33249        50.000  
 16 04 02 13 56 15.0000000  0  2G08G03                                          
  22370035.67249 117555329.93049       678.57849        49.000  
  23683483.88349 124457546.57449    -11576.67249        50.000  
 16 04 02 13 56 15.1000000  0  2G08G03                                          
  22370022.81249 117555262.32449       673.81249        49.000  
  23683704.23449 124458704.51649    -11582.49649        50.000  
 16 04 02 13 56 15.2000000  0  2G08G03                                          
  22370010.04749 117555195.23449       668.44949        49.000  
  23683924.69549 124459863.06249    -11588.67649        50.000  
 16 04 02 13 56 15.3000000  0  2G08G03                                          
  22369997.35249 117555128.59449       664.10949        49.000  
  23684145.26649 124461022.16049    -11593.93049        50.000  
 16 04 02 13 56 15.4000000  0  2G08G03                                          
  22369984.75049 117555062.38749       659.69549        49.000  
  23684365.91449 124462181.80149    -11599.52049        50.000  
 16 04 02 13 56 15.5000000  0  2G08G03                                          
  22369972.25049 117554996.67249       654.72349        49.000  
  23684586.69549 124463342.01249    -11605.40249        50.000  
 16 04 02 13 56 15.6000000  0  2G08G03                                          
  22369959.84449 117554931.49649       649.29349        49.000  
  23684807.60249 124464502.87149    -11611.80149        50.000  
 16 04 02 13 56 15.7000000  0  2G08G03                                          
  22369947.53949 117554866.78549       644.50449        49.000  
  23685028.60949 124465664.29349    -11617.59849        50.000  
 16 04 02 13 56 15.8000000  0  2G08G03                                          
  22369935.31249 117554802.52349       640.28149        49.000  
  23685249.72749 124466826.25849    -11622.71549        50.000  
 16 04 02 13 56 15.9000000  0  2G08G03                                          
  22369923.16449 117554738.68849       635.96949        49.000  
  23685470.93849 124467988.74249    -11627.96549        50.000  
 16 04 02 13 56 16.0000000  0  2G08G03                                          
  22369911.11749 117554675.40249       630.41049        49.000  
  23685692.28149 124469151.88349    -11634.52349        50.000  
 16 04 02 13 56 16.1000000  0  2G08G03                                          
  22369899.16449 117554612.54749       626.14149        49.000  
  23685913.71949 124470315.54749    -11639.80949        50.000  
 16 04 02 13 56 16.2000000  0  2G08G03                                          
  22369887.29749 117554550.18449       621.06649        49.000  
  23686135.25049 124471479.79749    -11645.89549        50.000  
 16 04 02 13 56 16.3000000  0  2G08G03                                          
  22369875.51649 117554488.30549       616.35249        49.000  
  23686356.91449 124472644.62949    -11651.48849        50.000  
 16 04 02 13 56 16.4000000  0  2G08G03                                          
  22369863.83649 117554426.93049       611.13349        49.000  
  23686578.68849 124473810.07849    -11657.87149        50.000  
 16 04 02 13 56 16.5000000  0  2G08G03                                          
  22369852.25049 117554366.04349       606.58249        49.000  
  23686800.57049 124474976.09049    -11663.29749        50.000  
 16 04 02 13 56 16.6000000  0  2G08G03                                          
  22369840.74249 117554305.57449       602.35249        49.000  
  23687022.54749 124476142.62949    -11668.37949        50.000  
 16 04 02 13 56 16.7000000  0  2G08G03                                          
  22369829.32049 117554245.58249       597.63749        49.000  
  23687244.64149 124477309.73849    -11674.01249        50.000  
 16 04 02 13 56 16.8000000  0  2G08G03                                          
  22369817.99249 117554186.05949       592.92249        49.000  
  23687466.82049 124478477.41849    -11679.99649        50.000  
 16 04 02 13 56 16.9000000  0  2G08G03                                          
  22369806.76649 117554127.03949       587.76249        49.000  
  23687689.14149 124479645.69949    -11686.07449        50.000  
 16 04 02 13 56 17.0000000  0  2G08G03                                          
  22369795.62549 117554068.50049       582.86349        49.000  
  23687911.57049 124480814.53949    -11691.71549        50.000  
 16 04 02 13 56 17.1000000  0  2G08G03                                          
  22369784.57049 117554010.41049       578.48849        49.000  
  23688134.10949 124481983.96549    -11697.25049        50.000  
 16 04 02 13 56 17.2000000  0  2G08G03                                          
  22369773.60249 117553952.79349       573.71949        49.000  
  23688356.73449 124483153.91849    -11702.67249        50.000  
 16 04 02 13 56 17.3000000  0  2G08G03                                          
  22369762.73449 117553895.62949       569.34049        49.000  
  23688579.47749 124484324.44949    -11708.28949        50.000  
 16 04 02 13 56 17.4000000  0  2G08G03                                          
  22369751.94549 117553838.93849       564.44949        49.000  
  23688802.32849 124485495.55149    -11714.27349        50.000  
 16 04 02 13 56 17.5000000  0  2G08G03                                          
  22369741.25049 117553782.78949       559.03549        49.000  
  23689025.29749 124486667.26249    -11720.31649        50.000  
 16 04 02 13 56 17.6000000  0  2G08G03                                          
  22369730.64849 117553727.05949       554.92249        49.000  
  23689248.34449 124487839.52049    -11725.59449        50.000  
 16 04 02 13 56 17.7000000  0  2G08G03                                          
  22369720.13349 117553671.80549       550.34049        49.000  
  23689471.52349 124489012.33649    -11731.25449        50.000  
 16 04 02 13 56 17.8000000  0  2G08G03                                          
  22369709.71149 117553617.04349       545.22749        49.000  
  23689694.83649 124490185.74249    -11737.33649        50.000  
 16 04 02 13 56 17.9000000  0  2G08G03                                          
  22369699.38349 117553562.77049       540.35949        49.000  
  23689918.23449 124491359.73049    -11743.01249        50.000  
 16 04 02 13 56 18.0000000  0  2G08G03                                          
  22369689.14149 117553508.96149       535.45349        49.000  
  23690141.77349 124492534.29349    -11748.93849        50.000  
 16 04 02 13 56 18.1000000  0  2G08G03                                          
  22369678.99249 117553455.65249       530.68049        49.000  
  23690365.39149 124493709.44549    -11754.69149        50.000  
 16 04 02 13 56 18.2000000  0  2G08G03                                          
  22369668.93049 117553402.80149       526.12949        49.000  
  23690589.10949 124494885.15249    -11760.28549        50.000  
 16 04 02 13 56 18.3000000  0  2G08G03                                          
  22369658.97749 117553350.47749       520.88349        49.000  
  23690812.96149 124496061.48049    -11766.41849        50.000  
 16 04 02 13 56 18.4000000  0  2G08G03                                          
  22369649.10249 117553298.57849       516.60249        49.000  
  23691036.91449 124497238.33249    -11771.60949        50.000  
 16 04 02 13 56 18.5000000  0  2G08G03                                          
  22369639.31249 117553247.12549       512.29349        49.000  
  23691260.96149 124498415.72749    -11776.93849        50.000  
 16 04 02 13 56 18.6000000  0  2G08G03                                          
  22369629.60949 117553196.14549       507.26249        49.000  
  23691485.10949 124499593.69549    -11782.93049        50.000  
 16 04 02 13 56 18.7000000  0  2G08G03                                          
  22369620.00049 117553145.69149       502.30149        49.000  
  23691709.38349 124500772.28949    -11788.98849        50.000  
 16 04 02 13 56 18.8000000  0  2G08G03                                          
  22369610.47749 117553095.63349       498.23049        49.000  
  23691933.75849 124501951.36749    -11793.93049        50.000  
 16 04 02 13 56 18.9000000  0  2G08G03                                          
  22369601.04749 117553046.05949       493.33649        49.000  
  23692158.24249 124503131.02349    -11799.79749        50.000  
 16 04 02 13 56 19.0000000  0  2G08G03                                          
  22369591.71149 117552997.01649       488.06249        49.000  
  23692382.85249 124504311.30549    -11805.96549        50.000  
 16 04 02 13 56 19.1000000  0  2G08G03                                          
  22369582.46149 117552948.44149       483.33249        49.000  
  23692607.56249 124505492.16049    -11811.53149        50.000  
 16 04 02 13 56 19.2000000  0  2G08G03                                          
  22369573.30549 117552900.31649       478.76649        49.000  
  23692832.36749 124506673.56649    -11817.25849        50.000  
 16 04 02 13 56 19.3000000  0  2G08G03                                          
  22369564.25049 117552852.68849       473.91449        49.000  
  23693057.29749 124507855.55949    -11823.13349        50.000  
 16 04 02 13 56 19.4000000  0  2G08G03                                          
  22369555.26649 117552805.47349       469.82449        49.000  
  23693282.30549 124509038.05949    -11828.11749        50.000  
 16 04 02 13 56 19.5000000  0  2G08G03                                          
  22369546.38349 117552758.80549       464.22349        49.000  
  23693507.44549 124510221.19149    -11834.67249        50.000  
 16 04 02 13 56 19.6000000  0  2G08G03                                          
  22369537.58649 117552712.61749       459.52749        49.000  
  23693732.70349 124511404.93049    -11840.38349        50.000  
 16 04 02 13 56 19.7000000  0  2G08G03                                          
  22369528.88349 117552666.87949       454.82449        49.000  
  23693958.06249 124512589.18449    -11845.79349        50.000  
 16 04 02 13 56 19.8000000  0  2G08G03                                          
  22369520.27349 117552621.62949       450.04349        49.000  
  23694183.52349 124513774.05949    -11851.84449        50.000  
 16 04 02 13 56 19.9000000  0  2G08G03                                          
  22369511.74249 117552576.79349       445.90249        49.000  
  23694409.08649 124514959.39849    -11856.77049        50.000  
 16 04 02 13 56 20.0000000  0  2G08G03                                          
  22369503.31249 117552532.48849       440.68849        49.000  
  23694634.79749 124516145.39149    -11863.03949        50.000  
 16 04 02 13 56 20.1000000  0  2G08G03                                          
  22369494.98449 117552488.68849       435.64549        49.000  
  23694860.60249 124517331.98449    -11869.05149        50.000  
 16 04 02 13 56 20.2000000  0  2G08G03                                          
  22369486.72749 117552445.29349       431.36349        49.000  
  23695086.48449 124518519.07849    -11874.20349        50.000  
 16 04 02 13 56 20.3000000  0  2G08G03                                          
  22369478.57049 117552402.39149       426.71949        49.000  
  23695312.49249 124519706.76649    -11879.87549        50.000  
 16 04 02 13 56 20.4000000  0  2G08G03                                          
  22369470.49249 117552359.93449       422.40649        49.000  
  23695538.60249 124520894.98049    -11885.03949        50.000  
 16 04 02 13 56 20.5000000  0  2G08G03                                          
  22369462.50049 117552317.98849       416.87949        49.000  
  23695764.82849 124522083.80949    -11891.62149        50.000  
 16 04 02 13 56 20.6000000  0  2G08G03                                          
  22369454.60249 117552276.50849       412.23449        49.000  
  23695991.15649 124523273.20349    -11897.29349        50.000  
 16 04 02 13 56 20.7000000  0  2G08G03                                          
  22369446.80549 117552235.49249       407.71549        49.000  
  23696217.60249 124524463.15649    -11902.57849        50.000  
 16 04 02 13 56 20.8000000  0  2G08G03                                          
  22369439.07849 117552194.91849       403.41849        49.000  
  23696444.14849 124525653.64149    -11907.86349        50.000  
 16 04 02 13 56 20.9000000  0  2G08G03                                          
  22369431.44549 117552154.81649       398.41449        49.000  
  23696670.79749 124526844.70349    -11914.02349        50.000  
 16 04 02 13 56 21.0000000  0  2G08G03                                          
  22369423.92249 117552115.28549       392.98849        49.000  
  23696897.56249 124528036.41849    -11920.14549        50.000  
 16 04 02 13 56 21.1000000  0  2G08G03                                          
  22369416.49249 117552076.20749       388.14149        49.000  
  23697124.44549 124529228.69549    -11926.05149        50.000  
 16 04 02 13 56 21.2000000  0  2G08G03                                          
  22369409.14849 117552037.63349       383.19549        49.000  
  23697351.43849 124530421.57049    -11932.04349        50.000  
 16 04 02 13 56 21.3000000  0  2G08G03                                          
  22369401.89149 117551999.49649       378.96949        49.000  
  23697578.53149 124531614.98049    -11937.28549        50.000  
 16 04 02 13 56 21.4000000  0  2G08G03                                          
  22369394.71949 117551961.79749       374.60549        49.000  
  23697805.72749 124532808.91449    -11942.38749        50.000  
 16 04 02 13 56 21.5000000  0  2G08G03                                          
  22369387.63349 117551924.55149       370.13749        49.000  
  23698033.03149 124534003.41049    -11948.01649        50.000  
 16 04 02 13 56 21.6000000  0  2G08G03                                          
  22369380.64849 117551887.85549       364.47749        49.000  
  23698260.46949 124535198.54349    -11954.59049        50.000  
 16 04 02 13 56 21.7000000  0  2G08G03                                          
  22369373.75849 117551851.61749       359.94549        49.000  
  23698488.00049 124536394.22349    -11959.94149        50.000  
 16 04 02 13 56 21.8000000  0  2G08G03                                          
  22369366.95349 117551815.84449       355.07449        49.000  
  23698715.63349 124537590.48049    -11965.91849        50.000  
 16 04 02 13 56 21.9000000  0  2G08G03                                          
  22369360.23449 117551780.55149       350.60949        49.000  
  23698943.37549 124538787.29749    -11971.21149        50.000  
 16 04 02 13 56 22.0000000  0  2G08G03                                          
  22369353.60249 117551745.68449       346.39149        49.000  
  23699171.21949 124539984.64149    -11976.39849        50.000  
 16 04 02 13 56 22.1000000  0  2G08G03                                          
  22369347.07049 117551711.33649       340.90249        49.000  
  23699399.18049 124541182.60549    -11982.96949        50.000  
 16 04 02 13 56 22.2000000  0  2G08G03                                          
  22369340.62549 117551677.45349       336.37149        49.000  
  23699627.26649 124542381.12949    -11988.42249        50.000  
 16 04 02 13 56 22.3000000  0  2G08G03                                          
  22369334.26649 117551644.05949       331.42649        49.000  
  23699855.44549 124543580.23449    -11994.25849        50.000  
 16 04 02 13 56 22.4000000  0  2G08G03                                          
  22369328.00849 117551611.14549       326.77349        49.000  
  23700083.73449 124544779.91449    -11999.93049        50.000  
 16 04 02 13 56 22.5000000  0  2G08G03                                          
  22369321.82049 117551578.69949       322.07049        49.000  
  23700312.13349 124545980.14849    -12005.34849        50.000  
 16 04 02 13 56 22.6000000  0  2G08G03                                          
  22369315.73449 117551546.69149       317.55149        49.000  
  23700540.63349 124547180.93449    -12011.00049        50.000  
 16 04 02 13 56 22.7000000  0  2G08G03                                          
  22369309.72749 117551515.16049       313.13749        49.000  
  23700769.24249 124548382.30149    -12016.57049        50.000  
 16 04 02 13 56 22.8000000  0  2G08G03                                          
  22369303.81249 117551484.11349       308.13749        49.000  
  23700997.95349 124549584.21949    -12022.26649        50.000  
 16 04 02 13 56 22.9000000  0  2G08G03                                          
  22369297.99249 117551453.52049       303.62549        49.000  
  23701226.78149 124550786.70349    -12027.85249        50.000  
 16 04 02 13 56 23.0000000  0  2G08G03                                          
  22369292.26649 117551423.41449       298.53549        49.000  
  23701455.72749 124551989.76249    -12033.81649        50.000  
 16 04 02 13 56 23.1000000  0  2G08G03                                          
  22369286.63349 117551393.78949       293.82849        49.000  
  23701684.77349 124553193.40649    -12039.55949        50.000  
 16 04 02 13 56 23.2000000  0  2G08G03                                          
  22369281.08649 117551364.63349       289.11349        49.000  
  23701913.91449 124554397.60549    -12045.11349        50.000  
 16 04 02 13 56 23.3000000  0  2G08G03                                          
  22369275.62549 117551335.93449       284.40649        49.000  
  23702143.17249 124555602.35949    -12051.03149        50.000  
 16 04 02 13 56 23.4000000  0  2G08G03                                          
  22369270.26649 117551307.80949       278.80949        49.000  
  23702372.54749 124556807.78149    -12057.30549        50.000  
 16 04 02 13 56 23.5000000  0  2G08G03                                          
  22369264.98449 117551280.04749       275.09049        49.000  
  23702602.01649 124558013.66049    -12061.94549        50.000  
 16 04 02 13 56 23.6000000  0  2G08G03                                          
  22369259.79749 117551252.77349       270.28549        49.000  
  23702831.59449 124559220.12949    -12067.89149        50.000  
 16 04 02 13 56 23.7000000  0  2G08G03                                          
  22369254.71149 117551226.05149       264.90249        49.000  
  23703061.29749 124560427.24249    -12074.12949        50.000  
 16 04 02 13 56 23.8000000  0  2G08G03                                          
  22369249.70349 117551199.73049       260.82849        49.000  
  23703291.10249 124561634.85549    -12079.27349        50.000  
 16 04 02 13 56 23.9000000  0  2G08G03                                          
  22369244.78949 117551173.88749       256.29749        49.000  
  23703521.00849 124562843.03149    -12084.64549        50.000  
 16 04 02 13 56 24.0000000  0  2G08G03                                          
  22369239.94549 117551148.43849       252.24249        49.000  
  23703751.02349 124564051.70349    -12089.65249        50.000  
 16 04 02 13 56 24.1000000  0  2G08G03                                          
  22369235.18849 117551123.45749       247.39149        49.000  
  23703981.13349 124565260.93049    -12095.43849        50.000  
 16 04 02 13 56 24.2000000  0  2G08G03                                          
  22369230.53949 117551099.02349       241.88349        49.000  
  23704211.37549 124566470.80549    -12101.93049        50.000  
 16 04 02 13 56 24.3000000  0  2G08G03                                          
  22369225.99249 117551075.07049       237.09849        49.000  
  23704441.71949 124567681.26249    -12107.72749        50.000  
 16 04 02 13 56 24.4000000  0  2G08G03                                          
  22369221.51649 117551051.56649       232.49249        49.000  
  23704672.16449 124568892.25049    -12113.14549        50.000  
 16 04 02 13 56 24.5000000  0  2G08G03                                          
  22369217.13349 117551028.52349       228.05549        49.000  
  23704902.71949 124570103.81249    -12118.64849        50.000  
 16 04 02 13 56 24.6000000  0  2G08G03                                          
  22369212.82849 117551005.91849       223.67249        49.000  
  23705133.36749 124571315.89149    -12123.85949        50.000  
 16 04 02 13 56 24.7000000  0  2G08G03                                          
  22369208.60949 117550983.73449       219.48049        49.000  
  23705364.11749 124572528.49649    -12129.11749        50.000  
 16 04 02 13 56 24.8000000  0  2G08G03                                          
  22369204.50049 117550962.11349       213.94149        49.000  
  23705595.00849 124573741.75849    -12135.54749        50.000  
 16 04 02 13 56 24.9000000  0  2G08G03                                          
  22369200.46149 117550940.91849       209.51649        49.000  
  23705825.97749 124574955.53949    -12141.07449        50.000  
 16 04 02 13 56 25.0000000  0  2G08G03                                          
  22369196.51649 117550920.19149       204.89549        49.000  
  23706057.04749 124576169.87949    -12146.58249        50.000  
 16 04 02 13 56 25.1000000  0  2G08G03                                          
  22369192.66449 117550899.92649       200.23849        49.000  
  23706288.23449 124577384.77349    -12151.99649        50.000  
 16 04 02 13 56 25.2000000  0  2G08G03                                          
  22369188.89849 117550880.16449       195.19149        49.000  
  23706519.53949 124578600.27049    -12158.00849        50.000  
 16 04 02 13 56 25.3000000  0  2G08G03                                          
  22369185.22749 117550860.83249       190.77049        49.000  
  23706750.93849 124579816.29349    -12163.47349        50.000  
 16 04 02 13 56 25.4000000  0  2G08G03                                          
  22369181.64149 117550841.99249       186.02749        49.000  
  23706982.46149 124581032.89549    -12169.11749        50.000  
 16 04 02 13 56 25.5000000  0  2G08G03                                          
  22369178.15649 117550823.65649       180.98449        49.000  
  23707214.08649 124582250.10549    -12175.21949        50.000  
 16 04 02 13 56 25.6000000  0  2G08G03                                          
  22369174.75849 117550805.79349       176.16849        49.000  
  23707445.82049 124583467.87149    -12180.99249        50.000  
 16 04 02 13 56 25.7000000  0  2G08G03                                          
  22369171.44549 117550788.40249       171.47349        49.000  
  23707677.66449 124584686.22749    -12186.68449        50.000  
 16 04 02 13 56 25.8000000  0  2G08G03                                          
  22369168.23449 117550771.54749       166.15249        49.000  
  23707909.63349 124585905.18449    -12192.76649        50.000  
 16 04 02 13 56 25.9000000  0  2G08G03                                          
  22369165.11749 117550755.14849       161.55149        49.000  
  23708141.70349 124587124.71549    -12198.37149        50.000  
 16 04 02 13 56 26.0000000  0  2G08G03                                          
  22369162.07849 117550739.15649       157.50049        49.000  
  23708373.85949 124588344.74649    -12203.50049        50.000  
 16 04 02 13 56 26.1000000  0  2G08G03                                          
  22369159.12549 117550723.63749       152.97749        49.000  
  23708606.12549 124589565.31649    -12208.76649        50.000  
 16 04 02 13 56 26.2000000  0  2G08G03                                          
  22369156.26649 117550708.61349       147.94949        49.000  
  23708838.51649 124590786.50449    -12214.84449        50.000  
 16 04 02 13 56 26.3000000  0  2G08G03                                          
  22369153.49249 117550694.06249       143.09849        49.000  
  23709071.00049 124592008.24249    -12220.57849        50.000  
 16 04 02 13 56 26.4000000  0  2G08G03                                          
  22369150.80549 117550679.95349       138.59849        49.000  
  23709303.60249 124593230.53149    -12226.14549        50.000  
 16 04 02 13 56 26.5000000  0  2G08G03                                          
  22369148.21949 117550666.39549       133.17249        49.000  
  23709536.31249 124594453.45749    -12232.30949        50.000  
 16 04 02 13 56 26.6000000  0  2G08G03                                          
  22369145.71949 117550653.26249       128.84049        49.000  
  23709769.13349 124595676.91049    -12237.76249        50.000  
 16 04 02 13 56 26.7000000  0  2G08G03                                          
  22369143.32049 117550640.61349       124.14549        49.000  
  23710002.05549 124596900.93449    -12243.41449        50.000  
 16 04 02 13 56 26.8000000  0  2G08G03                                          
  22369141.00849 117550628.49249       118.84849        49.000  
  23710235.10949 124598125.58249    -12249.67649        50.000  
 16 04 02 13 56 26.9000000  0  2G08G03                                          
  22369138.78149 117550616.78949       114.59449        49.000  
  23710468.25049 124599350.73049    -12254.69149        50.000  
 16 04 02 13 56 27.0000000  0  2G08G03                                          
  22369136.65649 117550605.59449       109.65649        49.000  
  23710701.50049 124600576.49249    -12260.52749        50.000  
 16 04 02 13 56 27.1000000  0  2G08G03                                          
  22369134.60249 117550594.82449       105.14549        49.000  
  23710934.85249 124601802.78149    -12266.12949        50.000  
 16 04 02 13 56 27.2000000  0  2G08G03                                          
  22369132.64149 117550584.51649       100.82849        49.000  
  23711168.32849 124603029.61749    -12271.35249        50.000  
 16 04 02 13 56 27.3000000  0  2G08G03                                          
  22369130.76649 117550574.66849        96.03949        49.000  
  23711401.89149 124604257.00849    -12277.10549        50.000  
 16 04 02 13 56 27.4000000  0  2G08G03                                          
  22369128.98449 117550565.33649        90.91849        49.000  
  23711635.57049 124605485.00449    -12283.11749        50.000  
 16 04 02 13 56 27.5000000  0  2G08G03                                          
  22369127.29749 117550556.48449        86.17249        49.000  
  23711869.35949 124606713.59049    -12288.94949        50.000  
 16 04 02 13 56 27.6000000  0  2G08G03                                          
  22369125.69549 117550548.07449        81.79349        49.000  
  23712103.25049 124607942.69549    -12294.10949        50.000  
 16 04 02 13 56 27.7000000  0  2G08G03                                          
  22369124.18049 117550540.11749        77.08649        49.000  
  23712337.25049 124609172.35549    -12299.71549        50.000  
 16 04 02 13 56 27.8000000  0  2G08G03                                          
  22369122.76649 117550532.71949        71.52749        49.000  
  23712571.36749 124610402.67649    -12306.41049        50.000  
 16 04 02 13 56 27.9000000  0  2G08G03                                          
  22369121.43849 117550525.75049        67.27049        49.000  
  23712805.58649 124611633.50449    -12311.35949        50.000  
 16 04 02 13 56 28.0000000  0  2G08G03                                          
  22369120.19549 117550519.24649        62.59849        49.000  
  23713039.92249 124612864.89149    -12317.05949        50.000  
 16 04 02 13 56 28.1000000  0  2G08G03                                          
  22369119.03949 117550513.17649        58.50049        49.000  
  23713274.35249 124614096.82049    -12322.15249        50.000  
 16 04 02 13 56 28.2000000  0  2G08G03                                          
  22369117.96149 117550507.52749        54.21949        49.000  
  23713508.86749 124615329.25049    -12327.34449        50.000  
 16 04 02 13 56 28.3000000  0  2G08G03                                          
  22369116.98449 117550502.40249        48.90649        49.000  
  23713743.50849 124616562.30149    -12333.62949        50.000  
 16 04 02 13 56 28.4000000  0  2G08G03                                          
  22369116.10249 117550497.78149        43.72349        49.000  
  23713978.27349 124617795.95749    -12339.73449        50.000  
 16 04 02 13 56 28.5000000  0  2G08G03                                          
  22369115.33649 117550493.67649        38.61749        49.000  
  23714213.14849 124619030.21549    -12345.74249        50.000  
 16 04 02 13 56 28.6000000  0  2G08G03                                          
  22369114.64149 117550490.02349        34.12949        49.000  
  23714448.12549 124620265.02749    -12351.21149        50.000  
 16 04 02 13 56 28.7000000  0  2G08G03                                          
  22369114.03949 117550486.85249        29.44949        49.000  
  23714683.20349 124621500.40249    -12356.75049        50.000  
 16 04 02 13 56 28.8000000  0  2G08G03                                          
  22369113.51649 117550484.12549        24.91049        49.000  
  23714918.39149 124622736.33249    -12362.27049        50.000  
 16 04 02 13 56 28.9000000  0  2G08G03                                          
  22369113.08649 117550481.87149        20.32449        49.000  
  23715153.68849 124623972.80949    -12367.75049        50.000  
 16 04 02 13 56 29.0000000  0  2G08G03                                          
  22369112.75849 117550480.11749        15.14849        49.000  
  23715389.10249 124625209.90249    -12374.07049        50.000  
 16 04 02 13 56 29.1000000  0  2G08G03                                          
  22369112.51649 117550478.86349         9.87549        49.000  
  23715624.61749 124626447.56649    -12379.92649        50.000  
 16 04 02 13 56 29.2000000  0  2G08G03                                          
  22369112.36749 117550478.05549         5.65649        49.000  
  23715860.24249 124627685.77749    -12385.24649        50.000  
 16 04 02 13 56 29.3000000  0  2G08G03                                          
  22369112.28949 117550477.69949         1.14849        49.000  
  23716095.96949 124628924.54349    -12390.85549        50.000  
 16 04 02 13 56 29.4000000  0  2G08G03                                          
  22369112.31249 117550477.80949        -3.32049        49.000  
  23716331.79749 124630163.85549    -12396.22349        50.000  
 16 04 02 13 56 29.5000000  0  2G08G03                                          
  22369112.42249 117550478.41449        -8.40649        49.000  
  23716567.75049 124631403.76649    -12402.11349        50.000  
 16 04 02 13 56 29.6000000  0  2G08G03                                          
  22369112.61749 117550479.44149       -12.68849        49.000  
  23716803.78949 124632644.18449    -12407.35549        50.000  
 16 04 02 13 56 29.7000000  0  2G08G03                                          
  22369112.90649 117550480.94549       -17.34449        49.000  
  23717039.93849 124633885.18049    -12413.04349        50.000  
 16 04 02 13 56 29.8000000  0  2G08G03                                          
  22369113.28949 117550482.96549       -22.67649        49.000  
  23717276.21149 124635126.77349    -12419.17249        50.000  
 16 04 02 13 56 29.9000000  0  2G08G03                                          
  22369113.76649 117550485.47349       -27.59849        49.000  
  23717512.59449 124636368.96149    -12425.02349        50.000  
 16 04 02 13 56 30.0000000  0  2G08G03                                          
  22369114.32849 117550488.45349       -32.16049        49.000  
  23717749.08649 124637611.70349    -12430.39849        50.000  
 16 04 02 13 56 30.1000000  0  2G08G03                                          
  22369114.96949 117550491.82849       -36.22749        49.000  
  23717985.66449 124638854.94949    -12435.65649        50.000  
 16 04 02 13 56 30.2000000  0  2G08G03                                          
  22369115.71949 117550495.74649       -41.30149        49.000  
  23718222.35949 124640098.81249    -12441.50849        50.000  
 16 04 02 13 56 30.3000000  0  2G08G03                                          
  22369116.55549 117550500.10249       -45.98449        49.000  
  23718459.16449 124641343.21949    -12447.28949        50.000  
 16 04 02 13 56 30.4000000  0  2G08G03                                          
  22369117.46949 117550504.91049       -50.34049        49.000  
  23718696.07849 124642588.17649    -12452.53149        50.000  
 16 04 02 13 56 30.5000000  0  2G08G03                                          
  22369118.48449 117550510.21549       -55.39149        49.000  
  23718933.09449 124643833.70749    -12458.48449        50.000  
 16 04 02 13 56 30.6000000  0  2G08G03                                          
  22369119.58649 117550515.99249       -60.04749        49.000  
  23719170.23449 124645079.81249    -12464.04749        50.000  
 16 04 02 13 56 30.7000000  0  2G08G03                                          
  22369120.78149 117550522.26649       -65.10949        49.000  
  23719407.46949 124646326.50049    -12469.87949        50.000  
 16 04 02 13 56 30.8000000  0  2G08G03                                          
  22369122.05549 117550528.98849       -69.61749        49.000  
  23719644.82049 124647573.74249    -12475.40649        50.000  
 16 04 02 13 56 30.9000000  0  2G08G03                                          
  22369123.40649 117550536.10949       -73.57449        49.000  
  23719882.25049 124648821.46549    -12480.31649        50.000  
 16 04 02 13 56 31.0000000  0  2G08G03                                          
  22369124.85949 117550543.73049       -78.43049        49.000  
  23720119.80549 124650069.78549    -12486.27749        50.000  
 16 04 02 13 56 31.1000000  0  2G08G03                                          
  22369126.39849 117550551.89149       -83.96149        49.000  
  23720357.46949 124651318.73849    -12492.53149        50.000  
 16 04 02 13 56 31.2000000  0  2G08G03                                          
  22369128.03149 117550560.46149       -88.24649        49.000  
  23720595.24249 124652568.19549    -12497.84449        50.000  
 16 04 02 13 56 31.3000000  0  2G08G03                                          
  22369129.75849 117550569.51249       -92.85549        49.000  
  23720833.10949 124653818.21949    -12503.34849        50.000  
 16 04 02 13 56 31.4000000  0  2G08G03                                          
  22369131.57849 117550579.07049       -98.11349        49.000  
  23721071.09449 124655068.85249    -12509.44149        50.000  
 16 04 02 13 56 31.5000000  0  2G08G03                                          
  22369133.48449 117550589.07849      -102.57049        49.000  
  23721309.18849 124656320.02049    -12514.94149        50.000  
 16 04 02 13 56 31.6000000  0  2G08G03                                          
  22369135.47749 117550599.55149      -107.17249        49.000  
  23721547.36749 124657571.75849    -12520.46149        50.000  
 16 04 02 13 56 31.7000000  0  2G08G03                                          
  22369137.56249 117550610.51649      -111.91049        49.000  
  23721785.68049 124658824.05949    -12526.16049        50.000  
 16 04 02 13 56 31.8000000  0  2G08G03                                          
  22369139.73449 117550621.93849      -116.58249        49.000  
  23722024.07849 124660076.92649    -12531.78149        50.000  
 16 04 02 13 56 31.9000000  0  2G08G03                                          
  22369142.00049 117550633.82449      -121.23849        49.000  
  23722262.59449 124661330.35949    -12537.43449        50.000  
 16 04 02 13 56 32.0000000  0  2G08G03                                          
  22369144.34449 117550646.14549      -125.43449        49.000  
  23722501.21149 124662584.28549    -12542.27049        50.000  
 16 04 02 13 56 32.1000000  0  2G08G03                                          
  22369146.77349 117550658.91049      -130.03549        49.000  
  23722739.93049 124663838.78149    -12548.05949        50.000  
 16 04 02 13 56 32.2000000  0  2G08G03                                          
  22369149.32049 117550672.27749      -136.07049        49.000  
  23722978.78149 124665093.95349    -12554.89149        50.000  
 16 04 02 13 56 32.3000000  0  2G08G03                                          
  22369151.93849 117550686.05949      -140.43049        49.000  
  23723217.73449 124666349.64849    -12560.20349        50.000  
 16 04 02 13 56 32.4000000  0  2G08G03                                          
  22369154.64149 117550700.28549      -144.78549        49.000  
  23723456.79749 124667605.85949    -12565.22749        50.000  
 16 04 02 13 56 32.5000000  0  2G08G03                                          
  22369157.44549 117550715.05549      -150.10949        49.000  
  23723695.96949 124668862.72349    -12571.82049        50.000  
 16 04 02 13 56 32.6000000  0  2G08G03                                          
  22369160.35249 117550730.30949      -155.02749        49.000  
  23723935.23449 124670120.16049    -12577.51249        50.000  
 16 04 02 13 56 32.7000000  0  2G08G03                                          
  22369163.32849 117550745.98449      -159.32049        49.000  
  23724174.61749 124671378.10949    -12582.68449        50.000  
 16 04 02 13 56 32.8000000  0  2G08G03                                          
  22369166.41449 117550762.19549      -164.50449        49.000  
  23724414.12549 124672636.69949    -12589.02749        50.000  
 16 04 02 13 56 32.9000000  0  2G08G03                                          
  22369169.58649 117550778.84449      -168.85949        49.000  
  23724653.71949 124673895.80149    -12594.17649        50.000  
 16 04 02 13 56 33.0000000  0  2G08G03                                          
  22369172.83649 117550795.92249      -173.02749        49.000  
  23724893.42249 124675155.42649    -12599.23049        50.000  
 16 04 02 13 56 33.1000000  0  2G08G03                                          
  22369176.18049 117550813.53549      -178.45749        49.000  
  23725133.24249 124676415.68449    -12605.67249        50.000  
 16 04 02 13 56 33.2000000  0  2G08G03                                          
  22369179.61749 117550831.57449      -182.66849        49.000  
  23725373.14849 124677676.46549    -12610.84449        50.000  
 16 04 02 13 56 33.3000000  0  2G08G03                                          
  22369183.14849 117550850.10549      -187.68449        49.000  
  23725613.17249 124678937.81249    -12616.58249        50.000  
 16 04 02 13 56 33.4000000  0  2G08G03                                          
  22369186.76649 117550869.13749      -192.85549        49.000  
  23725853.31249 124680199.77349    -12622.69549        50.000  
 16 04 02 13 56 33.5000000  0  2G08G03                                          
  22369190.46949 117550888.60949      -197.12949        49.000  
  23726093.55549 124681462.25449    -12627.87149        50.000  
 16 04 02 13 56 33.6000000  0  2G08G03                                          
  22369194.25849 117550908.50849      -201.34849        49.000  
  23726333.89149 124682725.25849    -12633.10549        50.000  
 16 04 02 13 56 33.7000000  0  2G08G03                                          
  22369198.14149 117550928.91449      -206.44149        49.000  
  23726574.35249 124683988.86749    -12639.22749        50.000  
 16 04 02 13 56 33.8000000  0  2G08G03                                          
  22369202.12549 117550949.83649      -211.64549        49.000  
  23726814.91449 124685253.06649    -12645.26249        50.000  
 16 04 02 13 56 33.9000000  0  2G08G03                                          
  22369206.18849 117550971.19949      -215.97349        49.000  
  23727055.59449 124686517.82049    -12650.56649        50.000  
 16 04 02 13 56 34.0000000  0  2G08G03                                          
  22369210.35249 117550993.05149      -220.91849        49.000  
  23727296.37549 124687783.13749    -12656.36349        50.000  
 16 04 02 13 56 34.1000000  0  2G08G03                                          
  22369214.59449 117551015.39849      -225.80549        49.000  
  23727537.27349 124689049.05149    -12662.12949        50.000  
 16 04 02 13 56 34.2000000  0  2G08G03                                          
  22369218.92249 117551038.16049      -230.14549        49.000  
  23727778.25849 124690315.47349    -12667.37949        50.000  
 16 04 02 13 56 34.3000000  0  2G08G03                                          
  22369223.35249 117551061.45749      -235.42649        49.000  
  23728019.36749 124691582.52349    -12673.55549        50.000  
 16 04 02 13 56 34.4000000  0  2G08G03                                          
  22369227.86749 117551085.18849      -239.63349        49.000  
  23728260.57049 124692850.09049    -12678.85949        50.000  
 16 04 02 13 56 34.5000000  0  2G08G03                                          
  22369232.46949 117551109.34049      -243.80149        49.000  
  23728501.87549 124694118.18049    -12683.80549        50.000  
 16 04 02 13 56 34.6000000  0  2G08G03                                          
  22369237.15649 117551133.98449      -248.89849        49.000  
  23728743.28949 124695386.84849    -12689.78549        50.000  
 16 04 02 13 56 34.7000000  0  2G08G03                                          
  22369241.93049 117551159.04749      -253.09049        49.000  
  23728984.80549 124696656.02749    -12694.97349        50.000  
 16 04 02 13 56 34.8000000  0  2G08G03                                          
  22369246.79749 117551184.63349      -258.13749        49.000  
  23729226.43849 124697925.82449    -12701.03149        50.000  
 16 04 02 13 56 34.9000000  0  2G08G03                                          
  22369251.75849 117551210.68049      -262.80149        49.000  
  23729468.18049 124699196.15649    -12706.46149        50.000  
 16 04 02 13 56 35.0000000  0  2G08G03                                          
  22369256.80549 117551237.19949      -267.66849        49.000  
  23729710.03149 124700467.09049    -12712.47349        50.000  
 16 04 02 13 56 35.1000000  0  2G08G03                                          
  22369261.93849 117551264.20749      -272.33249        49.000  
  23729951.98449 124701738.56249    -12717.85249        50.000  
 16 04 02 13 56 35.2000000  0  2G08G03                                          
  22369267.15649 117551291.61749      -276.55549        49.000  
  23730194.03149 124703010.55549    -12722.85549        50.000  
 16 04 02 13 56 35.3000000  0  2G08G03                                          
  22369272.46949 117551319.53949      -281.48449        49.000  
  23730436.19549 124704283.14849    -12728.85549        50.000  
 16 04 02 13 56 35.4000000  0  2G08G03                                          
  22369277.86749 117551347.91849      -286.31249        49.000  
  23730678.46149 124705556.28549    -12734.75049        50.000  
 16 04 02 13 56 35.5000000  0  2G08G03                                          
  22369283.35949 117551376.79349      -290.95749        49.000  
  23730920.83649 124706829.99649    -12740.09849        50.000  
 16 04 02 13 56 35.6000000  0  2G08G03                                          
  22369288.93849 117551406.10949      -295.81649        49.000  
  23731163.32849 124708104.27049    -12745.94949        50.000  
 16 04 02 13 56 35.7000000  0  2G08G03                                          
  22369294.62549 117551435.94149      -300.75049        49.000  
  23731405.92249 124709379.12549    -12751.74249        50.000  
 16 04 02 13 56 35.8000000  0  2G08G03                                          
  22369300.38349 117551466.22349      -305.22749        49.000  
  23731648.63349 124710654.53949    -12757.30949        50.000  
 16 04 02 13 56 35.9000000  0  2G08G03                                          
  22369306.23449 117551496.98449      -310.15649        49.000  
  23731891.44549 124711930.51649    -12762.98449        50.000  
 16 04 02 13 56 36.0000000  0  2G08G03                                          
  22369312.18849 117551528.25849      -315.09049        49.000  
  23732134.37549 124713207.10249    -12769.02349        50.000  
 16 04 02 13 56 36.1000000  0  2G08G03                                          
  22369318.21949 117551559.95749      -319.54349        49.000  
  23732377.39849 124714484.19149    -12774.06249        50.000  
 16 04 02 13 56 36.2000000  0  2G08G03                                          
  22369324.34449 117551592.15649      -324.19949        49.000  
  23732620.53149 124715761.87949    -12779.81649        50.000  
 16 04 02 13 56 36.3000000  0  2G08G03                                          
  22369330.56249 117551624.78549      -328.78549        49.000  
  23732863.76649 124717040.08649    -12785.31649        50.000  
 16 04 02 13 56 36.4000000  0  2G08G03                                          
  22369336.87549 117551657.95749      -334.10249        49.000  
  23733107.12549 124718318.93849    -12791.54349        50.000  
 16 04 02 13 56 36.5000000  0  2G08G03                                          
  22369343.26649 117551691.55949      -338.61349        49.000  
  23733350.57849 124719598.30949    -12796.97349        50.000  
 16 04 02 13 56 36.6000000  0  2G08G03                                          
  22369349.75049 117551725.65649      -343.40249        49.000  
  23733594.14149 124720878.26649    -12802.79749        50.000  
 16 04 02 13 56 36.7000000  0  2G08G03                                          
  22369356.32849 117551760.22749      -348.10949        49.000  
  23733837.82049 124722158.77349    -12808.12949        50.000  
 16 04 02 13 56 36.8000000  0  2G08G03                                          
  22369363.00049 117551795.26649      -352.70349        49.000  
  23734081.60949 124723439.84849    -12813.69149        50.000  
 16 04 02 13 56 36.9000000  0  2G08G03                                          
  22369369.75849 117551830.77349      -357.59849        49.000  
  23734325.49249 124724721.48449    -12819.53949        50.000  
 16 04 02 13 56 37.0000000  0  2G08G03                                          
  22369376.61749 117551866.81249      -362.82449        49.000  
  23734569.50049 124726003.74649    -12825.79349        50.000  
 16 04 02 13 56 37.1000000  0  2G08G03                                          
  22369383.56249 117551903.32449      -367.74249        49.000  
  23734813.60949 124727286.57449    -12831.53949        50.000  
 16 04 02 13 56 37.2000000  0  2G08G03                                          
  22369390.60249 117551940.29349      -372.13349        49.000  
  23735057.84449 124728569.94949    -12836.85549        50.000  
 16 04 02 13 56 37.3000000  0  2G08G03                                          
  22369397.74249 117551977.78149      -377.38349        49.000  
  23735302.17249 124729853.91849    -12843.01249        50.000  
 16 04 02 13 56 37.4000000  0  2G08G03                                          
  22369404.97749 117552015.79349      -382.64849        49.000  
  23735546.62549 124731138.52349    -12849.32849        50.000  
 16 04 02 13 56 37.5000000  0  2G08G03                                          
  22369412.29749 117552054.29749      -387.38749        49.000  
  23735791.18049 124732423.69949    -12854.74649        50.000  
 16 04 02 13 56 37.6000000  0  2G08G03                                          
  22369419.68849 117552093.15249      -391.02049        49.000  
  23736035.83649 124733709.33249    -12859.53149        50.000  
 16 04 02 13 56 37.7000000  0  2G08G03                                          
  22369427.18049 117552132.53149      -396.02349        49.000  
  23736280.59449 124734995.55549    -12865.23449        50.000  
 16 04 02 13 56 37.8000000  0  2G08G03                                          
  22369434.75849 117552172.34049      -400.40649        49.000  
  23736525.46149 124736282.32449    -12870.68049        50.000  
 16 04 02 13 56 37.9000000  0  2G08G03                                          
  22369442.42249 117552212.62949      -405.06249        49.000  
  23736770.43049 124737569.64549    -12876.13349        50.000  
 16 04 02 13 56 38.0000000  0  2G08G03                                          
  22369450.17249 117552253.35549      -409.77349        49.000  
  23737015.50849 124738857.50849    -12881.95349        50.000  
 16 04 02 13 56 38.1000000  0  2G08G03                                          
  22369458.02349 117552294.63349      -415.01249        49.000  
  23737260.69549 124740146.00049    -12887.77049        50.000  
 16 04 02 13 56 38.2000000  0  2G08G03                                          
  22369465.96149 117552336.34449      -419.64549        49.000  
  23737505.97749 124741435.01249    -12893.25449        50.000  
 16 04 02 13 56 38.3000000  0  2G08G03                                          
  22369473.98449 117552378.52749      -424.26649        49.000  
  23737751.38349 124742724.61749    -12899.15249        50.000  
 16 04 02 13 56 38.4000000  0  2G08G03                                          
  22369482.09449 117552421.15249      -428.49649        49.000  
  23737996.87549 124744014.71949    -12904.12949        50.000  
 16 04 02 13 56 38.5000000  0  2G08G03                                          
  22369490.30549 117552464.27349      -433.57849        49.000  
  23738242.49249 124745305.43849    -12910.18049        50.000  
 16 04 02 13 56 38.6000000  0  2G08G03                                          
  22369498.59449 117552507.86349      -438.26249        49.000  
  23738488.21949 124746596.69149    -12915.57849        50.000  
 16 04 02 13 56 38.7000000  0  2G08G03                                          
  22369506.98449 117552551.89849      -442.72749        49.000  
  23738734.03949 124747888.49649    -12921.23849        50.000  
 16 04 02 13 56 38.8000000  0  2G08G03                                          
  22369515.45349 117552596.42249      -447.56249        49.000  
  23738979.96949 124749180.88349    -12926.82449        50.000  
 16 04 02 13 56 38.9000000  0  2G08G03                                          
  22369524.01649 117552641.40649      -452.27349        49.000  
  23739226.00849 124750473.81249    -12932.48049        50.000  
 16 04 02 13 56 39.0000000  0  2G08G03                                          
  22369532.67249 117552686.93049      -457.53149        49.000  
  23739472.15649 124751767.36349    -12938.68449        50.000  
 16 04 02 13 56 39.1000000  0  2G08G03                                          
  22369541.41449 117552732.85249      -461.58249        49.000  
  23739718.40649 124753061.40649    -12943.44949        50.000  
 16 04 02 13 56 39.2000000  0  2G08G03                                          
  22369550.25049 117552779.26249      -466.47749        49.000  
  23739964.77349 124754356.05549    -12949.53149        50.000  
 16 04 02 13 56 39.3000000  0  2G08G03                                          
  22369559.15649 117552826.12949      -471.01649        49.000  
  23740211.23449 124755651.21949    -12954.87549        50.000  
 16 04 02 13 56 39.4000000  0  2G08G03                                          
  22369568.16449 117552873.44949      -475.47349        49.000  
  23740457.80549 124756946.92649    -12960.04749        50.000  
 16 04 02 13 56 39.5000000  0  2G08G03                                          
  22369577.25849 117552921.20349      -479.88349        49.000  
  23740704.47749 124758243.18449    -12965.72349        50.000  
 16 04 02 13 56 39.6000000  0  2G08G03                                          
  22369586.43849 117552969.46949      -484.83249        49.000  
  23740951.26649 124759540.02349    -12971.39149        50.000  
 16 04 02 13 56 39.7000000  0  2G08G03                                          
  22369595.71149 117553018.18449      -489.63749        49.000  
  23741198.14849 124760837.39849    -12976.86749        50.000  
 16 04 02 13 56 39.8000000  0  2G08G03                                          
  22369605.07049 117553067.36749      -494.14149        49.000  
  23741445.14149 124762135.35249    -12982.61349        50.000  
 16 04 02 13 56 39.9000000  0  2G08G03                                          
  22369614.52349 117553117.05549      -499.44949        49.000  
  23741692.24249 124763433.89149    -12988.68849        50.000  
 16 04 02 13 56 40.0000000  0  2G08G03                                          
  22369624.07049 117553167.22349      -504.17249        49.000  
  23741939.44549 124764732.99649    -12994.27349        50.000  
 16 04 02 13 56 40.1000000  0  2G08G03                                          
  22369633.69549 117553217.82849      -508.43849        49.000  
  23742186.76649 124766032.63749    -12999.43449        50.000  
 16 04 02 13 56 40.2000000  0  2G08G03                                          
  22369643.42249 117553268.94949      -513.57849        49.000  
  23742434.19549 124767332.88349    -13005.64849        50.000  
 16 04 02 13 56 40.3000000  0  2G08G03                                          
  22369653.23449 117553320.50449      -517.84849        49.000  
  23742681.71949 124768633.64149    -13010.71549        50.000  
 16 04 02 13 56 40.4000000  0  2G08G03                                          
  22369663.14149 117553372.53149      -522.71149        49.000  
  23742929.35249 124769934.96149    -13016.42249        50.000  
 16 04 02 13 56 40.5000000  0  2G08G03                                          
  22369673.14149 117553425.12149      -528.25049        49.000  
  23743177.11749 124771236.94949    -13022.99649        50.000  
 16 04 02 13 56 40.6000000  0  2G08G03                                          
  22369683.23449 117553478.16449      -532.86349        49.000  
  23743424.97749 124772539.47349    -13028.47749        50.000  
 16 04 02 13 56 40.7000000  0  2G08G03                                          
  22369693.39849 117553531.60949      -536.75449        49.000  
  23743672.93049 124773842.48049    -13032.91049        50.000  
 16 04 02 13 56 40.8000000  0  2G08G03                                          
  22369703.64849 117553585.48849      -541.03149        49.000  
  23743920.98449 124775146.03549    -13038.50449        50.000  
 16 04 02 13 56 40.9000000  0  2G08G03                                          
  22369714.00849 117553639.87549      -546.05149        49.000  
  23744169.14849 124776450.17249    -13044.34449        50.000  
 16 04 02 13 56 41.0000000  0  2G08G03                                          
  22369724.43849 117553694.71149      -550.66049        49.000  
  23744417.42249 124777754.84449    -13049.69549        50.000  
 16 04 02 13 56 41.1000000  0  2G08G03                                          
  22369734.96949 117553750.02749      -555.58249        49.000  
  23744665.80549 124779060.09049    -13055.70749        50.000  
 16 04 02 13 56 41.2000000  0  2G08G03                                          
  22369745.58649 117553805.83249      -560.46949        49.000  
  23744914.29749 124780365.91449    -13061.44949        50.000  
 16 04 02 13 56 41.3000000  0  2G08G03                                          
  22369756.29749 117553862.11749      -565.29749        49.000  
  23745162.89849 124781672.31649    -13067.19949        50.000  
 16 04 02 13 56 41.4000000  0  2G08G03                                          
  22369767.10949 117553918.91849      -570.41849        49.000  
  23745411.61749 124782979.32049    -13073.13749        50.000  
 16 04 02 13 56 41.5000000  0  2G08G03                                          
  22369778.00049 117553976.12549      -574.40649        49.000  
  23745660.42249 124784286.79749    -13077.84449        50.000  
 16 04 02 13 56 41.6000000  0  2G08G03                                          
  22369788.96949 117554033.78149      -578.95349        49.000  
  23745909.33649 124785594.84049    -13083.41449        50.000  
 16 04 02 13 56 41.7000000  0  2G08G03                                          
  22369800.03949 117554091.94149      -583.91849        49.000  
  23746158.35949 124786903.46949    -13089.37549        50.000  
 16 04 02 13 56 41.8000000  0  2G08G03                                          
  22369811.19549 117554150.55549      -588.35249        49.000  
  23746407.48449 124788212.64549    -13094.62949        50.000  
 16 04 02 13 56 41.9000000  0  2G08G03                                          
  22369822.43049 117554209.61749      -593.07049        49.000  
  23746656.71949 124789522.34849    -13100.06249        50.000  
 16 04 02 13 56 42.0000000  0  2G08G03                                          
  22369833.75849 117554269.15649      -597.77749        49.000  
  23746906.04749 124790832.63349    -13105.94149        50.000  
 16 04 02 13 56 42.1000000  0  2G08G03                                          
  22369845.19549 117554329.21549      -602.95749        49.000  
  23747155.50049 124792143.52049    -13112.09049        50.000  
 16 04 02 13 56 42.2000000  0  2G08G03                                          
  22369856.71149 117554389.73449      -607.37149        49.000  
  23747405.05549 124793454.95349    -13117.27749        50.000  
 16 04 02 13 56 42.3000000  0  2G08G03                                          
  22369868.32049 117554450.73849      -612.52349        49.000  
  23747654.72749 124794766.96549    -13123.44549        50.000  
 16 04 02 13 56 42.4000000  0  2G08G03                                          
  22369880.01649 117554512.22349      -617.29749        49.000  
  23747904.50049 124796079.54749    -13128.76649        50.000  
 16 04 02 13 56 42.5000000  0  2G08G03                                          
  22369891.78949 117554574.07449      -620.68449        49.000  
  23748154.36749 124797392.58249    -13133.23049        50.000  
 16 04 02 13 56 42.6000000  0  2G08G03                                          
  22369903.65649 117554636.41449      -625.77749        49.000  
  23748404.33649 124798706.19949    -13139.30149        50.000  
 16 04 02 13 56 42.7000000  0  2G08G03                                          
  22369915.60949 117554699.26249      -630.73849        49.000  
  23748654.42249 124800020.41849    -13145.22349        50.000  
 16 04 02 13 56 42.8000000  0  2G08G03                                          
  22369927.65649 117554762.59049      -635.53149        49.000  
  23748904.61749 124801335.18849    -13150.60249        50.000  
 16 04 02 13 56 42.9000000  0  2G08G03                                          
  22369939.78949 117554826.31649      -639.82449        49.000  
  23749154.90649 124802650.46149    -13155.78549        50.000  
 16 04 02 13 56 43.0000000  0  2G08G03                                          
  22369952.00049 117554890.51249      -644.27749        49.000  
  23749405.29749 124803966.28149    -13161.21549        50.000  
 16 04 02 13 56 43.1000000  0  2G08G03                                          
  22369964.30549 117554955.16849      -649.22349        49.000  
  23749655.79749 124805282.66449    -13167.20749        50.000  
 16 04 02 13 56 43.2000000  0  2G08G03                                          
  22369976.71949 117555020.39149      -654.68049        49.000  
  23749906.42249 124806599.71149    -13173.60549        50.000  
 16 04 02 13 56 43.3000000  0  2G08G03                                          
  22369989.21149 117555086.02749      -658.68849        49.000  
  23750157.14149 124807917.24249    -13178.50049        50.000  
 16 04 02 13 56 43.4000000  0  2G08G03                                          
  22370001.78949 117555152.13349      -663.48449        49.000  
  23750407.96949 124809235.33649    -13183.99249        50.000  
 16 04 02 13 56 43.5000000  0  2G08G03                                          
  22370014.45349 117555218.67649      -667.70349        49.000  
  23750658.89849 124810553.96549    -13189.33649        50.000  
 16 04 02 13 56 43.6000000  0  2G08G03                                          
  22370027.20349 117555285.67249      -672.22749        49.000  
  23750909.92249 124811873.11749    -13194.53149        50.000  
 16 04 02 13 56 43.7000000  0  2G08G03                                          
  22370040.04749 117555353.16049      -677.22349        49.000  
  23751161.06249 124813192.86749    -13200.53149        50.000  
 16 04 02 13 56 43.8000000  0  2G08G03                                          
  22370052.97749 117555421.10949      -682.00049        49.000  
  23751412.31249 124814513.16449    -13206.23049        50.000  
 16 04 02 13 56 43.9000000  0  2G08G03                                          
  22370066.00849 117555489.57449      -686.97349        49.000  
  23751663.67249 124815834.06249    -13212.11349        50.000  
 16 04 02 13 56 44.0000000  0  2G08G03                                          
  22370079.12549 117555558.51249      -691.82049        49.000  
  23751915.14149 124817155.52749    -13217.79349        50.000  
 16 04 02 13 56 44.1000000  0  2G08G03                                          
  22370092.33649 117555627.91049      -696.48449        49.000  
  23752166.71149 124818477.54349    -13223.54349        50.000  
 16 04 02 13 56 44.2000000  0  2G08G03                                          
  22370105.63349 117555697.80149      -701.16849        49.000  
  23752418.38349 124819800.12549    -13228.93449        50.000  
 16 04 02 13 56 44.3000000  0  2G08G03                                          
  22370119.02349 117555768.12549      -705.62149        49.000  
  23752670.15649 124821123.23849    -13234.25049        50.000  
 16 04 02 13 56 44.4000000  0  2G08G03                                          
  22370132.49249 117555838.90249      -710.08649        49.000  
  23752922.04749 124822446.90249    -13239.57449        50.000  
 16 04 02 13 56 44.5000000  0  2G08G03                                          
  22370146.05549 117555910.17249      -715.03949        49.000  
  23753174.03949 124823771.12549    -13245.35549        50.000  
 16 04 02 13 56 44.6000000  0  2G08G03                                          
  22370159.69549 117555981.88749      -719.56249        49.000  
  23753426.13349 124825095.90249    -13250.74249        50.000  
 16 04 02 13 56 44.7000000  0  2G08G03                                          
  22370173.44549 117556054.03149      -723.99649        49.000  
  23753678.32849 124826421.20349    -13256.22349        50.000  
 16 04 02 13 56 44.8000000  0  2G08G03                                          
  22370187.26649 117556126.69149      -728.91449        49.000  
  23753930.63349 124827747.09849    -13262.10549        50.000  
 16 04 02 13 56 44.9000000  0  2G08G03                                          
  22370201.18849 117556199.85949      -733.92649        49.000  
  23754183.05549 124829073.57849    -13267.77349        50.000  
 16 04 02 13 56 45.0000000  0  2G08G03                                          
  22370215.19549 117556273.45749      -738.49649        49.000  
  23754435.57849 124830400.58249    -13273.23449        50.000  
 16 04 02 13 56 45.1000000  0  2G08G03                                          
  22370229.28949 117556347.53549      -742.95749        49.000  
  23754688.21149 124831728.17649    -13278.85249        50.000  
 16 04 02 13 56 45.2000000  0  2G08G03                                          
  22370243.46949 117556422.05549      -747.57449        49.000  
  23754940.94549 124833056.28949    -13284.33649        50.000  
 16 04 02 13 56 45.3000000  0  2G08G03                                          
  22370257.74249 117556497.05949      -752.31649        49.000  
  23755193.78149 124834384.96549    -13289.73849        50.000  
 16 04 02 13 56 45.4000000  0  2G08G03                                          
  22370272.11749 117556572.56649      -757.43449        49.000  
  23755446.74249 124835714.23049    -13295.69149        50.000  
 16 04 02 13 56 45.5000000  0  2G08G03                                          
  22370286.56249 117556648.48449      -761.56649        49.000  
  23755699.78949 124837044.01649    -13301.02749        50.000  
 16 04 02 13 56 45.6000000  0  2G08G03                                          
  22370301.10949 117556724.94549      -766.96549        49.000  
  23755952.96149 124838374.40649    -13307.12149        50.000  
 16 04 02 13 56 45.7000000  0  2G08G03                                          
  22370315.73449 117556801.81249      -770.97349        49.000  
  23756206.21949 124839705.31249    -13312.02349        50.000  
 16 04 02 13 56 45.8000000  0  2G08G03                                          
  22370330.45349 117556879.13749      -775.45349        49.000  
  23756459.58649 124841036.76249    -13317.53949        50.000  
 16 04 02 13 56 45.9000000  0  2G08G03                                          
  22370345.26649 117556957.00049      -781.03549        49.000  
  23756713.07049 124842368.83249    -13323.77349        50.000  
 16 04 02 13 56 46.0000000  0  2G08G03                                          
  22370360.17249 117557035.32049      -785.71549        49.000  
  23756966.64849 124843701.44149    -13329.25449        50.000  
 16 04 02 13 56 46.1000000  0  2G08G03                                          
  22370375.14849 117557114.03149      -789.55549        49.000  
  23757220.32849 124845034.54749    -13334.13349        50.000  
 16 04 02 13 56 46.2000000  0  2G08G03                                          
  22370390.21949 117557193.24249      -794.39849        49.000  
  23757474.13349 124846368.22749    -13339.79349        50.000  
 16 04 02 13 56 46.3000000  0  2G08G03                                          
  22370405.39149 117557272.96149      -799.60549        49.000  
  23757728.03949 124847702.51249    -13345.91049        50.000  
 16 04 02 13 56 46.4000000  0  2G08G03                                          
  22370420.63349 117557353.07049      -803.53949        49.000  
  23757982.03949 124849037.26649    -13350.80949        50.000  
 16 04 02 13 56 46.5000000  0  2G08G03                                          
  22370435.97749 117557433.70749      -808.50849        49.000  
  23758236.14849 124850372.64549    -13356.58649        50.000  
 16 04 02 13 56 46.6000000  0  2G08G03                                          
  22370451.39849 117557514.71549      -812.31649        49.000  
  23758490.35949 124851708.47749    -13361.24649        50.000  
 16 04 02 13 56 46.7000000  0  2G08G03                                          
  22370466.91449 117557596.25449      -817.90249        49.000  
  23758744.67249 124853044.93049    -13367.76649        50.000  
 16 04 02 13 56 46.8000000  0  2G08G03                                          
  22370482.52349 117557678.29349      -822.67249        49.000  
  23758999.10949 124854381.98449    -13373.50049        50.000  
 16 04 02 13 56 46.9000000  0  2G08G03                                          
  22370498.21149 117557760.75049      -826.98849        49.000  
  23759253.63349 124855719.53149    -13378.67249        50.000  
 16 04 02 13 56 47.0000000  0  2G08G03                                          
  22370513.98449 117557843.63749      -830.97749        49.000  
  23759508.26649 124857057.59449    -13383.48049        50.000  
 16 04 02 13 56 47.1000000  0  2G08G03                                          
  22370529.85249 117557927.00049      -835.82449        49.000  
  23759762.99249 124858396.21149    -13389.08649        50.000  
 16 04 02 13 56 47.2000000  0  2G08G03                                          
  22370545.79749 117558010.79749      -840.43049        49.000  
  23760017.82849 124859735.37149    -13394.77049        50.000  
 16 04 02 13 56 47.3000000  0  2G08G03                                          
  22370561.83649 117558095.11349      -845.58649        49.000  
  23760272.78149 124861075.13349    -13400.76649        50.000  
 16 04 02 13 56 47.4000000  0  2G08G03                                          
  22370577.96949 117558179.85549      -849.92649        49.000  
  23760527.82049 124862415.41049    -13405.90649        50.000  
 16 04 02 13 56 47.5000000  0  2G08G03                                          
  22370594.18049 117558265.09449      -854.63349        49.000  
  23760782.97749 124863756.25849    -13411.48449        50.000  
 16 04 02 13 56 47.6000000  0  2G08G03                                          
  22370610.49249 117558350.79749      -859.52349        49.000  
  23761038.23449 124865097.66849    -13417.25449        50.000  
 16 04 02 13 56 47.7000000  0  2G08G03                                          
  22370626.89149 117558436.98049      -864.07849        49.000  
  23761293.60949 124866439.65249    -13422.66849        50.000  
 16 04 02 13 56 47.8000000  0  2G08G03                                          
  22370643.37549 117558523.60549      -868.89549        49.000  
  23761549.07849 124867782.15249    -13428.37549        50.000  
 16 04 02 13 56 47.9000000  0  2G08G03                                          
  22370659.94549 117558610.69949      -873.22749        49.000  
  23761804.65649 124869125.21549    -13433.57849        50.000  
 16 04 02 13 56 48.0000000  0  2G08G03                                          
  22370676.61749 117558698.29749      -878.36749        49.000  
  23762060.34449 124870468.87949    -13439.80549        50.000  
 16 04 02 13 56 48.1000000  0  2G08G03                                          
  22370693.36749 117558786.30549      -882.51249        49.000  
  23762316.12549 124871813.03149    -13444.63349        50.000  
 16 04 02 13 56 48.2000000  0  2G08G03                                          
  22370710.20349 117558874.81649      -887.59849        49.000  
  23762572.03949 124873157.77749    -13450.65249        50.000  
 16 04 02 13 56 48.3000000  0  2G08G03                                          
  22370727.14849 117558963.83249      -892.53949        49.000  
  23762828.04749 124874503.11349    -13456.50049        50.000  
 16 04 02 13 56 48.4000000  0  2G08G03                                          
  22370744.18049 117559053.32449      -897.45349        49.000  
  23763084.16449 124875849.01249    -13462.11349        50.000  
 16 04 02 13 56 48.5000000  0  2G08G03                                          
  22370761.27349 117559143.17649      -900.91849        49.000  
  23763340.36749 124877195.35949    -13466.48449        50.000  
 16 04 02 13 56 48.6000000  0  2G08G03                                          
  22370778.45349 117559233.48049      -905.44949        49.000  
  23763596.67249 124878542.25849    -13472.14549        50.000  
 16 04 02 13 56 48.7000000  0  2G08G03                                          
  22370795.75049 117559324.36349      -911.09849        49.000  
  23763853.10949 124879889.81249    -13478.55549        50.000  
 16 04 02 13 56 48.8000000  0  2G08G03                                          
  22370813.14149 117559415.72349      -916.11749        49.000  
  23764109.64149 124881237.91849    -13484.32049        50.000  
 16 04 02 13 56 48.9000000  0  2G08G03                                          
  22370830.60249 117559507.50449      -920.20749        49.000  
  23764366.28149 124882586.55949    -13489.43449        50.000  
 16 04 02 13 56 49.0000000  0  2G08G03                                          
  22370848.15649 117559599.75049      -924.76249        49.000  
  23764623.02349 124883935.73849    -13494.89549        50.000  
 16 04 02 13 56 49.1000000  0  2G08G03                                          
  22370865.80549 117559692.50449      -929.77349        49.000  
  23764879.87549 124885285.51649    -13500.72349        50.000  
 16 04 02 13 56 49.2000000  0  2G08G03                                          
  22370883.53149 117559785.66849      -933.99649        49.000  
  23765136.82849 124886635.78549    -13505.75849        50.000  
 16 04 02 13 56 49.3000000  0  2G08G03                                          
  22370901.35249 117559879.31649      -938.85549        49.000  
  23765393.89149 124887986.62949    -13511.51649        50.000  
 16 04 02 13 56 49.4000000  0  2G08G03                                          
  22370919.26649 117559973.46149      -943.80149        49.000  
  23765651.05549 124889338.05949    -13517.32449        50.000  
 16 04 02 13 56 49.5000000  0  2G08G03                                          
  22370937.25049 117560067.98849      -947.69549        49.000  
  23765908.31249 124890689.95749    -13522.03549        50.000  
 16 04 02 13 56 49.6000000  0  2G08G03                                          
  22370955.33649 117560163.01249      -952.56649        49.000  
  23766165.68049 124892042.43449    -13527.84449        50.000  
 16 04 02 13 56 49.7000000  0  2G08G03                                          
  22370973.51649 117560258.53549      -957.49249        49.000  
  23766423.16449 124893395.50449    -13533.74649        50.000  
 16 04 02 13 56 49.8000000  0  2G08G03                                          
  22370991.77349 117560354.48449      -961.71949        49.000  
  23766680.74249 124894749.08649    -13538.77049        50.000  
 16 04 02 13 56 49.9000000  0  2G08G03                                          
  22371010.12549 117560450.88749      -966.30949        49.000  
  23766938.42249 124896103.20749    -13544.30549        50.000  
 16 04 02 13 56 50.0000000  0  2G08G03                                          
  22371028.56249 117560547.78149      -971.22749        49.000  
  23767196.21149 124897457.90649    -13550.02349        50.000  
 16 04 02 13 56 50.1000000  0  2G08G03                                          
  22371047.08649 117560645.11749      -975.75049        49.000  
  23767454.10249 124898813.14149    -13555.37949        50.000  
 16 04 02 13 56 50.2000000  0  2G08G03                                          
  22371065.69549 117560742.91449      -980.14149        49.000  
  23767712.10949 124900168.92249    -13560.71549        50.000  
 16 04 02 13 56 50.3000000  0  2G08G03                                          
  22371084.38349 117560841.13349      -984.54349        49.000  
  23767970.19549 124901525.20349    -13565.93049        50.000  
 16 04 02 13 56 50.4000000  0  2G08G03                                          
  22371103.17249 117560939.86349      -989.62949        49.000  
  23768228.39849 124902882.09049    -13571.83249        50.000  
 16 04 02 13 56 50.5000000  0  2G08G03                                          
  22371122.04749 117561039.05549      -994.24649        49.000  
  23768486.71149 124904239.53149    -13577.41449        50.000  
 16 04 02 13 56 50.6000000  0  2G08G03                                          
  22371141.00849 117561138.68849      -998.79749        49.000  
  23768745.13349 124905597.48449    -13582.76249        50.000  
 16 04 02 13 56 50.7000000  0  2G08G03                                          
  22371160.06249 117561238.81249     -1003.45749        49.000  
  23769003.64849 124906956.02349    -13588.31649        50.000  
 16 04 02 13 56 50.8000000  0  2G08G03                                          
  22371179.20349 117561339.41049     -1008.34449        49.000  
  23769262.28149 124908315.12549    -13594.04349        50.000  
 16 04 02 13 56 50.9000000  0  2G08G03                                          
  22371198.43049 117561440.43449     -1012.68849        49.000  
  23769521.00849 124909674.73449    -13599.27749        50.000  
 16 04 02 13 56 51.0000000  0  2G08G03                                          
  22371217.75849 117561541.98849     -1017.93849        49.000  
  23769779.84449 124911034.97349    -13605.36749        50.000  
 16 04 02 13 56 51.1000000  0  2G08G03                                          
  22371237.16449 117561643.99649     -1022.55949        49.000  
  23770038.78949 124912395.73849    -13610.84049        50.000  
 16 04 02 13 56 51.2000000  0  2G08G03                                          
  22371256.66449 117561746.46149     -1026.96549        49.000  
  23770297.84449 124913757.05549    -13616.16049        50.000  
 16 04 02 13 56 51.3000000  0  2G08G03                                          
  22371276.24249 117561849.35949     -1031.20749        49.000  
  23770556.99249 124915118.89149    -13621.21949        50.000  
 16 04 02 13 56 51.4000000  0  2G08G03                                          
  22371295.91449 117561952.74249     -1036.35549        49.000  
  23770816.25049 124916481.29749    -13627.26649        50.000  
 16 04 02 13 56 51.5000000  0  2G08G03                                          
  22371315.67249 117562056.56249     -1040.61349        49.000  
  23771075.60249 124917844.22749    -13632.33249        50.000  
 16 04 02 13 56 51.6000000  0  2G08G03                                          
  22371335.51649 117562160.87149     -1045.35549        49.000  
  23771335.07049 124919207.73049    -13637.97349        50.000  
 16 04 02 13 56 51.7000000  0  2G08G03                                          
  22371355.45349 117562265.60949     -1049.79749        49.000  
  23771594.63349 124920571.75849    -13643.29749        50.000  
 16 04 02 13 56 51.8000000  0  2G08G03                                          
  22371375.47749 117562370.80949     -1054.16849        49.000  
  23771854.30549 124921936.32849    -13648.56649        50.000  
 16 04 02 13 56 51.9000000  0  2G08G03                                          
  22371395.58649 117562476.48849     -1059.19949        49.000  
  23772114.07849 124923301.45749    -13654.35549        50.000  
 16 04 02 13 56 52.0000000  0  2G08G03                                          
  22371415.77349 117562582.60249     -1063.48449        49.000  
  23772373.96149 124924667.12149    -13659.70749        50.000  
 16 04 02 13 56 52.1000000  0  2G08G03                                          
  22371436.05549 117562689.17649     -1068.10249        49.000  
  23772633.93849 124926033.32449    -13665.20349        50.000  
 16 04 02 13 56 52.2000000  0  2G08G03                                          
  22371456.42249 117562796.21549     -1072.55549        49.000  
  23772894.03149 124927400.08249    -13670.40649        50.000  
 16 04 02 13 56 52.3000000  0  2G08G03                                          
  22371476.86749 117562903.68449     -1077.05549        49.000  
  23773154.21149 124928767.34849    -13675.86349        50.000  
 16 04 02 13 56 52.4000000  0  2G08G03                                          
  22371497.43049 117563011.72749     -1082.87149        49.000  
  23773414.52349 124930135.28549    -13682.57049        50.000  
 16 04 02 13 56 52.5000000  0  2G08G03                                          
  22371518.07049 117563120.23849     -1087.44949        49.000  
  23773674.93849 124931503.76649    -13687.85549        50.000  
 16 04 02 13 56 52.6000000  0  2G08G03                                          
  22371538.79749 117563229.14149     -1091.46149        49.000  
  23773935.44549 124932872.73849    -13692.94949        50.000  
 16 04 02 13 56 52.7000000  0  2G08G03                                          
  22371559.62549 117563338.60249     -1096.78949        49.000  
  23774196.07049 124934242.33649    -13698.87949        50.000  
 16 04 02 13 56 52.8000000  0  2G08G03                                          
  22371580.53949 117563448.47349     -1101.14149        49.000  
  23774456.78949 124935612.44549    -13704.06649        50.000  
 16 04 02 13 56 52.9000000  0  2G08G03                                          
  22371601.52349 117563558.77749     -1105.50449        49.000  
  23774717.60949 124936983.06649    -13709.40249        50.000  
 16 04 02 13 56 53.0000000  0  2G08G03                                          
  22371622.60949 117563669.57849     -1110.40649        49.000  
  23774978.54749 124938354.27749    -13715.16049        50.000  
 16 04 02 13 56 53.1000000  0  2G08G03                                          
  22371643.78149 117563780.80549     -1114.50849        49.000  
  23775239.57849 124939726.00449    -13720.02749        50.000  
 16 04 02 13 56 53.2000000  0  2G08G03                                          
  22371665.03949 117563892.50849     -1119.36749        49.000  
  23775500.70349 124941098.27049    -13725.80149        50.000  
 16 04 02 13 56 53.3000000  0  2G08G03                                          
  22371686.37549 117564004.64549     -1123.77049        49.000  
  23775761.94549 124942471.08649    -13731.21949        50.000  
 16 04 02 13 56 53.4000000  0  2G08G03                                          
  22371707.80549 117564117.25449     -1128.42649        49.000  
  23776023.28949 124943844.44149    -13736.60549        50.000  
 16 04 02 13 56 53.5000000  0  2G08G03                                          
  22371729.32049 117564230.32049     -1132.93049        49.000  
  23776284.73449 124945218.35949    -13742.20749        50.000  
 16 04 02 13 56 53.6000000  0  2G08G03                                          
  22371750.93049 117564343.90249     -1138.10249        49.000  
  23776546.29749 124946592.85249    -13747.96949        50.000  
 16 04 02 13 56 53.7000000  0  2G08G03                                          
  22371772.63349 117564457.91849     -1142.41849        49.000  
  23776807.95349 124947967.86749    -13753.07849        50.000  
 16 04 02 13 56 53.8000000  0  2G08G03                                          
  22371794.41449 117564572.38349     -1147.01249        49.000  
  23777069.71949 124949343.44149    -13758.73049        50.000  
 16 04 02 13 56 53.9000000  0  2G08G03                                          
  22371816.28149 117564687.28949     -1151.32849        49.000  
  23777331.57849 124950719.52749    -13763.84049        50.000  
 16 04 02 13 56 54.0000000  0  2G08G03                                          
  22371838.24249 117564802.70349     -1156.58649        49.000  
  23777593.54749 124952096.19549    -13769.82049        50.000  
 16 04 02 13 56 54.1000000  0  2G08G03                                          
  22371860.31249 117564918.64849     -1161.85249        49.000  
  23777855.64149 124953473.50849    -13776.12549        50.000  
 16 04 02 13 56 54.2000000  0  2G08G03                                          
  22371882.46149 117565035.03549     -1166.30549        49.000  
  23778117.82849 124954851.32449    -13781.18449        50.000  
 16 04 02 13 56 54.3000000  0  2G08G03                                          
  22371904.68849 117565151.80949     -1170.21549        49.000  
  23778380.10949 124956229.62149    -13786.14849        50.000  
 16 04 02 13 56 54.4000000  0  2G08G03                                          
  22371927.00849 117565269.09049     -1175.04749        49.000  
  23778642.51649 124957608.52749    -13791.84849        50.000  
 16 04 02 13 56 54.5000000  0  2G08G03                                          
  22371949.39849 117565386.78949     -1179.09449        49.000  
  23778905.00849 124958987.91849    -13796.85249        50.000  
 16 04 02 13 56 54.6000000  0  2G08G03                                          
  22371971.87549 117565504.89849     -1183.33649        49.000  
  23779167.59449 124960367.80949    -13801.92249        50.000  
 16 04 02 13 56 54.7000000  0  2G08G03                                          
  22371994.43849 117565623.48049     -1187.99249        49.000  
  23779430.28149 124961748.24249    -13807.33249        50.000  
 16 04 02 13 56 54.8000000  0  2G08G03                                          
  22372017.09449 117565742.52349     -1192.87949        49.000  
  23779693.07049 124963129.24649    -13813.04349        50.000  
 16 04 02 13 56 54.9000000  0  2G08G03                                          
  22372039.82849 117565862.00049     -1196.99249        49.000  
  23779955.96949 124964510.76649    -13818.02049        50.000  
 16 04 02 13 56 55.0000000  0  2G08G03                                          
  22372062.65649 117565981.98849     -1202.44149        49.000  
  23780218.97749 124965892.87549    -13824.34449        50.000  
 16 04 02 13 56 55.1000000  0  2G08G03                                          
  22372085.57049 117566102.42649     -1206.78549        49.000  
  23780482.07849 124967275.51649    -13829.43849        50.000  
 16 04 02 13 56 55.2000000  0  2G08G03                                          
  22372108.57849 117566223.31649     -1211.23849        49.000  
  23780745.29749 124968658.71949    -13834.96149        50.000  
 16 04 02 13 56 55.3000000  0  2G08G03                                          
  22372131.65649 117566344.60949     -1215.15649        49.000  
  23781008.60249 124970042.38349    -13839.58649        50.000  
 16 04 02 13 56 55.4000000  0  2G08G03                                          
  22372154.83649 117566466.43849     -1220.59849        49.000  
  23781272.01649 124971426.67649    -13846.01249        50.000  
 16 04 02 13 56 55.5000000  0  2G08G03                                          
  22372178.11749 117566588.77349     -1225.80549        49.000  
  23781535.55549 124972811.55949    -13851.98849        50.000  
 16 04 02 13 56 55.6000000  0  2G08G03                                          
  22372201.47749 117566711.49649     -1229.75049        49.000  
  23781799.18049 124974196.93049    -13856.80549        50.000  
 16 04 02 13 56 55.7000000  0  2G08G03                                          
  22372224.91449 117566834.69149     -1234.30549        49.000  
  23782062.91449 124975582.84449    -13862.29749        50.000  
 16 04 02 13 56 55.8000000  0  2G08G03                                          
  22372248.45349 117566958.37149     -1239.12949        49.000  
  23782326.75049 124976969.33249    -13867.89849        50.000  
 16 04 02 13 56 55.9000000  0  2G08G03                                          
  22372272.08649 117567082.54749     -1244.18049        49.000  
  23782590.70349 124978356.39849    -13873.75849        50.000  
 16 04 02 13 56 56.0000000  0  2G08G03                                          
  22372295.79749 117567207.12949     -1248.04349        49.000  
  23782854.75049 124979743.96949    -13878.52749        50.000  
 16 04 02 13 56 56.1000000  0  2G08G03                                          
  22372319.58649 117567332.18449     -1252.90249        49.000  
  23783118.89849 124981132.08249    -13884.37149        50.000  
 16 04 02 13 56 56.2000000  0  2G08G03                                          
  22372343.47749 117567457.72749     -1257.75849        49.000  
  23783383.15649 124982520.77349    -13889.87549        50.000  
 16 04 02 13 56 56.3000000  0  2G08G03                                          
  22372367.45349 117567583.72749     -1262.36749        49.000  
  23783647.52349 124983910.00049    -13895.35949        50.000  
 16 04 02 13 56 56.4000000  0  2G08G03                                          
  22372391.52349 117567710.23449     -1267.57849        49.000  
  23783912.00049 124985299.82849    -13901.38749        50.000  
 16 04 02 13 56 56.5000000  0  2G08G03                                          
  22372415.69549 117567837.22749     -1272.27049        49.000  
  23784176.58649 124986690.22349    -13906.92249        50.000  
 16 04 02 13 56 56.6000000  0  2G08G03                                          
  22372439.93849 117567964.63749     -1276.44149        49.000  
  23784441.26649 124988081.12549    -13911.94549        50.000  
 16 04 02 13 56 56.7000000  0  2G08G03                                          
  22372464.27349 117568092.52749     -1281.39849        49.000  
  23784706.05549 124989472.59449    -13917.92649        50.000  
 16 04 02 13 56 56.8000000  0  2G08G03                                          
  22372488.70349 117568220.90249     -1286.02049        49.000  
  23784970.94549 124990864.62149    -13923.21149        50.000  
 16 04 02 13 56 56.9000000  0  2G08G03                                          
  22372513.21149 117568349.69149     -1290.27349        49.000  
  23785235.93849 124992257.16049    -13928.42249        50.000  
 16 04 02 13 56 57.0000000  0  2G08G03                                          
  22372537.81249 117568478.96949     -1295.10249        49.000  
  23785501.03949 124993650.26649    -13934.11349        50.000  
 16 04 02 13 56 57.1000000  0  2G08G03                                          
  22372562.50849 117568608.74649     -1300.14549        49.000  
  23785766.25049 124995043.95749    -13939.87549        50.000  
 16 04 02 13 56 57.2000000  0  2G08G03                                          
  22372587.27349 117568738.91849     -1304.07449        49.000  
  23786031.55549 124996438.12949    -13944.80149        50.000  
 16 04 02 13 56 57.3000000  0  2G08G03                                          
  22372612.13349 117568869.55149     -1308.51649        49.000  
  23786296.96149 124997832.84049    -13950.02349        50.000  
 16 04 02 13 56 57.4000000  0  2G08G03                                          
  22372637.09449 117569000.71549     -1314.05949        49.000  
  23786562.48449 124999228.17649    -13956.44949        50.000  
 16 04 02 13 56 57.5000000  0  2G08G03                                          
  22372662.13349 117569132.28149     -1317.84849        49.000  
  23786828.10249 125000623.98849    -13960.83649        50.000  
 16 04 02 13 56 57.6000000  0  2G08G03                                          
  22372687.25849 117569264.28949     -1322.48449        49.000  
  23787093.82049 125002020.34849    -13966.66049        50.000  
 16 04 02 13 56 57.7000000  0  2G08G03                                          
  22372712.46949 117569396.81249     -1327.45349        49.000  
  23787359.64849 125003417.28949    -13972.37949        50.000  
 16 04 02 13 56 57.8000000  0  2G08G03                                          
  22372737.77349 117569529.76249     -1331.86349        49.000  
  23787625.57049 125004814.74649    -13977.60949        50.000  
 16 04 02 13 56 57.9000000  0  2G08G03                                          
  22372763.16449 117569663.17249     -1336.51649        49.000  
  23787891.60249 125006212.75049    -13983.12949        50.000  
 16 04 02 13 56 58.0000000  0  2G08G03                                          
  22372788.65649 117569797.12549     -1341.68449        49.000  
  23788157.75049 125007611.38349    -13989.19549        50.000  
 16 04 02 13 56 58.1000000  0  2G08G03                                          
  22372814.20349 117569931.43849     -1345.55549        49.000  
  23788423.98449 125009010.44949    -13993.84849        50.000  
 16 04 02 13 56 58.2000000  0  2G08G03                                          
  22372839.85949 117570066.23849     -1350.27749        49.000  
  23788690.32849 125010410.10549    -13999.49249        50.000  
 16 04 02 13 56 58.3000000  0  2G08G03                                          
  22372865.60949 117570201.55949     -1355.40249        49.000  
  23788956.78949 125011810.35549    -14005.41049        50.000  
 16 04 02 13 56 58.4000000  0  2G08G03                                          
  22372891.43049 117570337.24249     -1359.37949        49.000  
  23789223.32849 125013211.04749    -14010.22749        49.000  
 16 04 02 13 56 58.5000000  0  2G08G03                                          
  22372917.35249 117570473.47749     -1364.53549        49.000  
  23789489.99249 125014612.37949    -14016.20749        50.000  
 16 04 02 13 56 58.6000000  0  2G08G03                                          
  22372943.36749 117570610.18049     -1369.57449        49.000  
  23789756.76649 125016014.27049    -14022.00049        50.000  
 16 04 02 13 56 58.7000000  0  2G08G03                                          
  22372969.46949 117570747.34449     -1374.05149        49.000  
  23790023.64149 125017416.71549    -14027.54749        50.000  
 16 04 02 13 56 58.8000000  0  2G08G03                                          
  22372995.64849 117570884.94149     -1378.19549        49.000  
  23790290.60949 125018819.64849    -14032.33649        50.000  
 16 04 02 13 56 58.9000000  0  2G08G03                                          
  22373021.93049 117571023.02349     -1383.14549        49.000  
  23790557.69549 125020223.18049    -14038.22349        50.000  
 16 04 02 13 56 59.0000000  0  2G08G03                                          
  22373048.28949 117571161.53949     -1387.30949        49.000  
  23790824.87549 125021627.21549    -14043.17649        50.000  
 16 04 02 13 56 59.1000000  0  2G08G03                                          
  22373074.71949 117571300.46949     -1391.71549        49.000  
  23791092.14849 125023031.74649    -14048.45749        50.000  
 16 04 02 13 56 59.2000000  0  2G08G03                                          
  22373101.25849 117571439.91049     -1396.67249        49.000  
  23791359.53949 125024436.88349    -14054.25849        50.000  
 16 04 02 13 56 59.3000000  0  2G08G03                                          
  22373127.87549 117571579.78549     -1401.03549        49.000  
  23791627.02349 125025842.53149    -14059.46149        50.000  
 16 04 02 13 56 59.4000000  0  2G08G03                                          
  22373154.57849 117571720.13749     -1405.89549        49.000  
  23791894.61749 125027248.73849    -14065.05949        50.000  
 16 04 02 13 56 59.5000000  0  2G08G03                                          
  22373181.36749 117571860.90249     -1410.07849        49.000  
  23792162.31249 125028655.45749    -14070.23049        50.000  
 16 04 02 13 56 59.6000000  0  2G08G03                                          
  22373208.24249 117572002.12949     -1414.45749        49.000  
  23792430.09449 125030062.70749    -14075.41049        50.000  
 16 04 02 13 56 59.7000000  0  2G08G03                                          
  22373235.20349 117572143.78949     -1418.93849        49.000  
  23792697.98449 125031470.48049    -14080.85549        50.000  
 16 04 02 13 56 59.8000000  0  2G08G03                                          
  22373262.25049 117572285.95349     -1423.92249        49.000  
  23792965.98449 125032878.82849    -14086.54349        50.000  
 16 04 02 13 56 59.9000000  0  2G08G03                                          
  22373289.39849 117572428.60549     -1428.99249        49.000  
  23793234.10249 125034287.77049    -14092.56649        50.000  
 16 04 02 13 57  0.0000000  0  2G08G03                                          
  22373316.63349 117572571.73449     -1433.61349        49.000  
  23793502.32049 125035697.26249    -14097.89549        50.000  
 16 04 02 13 57  0.1000000  0  2G08G03                                          
  22373343.95349 117572715.28549     -1437.79349        49.000  
  23793770.63349 125037107.26249    -14103.07049        50.000  
 16 04 02 13 57  0.2000000  0  2G08G03                                          
  22373371.37549 117572859.36749     -1443.21949        49.000  
  23794039.06249 125038517.86749    -14109.16449        50.000  
 16 04 02 13 57  0.3000000  0  2G08G03                                          
  22373398.88349 117573003.94549     -1448.18849        49.000  
  23794307.60249 125039929.06649    -14115.04349        50.000  
 16 04 02 13 57  0.4000000  0  2G08G03                                          
  22373426.48449 117573149.00449     -1453.20349        49.000  
  23794576.25049 125041340.82849    -14120.81249        50.000  
 16 04 02 13 57  0.5000000  0  2G08G03                                          
  22373454.17249 117573294.47349     -1457.16049        49.000  
  23794844.99249 125042753.08249    -14125.71149        50.000  
 16 04 02 13 57  0.6000000  0  2G08G03                                          
  22373481.94549 117573440.43849     -1461.77049        49.000  
  23795113.84449 125044165.90249    -14131.13749        50.000  
 16 04 02 13 57  0.7000000  0  2G08G03                                          
  22373509.78949 117573586.79749     -1465.77749        49.000  
  23795382.78949 125045579.21949    -14135.94949        50.000  
 16 04 02 13 57  0.8000000  0  2G08G03                                          
  22373537.71949 117573733.59849     -1470.14149        49.000  
  23795651.82849 125046993.05549    -14141.27049        50.000  
 16 04 02 13 57  0.9000000  0  2G08G03                                          
  22373565.75849 117573880.92249     -1475.59449        49.000  
  23795920.99249 125048407.49649    -14147.49249        49.000  
 16 04 02 13 57  1.0000000  0  2G08G03                                          
  22373593.88349 117574028.71549     -1480.39149        49.000  
  23796190.25849 125049822.48449    -14152.99649        50.000  
 16 04 02 13 57  1.1000000  0  2G08G03                                          
  22373622.07049 117574176.87549     -1483.88749        49.000  
  23796459.60949 125051237.94549    -14157.52349        50.000  
 16 04 02 13 57  1.2000000  0  2G08G03                                          
  22373650.35249 117574325.49249     -1488.43449        49.000  
  23796729.06249 125052653.92649    -14162.77749        50.000  
 16 04 02 13 57  1.3000000  0  2G08G03                                          
  22373678.71949 117574474.57849     -1493.07049        49.000  
  23796998.61749 125054070.46949    -14168.31249        50.000  
 16 04 02 13 57  1.4000000  0  2G08G03                                          
  22373707.16449 117574624.05949     -1497.03549        49.000  
  23797268.27349 125055487.47749    -14173.07449        50.000  
 16 04 02 13 57  1.5000000  0  2G08G03                                          
  22373735.71149 117574774.04349     -1502.09449        49.000  
  23797538.03149 125056905.08249    -14178.97349        50.000  
 16 04 02 13 57  1.6000000  0  2G08G03                                          
  22373764.33649 117574924.46949     -1506.80949        49.000  
  23797807.89849 125058323.21549    -14184.61349        50.000  
 16 04 02 13 57  1.7000000  0  2G08G03                                          
  22373793.06249 117575075.42249     -1511.96549        49.000  
  23798077.86749 125059741.94149    -14190.49649        50.000  
 16 04 02 13 57  1.8000000  0  2G08G03                                          
  22373821.88349 117575226.86749     -1516.92249        49.000  
  23798347.96149 125061161.27349    -14196.38749        50.000  
 16 04 02 13 57  1.9000000  0  2G08G03                                          
  22373850.78949 117575378.74649     -1521.29349        49.000  
  23798618.14849 125062581.10249    -14201.45749        50.000  
 16 04 02 13 57  2.0000000  0  2G08G03                                          
  22373879.78149 117575531.09449     -1525.85549        49.000  
  23798888.43849 125064001.48049    -14207.02349        50.000  
 16 04 02 13 57  2.1000000  0  2G08G03                                          
  22373908.85949 117575683.92249     -1530.64149        49.000  
  23799158.83649 125065422.43449    -14212.44949        50.000  
 16 04 02 13 57  2.2000000  0  2G08G03                                          
  22373938.03149 117575837.22349     -1535.41049        49.000  
  23799429.33649 125066843.93449    -14218.10549        50.000  
 16 04 02 13 57  2.3000000  0  2G08G03                                          
  22373967.29749 117575990.99649     -1540.12949        49.000  
  23799699.94549 125068265.99649    -14223.73449        50.000  
 16 04 02 13 57  2.4000000  0  2G08G03                                          
  22373996.64149 117576145.21149     -1544.50849        49.000  
  23799970.66449 125069688.58249    -14228.83249        50.000  
 16 04 02 13 57  2.5000000  0  2G08G03                                          
  22374026.07049 117576299.89549     -1549.03549        49.000  
  23800241.47749 125071111.72749    -14234.46149        50.000  
 16 04 02 13 57  2.6000000  0  2G08G03                                          
  22374055.59449 117576455.02749     -1553.55149        49.000  
  23800512.39149 125072535.38749    -14239.68449        50.000  
 16 04 02 13 57  2.7000000  0  2G08G03                                          
  22374085.20349 117576610.64149     -1558.53549        49.000  
  23800783.41449 125073959.62549    -14245.37149        50.000  
 16 04 02 13 57  2.8000000  0  2G08G03                                          
  22374114.89849 117576766.68449     -1562.75049        49.000  
  23801054.53949 125075384.36749    -14250.37949        50.000  
 16 04 02 13 57  2.9000000  0  2G08G03                                          
  22374144.68049 117576923.18449     -1567.35949        49.000  
  23801325.75849 125076809.65249    -14255.89549        50.000  
 16 04 02 13 57  3.0000000  0  2G08G03                                          
  22374174.55549 117577080.17649     -1572.17249        49.000  
  23801597.08649 125078235.52049    -14261.41049        50.000  
 16 04 02 13 57  3.1000000  0  2G08G03                                          
  22374204.51649 117577237.61349     -1576.98849        49.000  
  23801868.52349 125079661.90649    -14267.30549        50.000  
 16 04 02 13 57  3.2000000  0  2G08G03                                          
  22374234.56249 117577395.50449     -1581.20349        49.000  
  23802140.06249 125081088.83649    -14272.27349        50.000  
 16 04 02 13 57  3.3000000  0  2G08G03                                          
  22374264.69549 117577553.86349     -1585.90649        49.000  
  23802411.70349 125082516.31249    -14277.84449        50.000  
 16 04 02 13 57  3.4000000  0  2G08G03                                          
  22374294.90649 117577712.60549     -1589.58249        49.000  
  23802683.43849 125083944.25049    -14282.27049        50.000  
 16 04 02 13 57  3.5000000  0  2G08G03                                          
  22374325.20349 117577871.82449     -1594.42249        49.000  
  23802955.27349 125085372.75449    -14287.94149        50.000  
 16 04 02 13 57  3.6000000  0  2G08G03                                          
  22374355.59449 117578031.53549     -1599.55549        49.000  
  23803227.21949 125086801.82849    -14293.83649        50.000  
 16 04 02 13 57  3.7000000  0  2G08G03                                          
  22374386.07049 117578191.70349     -1604.03149        49.000  
  23803499.26649 125088231.44549    -14299.20749        50.000  
 16 04 02 13 57  3.8000000  0  2G08G03                                          
  22374416.64149 117578352.35549     -1608.92249        49.000  
  23803771.42249 125089661.64149    -14304.94549        50.000  
 16 04 02 13 57  3.9000000  0  2G08G03                                          
  22374447.30549 117578513.47349     -1613.64149        49.000  
  23804043.68049 125091092.37549    -14310.45349        50.000  
 16 04 02 13 57  4.0000000  0  2G08G03                                          
  22374478.05549 117578675.06249     -1618.34049        49.000  
  23804316.04749 125092523.65249    -14315.94949        50.000  
 16 04 02 13 57  4.1000000  0  2G08G03                                          
  22374508.87549 117578837.08249     -1622.49249        49.000  
  23804588.50849 125093955.46149    -14321.04349        50.000  
 16 04 02 13 57  4.2000000  0  2G08G03                                          
  22374539.78949 117578999.52349     -1626.60249        49.000  
  23804861.07049 125095387.76649    -14325.99249        50.000  
 16 04 02 13 57  4.3000000  0  2G08G03                                          
  22374570.79749 117579162.48449     -1631.78549        49.000  
  23805133.74249 125096820.68449    -14332.02349        50.000  
 16 04 02 13 57  4.4000000  0  2G08G03                                          
  22374601.88349 117579325.83649     -1635.79749        49.000  
  23805406.50849 125098254.05149    -14336.73449        50.000  
 16 04 02 13 57  4.5000000  0  2G08G03                                          
  22374633.06249 117579489.66049     -1640.51649        49.000  
  23805679.37549 125099687.98449    -14342.18449        50.000  
 16 04 02 13 57  4.6000000  0  2G08G03                                          
  22374664.32849 117579653.98449     -1645.73849        49.000  
  23805952.35249 125101122.49649    -14348.23849        50.000  
 16 04 02 13 57  4.7000000  0  2G08G03                                          
  22374695.69549 117579818.79749     -1650.71149        49.000  
  23806225.43849 125102557.59449    -14354.02349        50.000  
 16 04 02 13 57  4.8000000  0  2G08G03                                          
  22374727.14149 117579984.06249     -1655.08249        49.000  
  23806498.62549 125103993.21549    -14359.22749        50.000  
 16 04 02 13 57  4.9000000  0  2G08G03                                          
  22374758.68049 117580149.77749     -1659.55549        49.000  
  23806771.91449 125105429.38349    -14364.74249        50.000  
 16 04 02 13 57  5.0000000  0  2G08G03                                          
  22374790.30549 117580315.97349     -1664.20749        49.000  
  23807045.31249 125106866.09049    -14369.93049        50.000  
 16 04 02 13 57  5.1000000  0  2G08G03                                          
  22374822.00849 117580482.58649     -1668.37149        49.000  
  23807318.81249 125108303.31649    -14375.06249        50.000  
 16 04 02 13 57  5.2000000  0  2G08G03                                          
  22374853.78949 117580649.58649     -1672.25049        49.000  
  23807592.39149 125109741.00849    -14379.82449        50.000  
 16 04 02 13 57  5.3000000  0  2G08G03                                          
  22374885.66449 117580817.06249     -1676.86749        49.000  
  23807866.07849 125111179.25449    -14385.33249        50.000  
 16 04 02 13 57  5.4000000  0  2G08G03                                          
  22374917.60949 117580984.96949     -1681.21549        49.000  
  23808139.86749 125112618.02049    -14390.50849        50.000  
 16 04 02 13 57  5.5000000  0  2G08G03                                          
  22374949.65649 117581153.35949     -1686.15649        49.000  
  23808413.76649 125114057.34849    -14396.32449        50.000  
 16 04 02 13 57  5.6000000  0  2G08G03                                          
  22374981.78949 117581322.19949     -1690.78949        49.000  
  23808687.75849 125115497.19549    -14401.62549        50.000  
 16 04 02 13 57  5.7000000  0  2G08G03                                          
  22375014.01649 117581491.57049     -1696.12949        49.000  
  23808961.87549 125116937.66849    -14407.84049        50.000  
 16 04 02 13 57  5.8000000  0  2G08G03                                          
  22375046.33649 117581661.39849     -1700.70349        49.000  
  23809236.09449 125118378.68449    -14413.30549        50.000  
 16 04 02 13 57  5.9000000  0  2G08G03                                          
  22375078.73449 117581831.65649     -1704.89149        49.000  
  23809510.40649 125119820.19949    -14418.08649        50.000  
 16 04 02 13 57  6.0000000  0  2G08G03                                          
  22375111.21949 117582002.34449     -1709.18449        49.000  
  23809784.82049 125121262.23449    -14423.28149        50.000  
 16 04 02 13 57  6.1000000  0  2G08G03                                          
  22375143.78949 117582173.49649     -1713.80149        49.000  
  23810059.32849 125122704.82049    -14428.80949        50.000  
 16 04 02 13 57  6.2000000  0  2G08G03                                          
  22375176.44549 117582345.13749     -1718.83649        49.000  
  23810333.95349 125124147.97349    -14434.64549        50.000  
 16 04 02 13 57  6.3000000  0  2G08G03                                          
  22375209.21149 117582517.28949     -1723.97349        49.000  
  23810608.68849 125125591.71149    -14440.58249        50.000  
 16 04 02 13 57  6.4000000  0  2G08G03                                          
  22375242.05549 117582689.88349     -1728.39149        49.000  
  23810883.52349 125127035.98849    -14445.82449        50.000  
 16 04 02 13 57  6.5000000  0  2G08G03                                          
  22375274.98449 117582862.91449     -1732.70349        49.000  
  23811158.46149 125128480.77049    -14451.00449        50.000  
 16 04 02 13 57  6.6000000  0  2G08G03                                          
  22375308.00049 117583036.43449     -1737.56249        49.000  
  23811433.50049 125129926.13349    -14456.61749        50.000  
 16 04 02 13 57  6.7000000  0  2G08G03                                          
  22375341.10949 117583210.40249     -1741.92249        49.000  
  23811708.64849 125131372.02049    -14461.71149        50.000  
 16 04 02 13 57  6.8000000  0  2G08G03                                          
  22375374.29749 117583384.80549     -1746.53949        49.000  
  23811983.88349 125132818.42249    -14467.25049        50.000  
 16 04 02 13 57  6.9000000  0  2G08G03                                          
  22375407.57849 117583559.71149     -1751.50449        49.000  
  23812259.24249 125134265.42249    -14472.98049        50.000  
 16 04 02 13 57  7.0000000  0  2G08G03                                          
  22375440.94549 117583735.04749     -1755.72749        49.000  
  23812534.69549 125135712.92249    -14478.02349        50.000  
 16 04 02 13 57  7.1000000  0  2G08G03                                          
  22375474.40649 117583910.87149     -1760.55949        49.000  
  23812810.25049 125137161.00049    -14483.81649        50.000  
 16 04 02 13 57  7.2000000  0  2G08G03                                          
  22375507.95349 117584087.17649     -1765.37949        49.000  
  23813085.91449 125138609.62149    -14489.27749        50.000  
 16 04 02 13 57  7.3000000  0  2G08G03                                          
  22375541.57849 117584263.86349     -1769.15649        49.000  
  23813361.67249 125140058.72749    -14494.02749        50.000  
 16 04 02 13 57  7.4000000  0  2G08G03                                          
  22375575.29749 117584441.05549     -1774.17649        49.000  
  23813637.53149 125141508.41049    -14499.89149        50.000  
 16 04 02 13 57  7.5000000  0  2G08G03                                          
  22375609.10949 117584618.74649     -1779.21949        49.000  
  23813913.50849 125142958.67649    -14505.63349        50.000  
 16 04 02 13 57  7.6000000  0  2G08G03                                          
  22375643.00849 117584796.87949     -1783.71149        49.000  
  23814189.58649 125144409.46549    -14510.82049        50.000  
 16 04 02 13 57  7.7000000  0  2G08G03                                          
  22375676.98449 117584975.42249     -1787.86349        49.000  
  23814465.75849 125145860.74649    -14515.94949        50.000  
 16 04 02 13 57  7.8000000  0  2G08G03                                          
  22375711.05549 117585154.46949     -1792.67249        49.000  
  23814742.03149 125147312.60949    -14521.59049        50.000  
 16 04 02 13 57  7.9000000  0  2G08G03                                          
  22375745.21149 117585333.96149     -1797.23849        49.000  
  23815018.41449 125148765.01249    -14526.93049        50.000  
 16 04 02 13 57  8.0000000  0  2G08G03                                          
  22375779.46149 117585513.93849     -1802.20749        49.000  
  23815294.90649 125150217.96549    -14532.75849        50.000  
 16 04 02 13 57  8.1000000  0  2G08G03                                          
  22375813.78949 117585694.35949     -1806.61749        49.000  
  23815571.50049 125151671.45349    -14537.96549        50.000  
 16 04 02 13 57  8.2000000  0  2G08G03                                          
  22375848.21149 117585875.23449     -1810.94549        49.000  
  23815848.18849 125153125.47349    -14543.23449        50.000  
 16 04 02 13 57  8.3000000  0  2G08G03                                          
  22375882.71949 117586056.58649     -1815.88749        49.000  
  23816124.98449 125154580.05549    -14548.92249        50.000  
 16 04 02 13 57  8.4000000  0  2G08G03                                          
  22375917.32049 117586238.43449     -1820.86349        49.000  
  23816401.89149 125156035.21149    -14554.57449        50.000  
 16 04 02 13 57  8.5000000  0  2G08G03                                          
  22375952.00849 117586420.71549     -1824.99649        49.000  
  23816678.89149 125157490.87549    -14559.55549        50.000  
 16 04 02 13 57  8.6000000  0  2G08G03                                          
  22375986.78149 117586603.43849     -1829.56649        49.000  
  23816956.00049 125158947.07849    -14564.95749        50.000  
 16 04 02 13 57  8.7000000  0  2G08G03                                          
  22376021.64149 117586786.64549     -1834.37549        49.000  
  23817233.21149 125160403.82849    -14570.59849        50.000  
 16 04 02 13 57  8.8000000  0  2G08G03                                          
  22376056.59449 117586970.33649     -1839.28949        49.000  
  23817510.53149 125161861.15249    -14576.24649        50.000  
 16 04 02 13 57  8.9000000  0  2G08G03                                          
  22376091.61749 117587154.37149     -1842.58649        49.000  
  23817787.93049 125163318.90249    -14580.39849        50.000  
 16 04 02 13 57  9.0000000  0  2G08G03                                          
  22376126.72749 117587338.89149     -1847.46949        49.000  
  23818065.44549 125164777.22349    -14586.26249        50.000  
 16 04 02 13 57  9.1000000  0  2G08G03                                          
  22376161.93849 117587523.91849     -1852.31649        49.000  
  23818343.06249 125166236.12949    -14591.76249        50.000  
 16 04 02 13 57  9.2000000  0  2G08G03                                          
  22376197.21149 117587709.28149     -1855.87149        49.000  
  23818620.76649 125167695.44949    -14596.05149        50.000  
 16 04 02 13 57  9.3000000  0  2G08G03                                          
  22376232.57849 117587895.13349     -1860.90649        49.000  
  23818898.57049 125169155.33649    -14601.99249        50.000  
 16 04 02 13 57  9.4000000  0  2G08G03                                          
  22376268.04749 117588081.51649     -1866.13349        49.000  
  23819176.50049 125170615.84049    -14608.07449        50.000  
 16 04 02 13 57  9.5000000  0  2G08G03                                          
  22376303.60949 117588268.38349     -1870.99649        49.000  
  23819454.53149 125172076.90649    -14613.71949        50.000  
 16 04 02 13 57  9.6000000  0  2G08G03                                          
  22376339.25049 117588455.68849     -1875.48049        49.000  
  23819732.65649 125173538.50449    -14619.13349        50.000  
 16 04 02 13 57  9.7000000  0  2G08G03                                          
  22376374.97749 117588643.42649     -1879.45749        49.000  
  23820010.88349 125175000.59049    -14623.60249        50.000  
 16 04 02 13 57  9.8000000  0  2G08G03                                          
  22376410.78949 117588831.64849     -1884.56649        49.000  
  23820289.21949 125176463.26249    -14629.70349        50.000  
 16 04 02 13 57  9.9000000  0  2G08G03                                          
  22376446.69549 117589020.30949     -1888.97749        49.000  
  23820567.65649 125177926.44549    -14634.98049        50.000  
 16 04 02 13 57 10.0000000  0  2G08G03                                          
  22376482.69549 117589209.50049     -1894.02749        49.000  
  23820846.21149 125179390.23449    -14640.65249        50.000  
 16 04 02 13 57 10.1000000  0  2G08G03                                          
  22376518.75849 117589399.04349     -1897.78949        49.000  
  23821124.84449 125180854.47349    -14645.28549        50.000  
 16 04 02 13 57 10.2000000  0  2G08G03                                          
  22376554.92249 117589589.07449     -1902.49249        49.000  
  23821403.58649 125182319.27349    -14650.90649        50.000  
 16 04 02 13 57 10.3000000  0  2G08G03                                          
  22376591.18049 117589779.60549     -1907.69549        49.000  
  23821682.44549 125183784.64849    -14656.81649        50.000  
 16 04 02 13 57 10.4000000  0  2G08G03                                          
  22376627.52349 117589970.59449     -1912.23049        49.000  
  23821961.39849 125185250.56249    -14662.24649        50.000  
 16 04 02 13 57 10.5000000  0  2G08G03                                          
  22376663.94549 117590161.99649     -1916.33649        49.000  
  23822240.44549 125186716.97349    -14666.98449        50.000  
 16 04 02 13 57 10.6000000  0  2G08G03                                          
  22376700.45349 117590353.87149     -1920.99249        49.000  
  23822519.60249 125188183.94949    -14672.67249        50.000  
 16 04 02 13 57 10.7000000  0  2G08G03                                          
  22376737.07049 117590546.27749     -1926.37149        49.000  
  23822798.86749 125189651.52049    -14678.64849        50.000  
 16 04 02 13 57 10.8000000  0  2G08G03                                          
  22376773.76649 117590739.10949     -1930.76649        49.000  
  23823078.23449 125191119.60549    -14683.91849        50.000  
 16 04 02 13 57 10.9000000  0  2G08G03                                          
  22376810.53949 117590932.37549     -1934.94149        49.000  
  23823357.70349 125192588.20349    -14688.90249        50.000  
 16 04 02 13 57 11.0000000  0  2G08G03                                          
  22376847.39849 117591126.07049     -1939.27049        49.000  
  23823637.26649 125194057.30949    -14694.14549        50.000  
 16 04 02 13 57 11.1000000  0  2G08G03                                          
  22376884.35249 117591320.26249     -1944.09049        49.000  
  23823916.93849 125195527.00049    -14699.83649        50.000  
 16 04 02 13 57 11.2000000  0  2G08G03                                          
  22376921.39849 117591514.94149     -1949.15249        49.000  
  23824196.71949 125196997.24649    -14705.56649        50.000  
 16 04 02 13 57 11.3000000  0  2G08G03                                          
  22376958.52349 117591710.05949     -1953.44949        49.000  
  23824476.59449 125198468.02049    -14710.65249        50.000  
 16 04 02 13 57 11.4000000  0  2G08G03                                          
  22376995.74249 117591905.64549     -1958.31649        49.000  
  23824756.57849 125199939.34849    -14716.43049        50.000  
 16 04 02 13 57 11.5000000  0  2G08G03                                          
  22377033.05549 117592101.71549     -1963.03149        49.000  
  23825036.67249 125201411.23449    -14721.91049        50.000  
 16 04 02 13 57 11.6000000  0  2G08G03                                          
  22377070.46149 117592298.27049     -1968.06249        49.000  
  23825316.86749 125202883.67649    -14727.68849        50.000  
 16 04 02 13 57 11.7000000  0  2G08G03                                          
  22377107.95349 117592495.27749     -1972.48049        49.000  
  23825597.16449 125204356.66049    -14732.84049        50.000  
 16 04 02 13 57 11.8000000  0  2G08G03                                          
  22377145.52349 117592692.71949     -1976.78149        49.000  
  23825877.56249 125205830.16049    -14738.11349        50.000  
 16 04 02 13 57 11.9000000  0  2G08G03                                          
  22377183.18849 117592890.67649     -1981.88749        49.000  
  23826158.07049 125207304.25049    -14743.95349        50.000  
 16 04 02 13 57 12.0000000  0  2G08G03                                          
  22377220.94549 117593089.10949     -1986.57449        49.000  
  23826438.68849 125208778.90249    -14749.46949        50.000  
 16 04 02 13 57 12.1000000  0  2G08G03                                          
  22377258.78149 117593287.93449     -1990.42649        49.000  
  23826719.39149 125210254.02349    -14754.05549        50.000  
 16 04 02 13 57 12.2000000  0  2G08G03                                          
  22377296.70349 117593487.20749     -1995.00849        49.000  
  23827000.20349 125211729.66049    -14759.26649        50.000  
 16 04 02 13 57 12.3000000  0  2G08G03                                          
  22377334.71149 117593686.92649     -1999.39549        49.000  
  23827281.10949 125213205.84849    -14764.81649        50.000  
 16 04 02 13 57 12.4000000  0  2G08G03                                          
  22377372.80549 117593887.10249     -2004.09849        49.000  
  23827562.11749 125214682.56249    -14770.12549        50.000  
 16 04 02 13 57 12.5000000  0  2G08G03                                          
  22377410.99249 117594087.78949     -2009.14549        49.000  
  23827843.24249 125216159.86749    -14776.02049        50.000  
 16 04 02 13 57 12.6000000  0  2G08G03                                          
  22377449.26649 117594288.93049     -2013.87149        49.000  
  23828124.46149 125217637.69149    -14781.48849        50.000  
 16 04 02 13 57 12.7000000  0  2G08G03                                          
  22377487.63349 117594490.51649     -2018.34849        49.000  
  23828405.78949 125219116.05149    -14786.67249        50.000  
 16 04 02 13 57 12.8000000  0  2G08G03                                          
  22377526.08649 117594692.59449     -2023.03149        49.000  
  23828687.21949 125220595.00049    -14792.43449        50.000  
 16 04 02 13 57 12.9000000  0  2G08G03                                          
  22377564.63349 117594895.12549     -2027.56649        49.000  
  23828968.75049 125222074.46149    -14797.51649        50.000  
 16 04 02 13 57 13.0000000  0  2G08G03                                          
  22377603.25049 117595098.07449     -2031.82849        49.000  
  23829250.37549 125223554.42649    -14802.60249        50.000  
 16 04 02 13 57 13.1000000  0  2G08G03                                          
  22377641.96949 117595301.55549     -2037.08249        49.000  
  23829532.11749 125225035.00449    -14808.63749        50.000  
 16 04 02 13 57 13.2000000  0  2G08G03                                          
  22377680.76649 117595505.41449     -2041.05549        49.000  
  23829813.95349 125226516.04349    -14813.60549        50.000  
 16 04 02 13 57 13.3000000  0  2G08G03                                          
  22377719.66449 117595709.79349     -2046.09449        49.000  
  23830095.89849 125227997.67649    -14819.35249        50.000  
 16 04 02 13 57 13.4000000  0  2G08G03                                          
  22377758.64149 117595914.61749     -2050.55149        49.000  
  23830377.94549 125229479.83649    -14824.55149        50.000  
 16 04 02 13 57 13.5000000  0  2G08G03                                          
  22377797.69549 117596119.88749     -2055.02049        49.000  
  23830660.08649 125230962.52049    -14829.85249        50.000  
 16 04 02 13 57 13.6000000  0  2G08G03                                          
  22377836.85249 117596325.62949     -2059.77349        49.000  
  23830942.33649 125232445.75849    -14835.45349        50.000  
 16 04 02 13 57 13.7000000  0  2G08G03                                          
  22377876.08649 117596531.80549     -2063.98049        49.000  
  23831224.68849 125233929.50849    -14840.32849        50.000  
 16 04 02 13 57 13.8000000  0  2G08G03                                          
  22377915.40649 117596738.44149     -2068.75449        49.000  
  23831507.14149 125235413.79349    -14845.91049        50.000  
 16 04 02 13 57 13.9000000  0  2G08G03                                          
  22377954.81249 117596945.53549     -2073.20349        49.000  
  23831789.69549 125236898.62949    -14851.27349        50.000  
 16 04 02 13 57 14.0000000  0  2G08G03                                          
  22377994.31249 117597153.08649     -2077.91849        49.000  
  23832072.34449 125238383.99649    -14856.79749        50.000  
 16 04 02 13 57 14.1000000  0  2G08G03                                          
  22378033.89149 117597361.08649     -2082.16049        49.000  
  23832355.10249 125239869.88749    -14861.77049        50.000  
 16 04 02 13 57 14.2000000  0  2G08G03                                          
  22378073.56249 117597569.56249     -2087.11349        49.000  
  23832637.96149 125241356.33249    -14867.49649        50.000  
 16 04 02 13 57 14.3000000  0  2G08G03                                          
  22378113.31249 117597778.47349     -2091.45749        49.000  
  23832920.91449 125242843.29349    -14872.65649        50.000  
 16 04 02 13 57 14.4000000  0  2G08G03                                          
  22378153.15649 117597987.85549     -2096.08249        49.000  
  23833203.99249 125244330.81649    -14877.99649        50.000  
 16 04 02 13 57 14.5000000  0  2G08G03                                          
  22378193.07849 117598197.65249     -2100.28949        49.000  
  23833487.14849 125245818.82449    -14882.99249        50.000  
 16 04 02 13 57 14.6000000  0  2G08G03                                          
  22378233.09449 117598407.93049     -2104.93449        49.000  
  23833770.41449 125247307.39549    -14888.59049        50.000  
 16 04 02 13 57 14.7000000  0  2G08G03                                          
  22378273.19549 117598618.66849     -2109.70749        49.000  
  23834053.78149 125248796.49249    -14893.99649        50.000  
 16 04 02 13 57 14.8000000  0  2G08G03                                          
  22378313.38349 117598829.86749     -2114.35549        49.000  
  23834337.25849 125250286.14549    -14899.55149        50.000  
 16 04 02 13 57 14.9000000  0  2G08G03                                          
  22378353.65649 117599041.49649     -2118.51649        49.000  
  23834620.82849 125251776.30549    -14904.45749        50.000  
 16 04 02 13 57 15.0000000  0  2G08G03                                          
  22378394.02349 117599253.62149     -2123.75849        49.000  
  23834904.50049 125253267.03949    -14910.55949        50.000  
 16 04 02 13 57 15.1000000  0  2G08G03                                          
  22378434.48449 117599466.23849     -2128.46949        49.000  
  23835188.28149 125254758.33649    -14915.95749        50.000  
 16 04 02 13 57 15.2000000  0  2G08G03                                          
  22378475.02349 117599679.28949     -2132.93049        49.000  
  23835472.17249 125256250.15249    -14921.31249        50.000  
 16 04 02 13 57 15.3000000  0  2G08G03                                          
  22378515.66449 117599892.84849     -2137.82449        49.000  
  23835756.16449 125257742.55549    -14926.84049        50.000  
 16 04 02 13 57 15.4000000  0  2G08G03                                          
  22378556.36749 117600106.77349     -2141.49649        49.000  
  23836040.25049 125259235.41449    -14931.39149        50.000  
 16 04 02 13 57 15.5000000  0  2G08G03                                          
  22378597.17249 117600321.19149     -2146.44149        49.000  
  23836324.43849 125260728.82849    -14937.14149        50.000  
 16 04 02 13 57 15.6000000  0  2G08G03                                          
  22378638.07049 117600536.09849     -2151.37149        49.000  
  23836608.73449 125262222.82849    -14942.89549        50.000  
 16 04 02 13 57 15.7000000  0  2G08G03                                          
  22378679.05549 117600751.46549     -2156.06249        49.000  
  23836893.13349 125263717.34449    -14948.22749        50.000  
 16 04 02 13 57 15.8000000  0  2G08G03                                          
  22378720.11749 117600967.23849     -2160.14849        49.000  
  23837177.61749 125265212.36749    -14953.19549        50.000  
 16 04 02 13 57 15.9000000  0  2G08G03                                          
  22378761.28149 117601183.55549     -2165.75849        49.000  
  23837462.22749 125266707.99649    -14959.62549        50.000  
 16 04 02 13 57 16.0000000  0  2G08G03                                          
  22378802.53149 117601400.35949     -2170.40249        49.000  
  23837746.95349 125268204.19949    -14965.01249        50.000  
 16 04 02 13 57 16.1000000  0  2G08G03                                          
  22378843.85949 117601617.51649     -2173.95749        49.000  
  23838031.75049 125269700.84049    -14969.45349        50.000  
 16 04 02 13 57 16.2000000  0  2G08G03                                          
  22378885.27349 117601835.16449     -2178.54749        49.000  
  23838316.66449 125271198.03549    -14974.66449        50.000  
 16 04 02 13 57 16.3000000  0  2G08G03                                          
  22378926.77349 117602053.22749     -2183.02049        49.000  
  23838601.66449 125272695.73849    -14980.12949        50.000  
 16 04 02 13 57 16.4000000  0  2G08G03                                          
  22378968.36749 117602271.82849     -2188.31649        49.000  
  23838886.78949 125274194.05149    -14986.10549        50.000  
 16 04 02 13 57 16.5000000  0  2G08G03                                          
  22379010.05549 117602490.89149     -2192.93049        49.000  
  23839172.00849 125275692.90249    -14991.43449        50.000  
 16 04 02 13 57 16.6000000  0  2G08G03                                          
  22379051.81249 117602710.30549     -2196.39149        49.000  
  23839457.32049 125277192.19549    -14995.74249        50.000  
 16 04 02 13 57 16.7000000  0  2G08G03                                          
  22379093.65649 117602930.20349     -2201.23049        49.000  
  23839742.72749 125278692.04349    -15001.49249        50.000  
 16 04 02 13 57 16.8000000  0  2G08G03                                          
  22379135.60249 117603150.62949     -2206.46949        49.000  
  23840028.25849 125280192.49649    -15007.47749        50.000  
 16 04 02 13 57 16.9000000  0  2G08G03                                          
  22379177.61749 117603371.44549     -2210.47749        49.000  
  23840313.87549 125281693.42249    -15012.06649        50.000  
 16 04 02 13 57 17.0000000  0  2G08G03                                          
  22379219.72749 117603592.71149     -2214.92249        49.000  
  23840599.59449 125283194.87149    -15017.50449        50.000  
 16 04 02 13 57 17.1000000  0  2G08G03                                          
  22379261.92249 117603814.44549     -2219.65249        49.000  
  23840885.41449 125284696.87549    -15022.97749        50.000  
 16 04 02 13 57 17.2000000  0  2G08G03                                          
  22379304.19549 117604036.59049     -2223.89149        49.000  
  23841171.32849 125286199.36749    -15028.08649        50.000  
 16 04 02 13 57 17.3000000  0  2G08G03                                          
  22379346.56249 117604259.23049     -2228.60949        49.000  
  23841457.34449 125287702.41849    -15033.46949        50.000  
 16 04 02 13 57 17.4000000  0  2G08G03                                          
  22379389.00849 117604482.29749     -2232.89849        49.000  
  23841743.46949 125289205.98449    -15038.49649        50.000  
 16 04 02 13 57 17.5000000  0  2G08G03                                          
  22379431.54749 117604705.80949     -2237.46149        49.000  
  23842029.69549 125290710.09049    -15043.89849        50.000  
 16 04 02 13 57 17.6000000  0  2G08G03                                          
  22379474.16449 117604929.78949     -2242.08249        49.000  
  23842316.00849 125292214.71549    -15049.18449        50.000  
 16 04 02 13 57 17.7000000  0  2G08G03                                          
  22379516.87549 117605154.21949     -2246.66849        49.000  
  23842602.43849 125293719.88349    -15054.75449        50.000  
 16 04 02 13 57 17.8000000  0  2G08G03                                          
  22379559.66449 117605379.09449     -2251.02049        49.000  
  23842888.96149 125295225.57449    -15059.77349        50.000  
 16 04 02 13 57 17.9000000  0  2G08G03                                          
  22379602.57049 117605604.51249     -2256.71149        49.000  
  23843175.59449 125296731.87549    -15066.25449        50.000  
 16 04 02 13 57 18.0000000  0  2G08G03                                          
  22379645.54749 117605830.37549     -2261.05949        49.000  
  23843462.34449 125298238.71949    -15071.40249        50.000  
 16 04 02 13 57 18.1000000  0  2G08G03                                          
  22379688.60949 117606056.67249     -2265.39849        49.000  
  23843749.18049 125299746.06249    -15076.53949        50.000  
 16 04 02 13 57 18.2000000  0  2G08G03                                          
  22379731.76649 117606283.45349     -2270.12149        49.000  
  23844036.12549 125301253.97349    -15082.12549        50.000  
 16 04 02 13 57 18.3000000  0  2G08G03                                          
  22379775.01649 117606510.70349     -2274.80149        49.000  
  23844323.17249 125302762.42649    -15087.52349        50.000  
 16 04 02 13 57 18.4000000  0  2G08G03                                          
  22379818.33649 117606738.35549     -2278.86749        49.000  
  23844610.31249 125304271.36749    -15092.37549        50.000  
 16 04 02 13 57 18.5000000  0  2G08G03                                          
  22379861.75049 117606966.53549     -2284.01249        49.000  
  23844897.57049 125305780.90249    -15098.27049        50.000  
 16 04 02 13 57 18.6000000  0  2G08G03                                          
  22379905.25849 117607195.14849     -2288.79749        49.000  
  23845184.92249 125307290.96149    -15103.93049        50.000  
 16 04 02 13 57 18.7000000  0  2G08G03                                          
  22379948.85949 117607424.27749     -2293.60549        49.000  
  23845472.39149 125308801.59849    -15109.29749        50.000  
 16 04 02 13 57 18.8000000  0  2G08G03                                          
  22379992.53149 117607653.78949     -2297.46149        49.000  
  23845759.94549 125310312.70749    -15113.88349        50.000  
 16 04 02 13 57 18.9000000  0  2G08G03                                          
  22380036.28949 117607883.74649     -2301.86349        49.000  
  23846047.60249 125311824.34849    -15119.38349        50.000  
 16 04 02 13 57 19.0000000  0  2G08G03                                          
  22380080.14149 117608114.16049     -2306.25449        49.000  
  23846335.35949 125313336.51649    -15124.44549        50.000  
 16 04 02 13 57 19.1000000  0  2G08G03                                          
  22380124.07049 117608345.01649     -2311.01249        49.000  
  23846623.21149 125314849.18849    -15129.91849        50.000  
 16 04 02 13 57 19.2000000  0  2G08G03                                          
  22380168.09449 117608576.38349     -2315.88349        49.000  
  23846911.18049 125316362.46949    -15135.68849        50.000  
 16 04 02 13 57 19.3000000  0  2G08G03                                          
  22380212.21149 117608808.23049     -2320.91849        49.000  
  23847199.25049 125317876.28949    -15141.35549        50.000  
 16 04 02 13 57 19.4000000  0  2G08G03                                          
  22380256.40649 117609040.46549     -2324.62549        49.000  
  23847487.41449 125319390.59049    -15145.93449        50.000  
 16 04 02 13 57 19.5000000  0  2G08G03                                          
  22380300.68049 117609273.16449     -2329.27049        49.000  
  23847775.68049 125320905.44149    -15151.49649        50.000  
 16 04 02 13 57 19.6000000  0  2G08G03                                          
  22380345.06249 117609506.37949     -2334.48049        49.000  
  23848064.06249 125322420.87549    -15157.23849        50.000  
 16 04 02 13 57 19.7000000  0  2G08G03                                          
  22380389.51649 117609739.96949     -2338.33649        49.000  
  23848352.52349 125323936.76249    -15162.02749        49.000  
 16 04 02 13 57 19.8000000  0  2G08G03                                          
  22380434.07049 117609974.10249     -2343.92649        49.000  
  23848641.10949 125325453.26649    -15168.36349        49.000  
 16 04 02 13 57 19.9000000  0  2G08G03                                          
  22380478.72749 117610208.77049     -2348.77749        49.000  
  23848929.80549 125326970.37949    -15173.84449        49.000  
 16 04 02 13 57 20.0000000  0  2G08G03                                          
  22380523.43849 117610443.73049     -2352.05949        49.000  
  23849218.57049 125328487.87149    -15178.06249        49.000  
 16 04 02 13 57 20.1000000  0  2G08G03                                          
  22380568.25049 117610679.20749     -2356.84849        49.000  
  23849507.45349 125330005.96149    -15183.55149        50.000  
 16 04 02 13 57 20.2000000  0  2G08G03                                          
  22380613.13349 117610915.10249     -2361.05149        49.000  
  23849796.43049 125331524.52349    -15188.46549        50.000  
 16 04 02 13 57 20.3000000  0  2G08G03                                          
  22380658.10249 117611151.39849     -2365.25449        49.000  
  23850085.50049 125333043.60549    -15193.72749        49.000  
 16 04 02 13 57 20.4000000  0  2G08G03                                          
  22380703.16449 117611388.20349     -2370.14549        49.000  
  23850374.68049 125334563.25449    -15199.28549        49.000  
 16 04 02 13 57 20.5000000  0  2G08G03                                          
  22380748.29749 117611625.37949     -2374.08249        49.000  
  23850663.93849 125336083.33649    -15203.79749        50.000  
 16 04 02 13 57 20.6000000  0  2G08G03                                          
  22380793.51649 117611863.03549     -2378.85949        49.000  
  23850953.31249 125337603.97749    -15209.36349        50.000  
 16 04 02 13 57 20.7000000  0  2G08G03                                          
  22380838.83649 117612101.16849     -2383.61349        49.000  
  23851242.78949 125339125.20749    -15215.20749        50.000  
 16 04 02 13 57 20.8000000  0  2G08G03                                          
  22380884.22749 117612339.72749     -2387.98849        49.000  
  23851532.35949 125340646.91049    -15220.14549        50.000  
 16 04 02 13 57 20.9000000  0  2G08G03                                          
  22380929.71949 117612578.80549     -2393.05949        49.000  
  23851822.03949 125342169.20749    -15225.94549        50.000  
 16 04 02 13 57 21.0000000  0  2G08G03                                          
  22380975.28949 117612818.28549     -2397.04349        49.000  
  23852111.81249 125343691.99649    -15230.69549        49.000  
 16 04 02 13 57 21.1000000  0  2G08G03                                          
  22381020.95349 117613058.27349     -2402.40249        49.000  
  23852401.69549 125345215.34849    -15236.80549        49.000  
 16 04 02 13 57 21.2000000  0  2G08G03                                          
  22381066.70349 117613298.67249     -2406.35949        49.000  
  23852691.68849 125346739.22349    -15241.53549        50.000  
 16 04 02 13 57 21.3000000  0  2G08G03                                          
  22381112.53949 117613539.54749     -2411.10949        49.000  
  23852981.77349 125348263.62549    -15247.02349        50.000  
 16 04 02 13 57 21.4000000  0  2G08G03                                          
  22381158.46149 117613780.88349     -2415.69549        49.000  
  23853271.96149 125349788.57049    -15252.32849        50.000  
 16 04 02 13 57 21.5000000  0  2G08G03                                          
  22381204.46949 117614022.64849     -2419.96549        49.000  
  23853562.24249 125351314.03949    -15257.57849        50.000  
 16 04 02 13 57 21.6000000  0  2G08G03                                          
  22381250.55549 117614264.83249     -2424.10549        49.000  
  23853852.62549 125352839.99249    -15262.44149        50.000  
 16 04 02 13 57 21.7000000  0  2G08G03                                          
  22381296.73449 117614507.53949     -2429.35949        49.000  
  23854143.11749 125354366.53949    -15268.32449        50.000  
 16 04 02 13 57 21.8000000  0  2G08G03                                          
  22381343.00849 117614750.71549     -2434.32449        49.000  
  23854433.71949 125355893.63749    -15274.09849        50.000  
 16 04 02 13 57 21.9000000  0  2G08G03                                          
  22381389.36749 117614994.33249     -2438.42249        49.000  
  23854724.41449 125357421.25849    -15279.06649        50.000  
 16 04 02 13 57 22.0000000  0  2G08G03                                          
  22381435.81249 117615238.40649     -2443.01649        49.000  
  23855015.21149 125358949.41049    -15284.53949        49.000  
 16 04 02 13 57 22.1000000  0  2G08G03                                          
  22381482.33649 117615482.88349     -2447.03149        49.000  
  23855306.10249 125360478.04349    -15289.24649        49.000  
 16 04 02 13 57 22.2000000  0  2G08G03                                          
  22381528.96149 117615727.89149     -2452.43449        49.000  
  23855597.10949 125362007.27349    -15295.35949        49.000  
 16 04 02 13 57 22.3000000  0  2G08G03                                          
  22381575.66449 117615973.31649     -2456.66449        49.000  
  23855888.20349 125363537.01249    -15300.45749        50.000  
 16 04 02 13 57 22.4000000  0  2G08G03                                          
  22381622.46149 117616219.22749     -2461.40249        49.000  
  23856179.41449 125365067.29749    -15305.87149        50.000  
 16 04 02 13 57 22.5000000  0  2G08G03                                          
  22381669.33649 117616465.55149     -2465.60549        49.000  
  23856470.71149 125366598.08249    -15310.88749        50.000  
 16 04 02 13 57 22.6000000  0  2G08G03                                          
  22381716.29749 117616712.32849     -2469.96949        49.000  
  23856762.11749 125368129.40649    -15316.12549        50.000  
 16 04 02 13 57 22.7000000  0  2G08G03                                          
  22381763.34449 117616959.58649     -2475.07449        49.000  
  23857053.61749 125369661.26249    -15321.77049        49.000  
 16 04 02 13 57 22.8000000  0  2G08G03                                          
  22381810.49249 117617207.32449     -2479.84849        49.000  
  23857345.23449 125371193.70749    -15327.49649        49.000  
 16 04 02 13 57 22.9000000  0  2G08G03                                          
  22381857.72749 117617455.53949     -2484.30549        49.000  
  23857636.94549 125372726.67249    -15332.51249        49.000  
 16 04 02 13 57 23.0000000  0  2G08G03                                          
  22381905.03149 117617704.15649     -2488.57449        49.000  
  23857928.75849 125374260.14849    -15337.77049        49.000  
 16 04 02 13 57 23.1000000  0  2G08G03                                          
  22381952.43049 117617953.25049     -2493.14149        49.000  
  23858220.67249 125375794.15649    -15342.92249        50.000  
 16 04 02 13 57 23.2000000  0  2G08G03                                          
  22381999.91449 117618202.76249     -2497.42649        49.000  
  23858512.67249 125377328.66449    -15348.12949        50.000  
 16 04 02 13 57 23.3000000  0  2G08G03                                          
  22382047.49249 117618452.78549     -2502.56249        49.000  
  23858804.78949 125378863.76649    -15353.94949        49.000  
 16 04 02 13 57 23.4000000  0  2G08G03                                          
  22382095.14149 117618703.20749     -2506.60249        49.000  
  23859097.00049 125380399.33249    -15358.66049        50.000  
 16 04 02 13 57 23.5000000  0  2G08G03                                          
  22382142.88349 117618954.07049     -2510.89149        49.000  
  23859389.30549 125381935.42249    -15363.69949        50.000  
 16 04 02 13 57 23.6000000  0  2G08G03                                          
  22382190.69549 117619205.35549     -2514.99249        49.000  
  23859681.71149 125383472.01649    -15368.81249        50.000  
 16 04 02 13 57 23.7000000  0  2G08G03                                          
  22382238.60249 117619457.09049     -2519.46149        49.000  
  23859974.21949 125385009.13349    -15373.94149        50.000  
 16 04 02 13 57 23.8000000  0  2G08G03                                          
  22382286.58649 117619709.25849     -2523.92249        49.000  
  23860266.82049 125386546.75849    -15379.13749        50.000  
 16 04 02 13 57 23.9000000  0  2G08G03                                          
  22382334.66449 117619961.91049     -2528.72749        49.000  
  23860559.52349 125388084.94549    -15384.76249        50.000  
 16 04 02 13 57 24.0000000  0  2G08G03                                          
  22382382.83649 117620215.03549     -2533.73049        49.000  
  23860852.33649 125389623.67249    -15390.49649        50.000  
 16 04 02 13 57 24.1000000  0  2G08G03                                          
  22382431.10949 117620468.71149     -2538.98449        49.000  
  23861145.26649 125391163.03549    -15396.55149        50.000  
 16 04 02 13 57 24.2000000  0  2G08G03                                          
  22382479.45349 117620722.73449     -2542.52049        49.000  
  23861438.28149 125392702.81649    -15400.70349        50.000  
 16 04 02 13 57 24.3000000  0  2G08G03                                          
  22382527.87549 117620977.19549     -2546.96949        49.000  
  23861731.39149 125394243.11749    -15405.90249        50.000  
 16 04 02 13 57 24.4000000  0  2G08G03                                          
  22382576.39149 117621232.14549     -2551.87549        49.000  
  23862024.60249 125395783.98449    -15411.67649        50.000  
 16 04 02 13 57 24.5000000  0  2G08G03                                          
  22382624.99249 117621487.58249     -2556.85249        49.000  
  23862317.92249 125397325.41049    -15417.30149        50.000  
 16 04 02 13 57 24.6000000  0  2G08G03                                          
  22382673.68849 117621743.47749     -2561.35549        49.000  
  23862611.35249 125398867.37949    -15422.75049        49.000  
 16 04 02 13 57 24.7000000  0  2G08G03                                          
  22382722.47749 117621999.84849     -2566.07849        49.000  
  23862904.88349 125400409.88749    -15428.16049        49.000  
 16 04 02 13 57 24.8000000  0  2G08G03                                          
  22382771.35249 117622256.67249     -2570.34849        49.000  
  23863198.51649 125401952.93049    -15433.10549        50.000  
 16 04 02 13 57 24.9000000  0  2G08G03                                          
  22382820.29749 117622513.89849     -2574.61749        49.000  
  23863492.23449 125403496.45749    -15438.29749        50.000  
 16 04 02 13 57 25.0000000  0  2G08G03                                          
  22382869.34449 117622771.64149     -2579.55149        49.000  
  23863786.07049 125405040.56649    -15443.87149        49.000  
 16 04 02 13 57 25.1000000  0  2G08G03                                          
  22382918.46149 117623029.73449     -2583.19949        49.000  
  23864079.99249 125406585.10549    -15448.36349        50.000  
 16 04 02 13 57 25.2000000  0  2G08G03                                          
  22382967.67249 117623288.33649     -2588.14849        49.000  
  23864374.01649 125408130.23849    -15454.15649        50.000  
 16 04 02 13 57 25.3000000  0  2G08G03                                          
  22383016.96949 117623547.40249     -2592.83649        49.000  
  23864668.14149 125409675.89549    -15459.37149        50.000  
 16 04 02 13 57 25.4000000  0  2G08G03                                          
  22383066.35249 117623806.93849     -2597.84049        49.000  
  23864962.38349 125411222.10949    -15465.22749        50.000  
 16 04 02 13 57 25.5000000  0  2G08G03                                          
  22383115.82849 117624066.94149     -2602.14149        49.000  
  23865256.71949 125412768.85949    -15470.29349        50.000  
 16 04 02 13 57 25.6000000  0  2G08G03                                          
  22383165.38349 117624327.33649     -2606.25449        49.000  
  23865551.14149 125414316.08649    -15475.14849        50.000  
 16 04 02 13 57 25.7000000  0  2G08G03                                          
  22383215.02349 117624588.21949     -2611.16049        49.000  
  23865845.68049 125415863.87149    -15480.86349        50.000  
 16 04 02 13 57 25.8000000  0  2G08G03                                          
  22383264.75849 117624849.54349     -2615.69949        49.000  
  23866140.31249 125417412.16849    -15486.09049        50.000  
 16 04 02 13 57 25.9000000  0  2G08G03                                          
  22383314.57849 117625111.34449     -2620.34849        49.000  
  23866435.04749 125418961.02749    -15491.57049        50.000  
 16 04 02 13 57 26.0000000  0  2G08G03                                          
  22383364.50049 117625373.68049     -2625.84049        49.000  
  23866729.90649 125420510.49249    -15497.77049        49.000  
 16 04 02 13 57 26.1000000  0  2G08G03                                          
  22383414.48449 117625636.38749     -2629.49249        49.000  
  23867024.84449 125422060.40649    -15502.08649        49.000  
 16 04 02 13 57 26.2000000  0  2G08G03                                          
  22383464.56249 117625899.54749     -2633.84049        49.000  
  23867319.88349 125423610.84049    -15507.31249        49.000  
 16 04 02 13 57 26.3000000  0  2G08G03                                          
  22383514.72749 117626163.15649     -2638.16049        49.000  
  23867615.02349 125425161.81249    -15512.32049        49.000  
 16 04 02 13 57 26.4000000  0  2G08G03                                          
  22383564.96949 117626427.18049     -2642.59049        49.000  
  23867910.25049 125426713.26649    -15517.51649        49.000  
 16 04 02 13 57 26.5000000  0  2G08G03                                          
  22383615.31249 117626691.72349     -2647.79349        49.000  
  23868205.60249 125428265.31649    -15523.44549        49.000  
 16 04 02 13 57 26.6000000  0  2G08G03                                          
  22383665.74249 117626956.74249     -2652.63749        49.000  
  23868501.05549 125429817.92649    -15529.24649        49.000  
 16 04 02 13 57 26.7000000  0  2G08G03                                          
  22383716.25049 117627222.15649     -2656.44549        49.000  
  23868796.59449 125431370.99649    -15533.70749        49.000  
 16 04 02 13 57 26.8000000  0  2G08G03                                          
  22383766.85249 117627488.06649     -2661.39549        49.000  
  23869092.24249 125432924.64849    -15539.41449        49.000  
 16 04 02 13 57 26.9000000  0  2G08G03                                          
  22383817.53149 117627754.41449     -2665.70349        49.000  
  23869387.99249 125434478.79749    -15544.37149        49.000  
 16 04 02 13 57 27.0000000  0  2G08G03                                          
  22383868.29749 117628021.18449     -2670.14149        49.000  
  23869683.82849 125436033.45349    -15549.61749        49.000  
 16 04 02 13 57 27.1000000  0  2G08G03                                          
  22383919.16449 117628288.48049     -2675.30549        49.000  
  23869979.78949 125437588.70749    -15555.57449        49.000  
 16 04 02 13 57 27.2000000  0  2G08G03                                          
  22383970.09449 117628556.12549     -2678.71949        49.000  
  23870275.82049 125439144.39149    -15559.81249        49.000  
 16 04 02 13 57 27.3000000  0  2G08G03                                          
  22384021.11749 117628824.26249     -2683.64549        49.000  
  23870571.96949 125440700.63349    -15565.37549        49.000  
 16 04 02 13 57 27.4000000  0  2G08G03                                          
  22384072.24249 117629092.90649     -2688.76249        49.000  
  23870868.22749 125442257.46949    -15571.23049        49.000  
 16 04 02 13 57 27.5000000  0  2G08G03                                          
  22384123.43849 117629361.96149     -2692.87549        49.000  
  23871164.57049 125443814.78149    -15576.10249        49.000  
 16 04 02 13 57 27.6000000  0  2G08G03                                          
  22384174.72749 117629631.48849     -2697.55949        49.000  
  23871461.03149 125445372.65249    -15581.57849        49.000  
 16 04 02 13 57 27.7000000  0  2G08G03                                          
  22384226.09449 117629901.45349     -2701.86349        49.000  
  23871757.57849 125446931.03149    -15586.72349        49.000  
 16 04 02 13 57 27.8000000  0  2G08G03                                          
  22384277.56249 117630171.89549     -2706.64849        49.000  
  23872054.23449 125448489.95349    -15592.02749        49.000  
 16 04 02 13 57 27.9000000  0  2G08G03                                          
  22384329.10949 117630442.76649     -2711.07849        49.000  
  23872350.98449 125450049.38349    -15597.33249        49.000  
 16 04 02 13 57 28.0000000  0  2G08G03                                          
  22384380.74249 117630714.10949     -2715.71549        49.000  
  23872647.84449 125451609.36349    -15602.77749        49.000  
 16 04 02 13 57 28.1000000  0  2G08G03                                          
  22384432.46949 117630985.92249     -2720.47749        49.000  
  23872944.80549 125453169.89549    -15608.31249        49.000  
 16 04 02 13 57 28.2000000  0  2G08G03                                          
  22384484.27349 117631258.17249     -2724.93049        49.000  
  23873241.85949 125454730.93449    -15613.50449        49.000  
 16 04 02 13 57 28.3000000  0  2G08G03                                          
  22384536.17249 117631530.90249     -2729.43049        49.000  
  23873539.02349 125456292.52349    -15618.79349        49.000  
 16 04 02 13 57 28.4000000  0  2G08G03                                          
  22384588.14849 117631804.05949     -2733.86349        49.000  
  23873836.28149 125457854.61749    -15623.87549        49.000  
 16 04 02 13 57 28.5000000  0  2G08G03                                          
  22384640.21149 117632077.65249     -2738.32449        49.000  
  23874133.63349 125459417.22349    -15629.10549        50.000  
 16 04 02 13 57 28.6000000  0  2G08G03                                          
  22384692.37549 117632351.75049     -2743.27349        49.000  
  23874431.09449 125460980.41049    -15634.83249        50.000  
 16 04 02 13 57 28.7000000  0  2G08G03                                          
  22384744.60949 117632626.26249     -2747.51249        49.000  
  23874728.65649 125462544.08249    -15639.86349        50.000  
 16 04 02 13 57 28.8000000  0  2G08G03                                          
  22384796.93849 117632901.23049     -2751.87549        49.000  
  23875026.31249 125464108.28149    -15644.84449        50.000  
 16 04 02 13 57 28.9000000  0  2G08G03                                          
  22384849.34449 117633176.61749     -2756.21149        49.000  
  23875324.06249 125465672.98449    -15650.00449        50.000  
 16 04 02 13 57 29.0000000  0  2G08G03                                          
  22384901.83649 117633452.48049     -2760.78149        49.000  
  23875621.92249 125467238.23849    -15655.32449        50.000  
 16 04 02 13 57 29.1000000  0  2G08G03                                          
  22384954.42249 117633728.83649     -2765.79349        49.000  
  23875919.88349 125468804.04749    -15660.99649        50.000  
 16 04 02 13 57 29.2000000  0  2G08G03                                          
  22385007.08649 117634005.59449     -2770.02349        49.000  
  23876217.94549 125470370.34449    -15665.96949        50.000  
 16 04 02 13 57 29.3000000  0  2G08G03                                          
  22385059.84449 117634282.81649     -2774.39149        49.000  
  23876516.10249 125471937.18049    -15671.29349        50.000  
 16 04 02 13 57 29.4000000  0  2G08G03                                          
  22385112.68849 117634560.52049     -2779.44149        49.000  
  23876814.36749 125473504.56649    -15676.93849        50.000  
 16 04 02 13 57 29.5000000  0  2G08G03                                          
  22385165.62549 117634838.69949     -2784.19949        49.000  
  23877112.73449 125475072.50049    -15682.39549        50.000  
 16 04 02 13 57 29.6000000  0  2G08G03                                          
  22385218.64849 117635117.32849     -2788.56649        49.000  
  23877411.20349 125476640.96949    -15687.56649        50.000  
 16 04 02 13 57 29.7000000  0  2G08G03                                          
  22385271.75049 117635396.41449     -2793.27049        49.000  
  23877709.77349 125478209.96549    -15692.98449        50.000  
 16 04 02 13 57 29.8000000  0  2G08G03                                          
  22385324.95349 117635675.98849     -2798.28949        49.000  
  23878008.45349 125479779.51249    -15698.76649        50.000  
 16 04 02 13 57 29.9000000  0  2G08G03                                          
  22385378.24249 117635956.03549     -2802.59849        49.000  
  23878307.23449 125481349.62149    -15703.76249        50.000  
 16 04 02 13 57 30.0000000  0  2G08G03                                          
  22385431.60949 117636236.47349     -2806.63349        49.000  
  23878606.10249 125482920.19149    -15708.64149        50.000  
 16 04 02 13 57 30.1000000  0  2G08G03                                          
  22385485.05549 117636517.35249     -2811.06649        49.000  
  23878905.07049 125484491.27749    -15713.82049        50.000  
 16 04 02 13 57 30.2000000  0  2G08G03                                          
  22385538.60249 117636798.73849     -2816.20749        49.000  
  23879204.14849 125486062.94149    -15719.58249        50.000  
 16 04 02 13 57 30.3000000  0  2G08G03                                          
  22385592.22749 117637080.52349     -2820.25049        49.000  
  23879503.32049 125487635.08249    -15724.32449        50.000  
 16 04 02 13 57 30.4000000  0  2G08G03                                          
  22385645.94549 117637362.81649     -2825.39149        49.000  
  23879802.59449 125489207.80149    -15730.30149        50.000  
 16 04 02 13 57 30.5000000  0  2G08G03                                          
  22385699.74249 117637645.53549     -2829.58249        49.000  
  23880101.96949 125490781.02749    -15735.31649        50.000  
 16 04 02 13 57 30.6000000  0  2G08G03                                          
  22385753.64149 117637928.78149     -2834.94149        49.000  
  23880401.46149 125492354.85549    -15741.45749        50.000  
 16 04 02 13 57 30.7000000  0  2G08G03                                          
  22385807.62549 117638212.44149     -2838.92649        49.000  
  23880701.03949 125493929.16449    -15746.09449        50.000  
 16 04 02 13 57 30.8000000  0  2G08G03                                          
  22385861.68049 117638496.51249     -2842.81249        49.000  
  23881000.71149 125495503.95749    -15750.63349        50.000  
 16 04 02 13 57 30.9000000  0  2G08G03                                          
  22385915.82049 117638781.02049     -2847.21149        49.000  
  23881300.48449 125497079.27049    -15755.91049        50.000  
 16 04 02 13 57 31.0000000  0  2G08G03                                          
  22385970.04749 117639065.95749     -2851.58649        49.000  
  23881600.35249 125498655.07849    -15760.96149        50.000  
 16 04 02 13 57 31.1000000  0  2G08G03                                          
  22386024.34449 117639351.30949     -2855.57849        49.000  
  23881900.31249 125500231.37949    -15765.60249        50.000  
 16 04 02 13 57 31.2000000  0  2G08G03                                          
  22386078.74249 117639637.15649     -2860.63349        49.000  
  23882200.37549 125501808.25049    -15771.53149        49.000  
 16 04 02 13 57 31.3000000  0  2G08G03                                          
  22386133.21149 117639923.42249     -2865.00049        49.000  
  23882500.53949 125503385.60249    -15776.55949        50.000  
 16 04 02 13 57 31.4000000  0  2G08G03                                          
  22386187.78149 117640210.19949     -2870.19149        49.000  
  23882800.81249 125504963.56649    -15782.73849        50.000  
 16 04 02 13 57 31.5000000  0  2G08G03                                          
  22386242.45349 117640497.48049     -2875.17249        49.000  
  23883101.19549 125506542.08649    -15788.14549        50.000  
 16 04 02 13 57 31.6000000  0  2G08G03                                          
  22386297.19549 117640785.14849     -2879.04349        49.000  
  23883401.66449 125508121.06649    -15792.73849        50.000  
 16 04 02 13 57 31.7000000  0  2G08G03                                          
  22386352.02349 117641073.26249     -2883.44149        49.000  
  23883702.23449 125509700.57849    -15798.10249        50.000  
 16 04 02 13 57 31.8000000  0  2G08G03                                          
  22386406.93849 117641361.85249     -2888.01649        49.000  
  23884002.91449 125511280.63749    -15803.39849        50.000  
 16 04 02 13 57 31.9000000  0  2G08G03                                          
  22386461.93849 117641650.88349     -2892.62149        49.000  
  23884303.68049 125512861.19949    -15808.62149        49.000  
 16 04 02 13 57 32.0000000  0  2G08G03                                          
  22386517.03149 117641940.38749     -2897.38349        49.000  
  23884604.56249 125514442.32049    -15814.20749        49.000  
 16 04 02 13 57 32.1000000  0  2G08G03                                          
  22386572.21149 117642230.34449     -2901.70349        49.000  
  23884905.53949 125516023.96549    -15819.21549        50.000  
 16 04 02 13 57 32.2000000  0  2G08G03                                          
  22386627.45349 117642520.68049     -2905.48049        49.000  
  23885206.60249 125517606.06249    -15823.75049        49.000  
 16 04 02 13 57 32.3000000  0  2G08G03                                          
  22386682.80549 117642811.50849     -2910.56249        49.000  
  23885507.77349 125519188.71949    -15829.69149        50.000  
 16 04 02 13 57 32.4000000  0  2G08G03                                          
  22386738.25049 117643102.87149     -2915.83649        49.000  
  23885809.05549 125520771.98849    -15835.52349        50.000  
 16 04 02 13 57 32.5000000  0  2G08G03                                          
  22386793.75849 117643394.59049     -2919.55549        49.000  
  23886110.42249 125522355.68449    -15839.98049        50.000  
 16 04 02 13 57 32.6000000  0  2G08G03                                          
  22386849.35949 117643686.76649     -2923.96549        49.000  
  23886411.89849 125523939.92249    -15845.12949        50.000  
 16 04 02 13 57 32.7000000  0  2G08G03                                          
  22386905.04749 117643979.42249     -2928.92649        49.000  
  23886713.46949 125525524.69949    -15850.70749        50.000  
 16 04 02 13 57 32.8000000  0  2G08G03                                          
  22386960.82849 117644272.53949     -2933.69549        49.000  
  23887015.14849 125527110.02749    -15856.37149        50.000  
 16 04 02 13 57 32.9000000  0  2G08G03                                          
  22387016.69549 117644566.13749     -2938.30149        49.000  
  23887316.93049 125528695.89849    -15861.73849        50.000  
 16 04 02 13 57 33.0000000  0  2G08G03                                          
  22387072.64149 117644860.12949     -2942.19949        49.000  
  23887618.79749 125530282.24649    -15866.28949        49.000  
 16 04 02 13 57 33.1000000  0  2G08G03                                          
  22387128.67249 117645154.57049     -2946.76649        49.000  
  23887920.77349 125531869.11349    -15871.63349        50.000  
 16 04 02 13 57 33.2000000  0  2G08G03                                          
  22387184.78149 117645449.43849     -2950.84049        49.000  
  23888222.83649 125533456.46949    -15876.31649        50.000  
 16 04 02 13 57 33.3000000  0  2G08G03                                          
  22387240.98449 117645744.78149     -2955.82849        49.000  
  23888525.00849 125535044.37949    -15882.19149        49.000  
 16 04 02 13 57 33.4000000  0  2G08G03                                          
  22387297.28149 117646040.62549     -2960.80949        49.000  
  23888827.28949 125536632.87949    -15887.98849        50.000  
 16 04 02 13 57 33.5000000  0  2G08G03                                          
  22387353.65649 117646336.89149     -2964.82449        49.000  
  23889129.65649 125538221.85249    -15892.72749        50.000  
 16 04 02 13 57 33.6000000  0  2G08G03                                          
  22387410.12549 117646633.64549     -2969.86349        49.000  
  23889432.14149 125539811.39149    -15898.32049        50.000  
 16 04 02 13 57 33.7000000  0  2G08G03                                          
  22387466.68849 117646930.85249     -2974.41049        49.000  
  23889734.71949 125541401.45749    -15903.69149        50.000  
 16 04 02 13 57 33.8000000  0  2G08G03                                          
  22387523.32849 117647228.52049     -2979.07449        49.000  
  23890037.40649 125542992.06249    -15908.98049        50.000  
 16 04 02 13 57 33.9000000  0  2G08G03                                          
  22387580.06249 117647526.64849     -2983.57849        49.000  
  23890340.18849 125544583.20349    -15914.39849        50.000  
 16 04 02 13 57 34.0000000  0  2G08G03                                          
  22387636.88349 117647825.22749     -2988.27749        49.000  
  23890643.07049 125546174.86749    -15919.75049        50.000  
 16 04 02 13 57 34.1000000  0  2G08G03                                          
  22387693.78149 117648124.23849     -2992.10549        49.000  
  23890946.04749 125547767.03549    -15924.52049        50.000  
 16 04 02 13 57 34.2000000  0  2G08G03                                          
  22387750.75849 117648423.66049     -2996.33249        49.000  
  23891249.11749 125549359.68049    -15929.27049        50.000  
 16 04 02 13 57 34.3000000  0  2G08G03                                          
  22387807.82049 117648723.55949     -3001.09049        49.000  
  23891552.29749 125550952.87949    -15934.75849        50.000  
 16 04 02 13 57 34.4000000  0  2G08G03                                          
  22387864.97749 117649023.91449     -3005.88349        49.000  
  23891855.57849 125552546.60549    -15940.26649        50.000  
 16 04 02 13 57 34.5000000  0  2G08G03                                          
  22387922.23449 117649324.76649     -3011.02349        49.000  
  23892158.96149 125554140.90649    -15946.16049        50.000  
 16 04 02 13 57 34.6000000  0  2G08G03                                          
  22387979.54749 117649625.96949     -3014.12149        49.000  
  23892462.42249 125555735.62549    -15949.90649        50.000  
 16 04 02 13 57 34.7000000  0  2G08G03                                          
  22388036.96149 117649927.65249     -3019.11349        49.000  
  23892766.00049 125557330.90249    -15955.89549        50.000  
 16 04 02 13 57 34.8000000  0  2G08G03                                          
  22388094.46149 117650229.84049     -3024.14149        49.000  
  23893069.68049 125558926.75849    -15961.28949        50.000  
 16 04 02 13 57 34.9000000  0  2G08G03                                          
  22388152.04749 117650532.42649     -3028.29749        49.000  
  23893373.44549 125560523.07849    -15966.23849        49.000  
 16 04 02 13 57 35.0000000  0  2G08G03                                          
  22388209.71949 117650835.52349     -3033.25449        49.000  
  23893677.32849 125562119.97349    -15971.80549        49.000  
 16 04 02 13 57 35.1000000  0  2G08G03                                          
  22388267.47749 117651139.02349     -3037.46949        49.000  
  23893981.30549 125563717.38349    -15977.09849        49.000  
 16 04 02 13 57 35.2000000  0  2G08G03                                          
  22388325.32049 117651443.02049     -3042.21549        49.000  
  23894285.38349 125565315.31649    -15982.32449        50.000  
 16 04 02 13 57 35.3000000  0  2G08G03                                          
  22388383.25849 117651747.48049     -3047.11749        49.000  
  23894589.56249 125566913.81649    -15988.07049        50.000  
 16 04 02 13 57 35.4000000  0  2G08G03                                          
  22388441.28149 117652052.40649     -3051.44149        49.000  
  23894893.85249 125568512.84049    -15993.09449        49.000  
 16 04 02 13 57 35.5000000  0  2G08G03                                          
  22388499.38349 117652357.72349     -3055.30549        49.000  
  23895198.22749 125570112.33649    -15997.60949        50.000  
 16 04 02 13 57 35.6000000  0  2G08G03                                          
  22388557.56249 117652663.47749     -3059.79349        49.000  
  23895502.69549 125571712.34049    -16003.01249        50.000  
 16 04 02 13 57 35.7000000  0  2G08G03                                          
  22388615.83649 117652969.68449     -3064.23049        49.000  
  23895807.26649 125573312.85549    -16007.87949        50.000  
 16 04 02 13 57 35.8000000  0  2G08G03                                          
  22388674.18049 117653276.28949     -3068.46949        49.000  
  23896111.93049 125574913.85549    -16013.21149        50.000  
 16 04 02 13 57 35.9000000  0  2G08G03                                          
  22388732.62549 117653583.41049     -3073.22749        49.000  
  23896416.70349 125576515.44549    -16018.52349        50.000  
 16 04 02 13 57 36.0000000  0  2G08G03                                          
  22388791.14149 117653890.92249     -3077.59849        49.000  
  23896721.56249 125578117.49249    -16023.60249        50.000  
 16 04 02 13 57 36.1000000  0  2G08G03                                          
  22388849.75849 117654198.93849     -3082.41449        49.000  
  23897026.53149 125579720.11749    -16029.12149        50.000  
 16 04 02 13 57 36.2000000  0  2G08G03                                          
  22388908.45349 117654507.40249     -3086.85949        49.000  
  23897331.60249 125581323.26649    -16034.34449        50.000  
 16 04 02 13 57 36.3000000  0  2G08G03                                          
  22388967.24249 117654816.32049     -3091.48049        49.000  
  23897636.77349 125582926.92649    -16039.49249        50.000  
 16 04 02 13 57 36.4000000  0  2G08G03                                          
  22389026.11749 117655125.70349     -3096.25849        49.000  
  23897942.04749 125584531.14849    -16045.22749        50.000  
 16 04 02 13 57 36.5000000  0  2G08G03                                          
  22389085.07049 117655435.50449     -3100.23049        49.000  
  23898247.41449 125586135.85249    -16050.00049        49.000  
 16 04 02 13 57 36.6000000  0  2G08G03                                          
  22389144.11749 117655745.80149     -3105.25049        49.000  
  23898552.88349 125587741.10949    -16055.40649        50.000  
 16 04 02 13 57 36.7000000  0  2G08G03                                          
  22389203.25049 117656056.55949     -3109.98049        49.000  
  23898858.46149 125589346.91449    -16061.09049        50.000  
 16 04 02 13 57 36.8000000  0  2G08G03                                          
  22389262.47749 117656367.79349     -3114.77349        49.000  
  23899164.14149 125590953.25849    -16066.48849        50.000  
 16 04 02 13 57 36.9000000  0  2G08G03                                          
  22389321.78149 117656679.42649     -3118.52349        49.000  
  23899469.90649 125592560.08249    -16071.03949        50.000  
 16 04 02 13 57 37.0000000  0  2G08G03                                          
  22389381.18049 117656991.53149     -3123.35549        49.000  
  23899775.77349 125594167.44949    -16076.56649        50.000  
 16 04 02 13 57 37.1000000  0  2G08G03                                          
  22389440.64849 117657304.05149     -3127.60549        49.000  
  23900081.74249 125595775.29349    -16081.34849        50.000  
 16 04 02 13 57 37.2000000  0  2G08G03                                          
  22389500.20349 117657617.01649     -3131.87549        49.000  
  23900387.80549 125597383.67649    -16086.59049        50.000  
 16 04 02 13 57 37.3000000  0  2G08G03                                          
  22389559.85249 117657930.50449     -3137.14849        49.000  
  23900693.98449 125598992.63749    -16092.41049        50.000  
 16 04 02 13 57 37.4000000  0  2G08G03                                          
  22389619.57849 117658244.34449     -3140.67249        49.000  
  23901000.23449 125600602.01649    -16096.71549        50.000  
 16 04 02 13 57 37.5000000  0  2G08G03                                          
  22389679.40649 117658558.73849     -3146.19549        49.000  
  23901306.60949 125602212.04349    -16103.09849        50.000  
 16 04 02 13 57 37.6000000  0  2G08G03                                          
  22389739.31249 117658873.52749     -3150.32049        49.000  
  23901613.07849 125603822.52749    -16107.91449        50.000  
 16 04 02 13 57 37.7000000  0  2G08G03                                          
  22389799.30549 117659188.82849     -3155.31649        49.000  
  23901919.64849 125605433.58249    -16113.60549        50.000  
 16 04 02 13 57 37.8000000  0  2G08G03                                          
  22389859.38349 117659504.52749     -3159.07849        49.000  
  23902226.31249 125607045.10949    -16118.07049        50.000  
 16 04 02 13 57 37.9000000  0  2G08G03                                          
  22389919.53149 117659820.61749     -3163.16049        49.000  
  23902533.07049 125608657.11349    -16122.78149        50.000  
 16 04 02 13 57 38.0000000  0  2G08G03                                          
  22389979.78149 117660137.21149     -3168.14149        49.000  
  23902839.93049 125610269.67649    -16128.55149        50.000  
 16 04 02 13 57 38.1000000  0  2G08G03                                          
  22390040.10949 117660454.25449     -3172.96549        49.000  
  23903146.89149 125611882.77749    -16133.89149        50.000  
 16 04 02 13 57 38.2000000  0  2G08G03                                          
  22390100.51649 117660771.69549     -3176.76249        49.000  
  23903453.94549 125613496.34849    -16138.71549        50.000  
 16 04 02 13 57 38.3000000  0  2G08G03                                          
  22390161.03149 117661089.69149     -3182.14549        49.000  
  23903761.11749 125615110.53549    -16144.60249        50.000  
 16 04 02 13 57 38.4000000  0  2G08G03                                          
  22390221.62549 117661408.10249     -3186.65249        49.000  
  23904068.38349 125616725.20749    -16149.78549        50.000  
 16 04 02 13 57 38.5000000  0  2G08G03                                          
  22390282.30549 117661726.98049     -3191.20349        49.000  
  23904375.75049 125618340.43849    -16155.30549        50.000  
 16 04 02 13 57 38.6000000  0  2G08G03                                          
  22390343.07049 117662046.30949     -3195.57049        49.000  
  23904683.21149 125619956.14849    -16159.96149        50.000  
 16 04 02 13 57 38.7000000  0  2G08G03                                          
  22390403.92249 117662366.05949     -3199.80949        49.000  
  23904990.77349 125621572.39849    -16165.29749        50.000  
 16 04 02 13 57 38.8000000  0  2G08G03                                          
  22390464.85249 117662686.27349     -3204.44149        49.000  
  23905298.43849 125623189.16049    -16170.59849        50.000  
 16 04 02 13 57 38.9000000  0  2G08G03                                          
  22390525.87549 117663006.96149     -3209.09049        49.000  
  23905606.20349 125624806.46549    -16175.79349        50.000  
 16 04 02 13 57 39.0000000  0  2G08G03                                          
  22390586.98449 117663328.08249     -3213.52749        49.000  
  23905914.06249 125626424.29349    -16181.19149        50.000  
 16 04 02 13 57 39.1000000  0  2G08G03                                          
  22390648.18849 117663649.69949     -3218.48849        49.000  
  23906222.03149 125628042.67249    -16186.84849        50.000  
 16 04 02 13 57 39.2000000  0  2G08G03                                          
  22390709.46949 117663971.72749     -3222.67249        49.000  
  23906530.08649 125629661.54749    -16191.77349        50.000  
 16 04 02 13 57 39.3000000  0  2G08G03                                          
  22390770.84449 117664294.26249     -3227.54749        49.000  
  23906838.25849 125631280.98849    -16197.29349        50.000  
 16 04 02 13 57 39.4000000  0  2G08G03                                          
  22390832.30549 117664617.20749     -3231.77349        49.000  
  23907146.52349 125632900.91449    -16202.16849        50.000  
 16 04 02 13 57 39.5000000  0  2G08G03                                          
  22390893.84449 117664940.59449     -3236.05149        49.000  
  23907454.88349 125634521.35249    -16207.22349        50.000  
 16 04 02 13 57 39.6000000  0  2G08G03                                          
  22390955.47749 117665264.48849     -3241.24649        49.000  
  23907763.34449 125636142.36749    -16213.14149        50.000  
 16 04 02 13 57 39.7000000  0  2G08G03                                          
  22391017.18849 117665588.80149     -3245.44149        49.000  
  23908071.90649 125637763.87949    -16217.92249        50.000  
 16 04 02 13 57 39.8000000  0  2G08G03                                          
  22391078.99249 117665913.58249     -3250.15249        49.000  
  23908380.57849 125639385.92249    -16223.46549        50.000  
 16 04 02 13 57 39.9000000  0  2G08G03                                          
  22391140.89149 117666238.83649     -3254.80149        49.000  
  23908689.35249 125641008.52349    -16228.89549        50.000  
 16 04 02 13 57 40.0000000  0  2G08G03                                          
  22391202.86749 117666564.52049     -3259.09449        49.000  
  23908998.21149 125642631.61349    -16233.71949        50.000  
 16 04 02 13 57 40.1000000  0  2G08G03                                          
  22391264.93049 117666890.69149     -3264.11749        49.000  
  23909307.18049 125644255.26249    -16239.72749        50.000  
 16 04 02 13 57 40.2000000  0  2G08G03                                          
  22391327.07849 117667217.29749     -3268.56649        49.000  
  23909616.24249 125645879.41449    -16244.83249        50.000  
 16 04 02 13 57 40.3000000  0  2G08G03                                          
  22391389.32049 117667544.34449     -3272.54749        49.000  
  23909925.40649 125647504.08649    -16249.48849        50.000  
 16 04 02 13 57 40.4000000  0  2G08G03                                          
  22391451.63349 117667871.79749     -3276.93849        49.000  
  23910234.66449 125649129.22749    -16254.53549        50.000  
 16 04 02 13 57 40.5000000  0  2G08G03                                          
  22391514.03949 117668199.74649     -3281.61349        49.000  
  23910544.02349 125650754.93849    -16259.71949        50.000  
 16 04 02 13 57 40.6000000  0  2G08G03                                          
  22391576.54749 117668528.21149     -3287.10949        49.000  
  23910853.50049 125652381.23849    -16266.01249        50.000  
 16 04 02 13 57 40.7000000  0  2G08G03                                          
  22391639.13349 117668857.10949     -3291.36749        49.000  
  23911163.07049 125654008.05149    -16271.06249        50.000  
 16 04 02 13 57 40.8000000  0  2G08G03                                          
  22391701.78149 117669186.34449     -3294.56649        49.000  
  23911472.71149 125655635.24649    -16274.74649        50.000  
 16 04 02 13 57 40.9000000  0  2G08G03                                          
  22391764.52349 117669516.07049     -3299.47749        49.000  
  23911782.46949 125657263.02749    -16280.55949        50.000  
 16 04 02 13 57 41.0000000  0  2G08G03                                          
  22391827.36749 117669846.30149     -3304.77749        49.000  
  23912092.33649 125658891.37549    -16286.58249        50.000  
 16 04 02 13 57 41.1000000  0  2G08G03                                          
  22391890.28949 117670176.95349     -3308.80949        49.000  
  23912402.29749 125660520.21949    -16291.28549        50.000  
 16 04 02 13 57 41.2000000  0  2G08G03                                          
  22391953.28949 117670508.00849     -3312.89149        49.000  
  23912712.34449 125662149.52349    -16296.13349        50.000  
 16 04 02 13 57 41.3000000  0  2G08G03                                          
  22392016.38349 117670839.57449     -3317.89849        49.000  
  23913022.50049 125663779.42249    -16301.66449        50.000  
 16 04 02 13 57 41.4000000  0  2G08G03                                          
  22392079.55549 117671171.55549     -3322.37149        49.000  
  23913332.75849 125665409.80949    -16306.81649        50.000  
 16 04 02 13 57 41.5000000  0  2G08G03                                          
  22392142.82849 117671504.06649     -3327.60549        49.000  
  23913643.12549 125667040.79349    -16312.89549        50.000  
 16 04 02 13 57 41.6000000  0  2G08G03                                          
  22392206.19549 117671837.04349     -3332.16449        49.000  
  23913953.58649 125668672.31649    -16318.30549        50.000  
 16 04 02 13 57 41.7000000  0  2G08G03                                          
  22392269.63349 117672170.44549     -3336.47749        49.000  
  23914264.14849 125670304.33249    -16323.16449        50.000  
 16 04 02 13 57 41.8000000  0  2G08G03                                          
  22392333.16449 117672504.27049     -3340.34849        49.000  
  23914574.80549 125671936.83249    -16327.85249        50.000  
 16 04 02 13 57 41.9000000  0  2G08G03                                          
  22392396.76649 117672838.51249     -3344.65249        49.000  
  23914885.55549 125673569.84849    -16333.03949        50.000  
 16 04 02 13 57 42.0000000  0  2G08G03                                          
  22392460.46149 117673173.25049     -3349.60949        49.000  
  23915196.40649 125675203.39149    -16338.10549        50.000  
 16 04 02 13 57 42.1000000  0  2G08G03                                          
  22392524.24249 117673508.37149     -3353.61749        49.000  
  23915507.35249 125676837.41849    -16343.26249        50.000  
 16 04 02 13 57 42.2000000  0  2G08G03                                          
  22392588.10949 117673844.00049     -3358.48849        49.000  
  23915818.40649 125678472.00849    -16348.76249        50.000  
 16 04 02 13 57 42.3000000  0  2G08G03                                          
  22392652.05549 117674180.04349     -3362.80549        49.000  
  23916129.55549 125680107.08249    -16353.74249        50.000  
 16 04 02 13 57 42.4000000  0  2G08G03                                          
  22392716.08649 117674516.53149     -3367.09849        49.000  
  23916440.79749 125681742.67649    -16358.77049        50.000  
 16 04 02 13 57 42.5000000  0  2G08G03                                          
  22392780.19549 117674853.45349     -3371.60549        49.000  
  23916752.14149 125683378.78949    -16364.17249        50.000  
 16 04 02 13 57 42.6000000  0  2G08G03                                          
  22392844.40649 117675190.85949     -3376.35249        49.000  
  23917063.58649 125685015.43049    -16369.49249        50.000  
 16 04 02 13 57 42.7000000  0  2G08G03                                          
  22392908.69549 117675528.73449     -3381.29349        49.000  
  23917375.13349 125686652.61749    -16374.98849        50.000  
 16 04 02 13 57 42.8000000  0  2G08G03                                          
  22392973.09449 117675867.14849     -3386.73449        49.000  
  23917686.79749 125688290.41449    -16381.26649        50.000  
 16 04 02 13 57 42.9000000  0  2G08G03                                          
  22393037.57849 117676206.01249     -3391.02749        49.000  
  23917998.56249 125689928.75049    -16386.25849        50.000  
 16 04 02 13 57 43.0000000  0  2G08G03                                          
  22393102.14149 117676545.26649     -3394.78549        49.000  
  23918310.40649 125691567.52749    -16390.47349        50.000  
 16 04 02 13 57 43.1000000  0  2G08G03                                          
  22393166.78149 117676884.95749     -3399.10549        49.000  
  23918622.35249 125693206.80549    -16395.68049        50.000  
 16 04 02 13 57 43.2000000  0  2G08G03                                          
  22393231.50049 117677225.06249     -3403.22349        49.000  
  23918934.39149 125694846.57849    -16400.48049        50.000  
 16 04 02 13 57 43.3000000  0  2G08G03                                          
  22393296.31249 117677565.66449     -3408.21149        49.000  
  23919246.53949 125696486.93049    -16406.02049        50.000  
 16 04 02 13 57 43.4000000  0  2G08G03                                          
  22393361.21949 117677906.74249     -3413.14549        49.000  
  23919558.78949 125698127.80549    -16412.00849        50.000  
 16 04 02 13 57 43.5000000  0  2G08G03                                          
  22393426.20349 117678248.25449     -3417.53549        49.000  
  23919871.14149 125699769.20349    -16416.94549        50.000  
 16 04 02 13 57 43.6000000  0  2G08G03                                          
  22393491.27349 117678590.21949     -3422.03549        49.000  
  23920183.57849 125701411.10549    -16421.93449        50.000  
 16 04 02 13 57 43.7000000  0  2G08G03                                          
  22393556.43049 117678932.62149     -3426.13749        49.000  
  23920496.12549 125703053.53149    -16426.96549        50.000  
 16 04 02 13 57 43.8000000  0  2G08G03                                          
  22393621.68049 117679275.50449     -3431.24249        49.000  
  23920808.77349 125704696.49649    -16432.76249        50.000  
 16 04 02 13 57 43.9000000  0  2G08G03                                          
  22393687.01649 117679618.85249     -3435.77049        49.000  
  23921121.52349 125706340.01249    -16437.99249        50.000  
 16 04 02 13 57 44.0000000  0  2G08G03                                          
  22393752.43849 117679962.64549     -3440.32849        49.000  
  23921434.37549 125707984.02349    -16443.20349        50.000  
 16 04 02 13 57 44.1000000  0  2G08G03                                          
  22393817.93849 117680306.86749     -3444.48049        49.000  
  23921747.32049 125709628.54349    -16448.08649        50.000  
 16 04 02 13 57 44.2000000  0  2G08G03                                          
  22393883.52349 117680651.54349     -3449.16049        49.000  
  23922060.35949 125711273.59049    -16453.35249        50.000  
 16 04 02 13 57 44.3000000  0  2G08G03                                          
  22393949.20349 117680996.66849     -3453.51649        49.000  
  23922373.50049 125712919.14849    -16458.52349        50.000  
 16 04 02 13 57 44.4000000  0  2G08G03                                          
  22394014.96149 117681342.23449     -3457.93049        49.000  
  23922686.73449 125714565.21949    -16463.56649        50.000  
 16 04 02 13 57 44.5000000  0  2G08G03                                          
  22394080.81249 117681688.28949     -3462.82449        49.000  
  23923000.07849 125716211.85549    -16469.31249        50.000  
 16 04 02 13 57 44.6000000  0  2G08G03                                          
  22394146.74249 117682034.77049     -3467.16449        49.000  
  23923313.51649 125717858.96949    -16474.09049        50.000  
 16 04 02 13 57 44.7000000  0  2G08G03                                          
  22394212.75849 117682381.64849     -3470.97349        49.000  
  23923627.03949 125719506.56649    -16478.75849        50.000  
 16 04 02 13 57 44.8000000  0  2G08G03                                          
  22394278.86749 117682729.05149     -3476.49249        49.000  
  23923940.68049 125721154.75049    -16484.81649        50.000  
 16 04 02 13 57 44.9000000  0  2G08G03                                          
  22394345.06249 117683076.90249     -3480.77349        49.000  
  23924254.42249 125722803.47749    -16490.09849        50.000  
 16 04 02 13 57 45.0000000  0  2G08G03                                          
  22394411.34449 117683425.20749     -3485.36349        49.000  
  23924568.25849 125724452.69549    -16495.30949        50.000  
 16 04 02 13 57 45.1000000  0  2G08G03                                          
  22394477.71949 117683773.98849     -3490.30149        49.000  
  23924882.19549 125726102.45349    -16500.71949        50.000  
 16 04 02 13 57 45.2000000  0  2G08G03                                          
  22394544.16449 117684123.18449     -3494.22749        49.000  
  23925196.23449 125727752.73849    -16505.69549        50.000  
 16 04 02 13 57 45.3000000  0  2G08G03                                          
  22394610.71149 117684472.86349     -3499.00449        49.000  
  23925510.37549 125729403.54349    -16511.04749        50.000  
 16 04 02 13 57 45.4000000  0  2G08G03                                          
  22394677.33649 117684822.98049     -3503.57849        49.000  
  23925824.60949 125731054.86349    -16516.23849        50.000  
 16 04 02 13 57 45.5000000  0  2G08G03                                          
  22394744.04749 117685173.55549     -3507.91449        49.000  
  23926138.94549 125732706.70349    -16521.19949        50.000  
 16 04 02 13 57 45.6000000  0  2G08G03                                          
  22394810.84449 117685524.58249     -3512.86349        49.000  
  23926453.38349 125734359.07449    -16526.88349        50.000  
 16 04 02 13 57 45.7000000  0  2G08G03                                          
  22394877.74249 117685876.12549     -3517.79349        49.000  
  23926767.93049 125736012.00849    -16532.19549        50.000  
 16 04 02 13 57 45.8000000  0  2G08G03                                          
  22394944.71949 117686228.06649     -3521.80149        49.000  
  23927082.57049 125737665.45349    -16537.57849        50.000  
 16 04 02 13 57 45.9000000  0  2G08G03                                          
  22395011.78149 117686580.49649     -3526.48849        49.000  
  23927397.30549 125739319.42649    -16542.55949        50.000  
 16 04 02 13 57 46.0000000  0  2G08G03                                          
  22395078.93049 117686933.35549     -3530.87149        49.000  
  23927712.14149 125740973.89549    -16547.71949        50.000  
 16 04 02 13 57 46.1000000  0  2G08G03                                          
  22395146.16449 117687286.68449     -3535.43849        49.000  
  23928027.07849 125742628.91049    -16552.90249        50.000  
 16 04 02 13 57 46.2000000  0  2G08G03                                          
  22395213.48449 117687640.43849     -3539.82049        49.000  
  23928342.10949 125744284.41449    -16557.94949        50.000  
 16 04 02 13 57 46.3000000  0  2G08G03                                          
  22395280.89149 117687994.67249     -3544.53149        49.000  
  23928657.25049 125745940.48049    -16563.43449        50.000  
 16 04 02 13 57 46.4000000  0  2G08G03                                          
  22395348.36749 117688349.28549     -3548.34049        49.000  
  23928972.47749 125747597.00049    -16568.00449        50.000  
 16 04 02 13 57 46.5000000  0  2G08G03                                          
  22395415.93849 117688704.37549     -3553.07049        49.000  
  23929287.79749 125749254.03549    -16573.39549        50.000  
 16 04 02 13 57 46.6000000  0  2G08G03                                          
  22395483.60949 117689059.96549     -3558.14149        49.000  
  23929603.23449 125750911.66449    -16579.13349        50.000  
 16 04 02 13 57 46.7000000  0  2G08G03                                          
  22395551.35249 117689415.94949     -3562.23449        49.000  
  23929918.75849 125752569.75049    -16584.01249        50.000  
 16 04 02 13 57 46.8000000  0  2G08G03                                          
  22395619.18849 117689772.45749     -3567.17649        49.000  
  23930234.39149 125754228.41049    -16589.50849        50.000  
 16 04 02 13 57 46.9000000  0  2G08G03                                          
  22395687.10949 117690129.38749     -3571.68449        49.000  
  23930550.11749 125755887.58249    -16594.62949        50.000  
 16 04 02 13 57 47.0000000  0  2G08G03                                          
  22395755.11749 117690486.75449     -3575.95349        49.000  
  23930865.94549 125757547.25449    -16599.61349        50.000  
 16 04 02 13 57 47.1000000  0  2G08G03                                          
  22395823.21149 117690844.59849     -3580.76249        49.000  
  23931181.87549 125759207.48449    -16605.25049        50.000  
 16 04 02 13 57 47.2000000  0  2G08G03                                          
  22395891.39849 117691202.90649     -3585.28149        49.000  
  23931497.90649 125760868.23449    -16610.36349        50.000  
 16 04 02 13 57 47.3000000  0  2G08G03                                          
  22395959.66449 117691561.63749     -3589.59049        49.000  
  23931814.03149 125762529.47749    -16615.24249        50.000  
 16 04 02 13 57 47.4000000  0  2G08G03                                          
  22396028.00849 117691920.82049     -3594.14849        49.000  
  23932130.25849 125764191.23849    -16620.58649        50.000  
 16 04 02 13 57 47.5000000  0  2G08G03                                          
  22396096.44549 117692280.42249     -3598.24649        49.000  
  23932446.57049 125765853.48849    -16625.35949        50.000  
 16 04 02 13 57 47.6000000  0  2G08G03                                          
  22396164.96149 117692640.47349     -3602.73049        49.000  
  23932762.99249 125767516.26249    -16630.64549        50.000  
 16 04 02 13 57 47.7000000  0  2G08G03                                          
  22396233.57049 117693001.03549     -3608.07049        49.000  
  23933079.51649 125769179.61349    -16636.64149        50.000  
 16 04 02 13 57 47.8000000  0  2G08G03                                          
  22396302.27349 117693362.07449     -3612.77349        49.000  
  23933396.14149 125770843.50849    -16641.87149        50.000  
 16 04 02 13 57 47.9000000  0  2G08G03                                          
  22396371.04749 117693723.46549     -3616.24649        49.000  
  23933712.85249 125772507.82849    -16646.20349        50.000  
 16 04 02 13 57 48.0000000  0  2G08G03                                          
  22396439.90649 117694085.33249     -3620.82049        49.000  
  23934029.66449 125774172.69149    -16651.38749        50.000  
 16 04 02 13 57 48.1000000  0  2G08G03                                          
  22396508.83649 117694447.57849     -3624.61749        49.000  
  23934346.55549 125775837.98449    -16655.85249        50.000  
 16 04 02 13 57 48.2000000  0  2G08G03                                          
  22396577.86749 117694810.34849     -3630.00449        49.000  
  23934663.57049 125777503.88749    -16661.93049        50.000  
 16 04 02 13 57 48.3000000  0  2G08G03                                          
  22396646.99249 117695173.57049     -3634.58249        49.000  
  23934980.68049 125779170.30949    -16667.16849        50.000  
 16 04 02 13 57 48.4000000  0  2G08G03                                          
  22396716.19549 117695537.25849     -3639.34849        49.000  
  23935297.89149 125780837.27049    -16672.61749        50.000  
 16 04 02 13 57 48.5000000  0  2G08G03                                          
  22396785.49249 117695901.43049     -3644.14149        49.000  
  23935615.21149 125782504.77349    -16678.05149        50.000  
 16 04 02 13 57 48.6000000  0  2G08G03                                          
  22396854.86749 117696266.00449     -3648.05149        49.000  
  23935932.61749 125784172.75049    -16682.65649        50.000  
 16 04 02 13 57 48.7000000  0  2G08G03                                          
  22396924.33649 117696631.01649     -3652.10549        49.000  
  23936250.11749 125785841.24249    -16687.54749        50.000  
 16 04 02 13 57 48.8000000  0  2G08G03                                          
  22396993.87549 117696996.45749     -3656.74249        49.000  
  23936567.71149 125787510.22349    -16692.86349        50.000  
 16 04 02 13 57 48.9000000  0  2G08G03                                          
  22397063.50849 117697362.40649     -3661.68849        49.000  
  23936885.42249 125789179.77349    -16698.44149        50.000  
 16 04 02 13 57 49.0000000  0  2G08G03                                          
  22397133.24249 117697728.82849     -3666.70349        49.000  
  23937203.22749 125790849.87149    -16704.12149        50.000  
 16 04 02 13 57 49.1000000  0  2G08G03                                          
  22397203.04749 117698095.68049     -3670.72349        49.000  
  23937521.13349 125792520.46549    -16708.81249        50.000  
 16 04 02 13 57 49.2000000  0  2G08G03                                          
  22397272.94549 117698462.98849     -3675.38349        49.000  
  23937839.14149 125794191.58649    -16714.03149        50.000  
 16 04 02 13 57 49.3000000  0  2G08G03                                          
  22397342.92249 117698830.70749     -3679.46549        49.000  
  23938157.23449 125795863.19949    -16718.99649        50.000  
 16 04 02 13 57 49.4000000  0  2G08G03                                          
  22397412.98449 117699198.91449     -3684.25849        49.000  
  23938475.43849 125797535.34849    -16724.35949        50.000  
 16 04 02 13 57 49.5000000  0  2G08G03                                          
  22397483.14149 117699567.57849     -3688.95349        49.000  
  23938793.73449 125799208.02049    -16729.54749        50.000  
 16 04 02 13 57 49.6000000  0  2G08G03                                          
  22397553.38349 117699936.71149     -3693.76649        49.000  
  23939112.14149 125800881.25049    -16735.19549        50.000  
 16 04 02 13 57 49.7000000  0  2G08G03                                          
  22397623.71149 117700306.28149     -3697.99649        49.000  
  23939430.64149 125802554.97349    -16740.01249        50.000  
 16 04 02 13 57 49.8000000  0  2G08G03                                          
  22397694.10949 117700676.26249     -3702.14149        49.000  
  23939749.23449 125804229.17649    -16745.06649        50.000  
 16 04 02 13 57 49.9000000  0  2G08G03                                          
  22397764.61749 117701046.75849     -3707.22749        49.000  
  23940067.93049 125805903.95749    -16750.75849        50.000  
 16 04 02 13 57 50.0000000  0  2G08G03                                          
  22397835.20349 117701417.71949     -3711.95749        49.000  
  23940386.73449 125807579.26649    -16756.11749        50.000  
 16 04 02 13 57 50.1000000  0  2G08G03                                          
  22397905.87549 117701789.10249     -3716.21149        49.000  
  23940705.63349 125809255.07449    -16761.01249        50.000  
 16 04 02 13 57 50.2000000  0  2G08G03                                          
  22397976.63349 117702160.94149     -3720.65649        49.000  
  23941024.62549 125810931.41449    -16766.23449        50.000  
 16 04 02 13 57 50.3000000  0  2G08G03                                          
  22398047.48449 117702533.25449     -3725.36349        49.000  
  23941343.72749 125812608.28549    -16771.70749        50.000  
 16 04 02 13 57 50.4000000  0  2G08G03                                          
  22398118.40649 117702905.96949     -3729.47749        49.000  
  23941662.91449 125814285.62949    -16776.32049        50.000  
 16 04 02 13 57 50.5000000  0  2G08G03                                          
  22398189.41449 117703279.12949     -3733.77049        49.000  
  23941982.19549 125815963.48049    -16781.37949        50.000  
 16 04 02 13 57 50.6000000  0  2G08G03                                          
  22398260.50849 117703652.73449     -3738.25849        49.000  
  23942301.57849 125817641.84849    -16786.52349        50.000  
 16 04 02 13 57 50.7000000  0  2G08G03                                          
  22398331.68849 117704026.78149     -3742.76249        49.000  
  23942621.06249 125819320.71949    -16791.51649        50.000  
 16 04 02 13 57 50.8000000  0  2G08G03                                          
  22398402.94549 117704401.27749     -3747.27749        49.000  
  23942940.64149 125821000.12149    -16796.97349        50.000  
 16 04 02 13 57 50.9000000  0  2G08G03                                          
  22398474.29749 117704776.19549     -3751.24249        49.000  
  23943260.31249 125822680.00449    -16801.44949        50.000  
 16 04 02 13 57 51.0000000  0  2G08G03                                          
  22398545.74249 117705151.63749     -3756.82049        49.000  
  23943580.09449 125824360.47749    -16807.90249        50.000  
 16 04 02 13 57 51.1000000  0  2G08G03                                          
  22398617.26649 117705527.53149     -3761.41049        49.000  
  23943899.97749 125826041.47749    -16812.92649        50.000  
 16 04 02 13 57 51.2000000  0  2G08G03                                          
  22398688.89149 117705903.91049     -3766.32049        49.000  
  23944219.96149 125827723.02349    -16818.55949        50.000  
 16 04 02 13 57 51.3000000  0  2G08G03                                          
  22398760.59449 117706280.71949     -3770.30549        49.000  
  23944540.04749 125829405.05149    -16823.17649        50.000  
 16 04 02 13 57 51.4000000  0  2G08G03                                          
  22398832.37549 117706657.93449     -3774.41849        49.000  
  23944860.21949 125831087.57849    -16828.09449        50.000  
 16 04 02 13 57 51.5000000  0  2G08G03                                          
  22398904.25049 117707035.63749     -3779.30949        49.000  
  23945180.50049 125832770.66049    -16833.72349        50.000  
 16 04 02 13 57 51.6000000  0  2G08G03                                          
  22398976.21149 117707413.78549     -3783.67249        49.000  
  23945500.87549 125834454.23849    -16838.48049        50.000  
 16 04 02 13 57 51.7000000  0  2G08G03                                          
  22399048.25849 117707792.39849     -3788.64849        49.000  
  23945821.35249 125836138.35249    -16844.27749        50.000  
 16 04 02 13 57 51.8000000  0  2G08G03                                          
  22399120.39149 117708171.47349     -3793.01249        49.000  
  23946141.93049 125837823.00449    -16849.28149        50.000  
 16 04 02 13 57 51.9000000  0  2G08G03                                          
  22399192.60949 117708550.94549     -3796.98849        49.000  
  23946462.59449 125839508.10949    -16853.97349        50.000  
 16 04 02 13 57 52.0000000  0  2G08G03                                          
  22399264.89849 117708930.86749     -3801.43849        49.000  
  23946783.35949 125841193.73449    -16859.03149        50.000  
 16 04 02 13 57 52.1000000  0  2G08G03                                          
  22399337.29749 117709311.29349     -3806.80949        49.000  
  23947104.23449 125842879.94149    -16865.13349        50.000  
 16 04 02 13 57 52.2000000  0  2G08G03                                          
  22399409.77349 117709692.16449     -3810.92649        49.000  
  23947425.20349 125844566.65649    -16869.96549        50.000  
 16 04 02 13 57 52.3000000  0  2G08G03                                          
  22399482.33649 117710073.48849     -3815.51649        49.000  
  23947746.27349 125846253.88749    -16875.21149        50.000  
 16 04 02 13 57 52.4000000  0  2G08G03                                          
  22399554.97749 117710455.24249     -3819.71149        49.000  
  23948067.43849 125847941.62549    -16880.19549        50.000  
 16 04 02 13 57 52.5000000  0  2G08G03                                          
  22399627.72749 117710837.52049     -3825.19949        49.000  
  23948388.71149 125849629.93049    -16886.18849        50.000  
 16 04 02 13 57 52.6000000  0  2G08G03                                          
  22399700.55549 117711220.24249     -3829.61749        49.000  
  23948710.08649 125851318.77049    -16891.24249        50.000  
 16 04 02 13 57 52.7000000  0  2G08G03                                          
  22399773.46149 117711603.36349     -3833.70349        49.000  
  23949031.55549 125853008.06649    -16895.93849        50.000  
 16 04 02 13 57 52.8000000  0  2G08G03                                          
  22399846.46149 117711986.96149     -3838.18849        49.000  
  23949353.11749 125854697.90649    -16901.21949        50.000  
 16 04 02 13 57 52.9000000  0  2G08G03                                          
  22399919.53949 117712371.00049     -3842.76249        49.000  
  23949674.78149 125856388.25449    -16906.46149        50.000  
 16 04 02 13 57 53.0000000  0  2G08G03                                          
  22399992.71149 117712755.53549     -3847.61349        49.000  
  23949996.55549 125858079.16449    -16912.12949        50.000  
 16 04 02 13 57 53.1000000  0  2G08G03                                          
  22400065.96949 117713140.50049     -3851.85949        49.000  
  23950318.41449 125859770.57449    -16916.74649        50.000  
 16 04 02 13 57 53.2000000  0  2G08G03                                          
  22400139.30549 117713525.88749     -3856.19149        49.000  
  23950640.37549 125861462.46949    -16921.91849        50.000  
 16 04 02 13 57 53.3000000  0  2G08G03                                          
  22400212.73449 117713911.76649     -3860.90649        49.000  
  23950962.43849 125863154.92649    -16927.43449        50.000  
 16 04 02 13 57 53.4000000  0  2G08G03                                          
  22400286.25049 117714298.09049     -3865.43049        49.000  
  23951284.60249 125864847.89549    -16932.39549        50.000  
 16 04 02 13 57 53.5000000  0  2G08G03                                          
  22400359.84449 117714684.83649     -3869.92249        49.000  
  23951606.85949 125866541.34849    -16937.77349        50.000  
 16 04 02 13 57 53.6000000  0  2G08G03                                          
  22400433.53949 117715072.10249     -3874.92249        49.000  
  23951929.22749 125868235.39149    -16943.28949        50.000  
 16 04 02 13 57 53.7000000  0  2G08G03                                          
  22400507.32049 117715459.82049     -3879.43849        49.000  
  23952251.68849 125869929.94149    -16948.39849        50.000  
 16 04 02 13 57 53.8000000  0  2G08G03                                          
  22400581.17249 117715847.93849     -3883.53949        49.000  
  23952574.24249 125871624.98049    -16953.35549        50.000  
 16 04 02 13 57 53.9000000  0  2G08G03                                          
  22400655.11749 117716236.52349     -3888.13749        49.000  
  23952896.89849 125873320.54349    -16958.52349        50.000  
 16 04 02 13 57 54.0000000  0  2G08G03                                          
  22400729.15649 117716625.58249     -3892.89149        49.000  
  23953219.64849 125875016.63349    -16963.85949        50.000  
 16 04 02 13 57 54.1000000  0  2G08G03                                          
  22400803.28149 117717015.09449     -3897.41049        49.000  
  23953542.50849 125876713.25449    -16969.01249        50.000  
 16 04 02 13 57 54.2000000  0  2G08G03                                          
  22400877.47749 117717404.99249     -3901.32049        49.000  
  23953865.45349 125878410.34049    -16973.75449        50.000  
 16 04 02 13 57 54.3000000  0  2G08G03                                          
  22400951.77349 117717795.44549     -3906.88349        49.000  
  23954188.51649 125880108.03549    -16979.94549        50.000  
 16 04 02 13 57 54.4000000  0  2G08G03                                          
  22401026.15649 117718186.32849     -3911.28949        49.000  
  23954511.66449 125881806.22749    -16985.08649        50.000  
 16 04 02 13 57 54.5000000  0  2G08G03                                          
  22401100.62549 117718577.66049     -3915.65649        49.000  
  23954834.91449 125883504.92649    -16990.00049        50.000  
 16 04 02 13 57 54.6000000  0  2G08G03                                          
  22401175.18049 117718969.42649     -3919.87549        49.000  
  23955158.26649 125885204.14549    -16994.92649        50.000  
 16 04 02 13 57 54.7000000  0  2G08G03                                          
  22401249.81249 117719361.64149     -3924.40649        49.000  
  23955481.71149 125886903.85249    -16999.98449        50.000  
 16 04 02 13 57 54.8000000  0  2G08G03                                          
  22401324.53949 117719754.35249     -3929.52749        49.000  
  23955805.27349 125888604.14149    -17005.91449        50.000  
 16 04 02 13 57 54.9000000  0  2G08G03                                          
  22401399.35949 117720147.50049     -3933.92649        49.000  
  23956128.92249 125890304.93849    -17011.00849        50.000  
 16 04 02 13 57 55.0000000  0  2G08G03                                          
  22401474.25049 117720541.05949     -3937.86749        49.000  
  23956452.66449 125892006.21149    -17015.64549        50.000  
 16 04 02 13 57 55.1000000  0  2G08G03                                          
  22401549.23449 117720935.11349     -3942.88349        49.000  
  23956776.50849 125893708.02049    -17021.17649        50.000  
 16 04 02 13 57 55.2000000  0  2G08G03                                          
  22401624.31249 117721329.63749     -3947.59449        49.000  
  23957100.45349 125895410.39149    -17026.65649        50.000  
 16 04 02 13 57 55.3000000  0  2G08G03                                          
  22401699.45349 117721724.53949     -3951.13749        49.000  
  23957424.48449 125897113.19549    -17030.74249        50.000  
 16 04 02 13 57 55.4000000  0  2G08G03                                          
  22401774.69549 117722119.90649     -3955.82449        49.000  
  23957748.62549 125898816.53549    -17036.05949        50.000  
 16 04 02 13 57 55.5000000  0  2G08G03                                          
  22401850.00049 117722515.67649     -3960.10949        49.000  
  23958072.84449 125900520.33649    -17041.20749        50.000  
 16 04 02 13 57 55.6000000  0  2G08G03                                          
  22401925.42249 117722912.01649     -3965.69149        49.000  
  23958397.19549 125902224.78149    -17047.42249        50.000  
 16 04 02 13 57 55.7000000  0  2G08G03                                          
  22402000.91449 117723308.73049     -3969.53149        49.000  
  23958721.62549 125903929.66849    -17051.80949        50.000  
 16 04 02 13 57 55.8000000  0  2G08G03                                          
  22402076.50849 117723705.97749     -3974.75449        49.000  
  23959046.16449 125905635.14149    -17057.63349        50.000  
 16 04 02 13 57 55.9000000  0  2G08G03                                          
  22402152.17249 117724103.59449     -3978.39149        49.000  
  23959370.78949 125907341.05949    -17061.96549        50.000  
 16 04 02 13 57 56.0000000  0  2G08G03                                          
  22402227.91449 117724501.65249     -3982.82449        49.000  
  23959695.51649 125909047.49249    -17067.18849        50.000  
 16 04 02 13 57 56.1000000  0  2G08G03                                          
  22402303.75049 117724900.16049     -3987.34449        49.000  
  23960020.33649 125910754.42249    -17072.18049        50.000  
 16 04 02 13 57 56.2000000  0  2G08G03                                          
  22402379.68049 117725299.16049     -3992.26249        49.000  
  23960345.26649 125912461.92249    -17077.77049        50.000  
 16 04 02 13 57 56.3000000  0  2G08G03                                          
  22402455.68849 117725698.57049     -3996.44149        49.000  
  23960670.28149 125914169.90249    -17082.62949        50.000  
 16 04 02 13 57 56.4000000  0  2G08G03                                          
  22402531.78149 117726098.45749     -4001.05549        49.000  
  23960995.39849 125915878.41449    -17088.00049        50.000  
 16 04 02 13 57 56.5000000  0  2G08G03                                          
  22402607.96149 117726498.77349     -4005.56649        49.000  
  23961320.61749 125917587.43049    -17093.12149        50.000  
 16 04 02 13 57 56.6000000  0  2G08G03                                          
  22402684.22749 117726899.58249     -4010.30149        49.000  
  23961645.93849 125919296.99649    -17098.52749        50.000  
 16 04 02 13 57 56.7000000  0  2G08G03                                          
  22402760.58649 117727300.82049     -4014.78149        49.000  
  23961971.34449 125921007.05549    -17103.54749        50.000  
 16 04 02 13 57 56.8000000  0  2G08G03                                          
  22402837.01649 117727702.46549     -4018.67249        49.000  
  23962296.85249 125922717.60249    -17108.17649        50.000  
 16 04 02 13 57 56.9000000  0  2G08G03                                          
  22402913.53949 117728104.61349     -4023.83649        49.000  
  23962622.46149 125924428.69949    -17114.09049        50.000  
 16 04 02 13 57 57.0000000  0  2G08G03                                          
  22402990.15649 117728507.23049     -4028.35249        49.000  
  23962948.18049 125926140.34849    -17119.10949        50.000  
 16 04 02 13 57 57.1000000  0  2G08G03                                          
  22403066.84449 117728910.25449     -4032.66849        49.000  
  23963273.97749 125927852.44949    -17124.15249        50.000  
 16 04 02 13 57 57.2000000  0  2G08G03                                          
  22403143.63349 117729313.78149     -4037.60949        49.000  
  23963599.89149 125929565.13749    -17129.81649        50.000  
 16 04 02 13 57 57.3000000  0  2G08G03                                          
  22403220.50849 117729717.73449     -4041.67249        49.000  
  23963925.89849 125931278.31249    -17134.43449        50.000  
 16 04 02 13 57 57.4000000  0  2G08G03                                          
  22403297.46149 117730122.12149     -4046.19949        49.000  
  23964252.00049 125932991.98049    -17139.63349        50.000  
 16 04 02 13 57 57.5000000  0  2G08G03                                          
  22403374.50049 117730526.96549     -4050.72349        49.000  
  23964578.20349 125934706.17649    -17144.87549        50.000  
 16 04 02 13 57 57.6000000  0  2G08G03                                          
  22403451.62549 117730932.27049     -4055.32449        49.000  
  23964904.50049 125936420.89549    -17150.07849        50.000  
 16 04 02 13 57 57.7000000  0  2G08G03                                          
  22403528.83649 117731338.00849     -4059.57849        49.000  
  23965230.89849 125938136.11349    -17154.87949        50.000  
 16 04 02 13 57 57.8000000  0  2G08G03                                          
  22403606.13349 117731744.19949     -4064.14849        49.000  
  23965557.39149 125939851.85549    -17160.28149        50.000  
 16 04 02 13 57 57.9000000  0  2G08G03                                          
  22403683.51649 117732150.87149     -4068.95749        49.000  
  23965883.99249 125941568.14149    -17165.71149        50.000  
 16 04 02 13 57 58.0000000  0  2G08G03                                          
  22403760.98449 117732557.95349     -4073.01649        49.000  
  23966210.68049 125943284.89849    -17170.30949        50.000  
 16 04 02 13 57 58.1000000  0  2G08G03                                          
  22403838.53149 117732965.47349     -4077.61749        49.000  
  23966537.46149 125945002.15249    -17175.55149        50.000  
 16 04 02 13 57 58.2000000  0  2G08G03                                          
  22403916.17249 117733373.48849     -4082.39149        49.000  
  23966864.35249 125946719.97749    -17181.10949        50.000  
 16 04 02 13 57 58.3000000  0  2G08G03                                          
  22403993.88349 117733781.88349     -4086.28949        49.000  
  23967191.32849 125948438.24649    -17185.63349        50.000  
 16 04 02 13 57 58.4000000  0  2G08G03                                          
  22404071.69549 117734190.78549     -4091.21949        49.000  
  23967518.41449 125950157.08249    -17191.25049        50.000  
 16 04 02 13 57 58.5000000  0  2G08G03                                          
  22404149.60249 117734600.16049     -4096.09849        49.000  
  23967845.60249 125951876.45749    -17196.66849        50.000  
 16 04 02 13 57 58.6000000  0  2G08G03                                          
  22404227.59449 117735010.01249     -4100.96949        49.000  
  23968172.89149 125953596.37949    -17202.31649        50.000  
 16 04 02 13 57 58.7000000  0  2G08G03                                          
  22404305.66449 117735420.28949     -4104.97349        49.000  
  23968500.27349 125955316.78149    -17206.76249        50.000  
 16 04 02 13 57 58.8000000  0  2G08G03                                          
  22404383.81249 117735830.94949     -4108.83649        49.000  
  23968827.74249 125957037.64849    -17211.50849        50.000  
 16 04 02 13 57 58.9000000  0  2G08G03                                          
  22404462.05549 117736242.10549     -4113.53949        49.000  
  23969155.31249 125958759.05549    -17216.73049        50.000  
 16 04 02 13 57 59.0000000  0  2G08G03                                          
  22404540.38349 117736653.76249     -4119.00449        49.000  
  23969483.00049 125960481.04349    -17222.89549        50.000  
 16 04 02 13 57 59.1000000  0  2G08G03                                          
  22404618.80549 117737065.86349     -4123.32049        49.000  
  23969810.78149 125962203.54749    -17227.84849        50.000  
 16 04 02 13 57 59.2000000  0  2G08G03                                          
  22404697.29749 117737478.31649     -4126.87949        49.000  
  23970138.64149 125963926.44549    -17231.93049        50.000  
 16 04 02 13 57 59.3000000  0  2G08G03                                          
  22404775.87549 117737891.27349     -4131.67249        49.000  
  23970466.60249 125965649.91849    -17237.45349        50.000  
 16 04 02 13 57 59.4000000  0  2G08G03                                          
  22404854.53949 117738304.63749     -4135.73849        49.000  
  23970794.66449 125967373.87549    -17242.19549        50.000  
 16 04 02 13 57 59.5000000  0  2G08G03                                          
  22404933.28949 117738718.47749     -4140.78949        49.000  
  23971122.82049 125969098.36349    -17247.83649        50.000  
 16 04 02 13 57 59.6000000  0  2G08G03                                          
  22405012.13349 117739132.80949     -4145.69549        49.000  
  23971451.08649 125970823.41449    -17253.53149        50.000  
 16 04 02 13 57 59.7000000  0  2G08G03                                          
  22405091.07049 117739547.60949     -4150.36749        49.000  
  23971779.45349 125972548.98849    -17258.81649        50.000  
 16 04 02 13 57 59.8000000  0  2G08G03                                          
  22405170.09449 117739962.89149     -4155.26249        49.000  
  23972107.92249 125974275.11349    -17264.31649        50.000  
 16 04 02 13 57 59.9000000  0  2G08G03                                          
  22405249.20349 117740378.61349     -4159.59849        49.000  
  23972436.49249 125976001.74249    -17269.20349        50.000  
 16 04 02 13 58  0.0000000  0  2G08G03                                          
  22405328.39149 117740794.75849     -4163.70749        49.000  
  23972765.14849 125977728.85549    -17273.95349        50.000  
 16 04 02 13 58  0.1000000  0  2G08G03                                          
  22405407.68049 117741211.38749     -4168.64549        49.000  
  23973093.91449 125979456.52749    -17279.60249        50.000  
 16 04 02 13 58  0.2000000  0  2G08G03                                          
  22405487.04749 117741628.46949     -4173.07449        49.000  
  23973422.77349 125981184.70749    -17284.68449        50.000  
 16 04 02 13 58  0.3000000  0  2G08G03                                          
  22405566.49249 117742045.97749     -4177.41049        49.000  
  23973751.73449 125982913.39849    -17289.80549        50.000  
 16 04 02 13 58  0.4000000  0  2G08G03                                          
  22405646.03949 117742464.00049     -4182.64849        49.000  
  23974080.79749 125984642.64149    -17295.60949        50.000  
 16 04 02 13 58  0.5000000  0  2G08G03                                          
  22405725.66449 117742882.43049     -4186.45749        49.000  
  23974409.95349 125986372.36749    -17299.98849        50.000  
 16 04 02 13 58  0.6000000  0  2G08G03                                          
  22405805.36749 117743301.27749     -4190.82849        49.000  
  23974739.20349 125988102.57049    -17304.88349        50.000  
 16 04 02 13 58  0.7000000  0  2G08G03                                          
  22405885.15649 117743720.57049     -4195.05949        49.000  
  23975068.54749 125989833.28949    -17309.91049        50.000  
 16 04 02 13 58  0.8000000  0  2G08G03                                          
  22405965.03149 117744140.32849     -4199.84849        49.000  
  23975397.99249 125991564.53549    -17315.30949        50.000  
 16 04 02 13 58  0.9000000  0  2G08G03                                          
  22406045.00849 117744560.58649     -4204.97349        49.000  
  23975727.54749 125993296.35549    -17321.30149        50.000  
 16 04 02 13 58  1.0000000  0  2G08G03                                          
  22406125.05549 117744981.26249     -4209.04749        49.000  
  23976057.18849 125995028.63749    -17325.80149        50.000  
 16 04 02 13 58  1.1000000  0  2G08G03                                          
  22406205.18849 117745402.35249     -4213.19149        49.000  
  23976386.92249 125996761.40649    -17330.69549        50.000  
 16 04 02 13 58  1.2000000  0  2G08G03                                          
  22406285.40649 117745823.93049     -4218.04749        49.000  
  23976716.76649 125998494.73049    -17336.09849        50.000  
 16 04 02 13 58  1.3000000  0  2G08G03                                          
  22406365.72749 117746245.98049     -4222.61349        49.000  
  23977046.70349 126000228.58649    -17341.20349        50.000  
 16 04 02 13 58  1.4000000  0  2G08G03                                          
  22406446.10949 117746668.40249     -4226.53549        49.000  
  23977376.72749 126001962.87549    -17345.84849        50.000  
 16 04 02 13 58  1.5000000  0  2G08G03                                          
  22406526.58649 117747091.29349     -4231.09049        49.000  
  23977706.85949 126003697.70749    -17350.96949        50.000  
 16 04 02 13 58  1.6000000  0  2G08G03                                          
  22406607.14849 117747514.67249     -4236.21949        49.000  
  23978037.08649 126005433.08649    -17356.73049        50.000  
 16 04 02 13 58  1.7000000  0  2G08G03                                          
  22406687.81249 117747938.54749     -4241.34449        49.000  
  23978367.43049 126007169.03149    -17362.52749        50.000  
 16 04 02 13 58  1.8000000  0  2G08G03                                          
  22406768.55549 117748362.88349     -4245.73049        49.000  
  23978697.86749 126008905.49649    -17367.67649        50.000  
 16 04 02 13 58  1.9000000  0  2G08G03                                          
  22406849.38349 117748787.63749     -4249.75049        49.000  
  23979028.39849 126010642.43849    -17372.24649        50.000  
 16 04 02 13 58  2.0000000  0  2G08G03                                          
  22406930.29749 117749212.81649     -4254.11349        49.000  
  23979359.02349 126012379.87549    -17377.23849        50.000  
 16 04 02 13 58  2.1000000  0  2G08G03                                          
  22407011.29749 117749638.48049     -4258.95749        49.000  
  23979689.75049 126014117.86749    -17382.72749        50.000  
 16 04 02 13 58  2.2000000  0  2G08G03                                          
  22407092.37549 117750064.53949     -4262.80149        49.000  
  23980020.56249 126015856.30949    -17387.11749        50.000  
 16 04 02 13 58  2.3000000  0  2G08G03                                          
  22407173.53949 117750491.08649     -4267.71149        49.000  
  23980351.48449 126017595.29349    -17392.79749        50.000  
 16 04 02 13 58  2.4000000  0  2G08G03                                          
  22407254.78949 117750918.06649     -4272.14849        49.000  
  23980682.50049 126019334.78949    -17397.88749        50.000  
 16 04 02 13 58  2.5000000  0  2G08G03                                          
  22407336.14149 117751345.55949     -4277.26249        49.000  
  23981013.61749 126021074.85249    -17403.60249        50.000  
 16 04 02 13 58  2.6000000  0  2G08G03                                          
  22407417.57049 117751773.47749     -4281.57449        49.000  
  23981344.83649 126022815.41849    -17408.59449        50.000  
 16 04 02 13 58  2.7000000  0  2G08G03                                          
  22407499.08649 117752201.83249     -4286.03149        49.000  
  23981676.14849 126024556.47349    -17413.67249        50.000  
 16 04 02 13 58  2.8000000  0  2G08G03                                          
  22407580.68849 117752630.65649     -4290.41449        49.000  
  23982007.56249 126026298.06249    -17418.56249        50.000  
 16 04 02 13 58  2.9000000  0  2G08G03                                          
  22407662.37549 117753059.91449     -4294.97749        49.000  
  23982339.07049 126028040.15249    -17423.98449        50.000  
 16 04 02 13 58  3.0000000  0  2G08G03                                          
  22407744.15649 117753489.67649     -4299.82049        49.000  
  23982670.68849 126029782.79749    -17429.19949        50.000  
 16 04 02 13 58  3.1000000  0  2G08G03                                          
  22407826.01649 117753919.84449     -4304.12149        49.000  
  23983002.39149 126031525.92249    -17434.23849        50.000  
 16 04 02 13 58  3.2000000  0  2G08G03                                          
  22407907.96949 117754350.50849     -4308.94949        49.000  
  23983334.20349 126033269.60549    -17439.61349        50.000  
 16 04 02 13 58  3.3000000  0  2G08G03                                          
  22407989.99249 117754781.57049     -4313.10549        49.000  
  23983666.10249 126035013.75449    -17443.96149        50.000  
 16 04 02 13 58  3.4000000  0  2G08G03                                          
  22408072.10949 117755213.10949     -4317.64849        49.000  
  23983998.10949 126036758.44149    -17449.12549        50.000  
 16 04 02 13 58  3.5000000  0  2G08G03                                          
  22408154.30549 117755645.03149     -4321.41849        49.000  
  23984330.19549 126038503.58249    -17453.76249        50.000  
 16 04 02 13 58  3.6000000  0  2G08G03                                          
  22408236.59449 117756077.46549     -4326.68049        49.000  
  23984662.39149 126040249.28149    -17459.33249        50.000  
 16 04 02 13 58  3.7000000  0  2G08G03                                          
  22408318.96149 117756510.31649     -4330.78949        49.000  
  23984994.68049 126041995.46949    -17464.23849        50.000  
 16 04 02 13 58  3.8000000  0  2G08G03                                          
  22408401.42249 117756943.62949     -4335.40249        49.000  
  23985327.06249 126043742.18049    -17469.44549        50.000  
 16 04 02 13 58  3.9000000  0  2G08G03                                          
  22408483.96149 117757377.39149     -4339.97749        49.000  
  23985659.55549 126045489.40649    -17474.66849        50.000  
 16 04 02 13 58  4.0000000  0  2G08G03                                          
  22408566.59449 117757811.63749     -4344.91049        49.000  
  23985992.14149 126047237.18049    -17480.18449        50.000  
 16 04 02 13 58  4.1000000  0  2G08G03                                          
  22408649.31249 117758246.32049     -4349.16049        49.000  
  23986324.82849 126048985.44949    -17485.08649        50.000  
 16 04 02 13 58  4.2000000  0  2G08G03                                          
  22408732.12549 117758681.50449     -4354.33249        49.000  
  23986657.62549 126050734.29749    -17490.94149        50.000  
 16 04 02 13 58  4.3000000  0  2G08G03                                          
  22408815.03149 117759117.18049     -4359.09849        49.000  
  23986990.52349 126052483.67649    -17496.24649        50.000  
 16 04 02 13 58  4.4000000  0  2G08G03                                          
  22408898.01649 117759553.26649     -4363.19149        49.000  
  23987323.50849 126054233.54349    -17501.11349        50.000  
 16 04 02 13 58  4.5000000  0  2G08G03                                          
  22408981.09449 117759989.84449     -4368.24249        49.000  
  23987656.60249 126055983.96549    -17506.70749        50.000  
 16 04 02 13 58  4.6000000  0  2G08G03                                          
  22409064.25849 117760426.85249     -4372.47349        49.000  
  23987989.78949 126057734.87549    -17511.57449        50.000  
 16 04 02 13 58  4.7000000  0  2G08G03                                          
  22409147.50049 117760864.32449     -4376.84449        49.000  
  23988323.07849 126059486.30949    -17516.52749        50.000  
 16 04 02 13 58  4.8000000  0  2G08G03                                          
  22409230.82049 117761302.16049     -4380.52349        49.000  
  23988656.44549 126061238.18449    -17520.92249        50.000  
 16 04 02 13 58  4.9000000  0  2G08G03                                          
  22409314.23449 117761740.48449     -4385.63749        49.000  
  23988989.92249 126062990.59849    -17526.54749        50.000  
 16 04 02 13 58  5.0000000  0  2G08G03                                          
  22409397.75049 117762179.35249     -4390.85249        49.000  
  23989323.51649 126064743.62549    -17532.60549        50.000  
 16 04 02 13 58  5.1000000  0  2G08G03                                          
  22409481.32849 117762618.56649     -4394.51249        49.000  
  23989657.18049 126066497.05149    -17536.67249        50.000  
 16 04 02 13 58  5.2000000  0  2G08G03                                          
  22409564.99249 117763058.22749     -4398.81249        49.000  
  23989990.94549 126068251.00449    -17541.77049        50.000  
 16 04 02 13 58  5.3000000  0  2G08G03                                          
  22409648.75049 117763498.36749     -4403.64549        49.000  
  23990324.81249 126070005.48449    -17547.12149        50.000  
 16 04 02 13 58  5.4000000  0  2G08G03                                          
  22409732.59449 117763938.96949     -4408.30549        49.000  
  23990658.78149 126071760.48449    -17552.36749        50.000  
 16 04 02 13 58  5.5000000  0  2G08G03                                          
  22409816.52349 117764380.03149     -4412.84049        49.000  
  23990992.85249 126073516.03149    -17557.73849        50.000  
 16 04 02 13 58  5.6000000  0  2G08G03                                          
  22409900.53949 117764821.53149     -4417.29349        49.000  
  23991327.00849 126075272.05149    -17562.62149        50.000  
 16 04 02 13 58  5.7000000  0  2G08G03                                          
  22409984.64149 117765263.47349     -4421.88749        49.000  
  23991661.26649 126077028.58249    -17567.73449        50.000  
 16 04 02 13 58  5.8000000  0  2G08G03                                          
  22410068.83649 117765705.92649     -4426.85949        49.000  
  23991995.63349 126078785.70749    -17573.52749        50.000  
 16 04 02 13 58  5.9000000  0  2G08G03                                          
  22410153.10249 117766148.76649     -4430.71149        49.000  
  23992330.08649 126080543.25849    -17577.92649        50.000  
 16 04 02 13 58  6.0000000  0  2G08G03                                          
  22410237.46149 117766592.07849     -4435.41849        49.000  
  23992664.64149 126082301.36349    -17583.33649        50.000  
 16 04 02 13 58  6.1000000  0  2G08G03                                          
  22410321.90649 117767035.84849     -4439.77049        49.000  
  23992999.29749 126084059.98049    -17588.48049        50.000  
 16 04 02 13 58  6.2000000  0  2G08G03                                          
  22410406.43049 117767480.02049     -4443.96149        49.000  
  23993334.03149 126085819.04749    -17593.02749        50.000  
 16 04 02 13 58  6.3000000  0  2G08G03                                          
  22410491.03149 117767924.62549     -4448.32849        49.000  
  23993668.86749 126087578.63749    -17598.14849        50.000  
 16 04 02 13 58  6.4000000  0  2G08G03                                          
  22410575.73449 117768369.72349     -4453.15649        49.000  
  23994003.81249 126089338.75849    -17603.45349        50.000  
 16 04 02 13 58  6.5000000  0  2G08G03                                          
  22410660.51649 117768815.26649     -4457.84049        49.000  
  23994338.85249 126091099.39849    -17608.82049        50.000  
 16 04 02 13 58  6.6000000  0  2G08G03                                          
  22410745.39149 117769261.26249     -4462.19549        49.000  
  23994673.98449 126092860.55949    -17613.94149        50.000  
 16 04 02 13 58  6.7000000  0  2G08G03                                          
  22410830.35249 117769707.73449     -4467.06249        49.000  
  23995009.22749 126094622.24649    -17619.36349        50.000  
 16 04 02 13 58  6.8000000  0  2G08G03                                          
  22410915.39149 117770154.64549     -4471.41849        49.000  
  23995344.56249 126096384.43049    -17624.23449        50.000  
 16 04 02 13 58  6.9000000  0  2G08G03                                          
  22411000.51649 117770601.98449     -4475.61749        49.000  
  23995679.98449 126098147.12149    -17629.20749        50.000  
 16 04 02 13 58  7.0000000  0  2G08G03                                          
  22411085.71949 117771049.71949     -4479.57449        49.000  
  23996015.50049 126099910.25849    -17633.60949        50.000  
 16 04 02 13 58  7.1000000  0  2G08G03                                          
  22411171.00849 117771497.94949     -4484.53549        49.000  
  23996351.12549 126101673.95749    -17639.21949        50.000  
 16 04 02 13 58  7.2000000  0  2G08G03                                          
  22411256.39849 117771946.68049     -4489.69549        49.000  
  23996686.85249 126103438.22349    -17645.07449        50.000  
 16 04 02 13 58  7.3000000  0  2G08G03                                          
  22411341.87549 117772395.83249     -4494.00049        49.000  
  23997022.67249 126105202.96149    -17649.91849        50.000  
 16 04 02 13 58  7.4000000  0  2G08G03                                          
  22411427.43049 117772845.45749     -4498.62949        49.000  
  23997358.59449 126106968.23849    -17655.14849        50.000  
 16 04 02 13 58  7.5000000  0  2G08G03                                          
  22411513.06249 117773295.46949     -4502.30549        49.000  
  23997694.60249 126108733.96549    -17659.55149        50.000  
 16 04 02 13 58  7.6000000  0  2G08G03                                          
  22411598.79749 117773745.98049     -4507.40649        49.000  
  23998030.71149 126110500.25849    -17665.27349        50.000  
 16 04 02 13 58  7.7000000  0  2G08G03                                          
  22411684.62549 117774197.00449     -4512.75449        49.000  
  23998366.93849 126112267.12949    -17671.27049        50.000  
 16 04 02 13 58  7.8000000  0  2G08G03                                          
  22411770.51649 117774648.39149     -4516.20749        49.000  
  23998703.24249 126114034.41049    -17675.27049        50.000  
 16 04 02 13 58  7.9000000  0  2G08G03                                          
  22411856.50849 117775100.27749     -4520.98849        49.000  
  23999039.64849 126115802.26649    -17680.75049        50.000  
 16 04 02 13 58  8.0000000  0  2G08G03                                          
  22411942.58649 117775552.61349     -4525.74249        49.000  
  23999376.15649 126117570.62149    -17685.95349        50.000  
 16 04 02 13 58  8.1000000  0  2G08G03                                          
  22412028.74249 117776005.36749     -4529.62149        49.000  
  23999712.75849 126119339.46949    -17690.69949        50.000  
 16 04 02 13 58  8.2000000  0  2G08G03                                          
  22412114.98449 117776458.57849     -4534.17649        49.000  
  24000049.45349 126121108.82449    -17695.76649        50.000  
 16 04 02 13 58  8.3000000  0  2G08G03                                          
  22412201.32049 117776912.27749     -4539.47749        49.000  
  24000386.25849 126122878.73449    -17701.56649        50.000  
 16 04 02 13 58  8.4000000  0  2G08G03                                          
  22412287.74249 117777366.42249     -4543.71949        49.000  
  24000723.15649 126124649.16049    -17706.73049        50.000  
 16 04 02 13 58  8.5000000  0  2G08G03                                          
  22412374.24249 117777820.99249     -4547.94549        49.000  
  24001060.14849 126126420.05549    -17711.34049        50.000  
 16 04 02 13 58  8.6000000  0  2G08G03                                          
  22412460.83649 117778276.00849     -4552.62149        49.000  
  24001397.23449 126128191.46949    -17716.50449        50.000  
 16 04 02 13 58  8.7000000  0  2G08G03                                          
  22412547.53149 117778731.60249     -4558.27749        49.000  
  24001734.44549 126129963.53149    -17723.06249        50.000  
 16 04 02 13 58  8.8000000  0  2G08G03                                          
  22412634.28949 117779187.52049     -4561.36349        49.000  
  24002071.72749 126131735.96549    -17726.74249        50.000  
 16 04 02 13 58  8.9000000  0  2G08G03                                          
  22412721.13349 117779643.90649     -4566.02049        49.000  
  24002409.10949 126133508.92249    -17731.72349        50.000  
 16 04 02 13 58  9.0000000  0  2G08G03                                          
  22412808.06249 117780100.72349     -4570.31249        49.000  
  24002746.59449 126135282.38349    -17736.74649        50.000  
 16 04 02 13 58  9.1000000  0  2G08G03                                          
  22412895.09449 117780558.06249     -4575.64549        49.000  
  24003084.18049 126137056.42649    -17742.70749        50.000  
 16 04 02 13 58  9.2000000  0  2G08G03                                          
  22412982.21149 117781015.86349     -4580.43849        49.000  
  24003421.87549 126138830.99649    -17748.24249        50.000  
 16 04 02 13 58  9.3000000  0  2G08G03                                          
  22413069.39849 117781474.02049     -4583.81249        49.000  
  24003759.64149 126140605.97749    -17752.16849        50.000  
 16 04 02 13 58  9.4000000  0  2G08G03                                          
  22413156.67249 117781932.66049     -4588.55549        49.000  
  24004097.51649 126142381.50849    -17757.66849        50.000  
 16 04 02 13 58  9.5000000  0  2G08G03                                          
  22413244.03149 117782391.73049     -4592.89849        49.000  
  24004435.47749 126144157.52349    -17762.42649        50.000  
 16 04 02 13 58  9.6000000  0  2G08G03                                          
  22413331.47749 117782851.24649     -4597.27049        49.000  
  24004773.53949 126145934.05149    -17767.58249        50.000  
 16 04 02 13 58  9.7000000  0  2G08G03                                          
  22413419.00049 117783311.19149     -4601.81649        49.000  
  24005111.69549 126147711.05949    -17772.47349        50.000  
 16 04 02 13 58  9.8000000  0  2G08G03                                          
  22413506.61749 117783771.62149     -4606.49649        49.000  
  24005449.95349 126149488.63349    -17777.96149        50.000  
 16 04 02 13 58  9.9000000  0  2G08G03                                          
  22413594.32849 117784232.51249     -4611.27749        49.000  
  24005788.31249 126151266.72349    -17783.41849        50.000  
 16 04 02 13 58 10.0000000  0  2G08G03                                          
  22413682.11749 117784693.87549     -4615.93449        49.000  
  24006126.76649 126153045.33249    -17788.50449        50.000  
 16 04 02 13 58 10.1000000  0  2G08G03                                          
  22413770.00049 117785155.69149     -4620.54749        49.000  
  24006465.32049 126154824.45749    -17793.65649        50.000  
 16 04 02 13 58 10.2000000  0  2G08G03                                          
  22413857.98449 117785618.04349     -4625.93449        49.000  
  24006804.00049 126156604.19549    -17799.78949        50.000  
 16 04 02 13 58 10.3000000  0  2G08G03                                          
  22413946.03149 117786080.75449     -4629.71549        49.000  
  24007142.75049 126158384.34049    -17804.04349        50.000  
 16 04 02 13 58 10.4000000  0  2G08G03                                          
  22414034.18049 117786543.94949     -4634.03949        49.000  
  24007481.60249 126160165.03949    -17809.14149        50.000  
 16 04 02 13 58 10.5000000  0  2G08G03                                          
  22414122.39849 117787007.55549     -4638.40649        49.000  
  24007820.54749 126161946.20749    -17814.06649        50.000  
 16 04 02 13 58 10.6000000  0  2G08G03                                          
  22414210.70349 117787471.61349     -4642.70749        49.000  
  24008159.59449 126163727.90249    -17819.18049        50.000  
 16 04 02 13 58 10.7000000  0  2G08G03                                          
  22414299.10249 117787936.16049     -4647.60249        49.000  
  24008498.73449 126165510.11349    -17824.42649        50.000  
 16 04 02 13 58 10.8000000  0  2G08G03                                          
  22414387.58649 117788401.16049     -4652.38749        49.000  
  24008837.98449 126167292.86349    -17829.91849        50.000  
 16 04 02 13 58 10.9000000  0  2G08G03                                          
  22414476.15649 117788866.58649     -4656.50049        49.000  
  24009177.32049 126169076.09049    -17834.62149        50.000  
 16 04 02 13 58 11.0000000  0  2G08G03                                          
  22414564.81249 117789332.46949     -4661.11749        49.000  
  24009516.75849 126170859.84049    -17839.78149        50.000  
 16 04 02 13 58 11.1000000  0  2G08G03                                          
  22414653.55549 117789798.80549     -4665.45349        49.000  
  24009856.28949 126172644.10249    -17844.94949        50.000  
 16 04 02 13 58 11.2000000  0  2G08G03                                          
  22414742.36749 117790265.55149     -4669.71149        49.000  
  24010195.91449 126174428.83649    -17849.62949        50.000  
 16 04 02 13 58 11.3000000  0  2G08G03                                          
  22414831.28149 117790732.80149     -4674.76249        49.000  
  24010535.64149 126176214.13349    -17855.33649        50.000  
 16 04 02 13 58 11.4000000  0  2G08G03                                          
  22414920.28149 117791200.48849     -4679.27049        49.000  
  24010875.46949 126177999.91449    -17860.20349        50.000  
 16 04 02 13 58 11.5000000  0  2G08G03                                          
  22415009.35949 117791668.59849     -4683.48049        49.000  
  24011215.39149 126179786.20749    -17865.28149        50.000  
 16 04 02 13 58 11.6000000  0  2G08G03                                          
  22415098.53949 117792137.23449     -4688.70349        49.000  
  24011555.41449 126181573.07049    -17870.98049        50.000  
 16 04 02 13 58 11.7000000  0  2G08G03                                          
  22415187.79749 117792606.27749     -4692.76649        49.000  
  24011895.53949 126183360.40649    -17875.80949        50.000  
 16 04 02 13 58 11.8000000  0  2G08G03                                          
  22415277.13349 117793075.74249     -4696.96949        49.000  
  24012235.74249 126185148.21949    -17880.49249        50.000  
 16 04 02 13 58 11.9000000  0  2G08G03                                          
  22415366.55549 117793545.68049     -4701.52349        49.000  
  24012576.05549 126186936.55949    -17885.64149        50.000  
 16 04 02 13 58 12.0000000  0  2G08G03                                          
  22415456.05549 117794016.00849     -4705.57049        49.000  
  24012916.45349 126188725.37149    -17890.41449        50.000  
 16 04 02 13 58 12.1000000  0  2G08G03                                          
  22415545.64849 117794486.83649     -4710.34449        49.000  
  24013256.95349 126190514.73049    -17895.82049        50.000  
 16 04 02 13 58 12.2000000  0  2G08G03                                          
  22415635.31249 117794958.02349     -4714.20749        49.000  
  24013597.54749 126192304.51649    -17900.31649        50.000  
 16 04 02 13 58 12.3000000  0  2G08G03                                          
  22415725.07849 117795429.71949     -4719.11349        49.000  
  24013938.23449 126194094.85549    -17905.68849        50.000  
 16 04 02 13 58 12.4000000  0  2G08G03                                          
  22415814.92249 117795901.87149     -4723.67249        49.000  
  24014279.02349 126195885.71949    -17910.91049        50.000  
 16 04 02 13 58 12.5000000  0  2G08G03                                          
  22415904.85949 117796374.48449     -4728.53149        49.000  
  24014619.91449 126197677.10949    -17916.32049        50.000  
 16 04 02 13 58 12.6000000  0  2G08G03                                          
  22415994.87549 117796847.53549     -4732.84449        49.000  
  24014960.89849 126199468.99249    -17921.16049        50.000  
 16 04 02 13 58 12.7000000  0  2G08G03                                          
  22416084.96949 117797320.99249     -4736.66049        49.000  
  24015301.97749 126201261.34849    -17925.81249        50.000  
 16 04 02 13 58 12.8000000  0  2G08G03                                          
  22416175.16449 117797794.94149     -4741.76249        49.000  
  24015643.14849 126203054.24249    -17931.29349        50.000  
 16 04 02 13 58 12.9000000  0  2G08G03                                          
  22416265.43849 117798269.34449     -4746.07449        49.000  
  24015984.43049 126204847.66449    -17936.43849        50.000  
 16 04 02 13 58 13.0000000  0  2G08G03                                          
  22416355.79749 117798744.14849     -4750.29749        49.000  
  24016325.78949 126206641.54349    -17941.18449        50.000  
 16 04 02 13 58 13.1000000  0  2G08G03                                          
  22416446.24249 117799219.46549     -4755.32049        49.000  
  24016667.26649 126208435.98049    -17946.67249        50.000  
 16 04 02 13 58 13.2000000  0  2G08G03                                          
  22416536.76649 117799695.16849     -4759.44549        49.000  
  24017008.82849 126210230.89149    -17951.51649        50.000  
 16 04 02 13 58 13.3000000  0  2G08G03                                          
  22416627.36749 117800171.29749     -4763.39549        49.000  
  24017350.47749 126212026.27049    -17955.99249        50.000  
 16 04 02 13 58 13.4000000  0  2G08G03                                          
  22416718.06249 117800647.89149     -4768.24249        49.000  
  24017692.22749 126213822.18449    -17961.47749        50.000  
 16 04 02 13 58 13.5000000  0  2G08G03                                          
  22416808.85949 117801125.03549     -4773.72749        49.000  
  24018034.09449 126215618.70349    -17967.56249        50.000  
 16 04 02 13 58 13.6000000  0  2G08G03                                          
  22416899.72749 117801602.55949     -4777.79349        49.000  
  24018376.04749 126217415.66849    -17972.31649        50.000  
 16 04 02 13 58 13.7000000  0  2G08G03                                          
  22416990.68049 117802080.52349     -4781.96549        49.000  
  24018718.08649 126219213.11349    -17976.80149        50.000  
 16 04 02 13 58 13.8000000  0  2G08G03                                          
  22417081.74249 117802559.02749     -4787.14849        49.000  
  24019060.25049 126221011.18449    -17982.89849        50.000  
 16 04 02 13 58 13.9000000  0  2G08G03                                          
  22417172.86749 117803037.90249     -4791.06249        49.000  
  24019402.49249 126222809.66849    -17987.23849        50.000  
 16 04 02 13 58 14.0000000  0  2G08G03                                          
  22417264.07849 117803517.21549     -4795.39149        49.000  
  24019744.82049 126224608.65649    -17992.20749        50.000  
 16 04 02 13 58 14.1000000  0  2G08G03                                          
  22417355.37549 117803997.00049     -4800.10249        49.000  
  24020087.26649 126226408.18449    -17997.54749        50.000  
 16 04 02 13 58 14.2000000  0  2G08G03                                          
  22417446.75849 117804477.22749     -4804.58249        49.000  
  24020429.78949 126228208.18849    -18002.39849        50.000  
 16 04 02 13 58 14.3000000  0  2G08G03                                          
  22417538.24249 117804957.96549     -4809.75849        49.000  
  24020772.43849 126230008.79349    -18008.35549        50.000  
 16 04 02 13 58 14.4000000  0  2G08G03                                          
  22417629.80549 117805439.11749     -4813.85549        49.000  
  24021115.15649 126231809.85249    -18013.02349        50.000  
 16 04 02 13 58 14.5000000  0  2G08G03                                          
  22417721.46149 117805920.78549     -4818.99649        49.000  
  24021458.00049 126233611.50049    -18018.89849        50.000  
 16 04 02 13 58 14.6000000  0  2G08G03                                          
  22417813.20349 117806402.89149     -4823.44949        49.000  
  24021800.93849 126235413.62949    -18023.73049        50.000  
 16 04 02 13 58 14.7000000  0  2G08G03                                          
  22417905.01649 117806885.38349     -4827.11349        49.000  
  24022143.96149 126237216.22749    -18028.23049        50.000  
 16 04 02 13 58 14.8000000  0  2G08G03                                          
  22417996.93049 117807368.38749     -4832.38349        49.000  
  24022487.08649 126239019.37949    -18033.91849        50.000  
 16 04 02 13 58 14.9000000  0  2G08G03                                          
  22418088.93849 117807851.90249     -4837.31649        49.000  
  24022830.32849 126240823.09849    -18039.53549        50.000  
 16 04 02 13 58 15.0000000  0  2G08G03                                          
  22418181.01649 117808335.78149     -4841.25049        49.000  
  24023173.64849 126242627.25049    -18044.06649        50.000  
 16 04 02 13 58 15.1000000  0  2G08G03                                          
  22418273.17249 117808820.07449     -4845.01649        49.000  
  24023517.05549 126244431.87149    -18048.32849        50.000  
 16 04 02 13 58 15.2000000  0  2G08G03                                          
  22418365.41449 117809304.79749     -4849.30549        49.000  
  24023860.55549 126246236.98449    -18053.29349        50.000  
 16 04 02 13 58 15.3000000  0  2G08G03                                          
  22418457.74249 117809789.98849     -4854.01249        49.000  
  24024204.15649 126248042.62149    -18058.62149        50.000  
 16 04 02 13 58 15.4000000  0  2G08G03                                          
  22418550.14149 117810275.55949     -4858.00849        49.000  
  24024547.84449 126249848.70749    -18063.24649        50.000  
 16 04 02 13 58 15.5000000  0  2G08G03                                          
  22418642.64849 117810761.66849     -4863.32849        49.000  
  24024891.64149 126251655.38349    -18069.10249        50.000  
 16 04 02 13 58 15.6000000  0  2G08G03                                          
  22418735.23449 117811248.19149     -4867.52049        49.000  
  24025235.53149 126253462.52749    -18073.91449        50.000  
 16 04 02 13 58 15.7000000  0  2G08G03                                          
  22418827.89849 117811735.17249     -4872.24649        49.000  
  24025579.51649 126255270.19149    -18079.05149        50.000  
 16 04 02 13 58 15.8000000  0  2G08G03                                          
  22418920.66449 117812222.64149     -4876.97349        49.000  
  24025923.60949 126257078.40649    -18084.39549        50.000  
 16 04 02 13 58 15.9000000  0  2G08G03                                          
  22419013.50849 117812710.52749     -4881.32449        49.000  
  24026267.78949 126258887.09849    -18089.40649        50.000  
 16 04 02 13 58 16.0000000  0  2G08G03                                          
  22419106.43049 117813198.85949     -4885.53149        49.000  
  24026612.07049 126260696.29749    -18094.24649        50.000  
 16 04 02 13 58 16.1000000  0  2G08G03                                          
  22419199.45349 117813687.68049     -4890.54749        49.000  
  24026956.45349 126262506.03949    -18099.85249        50.000  
 16 04 02 13 58 16.2000000  0  2G08G03                                          
  22419292.56249 117814176.93849     -4894.94949        49.000  
  24027300.93049 126264316.28549    -18104.89849        50.000  
 16 04 02 13 58 16.3000000  0  2G08G03                                          
  22419385.73449 117814666.59049     -4898.79349        49.000  
  24027645.49249 126266126.97349    -18109.21149        50.000  
 16 04 02 13 58 16.4000000  0  2G08G03                                          
  22419479.00849 117815156.72349     -4903.45349        49.000  
  24027990.16449 126267938.21149    -18114.59449        50.000  
 16 04 02 13 58 16.5000000  0  2G08G03                                          
  22419572.37549 117815647.36749     -4908.60549        49.000  
  24028334.93849 126269750.00449    -18120.27049        50.000  
 16 04 02 13 58 16.6000000  0  2G08G03                                          
  22419665.81249 117816138.37149     -4912.38749        49.000  
  24028679.78949 126271562.22349    -18124.52049        50.000  
 16 04 02 13 58 16.7000000  0  2G08G03                                          
  22419759.33649 117816629.86749     -4917.35949        49.000  
  24029024.75049 126273375.00449    -18130.20349        50.000  
 16 04 02 13 58 16.8000000  0  2G08G03                                          
  22419852.95349 117817121.83249     -4922.00849        49.000  
  24029369.80549 126275188.29749    -18135.44549        50.000  
 16 04 02 13 58 16.9000000  0  2G08G03                                          
  22419946.64849 117817614.20749     -4926.21549        49.000  
  24029714.96149 126277002.07849    -18140.27349        50.000  
 16 04 02 13 58 17.0000000  0  2G08G03                                          
  22420040.44549 117818107.08649     -4931.20749        49.000  
  24030060.21149 126278816.39549    -18145.69149        50.000  
 16 04 02 13 58 17.1000000  0  2G08G03                                          
  22420134.31249 117818600.39149     -4935.27349        49.000  
  24030405.56249 126280631.21549    -18150.52349        50.000  
 16 04 02 13 58 17.2000000  0  2G08G03                                          
  22420228.27349 117819094.13749     -4939.91849        49.000  
  24030751.00049 126282446.53949    -18155.70349        50.000  
 16 04 02 13 58 17.3000000  0  2G08G03                                          
  22420322.32849 117819588.41449     -4944.95749        49.000  
  24031096.55549 126284262.44149    -18161.32449        50.000  
 16 04 02 13 58 17.4000000  0  2G08G03                                          
  22420416.46949 117820083.09849     -4949.12949        49.000  
  24031442.20349 126286078.81249    -18166.08249        50.000  
 16 04 02 13 58 17.5000000  0  2G08G03                                          
  22420510.68049 117820578.19549     -4953.35249        49.000  
  24031787.93849 126287895.65649    -18170.80949        50.000  
 16 04 02 13 58 17.6000000  0  2G08G03                                          
  22420605.00049 117821073.82449     -4958.55149        49.000  
  24032133.78149 126289713.09049    -18176.68849        50.000  
 16 04 02 13 58 17.7000000  0  2G08G03                                          
  22420699.39849 117821569.88749     -4962.97349        49.000  
  24032479.71949 126291531.02349    -18181.74649        50.000  
 16 04 02 13 58 17.8000000  0  2G08G03                                          
  22420793.88349 117822066.40249     -4967.50049        49.000  
  24032825.75849 126293349.45749    -18186.71549        50.000  
 16 04 02 13 58 17.9000000  0  2G08G03                                          
  22420888.44549 117822563.35249     -4971.71549        49.000  
  24033171.89149 126295168.37949    -18191.47349        50.000  
 16 04 02 13 58 18.0000000  0  2G08G03                                          
  22420983.09449 117823060.70349     -4975.68449        49.000  
  24033518.10949 126296987.78549    -18196.32049        50.000  
 16 04 02 13 58 18.1000000  0  2G08G03                                          
  22421077.82849 117823558.52349     -4980.42649        49.000  
  24033864.43049 126298807.69549    -18201.48849        50.000  
 16 04 02 13 58 18.2000000  0  2G08G03                                          
  22421172.64849 117824056.80549     -4984.99649        49.000  
  24034210.84449 126300628.12549    -18206.57049        50.000  
 16 04 02 13 58 18.3000000  0  2G08G03                                          
  22421267.53949 117824555.47349     -4988.96949        49.000  
  24034557.35249 126302449.01649    -18211.22749        50.000  
 16 04 02 13 58 18.4000000  0  2G08G03                                          
  22421362.53949 117825054.69149     -4994.52749        49.000  
  24034903.96949 126304270.49649    -18217.12149        50.000  
 16 04 02 13 58 18.5000000  0  2G08G03                                          
  22421457.60949 117825554.29749     -4998.30949        49.000  
  24035250.67249 126306092.43849    -18221.56649        50.000  
 16 04 02 13 58 18.6000000  0  2G08G03                                          
  22421552.78149 117826054.41049     -5003.43449        49.000  
  24035597.48449 126307914.94549    -18227.43449        50.000  
 16 04 02 13 58 18.7000000  0  2G08G03                                          
  22421648.01649 117826554.88749     -5007.04749        49.000  
  24035944.37549 126309737.86749    -18231.57849        50.000  
 16 04 02 13 58 18.8000000  0  2G08G03                                          
  22421743.34449 117827055.83249     -5011.55949        49.000  
  24036291.35949 126311561.32449    -18236.71949        50.000  
 16 04 02 13 58 18.9000000  0  2G08G03                                          
  22421838.75049 117827557.20749     -5016.06249        49.000  
  24036638.44549 126313385.25449    -18241.64549        50.000  
 16 04 02 13 58 19.0000000  0  2G08G03                                          
  22421934.25849 117828059.09849     -5021.13749        49.000  
  24036985.63349 126315209.76649    -18247.38749        50.000  
 16 04 02 13 58 19.1000000  0  2G08G03                                          
  22422029.83649 117828561.35549     -5025.06249        49.000  
  24037332.91449 126317034.70749    -18251.92249        50.000  
 16 04 02 13 58 19.2000000  0  2G08G03                                          
  22422125.50849 117829064.11749     -5029.91049        49.000  
  24037680.29749 126318860.21149    -18257.39549        50.000  
 16 04 02 13 58 19.3000000  0  2G08G03                                          
  22422221.27349 117829567.36749     -5034.82449        49.000  
  24038027.78149 126320686.25049    -18262.84449        50.000  
 16 04 02 13 58 19.4000000  0  2G08G03                                          
  22422317.10949 117830070.98849     -5038.68049        49.000  
  24038375.34449 126322512.72349    -18267.18449        50.000  
 16 04 02 13 58 19.5000000  0  2G08G03                                          
  22422413.03949 117830575.12949     -5043.70749        49.000  
  24038723.02349 126324339.76649    -18272.65649        50.000  
 16 04 02 13 58 19.6000000  0  2G08G03                                          
  22422509.04749 117831079.64849     -5047.44149        49.000  
  24039070.78949 126326167.28149    -18277.44549        50.000  
 16 04 02 13 58 19.7000000  0  2G08G03                                          
  22422605.14149 117831584.62549     -5051.79749        49.000  
  24039418.64149 126327995.27349    -18282.18049        50.000  
 16 04 02 13 58 19.8000000  0  2G08G03                                          
  22422701.32049 117832090.02349     -5056.24649        49.000  
  24039766.58649 126329823.76249    -18287.16849        50.000  
 16 04 02 13 58 19.9000000  0  2G08G03                                          
  22422797.57849 117832595.86349     -5060.61749        49.000  
  24040114.63349 126331652.73849    -18292.10549        50.000  
 16 04 02 13 58 20.0000000  0  2G08G03                                          
  22422893.93049 117833102.19549     -5065.63349        49.000  
  24040462.78149 126333482.27749    -18297.71549        50.000  
 16 04 02 13 58 20.1000000  0  2G08G03                                          
  22422990.36749 117833608.99249     -5070.14549        49.000  
  24040811.03149 126335312.34049    -18302.94949        50.000  
 16 04 02 13 58 20.2000000  0  2G08G03                                          
  22423086.88349 117834116.20349     -5074.48849        49.000  
  24041159.36749 126337142.85249    -18307.56649        50.000  
 16 04 02 13 58 20.3000000  0  2G08G03                                          
  22423183.49249 117834623.87149     -5078.90649        49.000  
  24041507.80549 126338973.89849    -18312.68449        50.000  
 16 04 02 13 58 20.4000000  0  2G08G03                                          
  22423280.19549 117835132.04349     -5084.13349        49.000  
  24041856.35249 126340805.50449    -18318.39849        50.000  
 16 04 02 13 58 20.5000000  0  2G08G03                                          
  22423376.98449 117835640.66049     -5088.37149        49.000  
  24042204.99249 126342637.61749    -18323.52749        50.000  
 16 04 02 13 58 20.6000000  0  2G08G03                                          
  22423473.84449 117836149.67249     -5092.44549        49.000  
  24042553.71949 126344470.18049    -18328.09449        50.000  
 16 04 02 13 58 20.7000000  0  2G08G03                                          
  22423570.79749 117836659.16449     -5097.21149        49.000  
  24042902.54749 126346303.27349    -18333.35949        50.000  
 16 04 02 13 58 20.8000000  0  2G08G03                                          
  22423667.82849 117837169.07449     -5101.30149        49.000  
  24043251.46149 126348136.84049    -18338.04749        50.000  
 16 04 02 13 58 20.9000000  0  2G08G03                                          
  22423764.93849 117837679.40249     -5105.58649        49.000  
  24043600.46949 126349970.89149    -18342.84449        50.000  
 16 04 02 13 58 21.0000000  0  2G08G03                                          
  22423862.14849 117838190.23049     -5110.52749        49.000  
  24043949.58649 126351805.48849    -18348.25449        50.000  
 16 04 02 13 58 21.1000000  0  2G08G03                                          
  22423959.43849 117838701.49249     -5114.80549        49.000  
  24044298.78949 126353640.59449    -18353.31649        50.000  
 16 04 02 13 58 21.2000000  0  2G08G03                                          
  22424056.80549 117839213.17249     -5119.25449        49.000  
  24044648.09449 126355476.16049    -18358.18049        50.000  
 16 04 02 13 58 21.3000000  0  2G08G03                                          
  22424154.26649 117839725.31649     -5123.57849        49.000  
  24044997.49249 126357312.25449    -18363.21549        50.000  
 16 04 02 13 58 21.4000000  0  2G08G03                                          
  22424251.81249 117840237.92249     -5128.41049        49.000  
  24045346.98449 126359148.86749    -18368.52349        50.000  
 16 04 02 13 58 21.5000000  0  2G08G03                                          
  22424349.43849 117840750.98849     -5132.99649        49.000  
  24045696.57849 126360986.00049    -18373.74649        50.000  
 16 04 02 13 58 21.6000000  0  2G08G03                                          
  22424447.15649 117841264.47349     -5137.09849        49.000  
  24046046.26649 126362823.59449    -18378.27049        50.000  
 16 04 02 13 58 21.7000000  0  2G08G03                                          
  22424544.93849 117841778.33649     -5140.89849        49.000  
  24046396.03149 126364661.64549    -18382.68449        50.000  
 16 04 02 13 58 21.8000000  0  2G08G03                                          
  22424642.83649 117842292.75849     -5146.50449        49.000  
  24046745.91449 126366500.29749    -18388.81249        50.000  
 16 04 02 13 58 21.9000000  0  2G08G03                                          
  22424740.81249 117842807.62949     -5151.19149        49.000  
  24047095.89849 126368339.46949    -18394.16449        50.000  
 16 04 02 13 58 22.0000000  0  2G08G03                                          
  22424838.86749 117843322.90649     -5155.02349        49.000  
  24047445.96949 126370179.10249    -18398.70749        50.000  
 16 04 02 13 58 22.1000000  0  2G08G03                                          
  22424936.99249 117843838.60249     -5159.25449        49.000  
  24047796.13349 126372019.19949    -18403.38749        50.000  
 16 04 02 13 58 22.2000000  0  2G08G03                                          
  22425035.21949 117844354.79349     -5164.14549        49.000  
  24048146.39849 126373859.85249    -18408.82049        50.000  
 16 04 02 13 58 22.3000000  0  2G08G03                                          
  22425133.53949 117844871.44949     -5168.89549        49.000  
  24048496.75849 126375701.02749    -18414.13749        50.000  
 16 04 02 13 58 22.4000000  0  2G08G03                                          
  22425231.93049 117845388.50449     -5172.96149        49.000  
  24048847.21949 126377542.67249    -18418.91849        50.000  
 16 04 02 13 58 22.5000000  0  2G08G03                                          
  22425330.43049 117845906.10949     -5178.25449        49.000  
  24049197.78149 126379384.90249    -18424.67249        50.000  
 16 04 02 13 58 22.6000000  0  2G08G03                                          
  22425429.00049 117846424.12149     -5182.58249        49.000  
  24049548.43849 126381227.60549    -18429.53149        50.000  
 16 04 02 13 58 22.7000000  0  2G08G03                                          
  22425527.65649 117846942.53549     -5186.35949        49.000  
  24049899.18049 126383070.77349    -18434.00849        50.000  
 16 04 02 13 58 22.8000000  0  2G08G03                                          
  22425626.39849 117847461.43849     -5191.32049        49.000  
  24050250.02349 126384914.46949    -18439.25849        50.000  
 16 04 02 13 58 22.9000000  0  2G08G03                                          
  22425725.24249 117847980.83249     -5196.16049        49.000  
  24050600.97749 126386758.73449    -18444.89849        50.000  
 16 04 02 13 58 23.0000000  0  2G08G03                                          
  22425824.15649 117848500.62949     -5200.46949        49.000  
  24050952.02349 126388603.46149    -18449.80549        50.000  
 16 04 02 13 58 23.1000000  0  2G08G03                                          
  22425923.15649 117849020.90649     -5204.85549        49.000  
  24051303.15649 126390448.70349    -18454.60249        50.000  
 16 04 02 13 58 23.2000000  0  2G08G03                                          
  22426022.24249 117849541.59849     -5209.19949        49.000  
  24051654.39149 126392294.43049    -18459.62149        50.000  
 16 04 02 13 58 23.3000000  0  2G08G03                                          
  22426121.39849 117850062.69549     -5213.34049        49.000  
  24052005.71149 126394140.61749    -18464.28549        50.000  
 16 04 02 13 58 23.4000000  0  2G08G03                                          
  22426220.65649 117850584.27749     -5217.92649        49.000  
  24052357.13349 126395987.34449    -18469.41849        50.000  
 16 04 02 13 58 23.5000000  0  2G08G03                                          
  22426319.98449 117851106.26249     -5222.06649        49.000  
  24052708.64149 126397834.53149    -18474.17649        50.000  
 16 04 02 13 58 23.6000000  0  2G08G03                                          
  22426419.39149 117851628.66449     -5226.00449        49.000  
  24053060.23449 126399682.19149    -18478.75449        50.000  
 16 04 02 13 58 23.7000000  0  2G08G03                                          
  22426518.89149 117852151.54749     -5231.18849        49.000  
  24053411.93849 126401530.38749    -18484.32449        50.000  
 16 04 02 13 58 23.8000000  0  2G08G03                                          
  22426618.48449 117852674.91449     -5236.31249        49.000  
  24053763.74249 126403379.12949    -18490.02749        50.000  
 16 04 02 13 58 23.9000000  0  2G08G03                                          
  22426718.16449 117853198.74249     -5240.55149        49.000  
  24054115.64149 126405228.37949    -18494.85249        50.000  
 16 04 02 13 58 24.0000000  0  2G08G03                                          
  22426817.93049 117853722.99649     -5244.81249        49.000  
  24054467.63349 126407078.12149    -18499.81249        50.000  
 16 04 02 13 58 24.1000000  0  2G08G03                                          
  22426917.77349 117854247.68849     -5249.31649        49.000  
  24054819.71949 126408928.35249    -18504.65249        50.000  
 16 04 02 13 58 24.2000000  0  2G08G03                                          
  22427017.71149 117854772.84449     -5253.87949        49.000  
  24055171.90649 126410779.10549    -18509.90249        50.000  
 16 04 02 13 58 24.3000000  0  2G08G03                                          
  22427117.73449 117855298.48449     -5258.67649        49.000  
  24055524.20349 126412630.40649    -18515.37149        50.000  
 16 04 02 13 58 24.4000000  0  2G08G03                                          
  22427217.85249 117855824.60249     -5263.51649        49.000  
  24055876.59449 126414482.23449    -18520.68049        50.000  
 16 04 02 13 58 24.5000000  0  2G08G03                                          
  22427318.04749 117856351.12949     -5267.62949        49.000  
  24056229.07049 126416334.51249    -18525.20749        50.000  
 16 04 02 13 58 24.6000000  0  2G08G03                                          
  22427418.32049 117856878.08249     -5271.74649        49.000  
  24056581.64849 126418187.30549    -18530.15649        50.000  
 16 04 02 13 58 24.7000000  0  2G08G03                                          
  22427518.68049 117857405.44149     -5275.85949        49.000  
  24056934.30549 126420040.54349    -18534.67249        50.000  
 16 04 02 13 58 24.8000000  0  2G08G03                                          
  22427619.13349 117857933.33649     -5281.41849        49.000  
  24057287.07849 126421894.37549    -18540.78949        50.000  
 16 04 02 13 58 24.9000000  0  2G08G03                                          
  22427719.68049 117858461.70349     -5285.97349        49.000  
  24057639.95349 126423748.73049    -18546.00449        50.000  
 16 04 02 13 58 25.0000000  0  2G08G03                                          
  22427820.30549 117858990.50049     -5290.63349        49.000  
  24057992.91449 126425603.57449    -18551.10249        50.000  
 16 04 02 13 58 25.1000000  0  2G08G03                                          
  22427921.02349 117859519.76649     -5294.87949        49.000  
  24058345.98449 126427458.94549    -18556.06249        50.000  
 16 04 02 13 58 25.2000000  0  2G08G03                                          
  22428021.81249 117860049.45749     -5299.23849        49.000  
  24058699.14149 126429314.79349    -18560.90249        50.000  
 16 04 02 13 58 25.3000000  0  2G08G03                                          
  22428122.69549 117860579.60549     -5303.71149        49.000  
  24059052.39149 126431171.15649    -18565.96549        50.000  
 16 04 02 13 58 25.4000000  0  2G08G03                                          
  22428223.66449 117861110.19149     -5308.07049        49.000  
  24059405.74249 126433028.01649    -18570.89149        50.000  
 16 04 02 13 58 25.5000000  0  2G08G03                                          
  22428324.72749 117861641.26249     -5313.19549        49.000  
  24059759.19549 126434885.41449    -18576.46549        50.000  
 16 04 02 13 58 25.6000000  0  2G08G03                                          
  22428425.85949 117862172.70749     -5316.64549        49.000  
  24060112.72749 126436743.23849    -18580.57049        50.000  
 16 04 02 13 58 25.7000000  0  2G08G03                                          
  22428527.08649 117862704.63749     -5321.64549        49.000  
  24060466.36749 126438601.60949    -18586.07049        50.000  
 16 04 02 13 58 25.8000000  0  2G08G03                                          
  22428628.39149 117863237.00049     -5325.92249        49.000  
  24060820.09449 126440460.46149    -18590.84049        50.000  
 16 04 02 13 58 25.9000000  0  2G08G03                                          
  22428729.77349 117863769.80149     -5330.37949        49.000  
  24061173.91449 126442319.81249    -18595.84849        50.000  
 16 04 02 13 58 26.0000000  0  2G08G03                                          
  22428831.26649 117864303.12949     -5335.55149        49.000  
  24061527.85249 126444179.74649    -18601.59849        50.000  
 16 04 02 13 58 26.1000000  0  2G08G03                                          
  22428932.83649 117864836.87149     -5339.98049        49.000  
  24061881.87549 126446040.16049    -18606.68049        50.000  
 16 04 02 13 58 26.2000000  0  2G08G03                                          
  22429034.49249 117865371.11349     -5344.82849        49.000  
  24062236.00849 126447901.10949    -18611.93849        50.000  
 16 04 02 13 58 26.3000000  0  2G08G03                                          
  22429136.23449 117865905.75449     -5348.52049        49.000  
  24062590.21949 126449762.52349    -18616.37949        50.000  
 16 04 02 13 58 26.4000000  0  2G08G03                                          
  22429238.03949 117866440.73849     -5352.15649        49.000  
  24062944.51649 126451624.34449    -18620.41849        50.000  
 16 04 02 13 58 26.5000000  0  2G08G03                                          
  22429339.93849 117866976.23849     -5357.10249        49.000  
  24063298.91449 126453486.72349    -18625.92249        50.000  
 16 04 02 13 58 26.6000000  0  2G08G03                                          
  22429441.93049 117867512.21149     -5362.05149        49.000  
  24063653.41449 126455349.64849    -18631.66049        50.000  
 16 04 02 13 58 26.7000000  0  2G08G03                                          
  22429544.01649 117868048.68049     -5366.89149        49.000  
  24064008.01649 126457213.10549    -18636.96549        50.000  
 16 04 02 13 58 26.8000000  0  2G08G03                                          
  22429646.18049 117868585.53149     -5370.94149        49.000  
  24064362.71149 126459077.01249    -18641.46549        50.000  
 16 04 02 13 58 26.9000000  0  2G08G03                                          
  22429748.43049 117869122.87949     -5375.50849        49.000  
  24064717.50049 126460941.45749    -18646.64549        50.000  
 16 04 02 13 58 27.0000000  0  2G08G03                                          
  22429850.75849 117869660.61349     -5379.57849        49.000  
  24065072.38349 126462806.35549    -18651.23449        50.000  
 16 04 02 13 58 27.1000000  0  2G08G03                                          
  22429953.18049 117870198.82849     -5384.55949        49.000  
  24065427.35949 126464671.78549    -18656.69149        50.000  
 16 04 02 13 58 27.2000000  0  2G08G03                                          
  22430055.68849 117870737.53549     -5389.29349        49.000  
  24065782.45349 126466537.77349    -18662.13749        50.000  
 16 04 02 13 58 27.3000000  0  2G08G03                                          
  22430158.25849 117871276.55949     -5392.40649        49.000  
  24066137.60249 126468404.12949    -18665.82849        50.000  
 16 04 02 13 58 27.4000000  0  2G08G03                                          
  22430260.93849 117871816.12949     -5397.93849        49.000  
  24066492.87549 126470271.08249    -18671.76249        50.000  
 16 04 02 13 58 27.5000000  0  2G08G03                                          
  22430363.69549 117872356.13749     -5402.37949        49.000  
  24066848.23449 126472138.51649    -18676.76649        50.000  
 16 04 02 13 58 27.6000000  0  2G08G03                                          
  22430466.54749 117872896.59049     -5406.88749        49.000  
  24067203.69549 126474006.47349    -18681.94549        50.000  
 16 04 02 13 58 27.7000000  0  2G08G03                                          
  22430569.48449 117873437.54349     -5411.80549        49.000  
  24067559.25849 126475874.96949    -18687.39149        50.000  
 16 04 02 13 58 27.8000000  0  2G08G03                                          
  22430672.50049 117873978.89549     -5415.79349        49.000  
  24067914.91449 126477743.92649    -18691.86749        50.000  
 16 04 02 13 58 27.9000000  0  2G08G03                                          
  22430775.59449 117874520.68049     -5420.11749        49.000  
  24068270.65649 126479613.36749    -18696.66449        50.000  
 16 04 02 13 58 28.0000000  0  2G08G03                                          
  22430878.78149 117875062.93049     -5424.69949        49.000  
  24068626.49249 126481483.33649    -18701.96949        50.000  
 16 04 02 13 58 28.1000000  0  2G08G03                                          
  22430982.04749 117875605.59449     -5428.99249        49.000  
  24068982.43049 126483353.77049    -18706.70349        50.000  
 16 04 02 13 58 28.2000000  0  2G08G03                                          
  22431085.41449 117876148.77749     -5434.17249        49.000  
  24069338.46949 126485224.77049    -18712.46949        50.000  
