     2.10           OBSERVATION DATA    G (GPS)             RINEX VERSION / TYPE
Convert v1.8.0                          07-Jun-2016 18:54   PGM / RUN BY / DATE 
Signal Strength values S1,S2 are in dBHz                    COMMENT             
                                                            MARKER NAME         
                                                            MARKER NUMBER       
                                                            OBSERVER / AGENCY   
                    NovAtel GPSCard                         REC # / TYPE / VERS 
                                                            ANT # / TYPE        
0.0000        0.0000        0.0000                          APPROX POSITION XYZ 
        0.0000        0.0000        0.0000                  ANTENNA: DELTA H/E/N
     1     1                                                WAVELENGTH FACT L1/2
     1     1     3   G03   G16   G21                        WAVELENGTH FACT L1/2
                                                            COMMENT             
                                                            COMMENT             
                                                            COMMENT             
                                                            COMMENT             
                                                            COMMENT             
                                                            COMMENT             
     4    C1    L1    D1    S1                              # / TYPES OF OBSERV 
     0.100                                                  INTERVAL            
  2016    04    02    12    26    36.9000000    GPS         TIME OF FIRST OBS   
  2016    04    02    12    30    27.8000000    GPS         TIME OF LAST OBS    
Leap Seconds Unknown                                        COMMENT             
                                                            END OF HEADER       
 16 04 02 12 26 36.9000000  0  1G21                                             
  22571815.38349 118615690.02359     -7258.12949        48.000  
 16 04 02 12 26 37.0000000  0  3G21G16G03                                       
  22571953.51649 118616415.89149     -7258.94949        48.000  
  18752073.07849  98542808.19159     12077.85249        49.000  
  21480010.03949 112878213.22359      7742.93449        48.000  
 16 04 02 12 26 37.1000000  0  3G21G16G03                                       
  22572091.64849 118617141.80949     -7259.77049        48.000  
  18751843.28149  98541600.58249     12074.13749        49.000  
  21479862.71949 112877439.06249      7739.64849        48.000  
 16 04 02 12 26 37.2000000  0  3G21G16G03                                       
  22572229.79749 118617867.79349     -7260.16449        48.000  
  18751613.53949  98540393.35949     12070.38349        49.000  
  21479715.47749 112876665.31249      7735.73049        48.000  
 16 04 02 12 26 37.3000000  0  3G21G16G03                                       
  22572367.97749 118618593.86349     -7261.09449        48.000  
  18751383.89149  98539186.52749     12066.44949        50.000  
  21479568.31249 112875891.94149      7731.98049        48.000  
 16 04 02 12 26 37.4000000  0  3G21G16G03                                       
  22572506.17249 118619320.07049     -7262.65649        48.000  
  18751154.31249  98537980.12149     12062.20349        49.000  
  21479421.22749 112875118.97749      7727.78149        48.000  
 16 04 02 12 26 37.5000000  0  3G21G16G03                                       
  22572644.36749 118620046.35949     -7263.44949        48.000  
  18750924.82049  98536774.10549     12058.28549        49.000  
  21479274.21149 112874346.42249      7723.75449        48.000  
 16 04 02 12 26 37.6000000  0  3G21G16G03                                       
  22572782.58649 118620772.70349     -7263.86749        48.000  
  18750695.39849  98535568.46949     12054.54749        49.000  
  21479127.25849 112873574.21549      7720.28949        48.000  
 16 04 02 12 26 37.7000000  0  3G21G16G03                                       
  22572920.82049 118621499.05549     -7263.93849        48.000  
  18750466.03149  98534363.15249     12051.25449        49.000  
  21478980.37549 112872802.34049      7716.87149        48.000  
 16 04 02 12 26 37.8000000  0  3G21G16G03                                       
  22573059.06249 118622225.55549     -7265.50049        48.000  
  18750236.75049  98533158.28149     12046.68849        49.000  
  21478833.56249 112872030.87549      7712.69149        48.000  
 16 04 02 12 26 37.9000000  0  3G21G16G03                                       
  22573197.31249 118622952.07049     -7265.41049        48.000  
  18750007.53149  98531953.72749     12043.82049        49.000  
  21478686.82049 112871259.74649      7709.69949        48.000  
 16 04 02 12 26 38.0000000  0  3G21G16G03                                       
  22573335.57849 118623678.66049     -7266.39549        48.000  
  18749778.37549  98530749.56649     12039.68449        49.000  
  21478540.15649 112870489.00449      7705.70749        48.000  
 16 04 02 12 26 38.1000000  0  3G21G16G03                                       
  22573473.88349 118624405.39149     -7267.46549        48.000  
  18749549.32049  98529545.85249     12035.39149        49.000  
  21478393.57049 112869718.69149      7701.39549        48.000  
 16 04 02 12 26 38.2000000  0  3G21G16G03                                       
  22573612.18049 118625132.13749     -7268.10949        48.000  
  18749320.32049  98528342.46149     12031.78949        49.000  
  21478247.03949 112868948.69549      7698.04749        48.000  
 16 04 02 12 26 38.3000000  0  3G21G16G03                                       
  22573750.50049 118625859.02749     -7269.11349        48.000  
  18749091.40649  98527139.50449     12027.80549        49.000  
  21478100.60249 112868179.14149      7693.84449        48.000  
 16 04 02 12 26 38.4000000  0  3G21G16G03                                       
  22573888.83649 118626585.97749     -7270.10549        48.000  
  18748862.56249  98525936.93049     12023.74649        49.000  
  21477954.21949 112867409.94949      7689.93049        48.000  
 16 04 02 12 26 38.5000000  0  3G21G16G03                                       
  22574027.18049 118627312.97749     -7270.25049        48.000  
  18748633.78949  98524734.71549     12020.39149        49.000  
  21477807.91449 112866641.11749      7686.65649        48.000  
 16 04 02 12 26 38.6000000  0  3G21G16G03                                       
  22574165.53149 118628040.01649     -7270.97349        48.000  
  18748405.08649  98523532.85249     12016.59449        49.000  
  21477661.67249 112865872.62549      7682.93849        48.000  
 16 04 02 12 26 38.7000000  0  3G21G16G03                                       
  22574303.89849 118628767.18449     -7271.81649        48.000  
  18748176.46149  98522331.42649     12012.46949        49.000  
  21477515.51649 112865104.56249      7678.87149        48.000  
 16 04 02 12 26 38.8000000  0  3G21G16G03                                       
  22574442.28949 118629494.43049     -7272.96149        48.000  
  18747947.90649  98521130.35949     12008.69549        49.000  
  21477369.43049 112864336.86749      7675.01249        48.000  
 16 04 02 12 26 38.9000000  0  3G21G16G03                                       
  22574580.68849 118630221.76649     -7273.70349        48.000  
  18747719.43049  98519929.70749     12004.68049        50.000  
  21477223.42249 112863569.56249      7671.16049        48.000  
 16 04 02 12 26 39.0000000  0  3G21G16G03                                       
  22574719.10249 118630949.11349     -7273.85249        48.000  
  18747491.02349  98518729.37949     12001.46949        49.000  
  21477077.46949 112862802.57849      7668.07849        48.000  
 16 04 02 12 26 39.1000000  0  3G21G16G03                                       
  22574857.52349 118631676.55949     -7274.86749        48.000  
  18747262.68849  98517529.44549     11997.54749        49.000  
  21476931.58649 112862035.99249      7664.10549        48.000  
 16 04 02 12 26 39.2000000  0  3G21G16G03                                       
  22574995.96149 118632404.05549     -7275.18049        48.000  
  18747034.41449  98516329.88349     11993.87949        49.000  
  21476785.78149 112861269.75449      7660.61349        48.000  
 16 04 02 12 26 39.3000000  0  3G21G16G03                                       
  22575134.41449 118633131.66049     -7276.59849        48.000  
  18746806.22749  98515130.74249     11989.49649        49.000  
  21476640.04749 112860503.94949      7656.18449        48.000  
 16 04 02 12 26 39.4000000  0  3G21G16G03                                       
  22575272.89849 118633859.36349     -7277.30949        48.000  
  18746578.10949  98513932.00449     11985.64549        49.000  
  21476494.39149 112859738.51649      7652.46149        48.000  
 16 04 02 12 26 39.5000000  0  3G21G16G03                                       
  22575411.38349 118634587.16049     -7278.62949        48.000  
  18746350.07049  98512733.66049     11981.32049        49.000  
  21476348.81249 112858973.48449      7648.32049        48.000  
 16 04 02 12 26 39.6000000  0  3G21G16G03                                       
  22575549.89849 118635315.04349     -7279.18049        48.000  
  18746122.10949  98511535.71949     11977.51249        49.000  
  21476203.31249 112858208.85249      7644.53549        48.000  
 16 04 02 12 26 39.7000000  0  3G21G16G03                                       
  22575688.43049 118636043.03949     -7280.45749        48.000  
  18745894.22749  98510338.19549     11973.31249        49.000  
  21476057.88349 112857444.62549      7640.42649        48.000  
 16 04 02 12 26 39.8000000  0  3G21G16G03                                       
  22575826.96949 118636771.09049     -7280.87949        48.000  
  18745666.41449  98509141.02049     11969.86349        49.000  
  21475912.51649 112856680.74649      7636.96949        48.000  
 16 04 02 12 26 39.9000000  0  3G21G16G03                                       
  22575965.53149 118637499.21149     -7281.74649        48.000  
  18745438.68049  98507944.23449     11965.91849        49.000  
  21475767.22749 112855917.25049      7633.07849        48.000  
 16 04 02 12 26 40.0000000  0  3G21G16G03                                       
  22576104.09449 118638227.36349     -7281.79749        48.000  
  18745211.00049  98506747.80549     11962.59449        49.000  
  21475622.00849 112855154.09849      7629.92249        48.000  
 16 04 02 12 26 40.1000000  0  3G21G16G03                                       
  22576242.68049 118638955.64849     -7283.42249        48.000  
  18744983.41449  98505551.80149     11958.10549        49.000  
  21475476.86749 112854391.36349      7625.48449        48.000  
 16 04 02 12 26 40.2000000  0  3G21G16G03                                       
  22576381.28949 118639684.04749     -7284.46949        48.000  
  18744755.88349  98504356.22349     11953.77049        49.000  
  21475331.81249 112853629.06249      7621.10249        48.000  
 16 04 02 12 26 40.3000000  0  3G21G16G03                                       
  22576519.90649 118640412.48849     -7284.67649        48.000  
  18744528.44549  98503160.99249     11950.55549        49.000  
  21475186.81249 112852867.08249      7617.94549        48.000  
 16 04 02 12 26 40.4000000  0  3G21G16G03                                       
  22576658.53149 118641140.96549     -7285.21949        48.000  
  18744301.04749  98501966.10949     11946.98849        49.000  
  21475041.89149 112852105.44949      7614.60249        48.000  
 16 04 02 12 26 40.5000000  0  3G21G16G03                                       
  22576797.16449 118641869.53149     -7286.05149        48.000  
  18744073.74249  98500771.61349     11943.13749        49.000  
  21474897.03149 112851344.20749      7610.76249        48.000  
 16 04 02 12 26 40.6000000  0  3G21G16G03                                       
  22576935.82049 118642598.16849     -7286.94949        48.000  
  18743846.52349  98499577.52049     11939.05149        49.000  
  21474752.25049 112850583.35249      7606.66449        48.000  
 16 04 02 12 26 40.7000000  0  3G21G16G03                                       
  22577074.51649 118643326.97349     -7288.43849        48.000  
  18743619.37549  98498383.87949     11934.42249        49.000  
  21474607.54749 112849822.93449      7602.30149        48.000  
 16 04 02 12 26 40.8000000  0  3G21G16G03                                       
  22577213.20349 118644055.78949     -7288.84849        48.000  
  18743392.28149  98497190.58249     11930.95349        49.000  
  21474462.91449 112849062.88349      7598.53149        48.000  
 16 04 02 12 26 40.9000000  0  3G21G16G03                                       
  22577351.89849 118644784.70349     -7289.44149        48.000  
  18743165.28149  98495997.67249     11927.37149        49.000  
  21474318.34449 112848303.17649      7595.25849        48.000  
 16 04 02 12 26 41.0000000  0  3G21G16G03                                       
  22577490.60949 118645513.64549     -7289.78949        48.000  
  18742938.34449  98494805.11349     11923.73849        49.000  
  21474173.83649 112847543.83649      7591.60249        48.000  
 16 04 02 12 26 41.1000000  0  3G21G16G03                                       
  22577629.35949 118646242.71949     -7291.18849        48.000  
  18742711.49249  98493612.98449     11919.33649        49.000  
  21474029.42249 112846784.90649      7587.44949        48.000  
 16 04 02 12 26 41.2000000  0  3G21G16G03                                       
  22577768.11749 118646971.90649     -7292.39149        48.000  
  18742484.71949  98492421.28549     11914.96149        49.000  
  21473885.07849 112846026.41049      7583.12949        48.000  
 16 04 02 12 26 41.3000000  0  3G21G16G03                                       
  22577906.88349 118647701.11749     -7292.33249        48.000  
  18742258.00849  98491229.91049     11912.02749        49.000  
  21473740.79749 112845268.22749      7580.10949        48.000  
 16 04 02 12 26 41.4000000  0  3G21G16G03                                       
  22578045.65649 118648430.37949     -7292.91849        48.000  
  18742031.35949  98490038.90249     11908.33249        49.000  
  21473596.58649 112844510.41849      7576.28149        48.000  
 16 04 02 12 26 41.5000000  0  3G21G16G03                                       
  22578184.44549 118649159.72749     -7293.71149        48.000  
  18741804.79749  98488848.28949     11904.34849        49.000  
  21473452.44549 112843752.97349      7572.64149        48.000  
 16 04 02 12 26 41.6000000  0  3G21G16G03                                       
  22578323.25849 118649889.18849     -7295.21149        48.000  
  18741578.31249  98487658.09849     11899.85949        49.000  
  21473308.39849 112842995.95349      7568.18449        48.000  
 16 04 02 12 26 41.7000000  0  3G21G16G03                                       
  22578462.10249 118650618.77049     -7296.30949        48.000  
  18741351.91449  98486468.33649     11895.70349        49.000  
  21473164.42249 112842239.35249      7564.11749        48.000  
 16 04 02 12 26 41.8000000  0  3G21G16G03                                       
  22578600.93849 118651348.36749     -7296.46549        48.000  
  18741125.57049  98485278.90649     11892.33249        49.000  
  21473020.51649 112841483.07849      7560.83649        48.000  
 16 04 02 12 26 41.9000000  0  3G21G16G03                                       
  22578739.78949 118652078.07049     -7297.45749        48.000  
  18740899.30549  98484089.87949     11888.36749        49.000  
  21472876.68049 112840727.21949      7556.69149        48.000  
 16 04 02 12 26 42.0000000  0  3G21G16G03                                       
  22578878.65649 118652807.82849     -7297.93049        48.000  
  18740673.11749  98482901.22749     11884.71149        49.000  
  21472732.90649 112839971.69549      7553.37149        48.000  
 16 04 02 12 26 42.1000000  0  3G21G16G03                                       
  22579017.55549 118653537.67649     -7298.96149        48.000  
  18740446.99249  98481712.95349     11880.76249        49.000  
  21472589.21149 112839216.56649      7549.41049        48.000  
 16 04 02 12 26 42.2000000  0  3G21G16G03                                       
  22579156.45349 118654267.59049     -7299.38349        48.000  
  18740220.95349  98480525.09049     11876.90249        49.000  
  21472445.57849 112838461.82449      7545.72749        48.000  
 16 04 02 12 26 42.3000000  0  3G21G16G03                                       
  22579295.35249 118654997.55549     -7300.08249        48.000  
  18739994.96949  98479337.55149     11873.39149        49.000  
  21472302.02349 112837707.41849      7542.10549        48.000  
 16 04 02 12 26 42.4000000  0  3G21G16G03                                       
  22579434.28949 118655727.64549     -7301.39149        48.000  
  18739769.07849  98478150.47349     11868.87949        49.000  
  21472158.55549 112836953.44949      7537.77349        48.000  
 16 04 02 12 26 42.5000000  0  2G21G16                                          
  22579573.21949 118656457.77349     -7301.78149        48.000  
  18739543.25049  98476963.73449     11865.41049        49.000  
 16 04 02 12 26 42.6000000  0  2G21G16                                          
  22579712.18049 118657188.02749     -7303.08249        48.000  
  18739317.49249  98475777.41849     11861.19149        49.000  
 16 04 02 12 26 42.7000000  0  2G21G16                                          
  22579851.16449 118657918.34049     -7303.56649        48.000  
  18739091.81249  98474591.48849     11857.44149        49.000  
 16 04 02 12 26 42.8000000  0  2G21G16                                          
  22579990.14149 118658648.68049     -7303.62949        48.000  
  18738866.21149  98473405.88749     11854.31649        49.000  
 16 04 02 12 26 42.9000000  0  2G21G16                                          
  22580129.13349 118659379.03549     -7303.87949        48.000  
  18738640.65649  98472220.61749     11851.03549        49.000  
 16 04 02 12 26 43.0000000  0  2G21G16                                          
  22580268.14849 118660109.55149     -7305.34849        48.000  
  18738415.20349  98471035.81649     11846.27049        49.000  
 16 04 02 12 26 43.1000000  0  2G21G16                                          
  22580407.15649 118660840.03549     -7305.24249        48.000  
  18738189.78949  98469851.29349     11843.32449        49.000  
 16 04 02 12 26 43.2000000  0  2G21G16                                          
  22580546.18849 118661570.65249     -7306.48049        48.000  
  18737964.46149  98468667.20749     11838.98449        49.000  
 16 04 02 12 26 43.3000000  0  2G21G16                                          
  22580685.24249 118662301.37949     -7307.83649        48.000  
  18737739.21949  98467483.54749     11834.55949        49.000  
 16 04 02 12 26 43.4000000  0  2G21G16                                          
  22580824.31249 118663032.19949     -7308.89849        48.000  
  18737514.05549  98466300.28549     11830.53549        49.000  
 16 04 02 12 26 43.5000000  0  2G21G16                                          
  22580963.41449 118663763.19149     -7310.48849        48.000  
  18737288.98449  98465117.50849     11825.72749        49.000  
 16 04 02 12 26 43.6000000  0  2G21G16                                          
  22581102.51649 118664494.18049     -7310.31649        48.000  
  18737063.95349  98463935.04349     11822.67649        49.000  
 16 04 02 12 26 43.7000000  0  2G21G16                                          
  22581241.63349 118665225.23849     -7310.99249        48.000  
  18736839.00849  98462752.94149     11819.15649        49.000  
 16 04 02 12 26 43.8000000  0  2G21G16                                          
  22581380.77349 118665956.39149     -7311.58649        48.000  
  18736614.13349  98461571.26649     11815.10549        49.000  
 16 04 02 12 26 43.9000000  0  2G21G16                                          
  22581519.90649 118666687.56649     -7311.99249        48.000  
  18736389.32849  98460389.90649     11811.77049        49.000  
 16 04 02 12 26 44.0000000  0  2G21G16                                          
  22581659.07849 118667418.91049     -7313.92649        48.000  
  18736164.60249  98459209.02349     11806.89549        49.000  
 16 04 02 12 26 44.1000000  0  2G21G16                                          
  22581798.25849 118668150.28549     -7314.26649        48.000  
  18735939.95349  98458028.50449     11803.32049        49.000  
 16 04 02 12 26 44.2000000  0  2G21G16                                          
  22581937.45349 118668881.75449     -7315.05949        48.000  
  18735715.38349  98456848.36349     11799.49249        49.000  
 16 04 02 12 26 44.3000000  0  2G21G16                                          
  22582076.64849 118669613.26249     -7315.46949        48.000  
  18735490.87549  98455668.58649     11795.94149        49.000  
 16 04 02 12 26 44.4000000  0  2G21G16                                          
  22582215.86749 118670344.84449     -7316.30549        48.000  
  18735266.45349  98454489.19949     11791.98449        49.000  
 16 04 02 12 26 44.5000000  0  2G21G16                                          
  22582355.10249 118671076.48849     -7316.51649        48.000  
  18735042.10249  98453310.18849     11788.41449        49.000  
 16 04 02 12 26 44.6000000  0  2G21G16                                          
  22582494.32849 118671808.16049     -7316.88349        48.000  
  18734817.82049  98452131.48449     11785.27349        49.000  
 16 04 02 12 26 44.7000000  0  2G21G16                                          
  22582633.57849 118672539.91049     -7317.72749        48.000  
  18734593.59449  98450953.19549     11781.21549        49.000  
 16 04 02 12 26 44.8000000  0  2G21G16                                          
  22582772.84449 118673271.74649     -7318.81249        48.000  
  18734369.43849  98449775.29349     11777.15649        49.000  
 16 04 02 12 26 44.9000000  0  2G21G16                                          
  22582912.13349 118674003.67649     -7319.80949        48.000  
  18734145.37549  98448597.80549     11772.85949        49.000  
 16 04 02 12 26 45.0000000  0  2G21G16                                          
  22583051.41449 118674735.64149     -7320.02349        48.000  
  18733921.36749  98447420.65249     11769.60249        49.000  
 16 04 02 12 26 45.1000000  0  2G21G16                                          
  22583190.73449 118675467.72749     -7321.30149        48.000  
  18733697.44549  98446243.93049     11765.36749        49.000  
 16 04 02 12 26 45.2000000  0  2G21G16                                          
  22583330.05549 118676199.87549     -7321.90649        48.000  
  18733473.57849  98445067.59449     11761.49249        49.000  
 16 04 02 12 26 45.3000000  0  2G21G16                                          
  22583469.40649 118676932.12149     -7322.92249        48.000  
  18733249.80549  98443891.65649     11757.45349        49.000  
 16 04 02 12 26 45.4000000  0  2G21G16                                          
  22583608.76649 118677664.46949     -7323.96949        48.000  
  18733026.10949  98442716.14149     11753.23449        49.000  
 16 04 02 12 26 45.5000000  0  2G21G16                                          
  22583748.15649 118678396.94549     -7325.22349        48.000  
  18732802.50049  98441541.05549     11748.89849        49.000  
 16 04 02 12 26 45.6000000  0  2G21G16                                          
  22583887.55549 118679129.50849     -7326.14849        48.000  
  18732578.96149  98440366.36749     11744.86749        49.000  
 16 04 02 12 26 45.7000000  0  2G21G16                                          
  22584026.96949 118679862.11349     -7326.43449        48.000  
  18732355.49249  98439192.03949     11741.30949        49.000  
 16 04 02 12 26 45.8000000  0  2G21G16                                          
  22584166.39149 118680594.77049     -7326.56249        48.000  
  18732132.09449  98438018.05549     11738.24249        49.000  
 16 04 02 12 26 45.9000000  0  2G21G16                                          
  22584305.82049 118681327.44149     -7327.09049        48.000  
  18731908.75849  98436844.42249     11734.55549        49.000  
 16 04 02 12 26 46.0000000  0  2G21G16                                          
  22584445.26649 118682060.25049     -7328.48049        48.000  
  18731685.51649  98435671.23449     11729.99649        49.000  
 16 04 02 12 26 46.1000000  0  2G21G16                                          
  22584584.72749 118682793.12549     -7329.02049        48.000  
  18731462.32849  98434498.40649     11726.47349        49.000  
 16 04 02 12 26 46.2000000  0  2G21G16                                          
  22584724.18849 118683525.99649     -7328.97349        48.000  
  18731239.21149  98433325.89549     11723.47349        49.000  
 16 04 02 12 26 46.3000000  0  2G21G16                                          
  22584863.64849 118684258.90249     -7329.42249        48.000  
  18731016.15649  98432153.74249     11719.67649        49.000  
 16 04 02 12 26 46.4000000  0  2G21G16                                          
  22585003.17249 118684992.07849     -7332.09049        48.000  
  18730793.21149  98430982.15649     11713.95749        49.000  
 16 04 02 12 26 46.5000000  0  2G21G16                                          
  22585142.70349 118685725.27749     -7332.68449        48.000  
  18730570.33649  98429810.91449     11710.10949        49.000  
 16 04 02 12 26 46.6000000  0  2G21G16                                          
  22585282.23449 118686458.53949     -7332.83249        48.000  
  18730347.53149  98428640.03149     11707.03949        49.000  
 16 04 02 12 26 46.7000000  0  2G21G16                                          
  22585421.76649 118687191.74249     -7332.24649        48.000  
  18730124.76649  98427469.41449     11704.41849        49.000  
 16 04 02 12 26 46.8000000  0  2G21G16                                          
  22585561.31249 118687925.08649     -7333.68049        48.000  
  18729902.08649  98426299.23449     11700.07449        49.000  
 16 04 02 12 26 46.9000000  0  2G21G16                                          
  22585700.88349 118688658.52349     -7334.91849        48.000  
  18729679.48449  98425129.47349     11695.72749        49.000  
 16 04 02 12 26 47.0000000  0  2G21G16                                          
  22585840.46949 118689392.05149     -7335.82849        48.000  
  18729456.95349  98423960.11749     11691.55949        49.000  
 16 04 02 12 26 47.1000000  0  2G21G16                                          
  22585980.06249 118690125.61749     -7336.11349        48.000  
  18729234.50849  98422791.12149     11688.03149        49.000  
 16 04 02 12 26 47.2000000  0  2G21G16                                          
  22586119.66449 118690859.21549     -7336.07049        48.000  
  18729012.10949  98421622.44949     11685.03149        49.000  
 16 04 02 12 26 47.3000000  0  2G21G16                                          
  22586259.28149 118691592.86349     -7336.65649        48.000  
  18728789.78949  98420454.13349     11681.33649        49.000  
 16 04 02 12 26 47.4000000  0  2G21G16                                          
  22586398.93049 118692326.72749     -7338.93849        48.000  
  18728567.57049  98419286.35249     11676.11349        49.000  
 16 04 02 12 26 47.5000000  0  2G21G16                                          
  22586538.57049 118693060.55149     -7338.86349        48.000  
  18728345.39849  98418118.84849     11672.93849        49.000  
 16 04 02 12 26 47.6000000  0  2G21G16                                          
  22586678.24249 118693794.50849     -7340.26249        48.000  
  18728123.32849  98416951.78949     11668.48049        49.000  
 16 04 02 12 26 47.7000000  0  2G21G16                                          
  22586817.93849 118694528.59849     -7341.18849        48.000  
  18727901.32849  98415785.16449     11664.38349        49.000  
 16 04 02 12 26 47.8000000  0  2G21G16                                          
  22586957.62549 118695262.66849     -7341.07049        48.000  
  18727679.37549  98414618.83249     11661.43849        49.000  
 16 04 02 12 26 47.9000000  0  2G21G16                                          
  22587097.33649 118695996.83649     -7342.02049        48.000  
  18727457.50849  98413452.93449     11657.26649        49.000  
 16 04 02 12 26 48.0000000  0  2G21G16                                          
  22587237.05549 118696731.07849     -7342.78149        48.000  
  18727235.71149  98412287.39849     11653.30149        49.000  
 16 04 02 12 26 48.1000000  0  2G21G16                                          
  22587376.80549 118697465.43849     -7343.73449        48.000  
  18727014.00049  98411122.28949     11649.51649        49.000  
 16 04 02 12 26 48.2000000  0  2G21G16                                          
  22587516.54749 118698199.78549     -7343.95349        48.000  
  18726792.35249  98409957.50449     11646.06649        49.000  
 16 04 02 12 26 48.3000000  0  2G21G16                                          
  22587656.29749 118698934.24649     -7345.02349        48.000  
  18726570.78149  98408793.13749     11641.78549        49.000  
 16 04 02 12 26 48.4000000  0  2G21G16                                          
  22587796.07849 118699668.81649     -7346.07449        48.000  
  18726349.28949  98407629.18049     11637.74249        49.000  
 16 04 02 12 26 48.5000000  0  2G21G16                                          
  22587935.86749 118700403.44949     -7346.76649        48.000  
  18726127.86749  98406465.59049     11633.96549        49.000  
 16 04 02 12 26 48.6000000  0  2G21G16                                          
  22588075.67249 118701138.16449     -7347.52049        48.000  
  18725906.52349  98405302.41849     11629.77749        49.000  
 16 04 02 12 26 48.7000000  0  2G21G16                                          
  22588215.50849 118701872.93449     -7348.04349        48.000  
  18725685.25049  98404139.60249     11626.31649        49.000  
 16 04 02 12 26 48.8000000  0  2G21G16                                          
  22588355.34449 118702607.78549     -7348.82449        48.000  
  18725464.03949  98402977.17649     11622.48449        49.000  
 16 04 02 12 26 48.9000000  0  2G21G16                                          
  22588495.18849 118703342.66849     -7349.12949        48.000  
  18725242.90649  98401815.10249     11618.95749        49.000  
 16 04 02 12 26 49.0000000  0  2G21G16                                          
  22588635.04749 118704077.62549     -7350.02349        48.000  
  18725021.82849  98400653.41049     11615.05949        49.000  
 16 04 02 12 26 49.1000000  0  2G21G16                                          
  22588774.93049 118704812.69549     -7350.98049        48.000  
  18724800.85249  98399492.14849     11610.80949        49.000  
 16 04 02 12 26 49.2000000  0  2G21G16                                          
  22588914.81249 118705547.80549     -7351.43449        48.000  
  18724579.93049  98398331.23049     11607.28149        49.000  
 16 04 02 12 26 49.3000000  0  2G21G16                                          
  22589054.72749 118706282.98449     -7352.24649        48.000  
  18724359.08649  98397170.69549     11603.52049        49.000  
 16 04 02 12 26 49.4000000  0  2G21G16                                          
  22589194.64149 118707018.26249     -7353.32449        48.000  
  18724138.32049  98396010.58249     11599.16049        49.000  
 16 04 02 12 26 49.5000000  0  2G21G16                                          
  22589334.58649 118707753.62549     -7354.06249        48.000  
  18723917.63349  98394850.85949     11595.26649        49.000  
 16 04 02 12 26 49.6000000  0  2G21G16                                          
  22589474.53149 118708489.04749     -7354.59449        48.000  
  18723697.01649  98393691.50849     11591.69949        49.000  
 16 04 02 12 26 49.7000000  0  2G21G16                                          
  22589614.47749 118709224.50849     -7355.03549        48.000  
  18723476.46149  98392532.51649     11587.99649        49.000  
 16 04 02 12 26 49.8000000  0  2G21G16                                          
  22589754.45349 118709960.07049     -7356.15649        48.000  
  18723255.98449  98391373.93449     11583.82049        49.000  
 16 04 02 12 26 49.9000000  0  2G21G16                                          
  22589894.46149 118710695.79349     -7357.54349        48.000  
  18723035.60249  98390215.80549     11579.45349        49.000  
 16 04 02 12 26 50.0000000  0  2G21G16                                          
  22590034.46149 118711431.51649     -7357.61749        48.000  
  18722815.28149  98389058.02349     11576.01649        49.000  
 16 04 02 12 26 50.1000000  0  2G21G16                                          
  22590174.46149 118712167.27049     -7357.91849        48.000  
  18722595.03149  98387900.57849     11572.42249        49.000  
 16 04 02 12 26 50.2000000  0  2G21G16                                          
  22590314.49249 118712903.12549     -7358.67649        48.000  
  18722374.85949  98386743.52049     11568.82049        49.000  
 16 04 02 12 26 50.3000000  0  2G21G16                                          
  22590454.53149 118713639.04349     -7359.57449        48.000  
  18722154.75849  98385586.87549     11564.53949        49.000  
 16 04 02 12 26 50.4000000  0  2G21G16                                          
  22590594.59449 118714375.05549     -7360.60549        48.000  
  18721934.72749  98384430.60549     11560.64149        49.000  
 16 04 02 12 26 50.5000000  0  2G21G16                                          
  22590734.66449 118715111.07849     -7360.54349        48.000  
  18721714.75849  98383274.68449     11557.45349        49.000  
 16 04 02 12 26 50.6000000  0  2G21G16                                          
  22590874.73449 118715847.15649     -7361.02349        48.000  
  18721494.85949  98382119.10949     11553.92249        49.000  
 16 04 02 12 26 50.7000000  0  2G21G16                                          
  22591014.84449 118716583.38749     -7362.80549        48.000  
  18721275.05549  98380964.01249     11549.05149        49.000  
 16 04 02 12 26 50.8000000  0  2G21G16                                          
  22591154.96149 118717319.71949     -7363.80149        48.000  
  18721055.32049  98379809.32449     11544.89549        49.000  
 16 04 02 12 26 50.9000000  0  2G21G16                                          
  22591295.07849 118718056.05149     -7363.62149        48.000  
  18720835.65649  98378654.96949     11541.67249        49.000  
 16 04 02 12 26 51.0000000  0  2G21G16                                          
  22591435.20349 118718792.40649     -7363.85949        48.000  
  18720616.06249  98377500.92249     11538.62949        49.000  
 16 04 02 12 26 51.1000000  0  2G21G16                                          
  22591575.35249 118719528.89149     -7365.33649        48.000  
  18720396.53949  98376347.34049     11533.86749        49.000  
 16 04 02 12 26 51.2000000  0  2G21G16                                          
  22591715.50849 118720265.45349     -7366.00049        48.000  
  18720177.09449  98375194.12949     11530.30149        49.000  
 16 04 02 12 26 51.3000000  0  2G21G16                                          
  22591855.69549 118721002.09849     -7366.93849        48.000  
  18719957.72749  98374041.34049     11525.84849        49.000  
 16 04 02 12 26 51.4000000  0  2G21G16                                          
  22591995.88349 118721738.80949     -7367.52749        48.000  
  18719738.43049  98372888.91449     11522.28949        49.000  
 16 04 02 12 26 51.5000000  0  2G21G16                                          
  22592136.08649 118722475.60949     -7368.47349        48.000  
  18719519.20349  98371736.88349     11518.30949        49.000  
 16 04 02 12 26 51.6000000  0  2G21G16                                          
  22592276.31249 118723212.48449     -7369.25049        48.000  
  18719300.06249  98370585.26249     11514.30149        49.000  
 16 04 02 12 26 51.7000000  0  2G21G16                                          
  22592416.56249 118723949.47349     -7370.32049        48.000  
  18719080.99249  98369434.04749     11510.22749        49.000  
 16 04 02 12 26 51.8000000  0  2G21G16                                          
  22592556.81249 118724686.50849     -7370.68849        48.000  
  18718862.00049  98368283.19549     11506.63749        49.000  
 16 04 02 12 26 51.9000000  0  2G21G16                                          
  22592697.07849 118725423.60249     -7371.44549        48.000  
  18718643.07049  98367132.73049     11502.73849        49.000  
 16 04 02 12 26 52.0000000  0  2G21G16                                          
  22592837.36749 118726160.81649     -7372.48849        48.000  
  18718424.23449  98365982.69549     11498.50449        49.000  
 16 04 02 12 26 52.1000000  0  2G21G16                                          
  22592977.66449 118726898.05949     -7372.95349        48.000  
  18718205.45349  98364832.99649     11494.91049        49.000  
 16 04 02 12 26 52.2000000  0  2G21G16                                          
  22593117.97749 118727635.42649     -7373.85249        48.000  
  18717986.75049  98363683.73449     11490.84049        49.000  
 16 04 02 12 26 52.3000000  0  2G21G16                                          
  22593258.29749 118728372.80149     -7374.08249        48.000  
  18717768.11749  98362534.80949     11487.39849        49.000  
 16 04 02 12 26 52.4000000  0  2G21G16                                          
  22593398.62549 118729110.22749     -7374.40249        48.000  
  18717549.54749  98361386.23049     11484.02749        49.000  
 16 04 02 12 26 52.5000000  0  2G21G16                                          
  22593538.98449 118729847.77349     -7375.74249        48.000  
  18717331.06249  98360238.09849     11479.53949        49.000  
 16 04 02 12 26 52.6000000  0  2G21G16                                          
  22593679.35249 118730585.39549     -7376.66049        48.000  
  18717112.65649  98359090.35549     11475.48049        49.000  
 16 04 02 12 26 52.7000000  0  2G21G16                                          
  22593819.72749 118731323.10549     -7377.44949        48.000  
  18716894.32049  98357943.00849     11471.54349        49.000  
 16 04 02 12 26 52.8000000  0  2G21G16                                          
  22593960.11749 118732060.85249     -7377.82849        48.000  
  18716676.04749  98356796.00449     11468.15249        49.000  
 16 04 02 12 26 52.9000000  0  2G21G16                                          
  22594100.52349 118732798.68849     -7378.71549        48.000  
  18716457.85949  98355649.41849     11463.98849        49.000  
 16 04 02 12 26 53.0000000  0  2G21G16                                          
  22594240.93049 118733536.52749     -7378.62549        48.000  
  18716239.73449  98354503.14849     11461.00449        49.000  
 16 04 02 12 26 53.1000000  0  2G21G16                                          
  22594381.34449 118734274.44549     -7379.46549        48.000  
  18716021.68849  98353357.27749     11456.87549        49.000  
 16 04 02 12 26 53.2000000  0  2G21G16                                          
  22594521.78949 118735012.49649     -7380.77749        48.000  
  18715803.72749  98352211.83249     11452.53949        49.000  
 16 04 02 12 26 53.3000000  0  2G21G16                                          
  22594662.23449 118735750.56649     -7381.02349        48.000  
  18715585.82049  98351066.73449     11449.16049        49.000  
 16 04 02 12 26 53.4000000  0  2G21G16                                          
  22594802.71149 118736488.75849     -7382.37149        48.000  
  18715368.00049  98349922.08249     11444.58249        49.000  
 16 04 02 12 26 53.5000000  0  2G21G16                                          
  22594943.18049 118737226.96949     -7382.16849        48.000  
  18715150.24249  98348777.74649     11441.55949        49.000  
 16 04 02 12 26 53.6000000  0  2G21G16                                          
  22595083.67249 118737965.26249     -7383.21149        48.000  
  18714932.56249  98347633.80149     11437.79749        49.000  
 16 04 02 12 26 53.7000000  0  2G21G16                                          
  22595224.18049 118738703.60949     -7383.81249        48.000  
  18714714.94549  98346490.24649     11433.79749        49.000  
 16 04 02 12 26 53.8000000  0  2G21G16                                          
  22595364.69549 118739442.03949     -7384.54349        48.000  
  18714497.42249  98345347.08249     11429.82849        49.000  
 16 04 02 12 26 53.9000000  0  2G21G16                                          
  22595505.24249 118740180.61349     -7386.26649        48.000  
  18714279.96949  98344204.36349     11425.19949        49.000  
 16 04 02 12 26 54.0000000  0  2G21G16                                          
  22595645.78149 118740919.15249     -7385.68849        48.000  
  18714062.57049  98343061.93849     11422.46549        49.000  
 16 04 02 12 26 54.1000000  0  2G21G16                                          
  22595786.32049 118741657.68049     -7385.46149        48.000  
  18713845.23449  98341919.83249     11419.37549        49.000  
 16 04 02 12 26 54.2000000  0  2G21G16                                          
  22595926.88349 118742396.34449     -7386.84049        48.000  
  18713627.98449  98340778.14149     11415.16049        49.000  
 16 04 02 12 26 54.3000000  0  2G21G16                                          
  22596067.46149 118743135.10249     -7387.86749        48.000  
  18713410.81249  98339636.88749     11410.70749        49.000  
 16 04 02 12 26 54.4000000  0  2G21G16                                          
  22596208.05549 118743873.95349     -7388.89849        48.000  
  18713193.70349  98338496.01649     11406.75449        49.000  
 16 04 02 12 26 54.5000000  0  2G21G16                                          
  22596348.67249 118744612.85549     -7389.59449        48.000  
  18712976.68049  98337355.53949     11402.80149        49.000  
 16 04 02 12 26 54.6000000  0  2G21G16                                          
  22596489.29749 118745351.86349     -7390.20749        48.000  
  18712759.72749  98336215.45749     11399.05949        49.000  
 16 04 02 12 26 54.7000000  0  2G21G16                                          
  22596629.93849 118746090.90249     -7390.95349        48.000  
  18712542.84449  98335075.73849     11395.24649        49.000  
 16 04 02 12 26 54.8000000  0  2G21G16                                          
  22596770.60249 118746830.09849     -7392.43449        48.000  
  18712326.05549  98333936.49249     11390.53549        49.000  
 16 04 02 12 26 54.9000000  0  2G21G16                                          
  22596911.28149 118747569.33249     -7392.69549        48.000  
  18712109.32849  98332797.59049     11387.07849        49.000  
 16 04 02 12 26 55.0000000  0  2G21G16                                          
  22597051.97749 118748308.68449     -7394.02749        48.000  
  18711892.68049  98331659.13349     11382.62149        49.000  
 16 04 02 12 26 55.1000000  0  2G21G16                                          
  22597192.68849 118749048.08649     -7394.46549        48.000  
  18711676.10949  98330521.03549     11378.96949        49.000  
 16 04 02 12 26 55.2000000  0  2G21G16                                          
  22597333.40649 118749787.58649     -7395.06649        48.000  
  18711459.60949  98329383.34049     11375.18849        49.000  
 16 04 02 12 26 55.3000000  0  2G21G16                                          
  22597474.14149 118750527.09449     -7395.48049        48.000  
  18711243.17249  98328245.97349     11371.84449        49.000  
 16 04 02 12 26 55.4000000  0  2G21G16                                          
  22597614.88349 118751266.73049     -7396.73049        48.000  
  18711026.82849  98327109.04749     11367.40249        49.000  
 16 04 02 12 26 55.5000000  0  2G21G16                                          
  22597755.63349 118752006.39849     -7397.03549        48.000  
  18710810.54749  98325972.47749     11363.87549        49.000  
 16 04 02 12 26 55.6000000  0  2G21G16                                          
  22597896.40649 118752746.15649     -7397.97349        48.000  
  18710594.34449  98324836.30949     11359.74649        49.000  
 16 04 02 12 26 55.7000000  0  2G21G16                                          
  22598037.19549 118753486.00849     -7398.91849        48.000  
  18710378.21949  98323700.55149     11355.60549        49.000  
 16 04 02 12 26 55.8000000  0  2G21G16                                          
  22598178.00849 118754225.94949     -7399.71949        48.000  
  18710162.17249  98322565.19549     11351.75049        49.000  
 16 04 02 12 26 55.9000000  0  2G21G16                                          
  22598318.81249 118754965.84849     -7399.28549        48.000  
  18709946.17249  98321430.11749     11348.94549        49.000  
 16 04 02 12 26 56.0000000  0  2G21G16                                          
  22598459.62549 118755705.82849     -7399.96549        48.000  
  18709730.24249  98320295.43449     11345.22349        49.000  
 16 04 02 12 26 56.1000000  0  2G21G16                                          
  22598600.45349 118756445.88749     -7400.95749        48.000  
  18709514.39849  98319161.14149     11341.06249        49.000  
 16 04 02 12 26 56.2000000  0  2G21G16                                          
  22598741.29749 118757186.05949     -7402.07849        48.000  
  18709298.62549  98318027.27749     11336.76649        49.000  
 16 04 02 12 26 56.3000000  0  2G21G16                                          
  22598882.14849 118757926.27749     -7402.60249        48.000  
  18709082.93049  98316893.77749     11333.09849        49.000  
 16 04 02 12 26 56.4000000  0  2G21G16                                          
  22599023.02349 118758666.57849     -7403.26249        48.000  
  18708867.31249  98315760.66849     11329.35249        49.000  
 16 04 02 12 26 56.5000000  0  2G21G16                                          
  22599163.90649 118759406.89849     -7403.65249        48.000  
  18708651.75849  98314627.90649     11325.78549        49.000  
 16 04 02 12 26 56.6000000  0  2G21G16                                          
  22599304.80549 118760147.34449     -7404.89549        48.000  
  18708436.27349  98313495.59849     11321.13749        49.000  
 16 04 02 12 26 56.7000000  0  2G21G16                                          
  22599445.71949 118760887.83649     -7405.28149        48.000  
  18708220.86749  98312363.62549     11317.75849        49.000  
 16 04 02 12 26 56.8000000  0  2G21G16                                          
  22599586.64849 118761628.43049     -7406.61749        48.000  
  18708005.53949  98311232.08249     11313.36749        49.000  
 16 04 02 12 26 56.9000000  0  2G21G16                                          
  22599727.59449 118762369.09449     -7406.89549        48.000  
  18707790.28149  98310100.92649     11309.72349        49.000  
 16 04 02 12 26 57.0000000  0  2G21G16                                          
  22599868.53149 118763109.75449     -7406.93849        48.000  
  18707575.09449  98308970.08249     11306.62949        49.000  
 16 04 02 12 26 57.1000000  0  2G21G16                                          
  22600009.50049 118763850.49249     -7407.73049        48.000  
  18707359.97749  98307839.63349     11302.74249        49.000  
 16 04 02 12 26 57.2000000  0  2G21G16                                          
  22600150.47749 118764591.34449     -7408.76249        48.000  
  18707144.93849  98306709.60549     11298.35549        49.000  
 16 04 02 12 26 57.3000000  0  2G21G16                                          
  22600291.46949 118765332.25449     -7409.55549        48.000  
  18706929.97749  98305579.95349     11294.59849        49.000  
 16 04 02 12 26 57.4000000  0  2G21G16                                          
  22600432.46149 118766073.19549     -7409.77349        48.000  
  18706715.07049  98304450.65649     11291.11749        49.000  
 16 04 02 12 26 57.5000000  0  2G21G16                                          
  22600573.47749 118766814.20349     -7410.21549        48.000  
  18706500.24249  98303321.73049     11287.56649        49.000  
 16 04 02 12 26 57.6000000  0  2G21G16                                          
  22600714.50049 118767555.28949     -7411.30549        48.000  
  18706285.50849  98302193.21549     11283.30549        49.000  
 16 04 02 12 26 57.7000000  0  2G21G16                                          
  22600855.53949 118768296.46149     -7411.96149        48.000  
  18706070.82849  98301065.09849     11279.38349        49.000  
 16 04 02 12 26 57.8000000  0  2G21G16                                          
  22600996.60249 118769037.72349     -7413.00849        48.000  
  18705856.23449  98299937.38349     11275.22349        49.000  
 16 04 02 12 26 57.9000000  0  2G21G16                                          
  22601137.67249 118769779.05149     -7413.73849        48.000  
  18705641.71149  98298810.04749     11271.42249        49.000  
 16 04 02 12 26 58.0000000  0  2G21G16                                          
  22601278.75849 118770520.46549     -7414.59049        48.000  
  18705427.27349  98297683.12149     11267.32849        49.000  
 16 04 02 12 26 58.1000000  0  2G21G16                                          
  22601419.85949 118771261.91849     -7414.73849        48.000  
  18705212.89149  98296556.54349     11264.00449        49.000  
 16 04 02 12 26 58.2000000  0  2G21G16                                          
  22601560.95349 118772003.37549     -7414.69549        48.000  
  18704998.57049  98295430.29349     11260.83249        49.000  
 16 04 02 12 26 58.3000000  0  2G21G16                                          
  22601702.07849 118772744.92649     -7415.80549        48.000  
  18704784.32849  98294304.44549     11256.68049        49.000  
 16 04 02 12 26 58.4000000  0  2G21G16                                          
  22601843.20349 118773486.57049     -7416.90649        48.000  
  18704570.15649  98293179.02049     11252.27749        49.000  
 16 04 02 12 26 58.5000000  0  2G21G16                                          
  22601984.34449 118774228.27049     -7417.35249        48.000  
  18704356.06249  98292053.95749     11248.68449        49.000  
 16 04 02 12 26 58.6000000  0  2G21G16                                          
  22602125.50049 118774970.06249     -7418.24649        48.000  
  18704142.04749  98290929.30149     11244.66849        49.000  
 16 04 02 12 26 58.7000000  0  2G21G16                                          
  22602266.66449 118775711.89549     -7418.72349        48.000  
  18703928.10249  98289805.00849     11241.02749        49.000  
 16 04 02 12 26 58.8000000  0  2G21G16                                          
  22602407.84449 118776453.82049     -7419.53549        48.000  
  18703714.22749  98288681.12549     11236.99649        49.000  
 16 04 02 12 26 58.9000000  0  2G21G16                                          
  22602549.03949 118777195.80549     -7420.18049        48.000  
  18703500.43049  98287557.60549     11233.35549        49.000  
 16 04 02 12 26 59.0000000  0  2G21G16                                          
  22602690.24249 118777937.86349     -7421.01249        48.000  
  18703286.70349  98286434.48849     11229.18849        49.000  
 16 04 02 12 26 59.1000000  0  2G21G16                                          
  22602831.47749 118778679.97749     -7421.60549        48.000  
  18703073.05549  98285311.74649     11225.59849        49.000  
 16 04 02 12 26 59.2000000  0  2G21G16                                          
  22602972.71149 118779422.16049     -7422.29749        48.000  
  18702859.48449  98284189.39849     11221.50449        49.000  
 16 04 02 12 26 59.3000000  0  2G21G16                                          
  22603113.95349 118780164.41449     -7422.66049        48.000  
  18702645.97749  98283067.41449     11218.12549        49.000  
 16 04 02 12 26 59.4000000  0  2G21G16                                          
  22603255.20349 118780906.68849     -7422.94149        48.000  
  18702432.53949  98281945.78149     11214.49649        49.000  
 16 04 02 12 26 59.5000000  0  2G21G16                                          
  22603396.47749 118781649.05549     -7423.89549        48.000  
  18702219.18049  98280824.55149     11210.64149        49.000  
 16 04 02 12 26 59.6000000  0  2G21G16                                          
  22603537.75849 118782391.47749     -7424.59849        48.000  
  18702005.88349  98279703.70349     11206.64549        49.000  
 16 04 02 12 26 59.7000000  0  2G21G16                                          
  22603679.05549 118783133.96549     -7425.22749        48.000  
  18701792.67249  98278583.23449     11202.80549        49.000  
 16 04 02 12 26 59.8000000  0  2G21G16                                          
  22603820.35949 118783876.52049     -7425.71149        48.000  
  18701579.52349  98277463.14849     11199.12549        49.000  
 16 04 02 12 26 59.9000000  0  2G21G16                                          
  22603961.68049 118784619.14549     -7426.54749        48.000  
  18701366.44549  98276343.44149     11195.19149        49.000  
 16 04 02 12 27  0.0000000  0  2G21G16                                          
  22604103.00849 118785361.86349     -7427.57849        48.000  
  18701153.45349  98275224.15249     11191.02749        49.000  
 16 04 02 12 27  0.1000000  0  2G21G16                                          
  22604244.34449 118786104.61349     -7427.93849        48.000  
  18700940.52349  98274105.22749     11187.29349        49.000  
 16 04 02 12 27  0.2000000  0  2G21G16                                          
  22604385.70349 118786847.45749     -7428.67649        48.000  
  18700727.67249  98272986.69549     11183.51249        49.000  
 16 04 02 12 27  0.3000000  0  2G21G16                                          
  22604527.08649 118787590.39149     -7429.84049        48.000  
  18700514.89849  98271868.57049     11179.28549        49.000  
 16 04 02 12 27  0.4000000  0  2G21G16                                          
  22604668.47749 118788333.36749     -7429.99649        48.000  
  18700302.20349  98270750.81649     11175.71549        49.000  
 16 04 02 12 27  0.5000000  0  2G21G16                                          
  22604809.85949 118789076.37949     -7430.27049        48.000  
  18700089.56249  98269633.40249     11172.43849        49.000  
 16 04 02 12 27  0.6000000  0  2G21G16                                          
  22604951.27349 118789819.52749     -7432.07849        48.000  
  18699877.01649  98268516.45349     11167.44949        49.000  
 16 04 02 12 27  0.7000000  0  2G21G16                                          
  22605092.72749 118790562.80149     -7433.25049        48.000  
  18699664.54749  98267399.94149     11163.09449        49.000  
 16 04 02 12 27  0.8000000  0  2G21G16                                          
  22605234.18049 118791306.15649     -7433.88349        48.000  
  18699452.15649  98266283.82849     11159.24249        49.000  
 16 04 02 12 27  0.9000000  0  2G21G16                                          
  22605375.64149 118792049.53549     -7434.26649        48.000  
  18699239.83649  98265168.05949     11155.73049        49.000  
 16 04 02 12 27  1.0000000  0  2G21G16                                          
  22605517.10249 118792792.91449     -7434.01249        48.000  
  18699027.57049  98264052.61749     11152.65249        49.000  
 16 04 02 12 27  1.1000000  0  2G21G16                                          
  22605658.59449 118793536.41849     -7435.36749        48.000  
  18698815.39149  98262937.60249     11148.32449        49.000  
 16 04 02 12 27  1.2000000  0  2G21G16                                          
  22605800.10249 118794280.04349     -7436.55949        48.000  
  18698603.29749  98261823.03149     11143.90249        49.000  
 16 04 02 12 27  1.3000000  0  2G21G16                                          
  22605941.61749 118795023.68049     -7436.77349        48.000  
  18698391.26649  98260708.78549     11140.60949        49.000  
 16 04 02 12 27  1.4000000  0  2G21G16                                          
  22606083.13349 118795767.34849     -7436.84449        48.000  
  18698179.29749  98259594.89549     11137.26249        49.000  
 16 04 02 12 27  1.5000000  0  2G21G16                                          
  22606224.64849 118796511.02049     -7436.91449        48.000  
  18697967.39149  98258481.33649     11133.85949        49.000  
 16 04 02 12 27  1.6000000  0  2G21G16                                          
  22606366.18849 118797254.81249     -7438.28949        48.000  
  18697755.57049  98257368.19149     11129.60949        49.000  
 16 04 02 12 27  1.7000000  0  2G21G16                                          
  22606507.75049 118797998.69549     -7439.25849        48.000  
  18697543.82849  98256255.48049     11125.21149        49.000  
 16 04 02 12 27  1.8000000  0  2G21G16                                          
  22606649.32049 118798742.63749     -7439.92249        48.000  
  18697332.14849  98255143.13349     11121.45749        49.000  
 16 04 02 12 27  1.9000000  0  2G21G16                                          
  22606790.89849 118799486.68849     -7440.99249        48.000  
  18697120.55549  98254031.21149     11117.21549        49.000  
 16 04 02 12 27  2.0000000  0  2G21G16                                          
  22606932.49249 118800230.77349     -7441.12549        48.000  
  18696909.03149  98252919.64849     11113.87149        49.000  
 16 04 02 12 27  2.1000000  0  2G21G16                                          
  22607074.09449 118800974.91449     -7441.86749        48.000  
  18696697.57849  98251808.45749     11110.04349        49.000  
 16 04 02 12 27  2.2000000  0  2G21G16                                          
  22607215.71949 118801719.16449     -7442.68449        48.000  
  18696486.21149  98250697.69149     11105.96949        49.000  
 16 04 02 12 27  2.3000000  0  2G21G16                                          
  22607357.35249 118802463.43849     -7443.07049        48.000  
  18696274.90649  98249587.26249     11102.40249        49.000  
 16 04 02 12 27  2.4000000  0  2G21G16                                          
  22607499.00049 118803207.79749     -7444.07849        48.000  
  18696063.68049  98248477.24649     11098.20749        49.000  
 16 04 02 12 27  2.5000000  0  2G21G16                                          
  22607640.66449 118803952.23049     -7444.72349        48.000  
  18695852.52349  98247367.62149     11094.42249        49.000  
 16 04 02 12 27  2.6000000  0  2G21G16                                          
  22607782.33649 118804696.70349     -7444.87549        48.000  
  18695641.44549  98246258.35549     11090.91849        49.000  
 16 04 02 12 27  2.7000000  0  2G21G16                                          
  22607924.03149 118805441.27049     -7446.17249        48.000  
  18695430.43849  98245149.49649     11086.60949        49.000  
 16 04 02 12 27  2.8000000  0  2G21G16                                          
  22608065.72749 118806185.90249     -7446.59849        48.000  
  18695219.50049  98244041.03949     11082.79349        49.000  
 16 04 02 12 27  2.9000000  0  2G21G16                                          
  22608207.44549 118806930.62549     -7447.58249        48.000  
  18695008.64149  98242932.95749     11078.89849        49.000  
 16 04 02 12 27  3.0000000  0  2G21G16                                          
  22608349.16449 118807675.37549     -7448.00449        48.000  
  18694797.85249  98241825.24649     11075.21949        49.000  
 16 04 02 12 27  3.1000000  0  2G21G16                                          
  22608490.90649 118808420.21149     -7448.68849        48.000  
  18694587.14149  98240717.93449     11071.18849        49.000  
 16 04 02 12 27  3.2000000  0  2G21G16                                          
  22608632.65649 118809165.12949     -7449.47749        48.000  
  18694376.50849  98239611.03149     11067.12149        49.000  
 16 04 02 12 27  3.3000000  0  2G21G16                                          
  22608774.42249 118809910.05949     -7449.41049        48.000  
  18694165.93049  98238504.44949     11064.06649        49.000  
 16 04 02 12 27  3.4000000  0  2G21G16                                          
  22608916.18049 118810654.99249     -7449.60249        48.000  
  18693955.41449  98237398.19149     11060.75849        49.000  
 16 04 02 12 27  3.5000000  0  2G21G16                                          
  22609057.96149 118811400.09849     -7451.46149        48.000  
  18693744.99249  98236292.41049     11055.89149        49.000  
 16 04 02 12 27  3.6000000  0  2G21G16                                          
  22609199.76649 118812145.29349     -7452.27349        48.000  
  18693534.65649  98235187.05949     11051.70349        49.000  
 16 04 02 12 27  3.7000000  0  2G21G16                                          
  22609341.58649 118812890.55149     -7452.90649        48.000  
  18693324.38349  98234082.07849     11047.85549        49.000  
 16 04 02 12 27  3.8000000  0  2G21G16                                          
  22609483.41449 118813635.85549     -7453.57449        48.000  
  18693114.18849  98232977.46149     11044.28549        49.000  
 16 04 02 12 27  3.9000000  0  2G21G16                                          
  22609625.25849 118814381.22749     -7454.01649        48.000  
  18692904.06249  98231873.25049     11040.35249        49.000  
 16 04 02 12 27  4.0000000  0  2G21G16                                          
  22609767.11749 118815126.69549     -7455.07049        48.000  
  18692694.00849  98230769.43049     11036.28949        49.000  
 16 04 02 12 27  4.1000000  0  2G21G16                                          
  22609909.00849 118815872.26249     -7456.01249        48.000  
  18692484.03949  98229666.03549     11032.03149        49.000  
 16 04 02 12 27  4.2000000  0  2G21G16                                          
  22610050.89149 118816617.87149     -7456.34849        48.000  
  18692274.13349  98228563.00449     11028.49649        49.000  
 16 04 02 12 27  4.3000000  0  2G21G16                                          
  22610192.78949 118817363.53549     -7457.01649        48.000  
  18692064.30549  98227460.35249     11024.64149        49.000  
 16 04 02 12 27  4.4000000  0  2G21G16                                          
  22610334.70349 118818109.28149     -7457.69549        48.000  
  18691854.55549  98226358.09849     11020.72349        49.000  
 16 04 02 12 27  4.5000000  0  2G21G16                                          
  22610476.61749 118818855.02349     -7457.66849        48.000  
  18691644.86749  98225256.16449     11017.48449        49.000  
 16 04 02 12 27  4.6000000  0  2G21G16                                          
  22610618.53949 118819600.84449     -7458.50049        48.000  
  18691435.24249  98224154.60249     11013.73849        49.000  
 16 04 02 12 27  4.7000000  0  2G21G16                                          
  22610760.49249 118820346.79349     -7459.83249        48.000  
  18691225.71949  98223053.51649     11008.98849        49.000  
 16 04 02 12 27  4.8000000  0  2G21G16                                          
  22610902.43849 118821092.73849     -7459.67249        48.000  
  18691016.25049  98221952.73049     11006.03149        49.000  
 16 04 02 12 27  4.9000000  0  2G21G16                                          
  22611044.40649 118821838.76649     -7460.76649        48.000  
  18690806.85249  98220852.35949     11001.75849        49.000  
 16 04 02 12 27  5.0000000  0  2G21G16                                          
  22611186.38349 118822584.85249     -7461.21149        48.000  
  18690597.53149  98219752.36749     10998.05549        49.000  
 16 04 02 12 27  5.1000000  0  2G21G16                                          
  22611328.38349 118823331.07849     -7462.49649        48.000  
  18690388.28949  98218652.81649     10993.62549        49.000  
 16 04 02 12 27  5.2000000  0  2G21G16                                          
  22611470.38349 118824077.32849     -7463.09449        48.000  
  18690179.12549  98217553.62149     10989.85249        49.000  
 16 04 02 12 27  5.3000000  0  2G21G16                                          
  22611612.42249 118824823.73049     -7464.34849        48.000  
  18689970.03949  98216454.88749     10985.57049        49.000  
 16 04 02 12 27  5.4000000  0  2G21G16                                          
  22611754.45349 118825570.14149     -7464.46549        48.000  
  18689761.02349  98215356.49249     10982.04349        49.000  
 16 04 02 12 27  5.5000000  0  2G21G16                                          
  22611896.50049 118826316.57849     -7464.62949        48.000  
  18689552.07849  98214258.44949     10978.73049        49.000  
 16 04 02 12 27  5.6000000  0  2G21G16                                          
  22612038.57849 118827063.19549     -7466.75449        48.000  
  18689343.21949  98213160.88749     10973.64849        49.000  
 16 04 02 12 27  5.7000000  0  2G21G16                                          
  22612180.65649 118827809.85549     -7467.01649        48.000  
  18689134.43049  98212063.71149     10969.78549        49.000  
 16 04 02 12 27  5.8000000  0  2G21G16                                          
  22612322.74249 118828556.52749     -7467.00849        48.000  
  18688925.70349  98210966.85949     10966.60949        49.000  
 16 04 02 12 27  5.9000000  0  2G21G16                                          
  22612464.84449 118829303.29349     -7468.05549        48.000  
  18688717.05549  98209870.40249     10962.71949        49.000  
 16 04 02 12 27  6.0000000  0  2G21G16                                          
  22612606.95349 118830050.06249     -7467.91449        48.000  
  18688508.47749  98208774.30149     10959.24649        49.000  
 16 04 02 12 27  6.1000000  0  2G21G16                                          
  22612749.06249 118830796.85949     -7468.20349        48.000  
  18688299.95349  98207678.50849     10956.10549        49.000  
 16 04 02 12 27  6.2000000  0  2G21G16                                          
  22612891.19549 118831543.75049     -7469.19949        48.000  
  18688091.51649  98206583.15649     10951.73449        49.000  
 16 04 02 12 27  6.3000000  0  2G21G16                                          
  22613033.34449 118832290.75849     -7470.46949        48.000  
  18687883.15649  98205488.23849     10947.24249        49.000  
 16 04 02 12 27  6.4000000  0  2G21G16                                          
  22613175.50849 118833037.82049     -7471.05549        48.000  
  18687674.87549  98204393.68449     10943.58649        49.000  
 16 04 02 12 27  6.5000000  0  2G21G16                                          
  22613317.68049 118833784.93049     -7471.33249        48.000  
  18687466.65649  98203299.51249     10939.89549        49.000  
 16 04 02 12 27  6.6000000  0  2G21G16                                          
  22613459.85249 118834532.03549     -7471.20349        48.000  
  18687258.50049  98202205.64849     10936.85249        49.000  
 16 04 02 12 27  6.7000000  0  2G21G16                                          
  22613602.03949 118835279.27049     -7472.62949        48.000  
  18687050.43049  98201112.23049     10932.30949        49.000  
 16 04 02 12 27  6.8000000  0  2G21G16                                          
  22613744.24249 118836026.55149     -7473.05549        48.000  
  18686842.43049  98200019.18049     10928.63349        49.000  
 16 04 02 12 27  6.9000000  0  2G21G16                                          
  22613886.46149 118836773.91049     -7473.99649        48.000  
  18686634.50849  98198926.53149     10924.62549        49.000  
 16 04 02 12 27  7.0000000  0  2G21G16                                          
  22614028.69549 118837521.36349     -7474.82849        48.000  
  18686426.66449  98197834.30549     10920.40649        50.000  
 16 04 02 12 27  7.1000000  0  2G21G16                                          
  22614170.94549 118838268.85249     -7475.39149        48.000  
  18686218.88349  98196742.41849     10916.83249        49.000  
 16 04 02 12 27  7.2000000  0  2G21G16                                          
  22614313.21149 118839016.45349     -7476.41449        48.000  
  18686011.18849  98195650.96949     10912.50449        49.000  
 16 04 02 12 27  7.3000000  0  2G21G16                                          
  22614455.47749 118839764.08649     -7476.70749        48.000  
  18685803.56249  98194559.87949     10908.95349        49.000  
 16 04 02 12 27  7.4000000  0  2G21G16                                          
  22614597.76649 118840511.80949     -7477.60249        48.000  
  18685596.00849  98193469.19949     10904.93049        49.000  
 16 04 02 12 27  7.5000000  0  2G21G16                                          
  22614740.07049 118841259.60549     -7478.12949        48.000  
  18685388.53149  98192378.90649     10901.15649        49.000  
 16 04 02 12 27  7.6000000  0  2G21G16                                          
  22614882.38349 118842007.45349     -7478.76649        48.000  
  18685181.13349  98191288.98049     10897.46949        49.000  
 16 04 02 12 27  7.7000000  0  2G21G16                                          
  22615024.70349 118842755.38349     -7479.56249        48.000  
  18684973.80549  98190199.46549     10893.41849        49.000  
 16 04 02 12 27  7.8000000  0  2G21G16                                          
  22615167.03149 118843503.34049     -7480.01249        48.000  
  18684766.53949  98189110.30949     10889.66849        49.000  
 16 04 02 12 27  7.9000000  0  2G21G16                                          
  22615309.39149 118844251.41049     -7480.96549        48.000  
  18684559.35949  98188021.57849     10885.51649        49.000  
 16 04 02 12 27  8.0000000  0  2G21G16                                          
  22615451.75049 118844999.51249     -7481.44149        48.000  
  18684352.25049  98186933.20349     10881.80149        49.000  
 16 04 02 12 27  8.1000000  0  2G21G16                                          
  22615594.10949 118845747.65249     -7481.68849        48.000  
  18684145.20349  98185845.16849     10878.63349        49.000  
 16 04 02 12 27  8.2000000  0  2G21G16                                          
  22615736.47749 118846495.81649     -7481.96149        48.000  
  18683938.22749  98184757.48849     10875.01249        49.000  
 16 04 02 12 27  8.3000000  0  2G21G16                                          
  22615878.87549 118847244.12949     -7483.47749        48.000  
  18683731.34449  98183670.30149     10870.03949        50.000  
 16 04 02 12 27  8.4000000  0  2G21G16                                          
  22616021.28949 118847992.50449     -7484.14549        48.000  
  18683524.51649  98182583.45749     10866.46149        50.000  
 16 04 02 12 27  8.5000000  0  2G21G16                                          
  22616163.71149 118848740.91449     -7484.46149        48.000  
  18683317.77349  98181496.98849     10862.91449        50.000  
 16 04 02 12 27  8.6000000  0  2G21G16                                          
  22616306.13349 118849489.34449     -7484.64849        48.000  
  18683111.09449  98180410.86749     10859.44949        50.000  
 16 04 02 12 27  8.7000000  0  2G21G16                                          
  22616448.57049 118850237.89149     -7486.02049        48.000  
  18682904.49249  98179325.17249     10854.91449        50.000  
 16 04 02 12 27  8.8000000  0  2G21G16                                          
  22616591.03949 118850986.55549     -7486.95749        48.000  
  18682697.96949  98178239.93049     10850.59049        50.000  
 16 04 02 12 27  8.9000000  0  2G21G16                                          
  22616733.51649 118851735.27749     -7487.69949        48.000  
  18682491.52349  98177155.05949     10846.68849        49.000  
 16 04 02 12 27  9.0000000  0  2G21G16                                          
  22616876.00849 118852484.05549     -7488.25449        48.000  
  18682285.14849  98176070.55149     10843.12949        49.000  
 16 04 02 12 27  9.1000000  0  2G21G16                                          
  22617018.50849 118853232.93049     -7489.27349        48.000  
  18682078.85949  98174986.47749     10838.73849        49.000  
 16 04 02 12 27  9.2000000  0  2G21G16                                          
  22617161.02349 118853981.84849     -7489.32849        48.000  
  18681872.64149  98173902.78549     10835.17649        49.000  
 16 04 02 12 27  9.3000000  0  2G21G16                                          
  22617303.54749 118854730.79749     -7489.77749        48.000  
  18681666.47749  98172819.40649     10831.91849        49.000  
 16 04 02 12 27  9.4000000  0  2G21G16                                          
  22617446.08649 118855479.85549     -7490.98449        48.000  
  18681460.40649  98171736.49249     10827.26649        49.000  
 16 04 02 12 27  9.5000000  0  2G21G16                                          
  22617588.64149 118856228.98049     -7491.64549        48.000  
  18681254.39849  98170653.94149     10823.56249        49.000  
 16 04 02 12 27  9.6000000  0  2G21G16                                          
  22617731.20349 118856978.18049     -7492.40249        48.000  
  18681048.46949  98169571.79749     10819.47749        49.000  
 16 04 02 12 27  9.7000000  0  2G21G16                                          
  22617873.78949 118857727.44149     -7492.85249        48.000  
  18680842.61749  98168490.04349     10815.75849        49.000  
 16 04 02 12 27  9.8000000  0  2G21G16                                          
  22618016.36749 118858476.72749     -7492.90649        48.000  
  18680636.82849  98167408.60949     10812.64549        49.000  
 16 04 02 12 27  9.9000000  0  2G21G16                                          
  22618158.96149 118859226.04749     -7493.44549        48.000  
  18680431.10949  98166327.56249     10808.71949        49.000  
 16 04 02 12 27 10.0000000  0  2G21G16                                          
  22618301.57049 118859975.45749     -7494.54749        48.000  
  18680225.46949  98165246.90649     10804.61749        49.000  
 16 04 02 12 27 10.1000000  0  2G21G16                                          
  22618444.19549 118860724.96149     -7495.41849        48.000  
  18680019.90649  98164166.68449     10800.35949        49.000  
 16 04 02 12 27 10.2000000  0  2G21G16                                          
  22618586.82849 118861474.51249     -7495.73849        48.000  
  18679814.42249  98163086.80949     10796.84449        49.000  
 16 04 02 12 27 10.3000000  0  2G21G16                                          
  22618729.47749 118862224.10949     -7496.48049        48.000  
  18679609.00049  98162007.31649     10793.00849        49.000  
 16 04 02 12 27 10.4000000  0  2G21G16                                          
  22618872.14149 118862973.79349     -7497.14149        48.000  
  18679403.65649  98160928.22349     10789.14849        49.000  
 16 04 02 12 27 10.5000000  0  2G21G16                                          
  22619014.81249 118863723.53949     -7497.69549        48.000  
  18679198.39149  98159849.52749     10785.17249        49.000  
 16 04 02 12 27 10.6000000  0  2G21G16                                          
  22619157.48449 118864473.27349     -7497.66049        48.000  
  18678993.17249  98158771.12949     10782.14549        49.000  
 16 04 02 12 27 10.7000000  0  2G21G16                                          
  22619300.16449 118865223.05949     -7498.14849        48.000  
  18678788.03149  98157693.10549     10778.45349        49.000  
 16 04 02 12 27 10.8000000  0  2G21G16                                          
  22619442.85949 118865972.93049     -7498.98049        48.000  
  18678582.96949  98156615.49249     10774.33249        49.000  
 16 04 02 12 27 10.9000000  0  2G21G16                                          
  22619585.57049 118866722.83249     -7499.37149        48.000  
  18678377.97749  98155538.23049     10770.79349        49.000  
 16 04 02 12 27 11.0000000  0  2G21G16                                          
  22619728.28949 118867472.83249     -7500.33249        48.000  
  18678173.06249  98154461.38749     10766.65649        49.000  
 16 04 02 12 27 11.1000000  0  2G21G16                                          
  22619871.01649 118868222.85549     -7500.48049        48.000  
  18677968.21149  98153384.89849     10763.08649        49.000  
 16 04 02 12 27 11.2000000  0  2G21G16                                          
  22620013.75049 118868972.96149     -7501.36349        48.000  
  18677763.43849  98152308.80549     10758.98849        49.000  
 16 04 02 12 27 11.3000000  0  2G21G16                                          
  22620156.50849 118869723.14149     -7502.09049        48.000  
  18677558.74249  98151233.11349     10755.12549        49.000  
 16 04 02 12 27 11.4000000  0  2G21G16                                          
  22620299.25849 118870473.28549     -7501.91049        48.000  
  18677354.10249  98150157.69949     10752.14149        49.000  
 16 04 02 12 27 11.5000000  0  2G21G16                                          
  22620442.03149 118871223.56249     -7503.33649        48.000  
  18677149.54749  98149082.75049     10747.51249        49.000  
 16 04 02 12 27 11.6000000  0  2G21G16                                          
  22620584.83649 118871974.01649     -7504.73049        48.000  
  18676945.08649  98148008.29749     10742.69549        49.000  
 16 04 02 12 27 11.7000000  0  2G21G16                                          
  22620727.64149 118872724.43849     -7504.82049        48.000  
  18676740.67249  98146934.13349     10739.52349        49.000  
 16 04 02 12 27 11.8000000  0  2G21G16                                          
  22620870.46949 118873475.02349     -7506.22349        48.000  
  18676536.36749  98145860.45749     10734.89149        49.000  
 16 04 02 12 27 11.9000000  0  2G21G16                                          
  22621013.32049 118874225.71949     -7507.60949        48.000  
  18676332.13349  98144787.20749     10730.37949        49.000  
 16 04 02 12 27 12.0000000  0  2G21G16                                          
  22621156.17249 118874976.42249     -7507.39549        48.000  
  18676127.96149  98143714.28549     10727.31649        49.000  
 16 04 02 12 27 12.1000000  0  2G21G16                                          
  22621299.03949 118875727.18049     -7507.90649        48.000  
  18675923.86749  98142641.74249     10723.72749        49.000  
 16 04 02 12 27 12.2000000  0  2G21G16                                          
  22621441.91449 118876478.00849     -7508.53949        48.000  
  18675719.84449  98141569.61749     10719.55149        49.000  
 16 04 02 12 27 12.3000000  0  2G21G16                                          
  22621584.79749 118877228.84849     -7508.58649        48.000  
  18675515.88349  98140497.79749     10716.43849        49.000  
 16 04 02 12 27 12.4000000  0  2G21G16                                          
  22621727.68849 118877979.74649     -7509.22349        48.000  
  18675312.00849  98139426.37949     10712.43049        49.000  
 16 04 02 12 27 12.5000000  0  2G21G16                                          
  22621870.59449 118878730.73049     -7510.20749        48.000  
  18675108.19549  98138355.35549     10708.36349        49.000  
 16 04 02 12 27 12.6000000  0  2G21G16                                          
  22622013.51649 118879481.78549     -7511.02049        48.000  
  18674904.46149  98137284.72349     10704.30549        49.000  
 16 04 02 12 27 12.7000000  0  2G21G16                                          
  22622156.45349 118880232.93449     -7511.75449        48.000  
  18674700.80549  98136214.51649     10700.29349        49.000  
 16 04 02 12 27 12.8000000  0  2G21G16                                          
  22622299.40649 118880984.17249     -7512.90249        48.000  
  18674497.23449  98135144.71549     10696.00449        49.000  
 16 04 02 12 27 12.9000000  0  2G21G16                                          
  22622442.37549 118881735.49249     -7513.43849        48.000  
  18674293.73449  98134075.31249     10692.13749        49.000  
 16 04 02 12 27 13.0000000  0  2G21G16                                          
  22622585.34449 118882486.77049     -7513.05949        48.000  
  18674090.28949  98133006.19949     10689.28549        49.000  
 16 04 02 12 27 13.1000000  0  2G21G16                                          
  22622728.32849 118883238.14549     -7514.12549        48.000  
  18673886.92249  98131937.50449     10685.12949        49.000  
 16 04 02 12 27 13.2000000  0  2G21G16                                          
  22622871.32049 118883989.58649     -7514.61749        48.000  
  18673683.63349  98130869.20749     10681.13749        49.000  
 16 04 02 12 27 13.3000000  0  2G21G16                                          
  22623014.32049 118884741.04349     -7514.95749        48.000  
  18673480.40649  98129801.24649     10677.62549        49.000  
 16 04 02 12 27 13.4000000  0  2G21G16                                          
  22623157.34449 118885492.64149     -7516.34049        48.000  
  18673277.25849  98128733.72749     10673.27349        49.000  
 16 04 02 12 27 13.5000000  0  2G21G16                                          
  22623300.38349 118886244.30549     -7517.21149        48.000  
  18673074.19549  98127666.62549     10669.02749        49.000  
 16 04 02 12 27 13.6000000  0  2G21G16                                          
  22623443.42249 118886996.00449     -7517.42649        48.000  
  18672871.20349  98126599.86749     10665.65249        49.000  
 16 04 02 12 27 13.7000000  0  2G21G16                                          
  22623586.49249 118887747.84449     -7518.64849        48.000  
  18672668.29749  98125533.58249     10661.05149        49.000  
 16 04 02 12 27 13.8000000  0  2G21G16                                          
  22623729.55549 118888499.63349     -7518.12149        48.000  
  18672465.43849  98124467.57049     10658.23049        49.000  
 16 04 02 12 27 13.9000000  0  2G21G16                                          
  22623872.64149 118889251.54349     -7519.35949        48.000  
  18672262.66449  98123401.99249     10653.94149        49.000  
 16 04 02 12 27 14.0000000  0  2G21G16                                          
  22624015.72749 118890003.47749     -7519.58649        48.000  
  18672059.96149  98122336.76249     10650.39849        49.000  
 16 04 02 12 27 14.1000000  0  2G21G16                                          
  22624158.82049 118890755.41849     -7519.69149        48.000  
  18671857.31249  98121271.86349     10647.22749        49.000  
 16 04 02 12 27 14.2000000  0  2G21G16                                          
  22624301.93049 118891507.46949     -7520.85949        48.000  
  18671654.75849  98120207.39849     10642.81649        49.000  
 16 04 02 12 27 14.3000000  0  2G21G16                                          
  22624445.03949 118892259.53949     -7520.89849        48.000  
  18671452.26649  98119143.28149     10639.35249        49.000  
 16 04 02 12 27 14.4000000  0  2G21G16                                          
  22624588.16449 118893011.65249     -7521.34849        48.000  
  18671249.82849  98118079.52749     10635.86749        49.000  
 16 04 02 12 27 14.5000000  0  2G21G16                                          
  22624731.29749 118893763.84849     -7522.25849        48.000  
  18671047.48449  98117016.18849     10631.52049        49.000  
 16 04 02 12 27 14.6000000  0  2G21G16                                          
  22624874.44549 118894516.07849     -7522.46949        48.000  
  18670845.20349  98115953.18849     10628.19149        49.000  
 16 04 02 12 27 14.7000000  0  2G21G16                                          
  22625017.60949 118895268.36749     -7523.14549        48.000  
  18670642.99249  98114890.58649     10624.21949        49.000  
 16 04 02 12 27 14.8000000  0  2G21G16                                          
  22625160.78149 118896020.74249     -7524.27749        48.000  
  18670440.86749  98113828.38749     10619.96149        49.000  
 16 04 02 12 27 14.9000000  0  2G21G16                                          
  22625303.95349 118896773.14549     -7524.19149        48.000  
  18670238.80549  98112766.54349     10616.71149        49.000  
 16 04 02 12 27 15.0000000  0  2G21G16                                          
  22625447.14149 118897525.60549     -7524.87949        48.000  
  18670036.81249  98111705.07449     10612.85949        49.000  
 16 04 02 12 27 15.1000000  0  2G21G16                                          
  22625590.35249 118898278.17249     -7526.01249        48.000  
  18669834.90649  98110644.04749     10608.43849        49.000  
 16 04 02 12 27 15.2000000  0  2G21G16                                          
  22625733.57049 118899030.79349     -7526.52749        48.000  
  18669633.07049  98109583.38349     10604.67649        49.000  
 16 04 02 12 27 15.3000000  0  2G21G16                                          
  22625876.80549 118899783.48449     -7527.34449        48.000  
  18669431.31249  98108523.12949     10600.54749        49.000  
 16 04 02 12 27 15.4000000  0  2G21G16                                          
  22626020.04749 118900536.20749     -7527.56249        48.000  
  18669229.61749  98107463.21149     10597.18449        49.000  
 16 04 02 12 27 15.5000000  0  2G21G16                                          
  22626163.29749 118901288.99249     -7528.14149        48.000  
  18669027.99249  98106403.69549     10593.34449        49.000  
 16 04 02 12 27 15.6000000  0  2G21G16                                          
  22626306.55549 118902041.84449     -7528.81249        48.000  
  18668826.45349  98105344.56249     10589.37149        49.000  
 16 04 02 12 27 15.7000000  0  2G21G16                                          
  22626449.84449 118902794.80949     -7530.10549        48.000  
  18668624.99249  98104285.87149     10584.96949        49.000  
 16 04 02 12 27 15.8000000  0  2G21G16                                          
  22626593.14149 118903547.82449     -7530.43049        48.000  
  18668423.60249  98103227.55149     10581.39149        49.000  
 16 04 02 12 27 15.9000000  0  2G21G16                                          
  22626736.44549 118904300.88349     -7530.87949        48.000  
  18668222.28149  98102169.60549     10577.61749        49.000  
 16 04 02 12 27 16.0000000  0  2G21G16                                          
  22626879.76649 118905054.05149     -7532.02349        48.000  
  18668021.03949  98101112.07449     10573.33249        49.000  
 16 04 02 12 27 16.1000000  0  2G21G16                                          
  22627023.09449 118905807.23049     -7532.08249        48.000  
  18667819.86749  98100054.89149     10570.04349        49.000  
 16 04 02 12 27 16.2000000  0  2G21G16                                          
  22627166.42249 118906560.43849     -7532.34449        48.000  
  18667618.75849  98098998.07449     10566.39549        49.000  
 16 04 02 12 27 16.3000000  0  2G21G16                                          
  22627309.78949 118907313.84449     -7534.24649        48.000  
  18667417.75049  98097941.75849     10561.38749        49.000  
 16 04 02 12 27 16.4000000  0  2G21G16                                          
  22627453.16449 118908067.24649     -7534.65249        48.000  
  18667216.79749  98096885.78149     10557.66849        49.000  
 16 04 02 12 27 16.5000000  0  2G21G16                                          
  22627596.54749 118908820.69549     -7534.65649        48.000  
  18667015.91449  98095830.15249     10554.51249        49.000  
 16 04 02 12 27 16.6000000  0  2G21G16                                          
  22627739.93049 118909574.20749     -7535.49249        48.000  
  18666815.10949  98094774.93849     10550.19549        49.000  
 16 04 02 12 27 16.7000000  0  2G21G16                                          
  22627883.33649 118910327.83649     -7536.66449        48.000  
  18666614.39149  98093720.14849     10546.06649        49.000  
 16 04 02 12 27 16.8000000  0  2G21G16                                          
  22628026.75849 118911081.49649     -7537.03949        48.000  
  18666413.74249  98092665.71549     10542.31649        49.000  
 16 04 02 12 27 16.9000000  0  2G21G16                                          
  22628170.19549 118911835.27749     -7538.10249        48.000  
  18666213.18049  98091611.71949     10538.07449        49.000  
 16 04 02 12 27 17.0000000  0  2G21G16                                          
  22628313.63349 118912589.01649     -7537.74249        48.000  
  18666012.66449  98090558.02049     10535.12149        49.000  
 16 04 02 12 27 17.1000000  0  2G21G16                                          
  22628457.08649 118913342.83649     -7538.32849        48.000  
  18665812.22749  98089504.72349     10531.28949        49.000  
 16 04 02 12 27 17.2000000  0  2G21G16                                          
  22628600.53949 118914096.71149     -7538.97349        48.000  
  18665611.86749  98088451.81649     10527.34849        49.000  
 16 04 02 12 27 17.3000000  0  2G21G16                                          
  22628744.02349 118914850.71549     -7540.30949        48.000  
  18665411.59449  98087399.34449     10522.82449        49.000  
 16 04 02 12 27 17.4000000  0  2G21G16                                          
  22628887.50849 118915604.73049     -7540.46549        48.000  
  18665211.37549  98086347.20749     10519.49649        49.000  
 16 04 02 12 27 17.5000000  0  2G21G16                                          
  22629031.00049 118916358.78149     -7540.77749        48.000  
  18665011.23449  98085295.43049     10515.94949        49.000  
 16 04 02 12 27 17.6000000  0  2G21G16                                          
  22629174.50849 118917112.91049     -7541.69549        48.000  
  18664811.16449  98084244.08249     10511.66849        49.000  
 16 04 02 12 27 17.7000000  0  2G21G16                                          
  22629318.02349 118917867.09849     -7542.29349        48.000  
  18664611.17249  98083193.11349     10507.79349        49.000  
 16 04 02 12 27 17.8000000  0  2G21G16                                          
  22629461.57049 118918621.44149     -7543.64849        48.000  
  18664411.26649  98082142.59049     10503.29349        49.000  
 16 04 02 12 27 17.9000000  0  2G21G16                                          
  22629605.11749 118919375.77749     -7543.77749        48.000  
  18664211.42249  98081092.41449     10499.89549        49.000  
 16 04 02 12 27 18.0000000  0  2G21G16                                          
  22629748.67249 118920130.17649     -7544.47749        48.000  
  18664011.65649  98080042.60949     10496.18049        49.000  
 16 04 02 12 27 18.1000000  0  2G21G16                                          
  22629892.25049 118920884.64549     -7545.11349        48.000  
  18663811.96149  98078993.20749     10492.15249        49.000  
 16 04 02 12 27 18.2000000  0  2G21G16                                          
  22630035.82849 118921639.18049     -7545.64849        48.000  
  18663612.34449  98077944.20349     10488.21549        49.000  
 16 04 02 12 27 18.3000000  0  2G21G16                                          
  22630179.43849 118922393.81249     -7546.68049        48.000  
  18663412.80549  98076895.62149     10483.97749        49.000  
 16 04 02 12 27 18.4000000  0  2G21G16                                          
  22630323.04749 118923148.50049     -7547.24649        48.000  
  18663213.33649  98075847.40649     10480.18449        49.000  
 16 04 02 12 27 18.5000000  0  2G21G16                                          
  22630466.66449 118923903.23849     -7547.62949        48.000  
  18663013.94549  98074799.57849     10476.59049        49.000  
 16 04 02 12 27 18.6000000  0  2G21G16                                          
  22630610.29749 118924658.03149     -7548.23449        48.000  
  18662814.61749  98073752.12149     10472.68049        49.000  
 16 04 02 12 27 18.7000000  0  2G21G16                                          
  22630753.94549 118925412.85949     -7548.57049        48.000  
  18662615.36749  98072705.04349     10468.97349        49.000  
 16 04 02 12 27 18.8000000  0  2G21G16                                          
  22630897.58649 118926167.72749     -7548.77749        48.000  
  18662416.18049  98071658.31249     10465.63749        49.000  
 16 04 02 12 27 18.9000000  0  2G21G16                                          
  22631041.25049 118926922.68849     -7549.75049        48.000  
  18662217.07049  98070612.00049     10461.37549        49.000  
 16 04 02 12 27 19.0000000  0  2G21G16                                          
  22631184.92249 118927677.68849     -7550.32449        48.000  
  18662018.03949  98069566.05549     10457.57449        49.000  
 16 04 02 12 27 19.1000000  0  2G21G16                                          
  22631328.60249 118928432.71949     -7550.83249        48.000  
  18661819.07049  98068520.48449     10453.80549        49.000  
 16 04 02 12 27 19.2000000  0  2G21G16                                          
  22631472.29749 118929187.81649     -7551.22349        48.000  
  18661620.17249  98067475.27749     10450.13349        49.000  
 16 04 02 12 27 19.3000000  0  2G21G16                                          
  22631616.00049 118929942.93849     -7551.62149        48.000  
  18661421.34449  98066430.44149     10446.63349        49.000  
 16 04 02 12 27 19.4000000  0  2G21G16                                          
  22631759.71149 118930698.14549     -7552.21149        48.000  
  18661222.59449  98065385.99649     10442.78949        49.000  
 16 04 02 12 27 19.5000000  0  2G21G16                                          
  22631903.43049 118931453.40649     -7553.05949        48.000  
  18661023.92249  98064341.93449     10438.73049        49.000  
 16 04 02 12 27 19.6000000  0  2G21G16                                          
  22632047.16449 118932208.74649     -7553.85549        48.000  
  18660825.32049  98063298.30149     10434.54349        49.000  
 16 04 02 12 27 19.7000000  0  2G21G16                                          
  22632190.92249 118932964.18049     -7554.77749        48.000  
  18660626.79749  98062255.05149     10430.61749        49.000  
 16 04 02 12 27 19.8000000  0  2G21G16                                          
  22632334.68049 118933719.63749     -7554.97749        48.000  
  18660428.33649  98061212.18849     10426.76249        49.000  
 16 04 02 12 27 19.9000000  0  2G21G16                                          
  22632478.45349 118934475.18849     -7556.10949        48.000  
  18660229.96949  98060169.72749     10422.64549        49.000  
 16 04 02 12 27 20.0000000  0  2G21G16                                          
  22632622.24249 118935230.80149     -7556.53949        48.000  
  18660031.66449  98059127.64849     10418.89549        49.000  
 16 04 02 12 27 20.1000000  0  2G21G16                                          
  22632766.04749 118935986.49249     -7557.21149        48.000  
  18659833.44549  98058085.97749     10414.86749        49.000  
 16 04 02 12 27 20.2000000  0  2G21G16                                          
  22632909.85249 118936742.21149     -7557.59049        48.000  
  18659635.28149  98057044.66049     10411.22349        49.000  
 16 04 02 12 27 20.3000000  0  2G21G16                                          
  22633053.66449 118937497.93049     -7557.59049        48.000  
  18659437.19549  98056003.68449     10407.87949        49.000  
 16 04 02 12 27 20.4000000  0  2G21G16                                          
  22633197.50049 118938253.76649     -7558.51249        48.000  
  18659239.18049  98054963.11749     10403.93049        49.000  
 16 04 02 12 27 20.5000000  0  2G21G16                                          
  22633341.34449 118939009.66049     -7559.38749        48.000  
  18659041.24249  98053922.96949     10399.49249        49.000  
 16 04 02 12 27 20.6000000  0  2G21G16                                          
  22633485.19549 118939765.62949     -7560.09449        48.000  
  18658843.38349  98052883.19549     10395.69949        49.000  
 16 04 02 12 27 20.7000000  0  2G21G16                                          
  22633629.05549 118940521.60549     -7559.99649        48.000  
  18658645.58649  98051843.77749     10392.44949        49.000  
 16 04 02 12 27 20.8000000  0  2G21G16                                          
  22633772.92249 118941277.64549     -7560.76649        48.000  
  18658447.86749  98050804.73849     10388.50449        50.000  
 16 04 02 12 27 20.9000000  0  2G21G16                                          
  22633916.81249 118942033.78549     -7561.60249        48.000  
  18658250.22749  98049766.12549     10384.30549        49.000  
 16 04 02 12 27 21.0000000  0  2G21G16                                          
  22634060.69549 118942789.91849     -7561.66449        48.000  
  18658052.64849  98048727.83249     10380.93849        49.000  
 16 04 02 12 27 21.1000000  0  2G21G16                                          
  22634204.61749 118943546.19549     -7563.13349        48.000  
  18657855.15649  98047690.00449     10376.35549        49.000  
 16 04 02 12 27 21.2000000  0  2G21G16                                          
  22634348.53949 118944302.52349     -7563.66849        48.000  
  18657657.74249  98046652.57049     10372.41049        50.000  
 16 04 02 12 27 21.3000000  0  2G21G16                                          
  22634492.46949 118945058.89149     -7563.82049        48.000  
  18657460.39149  98045615.47749     10369.08649        50.000  
 16 04 02 12 27 21.4000000  0  2G21G16                                          
  22634636.42249 118945815.32849     -7564.81249        48.000  
  18657263.11749  98044578.80149     10364.82849        50.000  
 16 04 02 12 27 21.5000000  0  2G21G16                                          
  22634780.36749 118946571.79349     -7564.94549        48.000  
  18657065.91449  98043542.46949     10361.45749        50.000  
 16 04 02 12 27 21.6000000  0  2G21G16                                          
  22634924.33649 118947328.36749     -7566.02749        48.000  
  18656868.78949  98042506.57849     10357.01649        50.000  
 16 04 02 12 27 21.7000000  0  2G21G16                                          
  22635068.32849 118948085.02349     -7566.97349        48.000  
  18656671.74249  98041471.09049     10352.85549        50.000  
 16 04 02 12 27 21.8000000  0  2G21G16                                          
  22635212.32049 118948841.73849     -7567.42249        48.000  
  18656474.76649  98040435.98849     10349.21949        50.000  
 16 04 02 12 27 21.9000000  0  2G21G16                                          
  22635356.32049 118949598.47349     -7567.82449        48.000  
  18656277.85949  98039401.23449     10345.54349        49.000  
 16 04 02 12 27 22.0000000  0  2G21G16                                          
  22635500.33649 118950355.27349     -7568.40249        48.000  
  18656081.03149  98038366.87549     10341.66449        50.000  
 16 04 02 12 27 22.1000000  0  2G21G16                                          
  22635644.35949 118951112.11749     -7568.71549        48.000  
  18655884.26649  98037332.87549     10338.16849        50.000  
 16 04 02 12 27 22.2000000  0  2G21G16                                          
  22635788.38349 118951868.98449     -7568.89149        48.000  
  18655687.57849  98036299.24249     10334.57049        50.000  
 16 04 02 12 27 22.3000000  0  2G21G16                                          
  22635932.42249 118952625.92649     -7569.73449        48.000  
  18655490.95349  98035266.00049     10330.64849        50.000  
 16 04 02 12 27 22.4000000  0  2G21G16                                          
  22636076.48449 118953382.97749     -7570.73849        48.000  
  18655294.42249  98034233.19549     10326.14549        50.000  
 16 04 02 12 27 22.5000000  0  2G21G16                                          
  22636220.55549 118954140.05549     -7571.13349        48.000  
  18655097.95349  98033200.75049     10322.59849        50.000  
 16 04 02 12 27 22.6000000  0  2G21G16                                          
  22636364.63349 118954897.17649     -7571.55949        48.000  
  18654901.55549  98032168.66449     10318.98049        50.000  
 16 04 02 12 27 22.7000000  0  2G21G16                                          
  22636508.72749 118955654.36349     -7572.01249        48.000  
  18654705.22749  98031136.99249     10314.91449        50.000  
 16 04 02 12 27 22.8000000  0  2G21G16                                          
  22636652.82849 118956411.62149     -7572.84449        48.000  
  18654508.97749  98030105.68849     10311.21549        50.000  
 16 04 02 12 27 22.9000000  0  2G21G16                                          
  22636796.93849 118957168.90249     -7573.12949        48.000  
  18654312.79749  98029074.76249     10307.41049        50.000  
 16 04 02 12 27 23.0000000  0  2G21G16                                          
  22636941.05549 118957926.26249     -7573.70349        48.000  
  18654116.69549  98028044.21949     10303.64549        50.000  
 16 04 02 12 27 23.1000000  0  2G21G16                                          
  22637085.20349 118958683.70749     -7574.80549        48.000  
  18653920.67249  98027014.10249     10299.25449        50.000  
 16 04 02 12 27 23.2000000  0  2G21G16                                          
  22637229.35949 118959441.25849     -7575.82049        48.000  
  18653724.72749  98025984.41049     10294.99249        50.000  
 16 04 02 12 27 23.3000000  0  2G21G16                                          
  22637373.51649 118960198.77049     -7575.34449        48.000  
  18653528.83649  98024955.00849     10292.25449        49.000  
 16 04 02 12 27 23.4000000  0  2G21G16                                          
  22637517.68849 118960956.39549     -7576.61749        48.000  
  18653333.03149  98023926.04749     10287.72349        49.000  
 16 04 02 12 27 23.5000000  0  2G21G16                                          
  22637661.87549 118961714.08249     -7577.30549        48.000  
  18653137.30549  98022897.47749     10283.75049        49.000  
 16 04 02 12 27 23.6000000  0  2G21G16                                          
  22637806.07049 118962471.84849     -7577.90649        48.000  
  18652941.64849  98021869.30949     10279.89549        50.000  
 16 04 02 12 27 23.7000000  0  2G21G16                                          
  22637950.28149 118963229.67249     -7578.65649        48.000  
  18652746.07049  98020841.53149     10275.77349        50.000  
 16 04 02 12 27 23.8000000  0  2G21G16                                          
  22638094.50049 118963987.54349     -7579.07849        48.000  
  18652550.56249  98019814.13349     10272.11749        50.000  
 16 04 02 12 27 23.9000000  0  2G21G16                                          
  22638238.72749 118964745.44549     -7579.11349        48.000  
  18652355.12549  98018787.08649     10268.75449        50.000  
 16 04 02 12 27 24.0000000  0  2G21G16                                          
  22638382.96149 118965503.39549     -7579.72749        48.000  
  18652159.75849  98017760.41049     10264.89849        50.000  
 16 04 02 12 27 24.1000000  0  2G21G16                                          
  22638527.20349 118966261.37949     -7580.03149        48.000  
  18651964.45349  98016734.10949     10261.25849        50.000  
 16 04 02 12 27 24.2000000  0  2G21G16                                          
  22638671.46149 118967019.46149     -7580.90649        48.000  
  18651769.24249  98015708.23049     10257.03549        50.000  
 16 04 02 12 27 24.3000000  0  2G21G16                                          
  22638815.71949 118967777.53549     -7580.97349        48.000  
  18651574.07849  98014682.66849     10253.73449        50.000  
 16 04 02 12 27 24.4000000  0  2G21G16                                          
  22638959.98449 118968535.66049     -7581.47349        48.000  
  18651378.99249  98013657.47749     10249.99249        50.000  
 16 04 02 12 27 24.5000000  0  2G21G16                                          
  22639104.27349 118969293.88749     -7582.48849        48.000  
  18651183.98449  98012632.71949     10245.85249        50.000  
 16 04 02 12 27 24.6000000  0  2G21G16                                          
  22639248.57049 118970052.18449     -7583.45349        48.000  
  18650989.05549  98011608.34849     10241.66849        49.000  
 16 04 02 12 27 24.7000000  0  2G21G16                                          
  22639392.88349 118970810.52049     -7583.49649        48.000  
  18650794.19549  98010584.36749     10238.18049        49.000  
 16 04 02 12 27 24.8000000  0  2G21G16                                          
  22639537.19549 118971568.87949     -7583.95749        48.000  
  18650599.40649  98009560.72349     10234.50849        49.000  
 16 04 02 12 27 24.9000000  0  2G21G16                                          
  22639681.52349 118972327.33649     -7584.87149        48.000  
  18650404.69549  98008537.52049     10230.19549        49.000  
 16 04 02 12 27 25.0000000  0  2G21G16                                          
  22639825.87549 118973085.90649     -7585.98049        48.000  
  18650210.07049  98007514.73849     10225.91449        49.000  
 16 04 02 12 27 25.1000000  0  2G21G16                                          
  22639970.22749 118973844.47749     -7586.00449        48.000  
  18650015.50049  98006492.28549     10222.65249        49.000  
 16 04 02 12 27 25.2000000  0  2G21G16                                          
  22640114.60249 118974603.14149     -7587.14149        48.000  
  18649821.01649  98005470.27049     10218.15649        49.000  
 16 04 02 12 27 25.3000000  0  2G21G16                                          
  22640258.97749 118975361.86749     -7587.52349        48.000  
  18649626.60949  98004448.64149     10214.42249        49.000  
 16 04 02 12 27 25.4000000  0  2G21G16                                          
  22640403.35949 118976120.57849     -7587.31649        48.000  
  18649432.25849  98003427.32049     10211.43449        50.000  
 16 04 02 12 27 25.5000000  0  2G21G16                                          
  22640547.76649 118976879.44549     -7588.77349        48.000  
  18649238.00049  98002406.48049     10206.67249        50.000  
 16 04 02 12 27 25.6000000  0  2G21G16                                          
  22640692.18849 118977638.36749     -7589.78149        48.000  
  18649043.81249  98001386.02349     10202.46549        49.000  
 16 04 02 12 27 25.7000000  0  2G21G16                                          
  22640836.61749 118978397.34849     -7590.06649        48.000  
  18648849.69549  98000365.94949     10199.00849        50.000  
 16 04 02 12 27 25.8000000  0  2G21G16                                          
  22640981.03149 118979156.27049     -7589.41849        48.000  
  18648655.64149  97999346.16049     10196.17249        49.000  
 16 04 02 12 27 25.9000000  0  2G21G16                                          
  22641125.47749 118979915.33249     -7590.82849        48.000  
  18648461.67249  97998326.83649     10191.50049        49.000  
 16 04 02 12 27 26.0000000  0  2G21G16                                          
  22641269.93049 118980674.41049     -7590.97349        48.000  
  18648267.76649  97997307.84849     10188.12549        49.000  
 16 04 02 12 27 26.1000000  0  2G21G16                                          
  22641414.39849 118981433.58649     -7592.16449        48.000  
  18648073.93849  97996289.28549     10183.70349        49.000  
 16 04 02 12 27 26.2000000  0  2G21G16                                          
  22641558.86749 118982192.76649     -7592.25449        48.000  
  18647880.17249  97995271.07049     10180.25049        49.000  
 16 04 02 12 27 26.3000000  0  2G21G16                                          
  22641703.35949 118982952.07449     -7593.34849        48.000  
  18647686.50049  97994253.29349     10175.96549        49.000  
 16 04 02 12 27 26.4000000  0  2G21G16                                          
  22641847.85949 118983711.42249     -7593.78949        48.000  
  18647492.89149  97993235.89549     10172.15249        50.000  
 16 04 02 12 27 26.5000000  0  2G21G16                                          
  22641992.36749 118984470.81649     -7594.21549        48.000  
  18647299.35949  97992218.87149     10168.28949        50.000  
 16 04 02 12 27 26.6000000  0  2G21G16                                          
  22642136.89149 118985230.30549     -7595.47749        48.000  
  18647105.90649  97991202.25849     10164.04749        49.000  
 16 04 02 12 27 26.7000000  0  2G21G16                                          
  22642281.44549 118985989.86749     -7595.96149        48.000  
  18646912.53149  97990186.06649     10160.05549        49.000  
 16 04 02 12 27 26.8000000  0  2G21G16                                          
  22642425.99249 118986749.50049     -7596.51649        48.000  
  18646719.22749  97989170.26249     10156.22749        49.000  
 16 04 02 12 27 26.9000000  0  2G21G16                                          
  22642570.55549 118987509.15249     -7596.71949        48.000  
  18646525.99249  97988154.80149     10152.78949        49.000  
 16 04 02 12 27 27.0000000  0  2G21G16                                          
  22642715.11749 118988268.80949     -7596.79349        48.000  
  18646332.82849  97987139.69149     10149.41849        49.000  
 16 04 02 12 27 27.1000000  0  2G21G16                                          
  22642859.68849 118989028.53149     -7597.25849        48.000  
  18646139.72749  97986124.95349     10145.74649        50.000  
 16 04 02 12 27 27.2000000  0  2G21G16                                          
  22643004.27349 118989788.33249     -7598.45349        48.000  
  18645946.71149  97985110.63749     10141.22749        50.000  
 16 04 02 12 27 27.3000000  0  2G21G16                                          
  22643148.88349 118990548.21949     -7599.05949        48.000  
  18645753.77349  97984096.74249     10137.11749        50.000  
 16 04 02 12 27 27.4000000  0  2G21G16                                          
  22643293.48449 118991308.12549     -7599.22749        48.000  
  18645560.89849  97983083.17249     10133.84849        49.000  
 16 04 02 12 27 27.5000000  0  2G21G16                                          
  22643438.10249 118992068.05549     -7599.57049        48.000  
  18645368.09449  97982069.97349     10130.29749        49.000  
 16 04 02 12 27 27.6000000  0  2G21G16                                          
  22643582.71949 118992828.04349     -7600.25449        48.000  
  18645175.36749  97981057.15249     10126.26249        49.000  
 16 04 02 12 27 27.7000000  0  2G21G16                                          
  22643727.35949 118993588.11749     -7601.12549        48.000  
  18644982.71149  97980044.76649     10121.94949        49.000  
 16 04 02 12 27 27.8000000  0  2G21G16                                          
  22643872.00049 118994348.24649     -7601.42249        48.000  
  18644790.13349  97979032.74649     10118.38349        49.000  
 16 04 02 12 27 27.9000000  0  2G21G16                                          
  22644016.66449 118995108.44149     -7602.26249        48.000  
  18644597.62549  97978021.11749     10114.43449        49.000  
 16 04 02 12 27 28.0000000  0  2G21G16                                          
  22644161.34449 118995868.74649     -7603.46549        48.000  
  18644405.21149  97977009.93449     10109.89149        49.000  
 16 04 02 12 27 28.1000000  0  2G21G16                                          
  22644306.03949 118996629.09849     -7603.85949        48.000  
  18644212.85949  97975999.13349     10106.12949        49.000  
 16 04 02 12 27 28.2000000  0  2G21G16                                          
  22644450.72749 118997389.43449     -7603.48449        48.000  
  18644020.56249  97974988.63749     10103.15249        49.000  
 16 04 02 12 27 28.3000000  0  2G21G16                                          
  22644595.43049 118998149.85549     -7604.63349        48.000  
  18643828.35249  97973978.55549     10098.84849        49.000  
 16 04 02 12 27 28.4000000  0  2G21G16                                          
  22644740.14849 118998910.34849     -7605.23049        48.000  
  18643636.22749  97972968.87949     10094.92649        49.000  
 16 04 02 12 27 28.5000000  0  2G21G16                                          
  22644884.86749 118999670.86749     -7605.46549        48.000  
  18643444.15649  97971959.55949     10091.27749        49.000  
 16 04 02 12 27 28.6000000  0  2G21G16                                          
  22645029.59449 119000431.41849     -7605.83649        48.000  
  18643252.15649  97970950.59449     10087.78149        49.000  
 16 04 02 12 27 28.7000000  0  2G21G16                                          
  22645174.35249 119001192.07849     -7606.81249        48.000  
  18643060.23449  97969942.07449     10083.38349        49.000  
 16 04 02 12 27 28.8000000  0  2G21G16                                          
  22645319.09449 119001952.69149     -7606.27349        48.000  
  18642868.37549  97968933.82449     10080.81649        49.000  
 16 04 02 12 27 28.9000000  0  2G21G16                                          
  22645463.84449 119002713.36749     -7606.96949        48.000  
  18642676.58649  97967925.98449     10076.73849        49.000  
 16 04 02 12 27 29.0000000  0  2G21G16                                          
  22645608.61749 119003474.15249     -7608.17249        48.000  
  18642484.89149  97966918.57849     10072.15249        49.000  
 16 04 02 12 27 29.1000000  0  2G21G16                                          
  22645753.39149 119004234.95749     -7608.41049        48.000  
  18642293.25049  97965911.51249     10068.70349        49.000  
 16 04 02 12 27 29.2000000  0  2G21G16                                          
  22645898.18049 119004995.80949     -7608.93849        48.000  
  18642101.68049  97964904.83249     10064.86749        49.000  
 16 04 02 12 27 29.3000000  0  2G21G16                                          
  22646042.96949 119005756.73849     -7609.43449        48.000  
  18641910.19549  97963898.55949     10060.89149        49.000  
 16 04 02 12 27 29.4000000  0  2G21G16                                          
  22646187.78949 119006517.75049     -7610.53549        48.000  
  18641718.78949  97962892.68049     10056.80949        49.000  
 16 04 02 12 27 29.5000000  0  2G21G16                                          
  22646332.63349 119007278.87549     -7611.72349        48.000  
  18641527.46149  97961887.26649     10052.12949        49.000  
 16 04 02 12 27 29.6000000  0  2G21G16                                          
  22646477.47749 119008040.05149     -7612.32049        48.000  
  18641336.21949  97960882.22349     10048.32449        49.000  
 16 04 02 12 27 29.7000000  0  2G21G16                                          
  22646622.32849 119008801.24649     -7612.35249        48.000  
  18641145.03149  97959877.53149     10044.98049        49.000  
 16 04 02 12 27 29.8000000  0  2G21G16                                          
  22646767.18849 119009562.52749     -7613.05549        48.000  
  18640953.92249  97958873.25849     10041.07849        49.000  
 16 04 02 12 27 29.9000000  0  2G21G16                                          
  22646912.07049 119010323.85949     -7613.51249        48.000  
  18640762.89149  97957869.36349     10037.16849        49.000  
 16 04 02 12 27 30.0000000  0  2G21G16                                          
  22647056.96149 119011085.24649     -7614.02049        48.000  
  18640571.93049  97956865.85549     10033.31249        49.000  
 16 04 02 12 27 30.1000000  0  2G21G16                                          
  22647201.85249 119011846.67649     -7614.51249        48.000  
  18640381.03949  97955862.71949     10029.43849        49.000  
 16 04 02 12 27 30.2000000  0  2G21G16                                          
  22647346.76649 119012608.21949     -7615.96949        48.000  
  18640190.22749  97954860.00449     10025.10249        49.000  
 16 04 02 12 27 30.3000000  0  2G21G16                                          
  22647491.68049 119013369.74249     -7615.46549        48.000  
  18639999.48449  97953857.64149     10021.89149        49.000  
 16 04 02 12 27 30.4000000  0  2G21G16                                          
  22647636.59449 119014131.28149     -7615.70749        48.000  
  18639808.79749  97952855.59449     10018.53949        49.000  
 16 04 02 12 27 30.5000000  0  2G21G16                                          
  22647781.53949 119014892.95349     -7616.92649        48.000  
  18639618.20349  97951854.02749     10013.89149        49.000  
 16 04 02 12 27 30.6000000  0  2G21G16                                          
  22647926.49249 119015654.66849     -7617.72749        48.000  
  18639427.68049  97950852.81649     10010.00449        49.000  
 16 04 02 12 27 30.7000000  0  2G21G16                                          
  22648071.44549 119016416.42649     -7617.94549        48.000  
  18639237.22749  97949851.98849     10006.32449        49.000  
 16 04 02 12 27 30.8000000  0  2G21G16                                          
  22648216.42249 119017178.25049     -7618.35549        48.000  
  18639046.85249  97948851.55949     10002.62549        49.000  
 16 04 02 12 27 30.9000000  0  2G21G16                                          
  22648361.39149 119017940.08249     -7618.80549        48.000  
  18638856.54749  97947851.46149      9998.94149        49.000  
 16 04 02 12 27 31.0000000  0  2G21G16                                          
  22648506.37549 119018701.97349     -7619.10249        48.000  
  18638666.30549  97946851.76249      9995.30949        49.000  
 16 04 02 12 27 31.1000000  0  2G21G16                                          
  22648651.37549 119019463.93049     -7619.73449        48.000  
  18638476.14849  97945852.46149      9991.17249        50.000  
 16 04 02 12 27 31.2000000  0  2G21G16                                          
  22648796.37549 119020225.92249     -7620.22749        48.000  
  18638286.05549  97944853.50449      9987.64849        50.000  
 16 04 02 12 27 31.3000000  0  2G21G16                                          
  22648941.40649 119020988.05149     -7621.73449        48.000  
  18638096.05549  97943855.03149      9982.76249        50.000  
 16 04 02 12 27 31.4000000  0  2G21G16                                          
  22649086.43049 119021750.16849     -7621.49649        48.000  
  18637906.10949  97942856.89149      9979.46149        50.000  
 16 04 02 12 27 31.5000000  0  2G21G16                                          
  22649231.47749 119022512.36749     -7622.34049        48.000  
  18637716.24249  97941859.12949      9975.72349        50.000  
 16 04 02 12 27 31.6000000  0  2G21G16                                          
  22649376.53949 119023274.69149     -7623.59449        48.000  
  18637526.46949  97940861.84849      9970.90649        50.000  
 16 04 02 12 27 31.7000000  0  2G21G16                                          
  22649521.61749 119024037.07449     -7624.19149        48.000  
  18637336.75849  97939864.94549      9967.06249        50.000  
 16 04 02 12 27 31.8000000  0  2G21G16                                          
  22649666.69549 119024799.46949     -7624.21949        48.000  
  18637147.12549  97938868.38749      9963.77049        49.000  
 16 04 02 12 27 31.9000000  0  2G21G16                                          
  22649811.78949 119025561.93449     -7624.93049        48.000  
  18636957.56249  97937872.23849      9959.66049        49.000  
 16 04 02 12 27 32.0000000  0  2G21G16                                          
  22649956.89149 119026324.43449     -7625.25849        48.000  
  18636768.07049  97936876.44949      9956.07449        50.000  
 16 04 02 12 27 32.1000000  0  2G21G16                                          
  22650102.00049 119027087.00049     -7625.83249        48.000  
  18636578.65649  97935881.04749      9952.21149        50.000  
 16 04 02 12 27 32.2000000  0  2G21G16                                          
  22650247.11749 119027849.58249     -7626.17649        48.000  
  18636389.30549  97934886.00449      9948.49649        49.000  
 16 04 02 12 27 32.3000000  0  2G21G16                                          
  22650392.25849 119028612.29749     -7627.52349        48.000  
  18636200.03949  97933891.42249      9943.89549        49.000  
 16 04 02 12 27 32.4000000  0  2G21G16                                          
  22650537.40649 119029375.07449     -7628.20349        48.000  
  18636010.84449  97932897.23049      9939.98049        49.000  
 16 04 02 12 27 32.5000000  0  2G21G16                                          
  22650682.55549 119030137.86749     -7628.19149        48.000  
  18635821.72749  97931903.38349      9936.64549        49.000  
 16 04 02 12 27 32.6000000  0  2G21G16                                          
  22650827.70349 119030900.62149     -7627.78549        48.000  
  18635632.65649  97930909.84049      9933.66449        49.000  
 16 04 02 12 27 32.7000000  0  2G21G16                                          
  22650972.88349 119031663.52349     -7629.31249        48.000  
  18635443.68049  97929916.77049      9928.89549        49.000  
 16 04 02 12 27 32.8000000  0  2G21G16                                          
  22651118.06249 119032426.44949     -7629.35249        48.000  
  18635254.78149  97928924.05549      9925.40249        49.000  
 16 04 02 12 27 32.9000000  0  2G21G16                                          
  22651263.25849 119033189.40649     -7629.77049        48.000  
  18635065.93849  97927931.69149      9921.80149        49.000  
 16 04 02 12 27 33.0000000  0  2G21G16                                          
  22651408.45349 119033952.42649     -7630.49249        48.000  
  18634877.18049  97926939.73849      9917.69549        49.000  
 16 04 02 12 27 33.1000000  0  2G21G16                                          
  22651553.68049 119034715.55549     -7631.75049        48.000  
  18634688.50049  97925948.21549      9913.19549        49.000  
 16 04 02 12 27 33.2000000  0  2G21G16                                          
  22651698.90649 119035478.72749     -7632.01249        48.000  
  18634499.89149  97924957.06649      9909.55149        49.000  
 16 04 02 12 27 33.3000000  0  2G21G16                                          
  22651844.14149 119036241.94149     -7632.50449        48.000  
  18634311.35249  97923966.28949      9905.91849        49.000  
 16 04 02 12 27 33.4000000  0  2G21G16                                          
  22651989.39149 119037005.21549     -7633.09049        48.000  
  18634122.89149  97922975.92649      9901.77349        50.000  
 16 04 02 12 27 33.5000000  0  2G21G16                                          
  22652134.64849 119037768.54349     -7633.64849        48.000  
  18633934.50049  97921985.92249      9898.04349        50.000  
 16 04 02 12 27 33.6000000  0  2G21G16                                          
  22652279.92249 119038531.96149     -7634.48849        48.000  
  18633746.19549  97920996.34449      9893.84049        49.000  
 16 04 02 12 27 33.7000000  0  2G21G16                                          
  22652425.20349 119039295.41449     -7635.12549        48.000  
  18633557.95349  97920007.14549      9889.88349        49.000  
 16 04 02 12 27 33.8000000  0  2G21G16                                          
  22652570.48449 119040058.89549     -7634.93049        48.000  
  18633369.78149  97919018.29349      9886.76649        49.000  
 16 04 02 12 27 33.9000000  0  2G21G16                                          
  22652715.78949 119040822.44549     -7635.79349        48.000  
  18633181.68849  97918029.83249      9882.72349        49.000  
 16 04 02 12 27 34.0000000  0  2G21G16                                          
  22652861.10249 119041586.05949     -7636.44149        48.000  
  18632993.66449  97917041.78949      9878.50049        49.000  
 16 04 02 12 27 34.1000000  0  2G21G16                                          
  22653006.43049 119042349.76649     -7637.44949        48.000  
  18632805.72749  97916054.15249      9874.45349        49.000  
 16 04 02 12 27 34.2000000  0  2G21G16                                          
  22653151.76649 119043113.53149     -7638.23849        48.000  
  18632617.85949  97915066.91849      9870.27749        49.000  
 16 04 02 12 27 34.3000000  0  2G21G16                                          
  22653297.11749 119043877.32449     -7638.12549        48.000  
  18632430.06249  97914080.03949      9867.10949        49.000  
 16 04 02 12 27 34.4000000  0  2G21G16                                          
  22653442.46149 119044641.10249     -7637.85549        48.000  
  18632242.32049  97913093.48449      9863.93849        49.000  
 16 04 02 12 27 34.5000000  0  2G21G16                                          
  22653587.82049 119045404.94549     -7638.82049        48.000  
  18632054.65649  97912107.30949      9859.84449        49.000  
 16 04 02 12 27 34.6000000  0  2G21G16                                          
  22653733.19549 119046168.89849     -7639.72349        48.000  
  18631867.08649  97911121.59849      9855.34449        49.000  
 16 04 02 12 27 34.7000000  0  2G21G16                                          
  22653878.57849 119046932.89849     -7640.33249        48.000  
  18631679.57849  97910136.24649      9851.58249        49.000  
 16 04 02 12 27 34.8000000  0  2G21G16                                          
  22654023.96949 119047696.94949     -7640.81249        48.000  
  18631492.15649  97909151.27749      9847.83649        49.000  
 16 04 02 12 27 34.9000000  0  2G21G16                                          
  22654169.37549 119048461.05949     -7641.53149        48.000  
  18631304.79749  97908166.71949      9843.67649        49.000  
 16 04 02 12 27 35.0000000  0  2G21G16                                          
  22654314.79749 119049225.25849     -7642.36749        48.000  
  18631117.51649  97907182.57049      9839.48849        49.000  
 16 04 02 12 27 35.1000000  0  2G21G16                                          
  22654460.24249 119049989.54749     -7643.33249        48.000  
  18630930.32049  97906198.83249      9835.34449        49.000  
 16 04 02 12 27 35.2000000  0  2G21G16                                          
  22654605.67249 119050753.81649     -7643.09449        48.000  
  18630743.18049  97905215.43049      9832.15649        49.000  
 16 04 02 12 27 35.3000000  0  2G21G16                                          
  22654751.12549 119051518.14849     -7643.54349        48.000  
  18630556.11749  97904232.40649      9828.34449        49.000  
 16 04 02 12 27 35.4000000  0  2G21G16                                          
  22654896.57849 119052282.52349     -7643.94949        48.000  
  18630369.12549  97903249.75849      9824.66049        49.000  
 16 04 02 12 27 35.5000000  0  2G21G16                                          
  22655042.03949 119053046.94549     -7644.71149        48.000  
  18630182.21149  97902267.48449      9820.73449        49.000  
 16 04 02 12 27 35.6000000  0  2G21G16                                          
  22655187.53149 119053811.48449     -7645.73049        48.000  
  18629995.36749  97901285.67649      9816.28949        49.000  
 16 04 02 12 27 35.7000000  0  2G21G16                                          
  22655333.02349 119054576.03949     -7645.96149        48.000  
  18629808.60249  97900304.20349      9812.69949        49.000  
 16 04 02 12 27 35.8000000  0  2G21G16                                          
  22655478.53149 119055340.71549     -7647.00449        48.000  
  18629621.92249  97899323.19149      9808.35949        49.000  
 16 04 02 12 27 35.9000000  0  2G21G16                                          
  22655624.03949 119056105.35949     -7646.84849        48.000  
  18629435.29749  97898342.47349      9805.29749        49.000  
 16 04 02 12 27 36.0000000  0  2G21G16                                          
  22655769.56249 119056870.06249     -7647.19949        48.000  
  18629248.75049  97897362.15249      9801.37149        49.000  
 16 04 02 12 27 36.1000000  0  2G21G16                                          
  22655915.09449 119057634.83649     -7648.05549        48.000  
  18629062.28149  97896382.23849      9797.30949        49.000  
 16 04 02 12 27 36.2000000  0  2G21G16                                          
  22656060.64149 119058399.66849     -7648.51249        48.000  
  18628875.87549  97895402.70749      9793.41849        49.000  
 16 04 02 12 27 36.3000000  0  2G21G16                                          
  22656206.18049 119059164.50049     -7648.46149        48.000  
  18628689.53949  97894423.50449      9790.23449        49.000  
 16 04 02 12 27 36.4000000  0  2G21G16                                          
  22656351.72749 119059929.34449     -7648.59049        48.000  
  18628503.27349  97893444.66049      9786.77749        49.000  
 16 04 02 12 27 36.5000000  0  2G21G16                                          
  22656497.28949 119060694.28549     -7649.71949        48.000  
  18628317.08649  97892466.22749      9782.51649        49.000  
 16 04 02 12 27 36.6000000  0  2G21G16                                          
  22656642.87549 119061459.32849     -7650.71149        48.000  
  18628130.97749  97891488.24649      9777.89849        49.000  
 16 04 02 12 27 36.7000000  0  2G21G16                                          
  22656788.46149 119062224.38749     -7650.89849        48.000  
  18627944.93849  97890510.60949      9774.48449        49.000  
 16 04 02 12 27 36.8000000  0  2G21G16                                          
  22656934.06249 119062989.52349     -7651.73049        48.000  
  18627758.97749  97889533.36349      9770.54349        49.000  
 16 04 02 12 27 36.9000000  0  2G21G16                                          
  22657079.66449 119063754.69549     -7651.79749        48.000  
  18627573.08649  97888556.50849      9766.85949        49.000  
 16 04 02 12 27 37.0000000  0  2G21G16                                          
  22657225.28149 119064519.92249     -7652.53549        48.000  
  18627387.26649  97887580.03549      9762.96149        49.000  
 16 04 02 12 27 37.1000000  0  2G21G16                                          
  22657370.91449 119065285.21949     -7653.19149        48.000  
  18627201.53149  97886603.96549      9758.88349        49.000  
 16 04 02 12 27 37.2000000  0  2G21G16                                          
  22657516.56249 119066050.57849     -7653.79749        48.000  
  18627015.86749  97885628.28949      9754.98849        49.000  
 16 04 02 12 27 37.3000000  0  2G21G16                                          
  22657662.19549 119066815.91849     -7653.72349        48.000  
  18626830.26649  97884652.93449      9751.65249        49.000  
 16 04 02 12 27 37.4000000  0  2G21G16                                          
  22657807.85249 119067581.34849     -7654.34449        48.000  
  18626644.73449  97883677.98849      9747.71149        49.000  
 16 04 02 12 27 37.5000000  0  2G21G16                                          
  22657953.51649 119068346.82449     -7654.99649        48.000  
  18626459.28949  97882703.42649      9743.77349        49.000  
 16 04 02 12 27 37.6000000  0  2G21G16                                          
  22658099.18049 119069112.27749     -7654.77749        48.000  
  18626273.89849  97881729.18449      9740.58649        49.000  
 16 04 02 12 27 37.7000000  0  2G21G16                                          
  22658244.86749 119069877.85549     -7655.93449        48.000  
  18626088.59449  97880755.39149      9736.09849        49.000  
 16 04 02 12 27 37.8000000  0  2G21G16                                          
  22658390.55549 119070643.44549     -7656.15249        48.000  
  18625903.35249  97879781.93849      9732.61749        49.000  
 16 04 02 12 27 37.9000000  0  2G21G16                                          
  22658536.25849 119071409.11749     -7657.14149        48.000  
  18625718.18849  97878808.90249      9728.42649        49.000  
 16 04 02 12 27 38.0000000  0  2G21G16                                          
  22658681.96949 119072174.83649     -7657.52349        48.000  
  18625533.10249  97877836.25049      9724.71149        49.000  
 16 04 02 12 27 38.1000000  0  2G21G16                                          
  22658827.68849 119072940.60549     -7657.91449        48.000  
  18625348.08649  97876863.97749      9720.91049        49.000  
 16 04 02 12 27 38.2000000  0  2G21G16                                          
  22658973.41449 119073706.37949     -7658.17249        48.000  
  18625163.13349  97875892.06249      9717.34049        49.000  
 16 04 02 12 27 38.3000000  0  2G21G16                                          
  22659119.15649 119074472.26249     -7658.93449        48.000  
  18624978.26649  97874920.56649      9713.21549        49.000  
 16 04 02 12 27 38.4000000  0  2G21G16                                          
  22659264.90649 119075238.20349     -7659.70749        48.000  
  18624793.47749  97873949.47749      9708.98849        49.000  
 16 04 02 12 27 38.5000000  0  2G21G16                                          
  22659410.67249 119076004.17649     -7660.08649        48.000  
  18624608.75049  97872978.74249      9705.35249        49.000  
 16 04 02 12 27 38.6000000  0  2G21G16                                          
  22659556.44549 119076770.21949     -7660.74649        48.000  
  18624424.10249  97872008.41049      9701.43849        49.000  
 16 04 02 12 27 38.7000000  0  2G21G16                                          
  22659702.23449 119077536.35549     -7661.71549        48.000  
  18624239.53949  97871038.52349      9696.94949        49.000  
 16 04 02 12 27 38.8000000  0  2G21G16                                          
  22659848.02349 119078302.46949     -7661.53549        48.000  
  18624055.02349  97870068.91849      9694.04749        49.000  
 16 04 02 12 27 38.9000000  0  2G21G16                                          
  22659993.82849 119079068.64149     -7661.80949        48.000  
  18623870.59449  97869099.71949      9690.32449        49.000  
 16 04 02 12 27 39.0000000  0  2G21G16                                          
  22660139.64149 119079834.89849     -7662.96549        48.000  
  18623686.24249  97868130.94549      9685.90249        49.000  
 16 04 02 12 27 39.1000000  0  2G21G16                                          
  22660285.45349 119080601.15249     -7662.83249        48.000  
  18623501.95349  97867162.50049      9682.63349        49.000  
 16 04 02 12 27 39.2000000  0  2G21G16                                          
  22660431.28949 119081367.50049     -7663.69149        48.000  
  18623317.74249  97866194.46949      9678.48849        49.000  
 16 04 02 12 27 39.3000000  0  2G21G16                                          
  22660577.13349 119082133.89849     -7664.55149        48.000  
  18623133.60249  97865226.84049      9674.30149        49.000  
 16 04 02 12 27 39.4000000  0  2G21G16                                          
  22660723.00049 119082900.45349     -7665.75849        48.000  
  18622949.56249  97864259.68049      9669.82849        49.000  
 16 04 02 12 27 39.5000000  0  2G21G16                                          
  22660868.86749 119083666.96149     -7665.44949        48.000  
  18622765.57849  97863292.83649      9666.49649        49.000  
 16 04 02 12 27 39.6000000  0  2G21G16                                          
  22661014.75049 119084433.56649     -7666.31649        48.000  
  18622581.67249  97862326.40249      9662.42249        49.000  
 16 04 02 12 27 39.7000000  0  2G21G16                                          
  22661160.64149 119085200.23849     -7667.00449        48.000  
  18622397.84449  97861360.37149      9658.45749        49.000  
 16 04 02 12 27 39.8000000  0  2G21G16                                          
  22661306.54749 119085966.96149     -7667.44949        48.000  
  18622214.08649  97860394.73049      9654.59849        49.000  
 16 04 02 12 27 39.9000000  0  2G21G16                                          
  22661452.46149 119086733.77749     -7668.53549        48.000  
  18622030.41449  97859429.50849      9650.25449        49.000  
 16 04 02 12 27 40.0000000  0  2G21G16                                          
  22661598.38349 119087500.61349     -7668.63749        48.000  
  18621846.80549  97858464.64849      9646.82049        49.000  
 16 04 02 12 27 40.1000000  0  2G21G16                                          
  22661744.32849 119088267.52749     -7669.35549        48.000  
  18621663.28149  97857500.19549      9642.78949        49.000  
 16 04 02 12 27 40.2000000  0  2G21G16                                          
  22661890.25849 119089034.39549     -7668.98049        48.000  
  18621479.80549  97856536.02749      9639.89149        49.000  
 16 04 02 12 27 40.3000000  0  2G21G16                                          
  22662036.20349 119089801.34449     -7669.45349        48.000  
  18621296.40649  97855572.28549      9635.80949        49.000  
 16 04 02 12 27 40.4000000  0  2G21G16                                          
  22662182.15649 119090568.34049     -7670.25849        48.000  
  18621113.08649  97854608.91449      9631.83249        49.000  
 16 04 02 12 27 40.5000000  0  2G21G16                                          
  22662328.10949 119091335.35249     -7670.31649        48.000  
  18620929.82849  97853645.91449      9628.19149        49.000  
 16 04 02 12 27 40.6000000  0  2G21G16                                          
  22662474.08649 119092102.43849     -7671.25849        48.000  
  18620746.64849  97852683.29349      9624.32849        49.000  
 16 04 02 12 27 40.7000000  0  2G21G16                                          
  22662620.07049 119092869.57049     -7671.64149        48.000  
  18620563.54749  97851721.07049      9620.45349        49.000  
 16 04 02 12 27 40.8000000  0  2G21G16                                          
  22662766.06249 119093636.76649     -7672.30549        48.000  
  18620380.51649  97850759.23049      9616.55949        49.000  
 16 04 02 12 27 40.9000000  0  2G21G16                                          
  22662912.06249 119094404.00849     -7673.12549        48.000  
  18620197.56249  97849797.79349      9612.26249        49.000  
 16 04 02 12 27 41.0000000  0  2G21G16                                          
  22663058.07849 119095171.33249     -7673.71949        48.000  
  18620014.68049  97848836.77049      9608.19549        49.000  
 16 04 02 12 27 41.1000000  0  2G21G16                                          
  22663204.11749 119095938.72749     -7674.22349        48.000  
  18619831.87549  97847876.12549      9604.62949        49.000  
 16 04 02 12 27 41.2000000  0  2G21G16                                          
  22663350.14849 119096706.13349     -7674.37549        48.000  
  18619649.14149  97846915.85249      9600.98849        49.000  
 16 04 02 12 27 41.3000000  0  2G21G16                                          
  22663496.18049 119097473.53149     -7674.28549        48.000  
  18619466.46949  97845955.90249      9597.59849        49.000  
 16 04 02 12 27 41.4000000  0  2G21G16                                          
  22663642.23449 119098241.07449     -7675.49249        48.000  
  18619283.88349  97844996.42249      9593.05549        49.000  
 16 04 02 12 27 41.5000000  0  2G21G16                                          
  22663788.30549 119099008.64849     -7676.14549        48.000  
  18619101.36749  97844037.30149      9589.24249        49.000  
 16 04 02 12 27 41.6000000  0  2G21G16                                          
  22663934.38349 119099776.28549     -7676.69949        48.000  
  18618918.93849  97843078.60549      9585.12149        49.000  
 16 04 02 12 27 41.7000000  0  2G21G16                                          
  22664080.46949 119100543.96149     -7677.00849        48.000  
  18618736.57049  97842120.25849      9581.61749        50.000  
 16 04 02 12 27 41.8000000  0  2G21G16                                          
  22664226.56249 119101311.70349     -7677.67249        48.000  
  18618554.28149  97841162.32449      9577.43849        50.000  
 16 04 02 12 27 41.9000000  0  2G21G16                                          
  22664372.65649 119102079.43849     -7677.49249        48.000  
  18618372.05549  97840204.71149      9574.28149        49.000  
 16 04 02 12 27 42.0000000  0  2G21G16                                          
  22664518.77349 119102847.25449     -7678.39549        48.000  
  18618189.91449  97839247.52349      9570.11349        49.000  
 16 04 02 12 27 42.1000000  0  2G21G16                                          
  22664664.88349 119103615.10549     -7678.97749        48.000  
  18618007.83649  97838290.69149      9566.32849        49.000  
 16 04 02 12 27 42.2000000  0  2G21G16                                          
  22664811.01649 119104383.03149     -7679.38349        48.000  
  18617825.83649  97837334.28149      9562.44949        49.000  
 16 04 02 12 27 42.3000000  0  2G21G16                                          
  22664957.14849 119105150.96949     -7679.73049        48.000  
  18617643.89849  97836378.20749      9558.76249        49.000  
 16 04 02 12 27 42.4000000  0  2G21G16                                          
  22665103.30549 119105918.99249     -7680.70749        48.000  
  18617462.04749  97835422.56249      9554.45749        49.000  
 16 04 02 12 27 42.5000000  0  2G21G16                                          
  22665249.46149 119106687.05549     -7680.69149        48.000  
  18617280.27349  97834467.30149      9550.89149        49.000  
 16 04 02 12 27 42.6000000  0  2G21G16                                          
  22665395.62549 119107455.16049     -7681.14549        48.000  
  18617098.55549  97833512.39549      9547.14849        49.000  
 16 04 02 12 27 42.7000000  0  2G21G16                                          
  22665541.80549 119108223.32849     -7681.92249        48.000  
  18616916.92249  97832557.88749      9543.27049        49.000  
 16 04 02 12 27 42.8000000  0  2G21G16                                          
  22665687.99249 119108991.52749     -7682.23049        48.000  
  18616735.35249  97831603.77049      9539.39849        49.000  
 16 04 02 12 27 42.9000000  0  2G21G16                                          
  22665834.18049 119109759.74649     -7682.45749        48.000  
  18616553.85249  97830649.98049      9536.08649        49.000  
 16 04 02 12 27 43.0000000  0  2G21G16                                          
  22665980.37549 119110528.02749     -7683.03949        48.000  
  18616372.42249  97829696.60549      9531.96149        50.000  
 16 04 02 12 27 43.1000000  0  2G21G16                                          
  22666126.59449 119111296.37549     -7683.73049        48.000  
  18616191.07849  97828743.62549      9527.96149        49.000  
 16 04 02 12 27 43.2000000  0  2G21G16                                          
  22666272.80549 119112064.75049     -7684.09449        48.000  
  18616009.80549  97827791.01649      9524.24249        49.000  
 16 04 02 12 27 43.3000000  0  2G21G16                                          
  22666419.04749 119112833.23449     -7685.12949        48.000  
  18615828.60949  97826838.84849      9519.77749        49.000  
 16 04 02 12 27 43.4000000  0  2G21G16                                          
  22666565.28149 119113601.68849     -7684.68049        48.000  
  18615647.47749  97825886.97349      9517.01649        49.000  
 16 04 02 12 27 43.5000000  0  2G21G16                                          
  22666711.53149 119114370.21949     -7685.52049        48.000  
  18615466.42249  97824935.53149      9512.71949        49.000  
 16 04 02 12 27 43.6000000  0  2G21G16                                          
  22666857.79749 119115138.84849     -7686.60549        48.000  
  18615285.44549  97823984.52049      9508.27749        49.000  
 16 04 02 12 27 43.7000000  0  2G21G16                                          
  22667004.07049 119115907.49649     -7686.56649        48.000  
  18615104.53949  97823033.84049      9505.03949        49.000  
 16 04 02 12 27 43.8000000  0  2G21G16                                          
  22667150.33649 119116676.13749     -7686.94549        48.000  
  18614923.70349  97822083.50849      9501.28149        49.000  
 16 04 02 12 27 43.9000000  0  2G21G16                                          
  22667296.61749 119117444.85949     -7687.17649        48.000  
  18614742.93849  97821133.58249      9497.65249        49.000  
 16 04 02 12 27 44.0000000  0  2G21G16                                          
  22667442.91449 119118213.62149     -7687.91449        48.000  
  18614562.24249  97820184.03949      9493.44549        49.000  
 16 04 02 12 27 44.1000000  0  2G21G16                                          
  22667589.21149 119118982.42249     -7688.35549        48.000  
  18614381.62549  97819234.87549      9489.74649        49.000  
 16 04 02 12 27 44.2000000  0  2G21G16                                          
  22667735.50849 119119751.24649     -7688.33649        48.000  
  18614201.07049  97818286.06649      9486.31249        49.000  
 16 04 02 12 27 44.3000000  0  2G21G16                                          
  22667881.82049 119120520.11349     -7688.75449        48.000  
  18614020.58649  97817337.62549      9482.73849        50.000  
 16 04 02 12 27 44.4000000  0  2G21G16                                          
  22668028.14149 119121288.99649     -7688.89149        48.000  
  18613840.17249  97816389.55549      9478.98849        49.000  
 16 04 02 12 27 44.5000000  0  2G21G16                                          
  22668174.46949 119122057.98849     -7690.14849        48.000  
  18613659.84449  97815441.91449      9474.50849        50.000  
 16 04 02 12 27 44.6000000  0  2G21G16                                          
  22668320.81249 119122827.02049     -7690.67649        48.000  
  18613479.58649  97814494.65649      9470.60249        50.000  
 16 04 02 12 27 44.7000000  0  2G21G16                                          
  22668467.16449 119123596.11349     -7691.43849        48.000  
  18613299.40649  97813547.78549      9466.69549        49.000  
 16 04 02 12 27 44.8000000  0  2G21G16                                          
  22668613.53149 119124365.28549     -7692.17649        48.000  
  18613119.29749  97812601.34849      9462.35549        50.000  
 16 04 02 12 27 44.9000000  0  2G21G16                                          
  22668759.92249 119125134.55549     -7693.03549        48.000  
  18612939.28149  97811655.32849      9458.23449        50.000  
 16 04 02 12 27 45.0000000  0  2G21G16                                          
  22668906.31249 119125903.82449     -7693.00449        48.000  
  18612759.32049  97810709.64849      9454.89549        50.000  
 16 04 02 12 27 45.1000000  0  2G21G16                                          
  22669052.70349 119126673.12549     -7693.14849        48.000  
  18612579.43049  97809764.33649      9451.44549        50.000  
 16 04 02 12 27 45.2000000  0  2G21G16                                          
  22669199.10249 119127442.43849     -7693.31649        48.000  
  18612399.60949  97808819.37949      9447.73449        50.000  
 16 04 02 12 27 45.3000000  0  2G21G16                                          
  22669345.50849 119128211.78949     -7693.81249        48.000  
  18612219.85949  97807874.78149      9444.20749        50.000  
 16 04 02 12 27 45.4000000  0  2G21G16                                          
  22669491.93049 119128981.23849     -7694.69549        48.000  
  18612040.19549  97806930.63349      9439.73049        50.000  
 16 04 02 12 27 45.5000000  0  2G21G16                                          
  22669638.35949 119129750.72349     -7695.16849        48.000  
  18611860.59449  97805986.84049      9435.96149        50.000  
 16 04 02 12 27 45.6000000  0  2G21G16                                          
  22669784.80549 119130520.27349     -7695.74649        48.000  
  18611681.07849  97805043.46549      9431.88349        50.000  
 16 04 02 12 27 45.7000000  0  2G21G16                                          
  22669931.24249 119131289.84849     -7696.16049        48.000  
  18611501.62549  97804100.44149      9428.26249        49.000  
 16 04 02 12 27 45.8000000  0  2G21G16                                          
  22670077.70349 119132059.50049     -7696.87549        48.000  
  18611322.25049  97803157.82849      9424.25049        50.000  
 16 04 02 12 27 45.9000000  0  2G21G16                                          
  22670224.17249 119132829.20349     -7697.31649        48.000  
  18611142.95349  97802215.62149      9420.20749        49.000  
 16 04 02 12 27 46.0000000  0  2G21G16                                          
  22670370.65649 119133598.96149     -7697.92249        48.000  
  18610963.72749  97801273.78949      9416.39549        50.000  
 16 04 02 12 27 46.1000000  0  2G21G16                                          
  22670517.14849 119134368.79749     -7698.54749        48.000  
  18610784.58649  97800332.37949      9412.29349        50.000  
 16 04 02 12 27 46.2000000  0  2G21G16                                          
  22670663.64849 119135138.67649     -7699.03549        48.000  
  18610605.50849  97799391.34049      9408.47349        50.000  
 16 04 02 12 27 46.3000000  0  2G21G16                                          
  22670810.15649 119135908.56649     -7699.21149        48.000  
  18610426.50849  97798450.66449      9404.81249        49.000  
 16 04 02 12 27 46.4000000  0  2G21G16                                          
  22670956.68849 119136678.58649     -7700.45749        48.000  
  18610247.58649  97797510.43449      9400.37549        50.000  
 16 04 02 12 27 46.5000000  0  2G21G16                                          
  22671103.21149 119137448.59849     -7700.73049        48.000  
  18610068.72749  97796570.53949      9396.75849        50.000  
 16 04 02 12 27 46.6000000  0  2G21G16                                          
  22671249.76649 119138218.72749     -7701.66849        48.000  
  18609889.96149  97795631.10549      9392.35949        50.000  
 16 04 02 12 27 46.7000000  0  2G21G16                                          
  22671396.32849 119138988.89549     -7701.80149        48.000  
  18609711.25849  97794692.03549      9388.89549        50.000  
 16 04 02 12 27 46.8000000  0  2G21G16                                          
  22671542.88349 119139759.05549     -7701.84849        48.000  
  18609532.62549  97793753.29749      9385.61349        50.000  
 16 04 02 12 27 46.9000000  0  2G21G16                                          
  22671689.46149 119140529.27049     -7702.38349        48.000  
  18609354.06249  97792814.96949      9381.53949        50.000  
 16 04 02 12 27 47.0000000  0  2G21G16                                          
  22671836.03949 119141299.55949     -7702.96949        48.000  
  18609175.58649  97791877.03949      9377.60549        50.000  
 16 04 02 12 27 47.1000000  0  2G21G16                                          
  22671982.62549 119142069.85949     -7703.19149        48.000  
  18608997.17249  97790939.45349      9374.09849        50.000  
 16 04 02 12 27 47.2000000  0  2G21G16                                          
  22672129.21949 119142840.22349     -7703.85949        48.000  
  18608818.82849  97790002.27049      9369.93849        50.000  
 16 04 02 12 27 47.3000000  0  2G21G16                                          
  22672275.82849 119143610.63349     -7704.35949        48.000  
  18608640.56249  97789065.47749      9366.03949        50.000  
 16 04 02 12 27 47.4000000  0  2G21G16                                          
  22672422.43049 119144381.04349     -7704.30949        48.000  
  18608462.35949  97788129.02049      9362.74249        50.000  
 16 04 02 12 27 47.5000000  0  2G21G16                                          
  22672569.05549 119145151.54749     -7705.34049        48.000  
  18608284.23449  97787192.96949      9358.56249        50.000  
 16 04 02 12 27 47.6000000  0  2G21G16                                          
  22672715.69549 119145922.13749     -7706.15249        48.000  
  18608106.19549  97786257.37549      9353.99649        49.000  
 16 04 02 12 27 47.7000000  0  2G21G16                                          
  22672862.33649 119146692.73849     -7706.35949        48.000  
  18607928.21949  97785322.10549      9350.66049        50.000  
 16 04 02 12 27 47.8000000  0  2G21G16                                          
  22673008.96949 119147463.30949     -7705.90649        48.000  
  18607750.30549  97784387.15249      9347.71949        50.000  
 16 04 02 12 27 47.9000000  0  2G21G16                                          
  22673155.62549 119148234.00049     -7707.00449        48.000  
  18607572.47749  97783452.64849      9343.32449        50.000  
 16 04 02 12 27 48.0000000  0  2G21G16                                          
  22673302.28949 119149004.72349     -7707.47349        48.000  
  18607394.71949  97782518.52749      9339.28549        50.000  
 16 04 02 12 27 48.1000000  0  2G21G16                                          
  22673448.96149 119149775.45749     -7707.90249        48.000  
  18607217.02349  97781584.74649      9335.85249        50.000  
 16 04 02 12 27 48.2000000  0  2G21G16                                          
  22673595.64149 119150546.29349     -7708.47749        48.000  
  18607039.41449  97780651.40649      9331.74249        50.000  
 16 04 02 12 27 48.3000000  0  2G21G16                                          
  22673742.33649 119151317.14549     -7708.75049        48.000  
  18606861.86749  97779718.41849      9328.12549        50.000  
 16 04 02 12 27 48.4000000  0  2G21G16                                          
  22673889.03149 119152088.04749     -7709.21149        48.000  
  18606684.40649  97778785.82049      9324.20349        50.000  
 16 04 02 12 27 48.5000000  0  2G21G16                                          
  22674035.74249 119152859.01649     -7709.90649        48.000  
  18606507.01649  97777853.62549      9320.11749        50.000  
 16 04 02 12 27 48.6000000  0  2G21G16                                          
  22674182.47749 119153630.11349     -7711.43849        48.000  
  18606329.71149  97776921.89549      9315.27749        50.000  
 16 04 02 12 27 48.7000000  0  2G21G16                                          
  22674329.22749 119154401.24249     -7711.93049        48.000  
  18606152.48449  97775990.53949      9311.42249        49.000  
 16 04 02 12 27 48.8000000  0  2G21G16                                          
  22674475.97749 119155172.42249     -7712.19549        48.000  
  18605975.32049  97775059.57849      9307.60549        49.000  
 16 04 02 12 27 48.9000000  0  2G21G16                                          
  22674622.74249 119155943.71549     -7713.13749        48.000  
  18605798.25049  97774129.03549      9303.55949        49.000  
 16 04 02 12 27 49.0000000  0  2G21G16                                          
  22674769.50849 119156714.96549     -7712.78549        48.000  
  18605621.23449  97773198.82449      9300.16849        50.000  
 16 04 02 12 27 49.1000000  0  2G21G16                                          
  22674916.28949 119157486.30149     -7713.58249        48.000  
  18605444.29749  97772269.01249      9296.21549        50.000  
 16 04 02 12 27 49.2000000  0  2G21G16                                          
  22675063.07049 119158257.64149     -7713.48449        48.000  
  18605267.43049  97771339.55149      9292.89149        50.000  
 16 04 02 12 27 49.3000000  0  2G21G16                                          
  22675209.87549 119159029.07849     -7714.50049        48.000  
  18605090.64149  97770410.51649      9288.57449        49.000  
 16 04 02 12 27 49.4000000  0  2G21G16                                          
  22675356.68849 119159800.58649     -7715.44549        48.000  
  18604913.93049  97769481.91049      9284.02749        49.000  
 16 04 02 12 27 49.5000000  0  2G21G16                                          
  22675503.50849 119160572.12549     -7715.67649        48.000  
  18604737.28949  97768553.65249      9280.57449        49.000  
 16 04 02 12 27 49.6000000  0  2G21G16                                          
  22675650.32049 119161343.64549     -7715.53149        48.000  
  18604560.71149  97767625.73049      9277.43849        50.000  
 16 04 02 12 27 49.7000000  0  2G21G16                                          
  22675797.16449 119162115.27349     -7716.35249        48.000  
  18604384.21949  97766698.24249      9273.12549        49.000  
 16 04 02 12 27 49.8000000  0  2G21G16                                          
  22675944.00049 119162886.92249     -7716.71549        48.000  
  18604207.78949  97765771.11749      9269.40249        49.000  
 16 04 02 12 27 49.9000000  0  2G21G16                                          
  22676090.85249 119163658.60249     -7717.27749        48.000  
  18604031.43849  97764844.36749      9265.62549        49.000  
 16 04 02 12 27 50.0000000  0  2G21G16                                          
  22676237.71949 119164430.43049     -7718.39149        48.000  
  18603855.17249  97763918.08649      9260.91449        49.000  
 16 04 02 12 27 50.1000000  0  2G21G16                                          
  22676384.58649 119165202.19549     -7718.05549        48.000  
  18603678.96149  97762992.09449      9258.02749        50.000  
 16 04 02 12 27 50.2000000  0  2G21G16                                          
  22676531.46949 119165974.04749     -7718.52349        48.000  
  18603502.83649  97762066.51249      9254.22749        49.000  
 16 04 02 12 27 50.3000000  0  2G21G16                                          
  22676678.34449 119166745.87949     -7718.81249        48.000  
  18603326.76649  97761141.26649      9250.53949        49.000  
 16 04 02 12 27 50.4000000  0  2G21G16                                          
  22676825.24249 119167517.86749     -7720.05949        48.000  
  18603150.79749  97760216.52049      9245.69549        49.000  
 16 04 02 12 27 50.5000000  0  2G21G16                                          
  22676972.16449 119168289.94949     -7721.23049        48.000  
  18602974.89849  97759292.17649      9241.40249        49.000  
 16 04 02 12 27 50.6000000  0  2G21G16                                          
  22677119.08649 119169062.02349     -7721.00049        48.000  
  18602799.07049  97758368.19149      9238.01649        49.000  
 16 04 02 12 27 50.7000000  0  2G21G16                                          
  22677266.03149 119169834.17649     -7721.97349        48.000  
  18602623.32049  97757444.61749      9233.64549        49.000  
 16 04 02 12 27 50.8000000  0  2G21G16                                          
  22677412.96949 119170606.34449     -7721.87549        48.000  
  18602447.63349  97756521.37949      9230.48449        49.000  
 16 04 02 12 27 50.9000000  0  2G21G16                                          
  22677559.93849 119171378.64849     -7723.03549        48.000  
  18602272.03949  97755598.62949      9225.75849        49.000  
 16 04 02 12 27 51.0000000  0  2G21G16                                          
  22677706.89149 119172150.89149     -7722.75049        48.000  
  18602096.50049  97754676.17249      9222.64849        49.000  
 16 04 02 12 27 51.1000000  0  2G21G16                                          
  22677853.85949 119172923.24249     -7723.73449        48.000  
  18601921.03949  97753754.12549      9218.53149        49.000  
 16 04 02 12 27 51.2000000  0  2G21G16                                          
  22678000.84449 119173695.64549     -7724.19949        48.000  
  18601745.64849  97752832.49249      9214.57049        49.000  
 16 04 02 12 27 51.3000000  0  2G21G16                                          
  22678147.82849 119174468.06249     -7724.44149        48.000  
  18601570.33649  97751911.20349      9211.03149        49.000  
 16 04 02 12 27 51.4000000  0  2G21G16                                          
  22678294.82849 119175240.53549     -7725.05149        48.000  
  18601395.10249  97750990.32049      9207.03149        49.000  
 16 04 02 12 27 51.5000000  0  2G21G16                                          
  22678441.84449 119176013.09449     -7725.73049        48.000  
  18601219.93849  97750069.85549      9202.82449        49.000  
 16 04 02 12 27 51.6000000  0  2G21G16                                          
  22678588.85249 119176785.63749     -7725.78949        48.000  
  18601044.84449  97749149.71549      9199.39549        49.000  
 16 04 02 12 27 51.7000000  0  2G21G16                                          
  22678735.87549 119177558.25849     -7726.28949        48.000  
  18600869.82849  97748229.97749      9195.67249        49.000  
 16 04 02 12 27 51.8000000  0  2G21G16                                          
  22678882.90649 119178330.90249     -7726.66049        48.000  
  18600694.88349  97747310.62949      9191.62949        49.000  
 16 04 02 12 27 51.9000000  0  2G21G16                                          
  22679029.96149 119179103.64549     -7727.47749        48.000  
  18600520.00849  97746391.69149      9187.53949        49.000  
 16 04 02 12 27 52.0000000  0  2G21G16                                          
  22679177.00049 119179876.37549     -7727.71949        48.000  
  18600345.21149  97745473.09849      9184.00049        49.000  
 16 04 02 12 27 52.1000000  0  2G21G16                                          
  22679324.06249 119180649.18449     -7728.19949        48.000  
  18600170.48449  97744554.90249      9180.10949        49.000  
 16 04 02 12 27 52.2000000  0  2G21G16                                          
  22679471.12549 119181421.98449     -7728.24249        48.000  
  18599995.82049  97743637.05949      9176.63749        49.000  
 16 04 02 12 27 52.3000000  0  2G21G16                                          
  22679618.20349 119182194.87949     -7729.40649        48.000  
  18599821.24249  97742719.62949      9172.29749        49.000  
 16 04 02 12 27 52.4000000  0  2G21G16                                          
  22679765.28949 119182967.84449     -7730.06649        48.000  
  18599646.74249  97741802.62149      9168.15249        49.000  
 16 04 02 12 27 52.5000000  0  2G21G16                                          
  22679912.39149 119183740.84849     -7730.28549        48.000  
  18599472.31249  97740885.99249      9164.39549        49.000  
 16 04 02 12 27 52.6000000  0  2G21G16                                          
  22680059.50049 119184513.90649     -7730.81249        48.000  
  18599297.95349  97739969.75049      9160.55949        49.000  
 16 04 02 12 27 52.7000000  0  2G21G16                                          
  22680206.61749 119185287.02049     -7731.39849        48.000  
  18599123.67249  97739053.89849      9156.76649        49.000  
 16 04 02 12 27 52.8000000  0  2G21G16                                          
  22680353.73449 119186060.10949     -7730.93849        48.000  
  18598949.46149  97738138.37549      9153.54349        49.000  
 16 04 02 12 27 52.9000000  0  2G21G16                                          
  22680500.86749 119186833.28149     -7731.90249        48.000  
  18598775.32049  97737223.26649      9149.32049        49.000  
 16 04 02 12 27 53.0000000  0  2G21G16                                          
  22680648.00049 119187606.46949     -7732.07049        48.000  
  18598601.25049  97736308.51649      9145.61349        49.000  
 16 04 02 12 27 53.1000000  0  2G21G16                                          
  22680795.14149 119188379.70349     -7732.75449        48.000  
  18598427.24249  97735394.12949      9141.87949        49.000  
 16 04 02 12 27 53.2000000  0  2G21G16                                          
  22680942.28149 119189152.94549     -7732.61349        48.000  
  18598253.32049  97734480.12949      9138.24649        49.000  
 16 04 02 12 27 53.3000000  0  2G21G16                                          
  22681089.43849 119189926.22349     -7733.00849        48.000  
  18598079.45349  97733566.47349      9134.66849        49.000  
 16 04 02 12 27 53.4000000  0  2G21G16                                          
  22681236.60949 119190699.62949     -7734.31649        48.000  
  18597905.68049  97732653.28549      9130.03149        49.000  
 16 04 02 12 27 53.5000000  0  2G21G16                                          
  22681383.78949 119191473.02749     -7734.38749        48.000  
  18597731.96949  97731740.44949      9126.45349        49.000  
 16 04 02 12 27 53.6000000  0  2G21G16                                          
  22681530.98449 119192246.57049     -7736.03949        48.000  
  18597558.35249  97730828.07849      9121.59049        49.000  
 16 04 02 12 27 53.7000000  0  2G21G16                                          
  22681678.18849 119193020.12549     -7735.82849        48.000  
  18597384.80549  97729916.07049      9118.26249        49.000  
 16 04 02 12 27 53.8000000  0  2G21G16                                          
  22681825.39149 119193793.69549     -7736.02749        48.000  
  18597211.32049  97729004.41449      9114.67649        49.000  
 16 04 02 12 27 53.9000000  0  2G21G16                                          
  22681972.61749 119194567.32849     -7736.59049        48.000  
  18597037.92249  97728093.16849      9110.59449        49.000  
 16 04 02 12 27 54.0000000  0  2G21G16                                          
  22682119.83649 119195340.98849     -7737.03149        48.000  
  18596864.57849  97727182.27349      9106.92649        49.000  
 16 04 02 12 27 54.1000000  0  2G21G16                                          
  22682267.07849 119196114.71549     -7737.47749        48.000  
  18596691.32049  97726271.79349      9102.99249        49.000  
 16 04 02 12 27 54.2000000  0  2G21G16                                          
  22682414.31249 119196888.44549     -7737.53549        48.000  
  18596518.13349  97725361.65249      9099.51249        49.000  
 16 04 02 12 27 54.3000000  0  2G21G16                                          
  22682561.55549 119197662.22349     -7737.89549        48.000  
  18596345.00849  97724451.90249      9095.80549        49.000  
 16 04 02 12 27 54.4000000  0  2G21G16                                          
  22682708.82049 119198436.10249     -7739.07049        48.000  
  18596171.96949  97723542.59049      9091.23449        49.000  
 16 04 02 12 27 54.5000000  0  2G21G16                                          
  22682856.10949 119199210.09849     -7740.39849        48.000  
  18595999.02349  97722633.73449      9086.52049        49.000  
 16 04 02 12 27 54.6000000  0  2G21G16                                          
  22683003.39849 119199984.10949     -7740.43449        48.000  
  18595826.14149  97721725.22749      9083.17249        49.000  
 16 04 02 12 27 54.7000000  0  2G21G16                                          
  22683150.69549 119200758.18849     -7741.08649        48.000  
  18595653.34449  97720817.14849      9078.91849        49.000  
 16 04 02 12 27 54.8000000  0  2G21G16                                          
  22683298.00049 119201532.26649     -7741.07849        48.000  
  18595480.60249  97719909.39149      9075.69949        49.000  
 16 04 02 12 27 54.9000000  0  2G21G16                                          
  22683445.32049 119202306.42649     -7741.73049        48.000  
  18595307.93849  97719002.06649      9071.52749        49.000  
 16 04 02 12 27 55.0000000  0  2G21G16                                          
  22683592.64849 119203080.64849     -7742.60949        48.000  
  18595135.35949  97718095.14149      9067.27049        49.000  
 16 04 02 12 27 55.1000000  0  2G21G16                                          
  22683739.99249 119203854.94149     -7743.03549        48.000  
  18594962.85249  97717188.61349      9063.48449        49.000  
 16 04 02 12 27 55.2000000  0  2G21G16                                          
  22683887.34449 119204629.26649     -7743.41849        48.000  
  18594790.41449  97716282.46549      9059.62949        49.000  
 16 04 02 12 27 55.3000000  0  2G21G16                                          
  22684034.69549 119205403.57849     -7743.20349        48.000  
  18594618.04749  97715376.65249      9056.41849        49.000  
 16 04 02 12 27 55.4000000  0  2G21G16                                          
  22684182.04749 119206177.93849     -7743.77749        48.000  
  18594445.75049  97714471.21949      9052.48849        49.000  
 16 04 02 12 27 55.5000000  0  2G21G16                                          
  22684329.42249 119206952.39549     -7744.77749        48.000  
  18594273.53149  97713566.21949      9048.10949        49.000  
 16 04 02 12 27 55.6000000  0  2G21G16                                          
  22684476.81249 119207726.93449     -7745.74649        48.000  
  18594101.39849  97712661.64849      9043.80549        49.000  
 16 04 02 12 27 55.7000000  0  2G21G16                                          
  22684624.21149 119208501.54349     -7746.40649        48.000  
  18593929.33649  97711757.47749      9039.73849        49.000  
 16 04 02 12 27 55.8000000  0  2G21G16                                          
  22684771.62549 119209276.20349     -7747.05549        48.000  
  18593757.35949  97710853.71949      9035.60949        49.000  
 16 04 02 12 27 55.9000000  0  2G21G16                                          
  22684919.05549 119210050.95749     -7747.85949        48.000  
  18593585.46149  97709950.38349      9031.41049        49.000  
 16 04 02 12 27 56.0000000  0  2G21G16                                          
  22685066.47749 119210825.66849     -7747.45749        48.000  
  18593413.61749  97709047.34049      9028.47349        49.000  
 16 04 02 12 27 56.1000000  0  2G21G16                                          
  22685213.92249 119211600.46149     -7748.11749        48.000  
  18593241.85249  97708144.73049      9024.30549        49.000  
 16 04 02 12 27 56.2000000  0  2G21G16                                          
  22685361.35949 119212375.26249     -7748.06249        48.000  
  18593070.15649  97707242.45749      9020.98849        49.000  
 16 04 02 12 27 56.3000000  0  2G21G16                                          
  22685508.80549 119213150.11349     -7748.76249        48.000  
  18592898.53149  97706340.58649      9016.94149        49.000  
 16 04 02 12 27 56.4000000  0  2G21G16                                          
  22685656.26649 119213925.01649     -7749.03549        48.000  
  18592726.98449  97705439.09849      9013.14549        49.000  
 16 04 02 12 27 56.5000000  0  2G21G16                                          
  22685803.73449 119214699.94549     -7749.46149        48.000  
  18592555.50849  97704537.98049      9009.40649        49.000  
 16 04 02 12 27 56.6000000  0  2G21G16                                          
  22685951.21149 119215474.96149     -7750.39849        48.000  
  18592384.10949  97703637.28149      9005.11349        49.000  
 16 04 02 12 27 56.7000000  0  2G21G16                                          
  22686098.69549 119216249.98049     -7750.30949        48.000  
  18592212.78149  97702736.93049      9001.72749        49.000  
 16 04 02 12 27 56.8000000  0  2G21G16                                          
  22686246.19549 119217025.12549     -7751.87949        48.000  
  18592041.53949  97701837.05549      8996.76249        49.000  
 16 04 02 12 27 56.9000000  0  2G21G16                                          
  22686393.71149 119217800.30949     -7752.04349        48.000  
  18591870.36749  97700937.55549      8993.15249        49.000  
 16 04 02 12 27 57.0000000  0  2G21G16                                          
  22686541.23449 119218575.53549     -7752.48849        48.000  
  18591699.27349  97700038.43049      8989.42649        49.000  
 16 04 02 12 27 57.1000000  0  2G21G16                                          
  22686688.75849 119219350.76649     -7752.43049        48.000  
  18591528.24249  97699139.66849      8985.85949        49.000  
 16 04 02 12 27 57.2000000  0  2G21G16                                          
  22686836.29749 119220126.08649     -7753.55549        48.000  
  18591357.28949  97698241.31649      8981.66449        49.000  
 16 04 02 12 27 57.3000000  0  2G21G16                                          
  22686983.83649 119220901.41449     -7753.37549        48.000  
  18591186.40649  97697343.32849      8978.14549        49.000  
 16 04 02 12 27 57.4000000  0  2G21G16                                          
  22687131.39149 119221676.85249     -7754.75849        48.000  
  18591015.60949  97696445.78949      8973.35249        49.000  
 16 04 02 12 27 57.5000000  0  2G21G16                                          
  22687278.96149 119222452.32049     -7755.10549        48.000  
  18590844.88349  97695548.61349      8969.73849        49.000  
 16 04 02 12 27 57.6000000  0  2G21G16                                          
  22687426.53949 119223227.84849     -7755.27049        48.000  
  18590674.23449  97694651.83249      8966.14849        49.000  
 16 04 02 12 27 57.7000000  0  2G21G16                                          
  22687574.12549 119224003.41449     -7755.94149        48.000  
  18590503.65649  97693755.44549      8961.91849        49.000  
 16 04 02 12 27 57.8000000  0  2G21G16                                          
  22687721.72749 119224779.05149     -7756.55549        48.000  
  18590333.15649  97692859.45749      8958.00849        49.000  
 16 04 02 12 27 57.9000000  0  2G21G16                                          
  22687869.33649 119225554.73849     -7757.44149        48.000  
  18590162.72749  97691963.86349      8953.91449        49.000  
 16 04 02 12 27 58.0000000  0  2G21G16                                          
  22688016.96149 119226330.51249     -7758.10549        48.000  
  18589992.39149  97691068.71549      8949.57849        49.000  
 16 04 02 12 27 58.1000000  0  2G21G16                                          
  22688164.59449 119227106.32049     -7758.39149        48.000  
  18589822.11749  97690173.92649      8945.93449        49.000  
 16 04 02 12 27 58.2000000  0  2G21G16                                          
  22688312.23449 119227882.17649     -7758.65249        48.000  
  18589651.91449  97689279.53549      8942.11749        49.000  
 16 04 02 12 27 58.3000000  0  2G21G16                                          
  22688459.87549 119228658.05549     -7759.16049        48.000  
  18589481.78949  97688385.50049      8938.36749        49.000  
 16 04 02 12 27 58.4000000  0  2G21G16                                          
  22688607.53949 119229434.00049     -7759.51649        48.000  
  18589311.73449  97687491.85549      8934.76649        49.000  
 16 04 02 12 27 58.5000000  0  2G21G16                                          
  22688755.18849 119230209.95349     -7759.73449        48.000  
  18589141.75049  97686598.59449      8930.85249        49.000  
 16 04 02 12 27 58.6000000  0  2G21G16                                          
  22688902.85949 119230985.96549     -7760.23449        48.000  
  18588971.84449  97685705.71549      8926.96149        49.000  
 16 04 02 12 27 58.7000000  0  2G21G16                                          
  22689050.53949 119231762.00849     -7760.76249        48.000  
  18588802.00849  97684813.21549      8923.07849        49.000  
 16 04 02 12 27 58.8000000  0  2G21G16                                          
  22689198.22749 119232538.11349     -7761.26249        48.000  
  18588632.24249  97683921.11349      8919.19149        49.000  
 16 04 02 12 27 58.9000000  0  2G21G16                                          
  22689345.91449 119233314.22749     -7761.31249        48.000  
  18588462.54749  97683029.36749      8915.61749        49.000  
 16 04 02 12 27 59.0000000  0  2G21G16                                          
  22689493.61749 119234090.41049     -7762.01249        48.000  
  18588292.93049  97682138.01649      8911.62149        49.000  
 16 04 02 12 27 59.1000000  0  2G21G16                                          
  22689641.33649 119234866.67649     -7762.80149        48.000  
  18588123.39849  97681247.10249      8907.37949        49.000  
 16 04 02 12 27 59.2000000  0  2G21G16                                          
  22689789.06249 119235642.97749     -7763.32849        48.000  
  18587953.93849  97680356.57449      8903.32449        49.000  
 16 04 02 12 27 59.3000000  0  2G21G16                                          
  22689936.79749 119236419.27349     -7762.84049        48.000  
  18587784.53149  97679466.36349      8900.48449        49.000  
 16 04 02 12 27 59.4000000  0  2G21G16                                          
  22690084.50849 119237195.53549     -7762.88749        48.000  
  18587615.19549  97678576.47349      8897.02349        49.000  
 16 04 02 12 27 59.5000000  0  2G21G16                                          
  22690232.27349 119237972.01249     -7764.93849        48.000  
  18587445.95349  97677687.12549      8891.67249        49.000  
 16 04 02 12 27 59.6000000  0  2G21G16                                          
  22690380.02349 119238748.43849     -7764.75049        48.000  
  18587276.77349  97676798.08649      8888.36349        49.000  
 16 04 02 12 27 59.7000000  0  2G21G16                                          
  22690527.78949 119239524.93849     -7765.14549        48.000  
  18587107.67249  97675909.44949      8884.51649        49.000  
 16 04 02 12 27 59.8000000  0  2G21G16                                          
  22690675.55549 119240301.48049     -7765.61349        48.000  
  18586938.64149  97675021.19149      8880.72749        49.000  
 16 04 02 12 27 59.9000000  0  2G21G16                                          
  22690823.33649 119241078.03549     -7766.02749        48.000  
  18586769.68049  97674133.30149      8877.02749        49.000  
 16 04 02 12 28  0.0000000  0  2G21G16                                          
  22690971.13349 119241854.71149     -7767.10949        48.000  
  18586600.81249  97673245.88349      8872.28949        49.000  
 16 04 02 12 28  0.1000000  0  2G21G16                                          
  22691118.94549 119242631.47349     -7768.05549        48.000  
  18586432.01649  97672358.87949      8867.96549        50.000  
 16 04 02 12 28  0.2000000  0  2G21G16                                          
  22691266.77349 119243408.29349     -7768.52749        48.000  
  18586263.30549  97671472.27349      8864.02049        50.000  
 16 04 02 12 28  0.3000000  0  2G21G16                                          
  22691414.60249 119244185.13349     -7768.68449        48.000  
  18586094.66449  97670586.03549      8860.58249        49.000  
 16 04 02 12 28  0.4000000  0  2G21G16                                          
  22691562.43849 119244962.03149     -7769.13349        48.000  
  18585926.09449  97669700.19549      8856.53949        49.000  
 16 04 02 12 28  0.5000000  0  2G21G16                                          
  22691710.29749 119245739.00849     -7770.01649        48.000  
  18585757.60249  97668814.76649      8852.52349        49.000  
 16 04 02 12 28  0.6000000  0  2G21G16                                          
  22691858.16449 119246516.05149     -7770.67649        48.000  
  18585589.18849  97667929.77349      8848.08249        49.000  
 16 04 02 12 28  0.7000000  0  2G21G16                                          
  22692006.03149 119247293.10249     -7770.85549        48.000  
  18585420.84449  97667045.09849      8844.79749        49.000  
 16 04 02 12 28  0.8000000  0  2G21G16                                          
  22692153.91449 119248070.21949     -7771.52049        48.000  
  18585252.57849  97666160.84849      8840.64549        49.000  
 16 04 02 12 28  0.9000000  0  2G21G16                                          
  22692301.81249 119248847.43849     -7772.31649        48.000  
  18585084.39149  97665277.05549      8836.10549        49.000  
 16 04 02 12 28  1.0000000  0  2G21G16                                          
  22692449.71949 119249624.68849     -7772.70349        48.000  
  18584916.28149  97664393.59849      8832.70349        49.000  
 16 04 02 12 28  1.1000000  0  2G21G16                                          
  22692597.62549 119250401.94549     -7772.86349        48.000  
  18584748.23449  97663510.51249      8829.00849        49.000  
 16 04 02 12 28  1.2000000  0  2G21G16                                          
  22692745.53949 119251179.24249     -7773.09449        48.000  
  18584580.26649  97662627.81249      8825.27349        49.000  
 16 04 02 12 28  1.3000000  0  2G21G16                                          
  22692893.47749 119251956.64849     -7774.34849        48.000  
  18584412.37549  97661745.55549      8820.67649        49.000  
 16 04 02 12 28  1.4000000  0  2G21G16                                          
  22693041.42249 119252734.10249     -7774.87149        48.000  
  18584244.56249  97660863.69549      8816.77049        50.000  
 16 04 02 12 28  1.5000000  0  2G21G16                                          
  22693189.38349 119253511.62549     -7775.50049        48.000  
  18584076.82849  97659982.25049      8812.46549        49.000  
 16 04 02 12 28  1.6000000  0  2G21G16                                          
  22693337.34449 119254289.17649     -7775.88349        48.000  
  18583909.16449  97659101.16049      8809.01249        49.000  
 16 04 02 12 28  1.7000000  0  2G21G16                                          
  22693485.32049 119255066.78549     -7776.30549        48.000  
  18583741.57849  97658220.48449      8805.06649        49.000  
 16 04 02 12 28  1.8000000  0  2G21G16                                          
  22693633.30549 119255844.44949     -7776.81249        48.000  
  18583574.07049  97657340.20749      8800.93049        49.000  
 16 04 02 12 28  1.9000000  0  2G21G16                                          
  22693781.30549 119256622.16449     -7777.45749        48.000  
  18583406.63349  97656460.32049      8796.88349        49.000  
 16 04 02 12 28  2.0000000  0  2G21G16                                          
  22693929.31249 119257399.95749     -7778.16849        48.000  
  18583239.27349  97655580.84449      8792.93449        49.000  
 16 04 02 12 28  2.1000000  0  2G21G16                                          
  22694077.31249 119258177.70349     -7777.66849        48.000  
  18583071.97749  97654701.68049      8789.81649        49.000  
 16 04 02 12 28  2.2000000  0  2G21G16                                          
  22694225.32849 119258955.51649     -7778.22349        48.000  
  18582904.75049  97653822.91849      8785.93049        49.000  
 16 04 02 12 28  2.3000000  0  2G21G16                                          
  22694373.35249 119259733.38749     -7778.91449        48.000  
  18582737.60249  97652944.54749      8781.82849        49.000  
 16 04 02 12 28  2.4000000  0  2G21G16                                          
  22694521.38349 119260511.29349     -7779.03549        48.000  
  18582570.52349  97652066.55149      8778.30149        49.000  
 16 04 02 12 28  2.5000000  0  2G21G16                                          
  22694669.40649 119261289.17649     -7779.28949        48.000  
  18582403.51649  97651188.91049      8774.50849        49.000  
 16 04 02 12 28  2.6000000  0  2G21G16                                          
  22694817.46949 119262067.21949     -7780.69149        48.000  
  18582236.59449  97650311.73049      8769.81649        50.000  
 16 04 02 12 28  2.7000000  0  2G21G16                                          
  22694965.53949 119262845.30949     -7781.27349        48.000  
  18582069.75049  97649434.96549      8765.71549        50.000  
 16 04 02 12 28  2.8000000  0  2G21G16                                          
  22695113.60949 119263623.44549     -7781.80949        48.000  
  18581902.98449  97648558.59449      8761.67649        49.000  
 16 04 02 12 28  2.9000000  0  2G21G16                                          
  22695261.69549 119264401.62549     -7781.78949        48.000  
  18581736.28949  97647682.58249      8758.34849        49.000  
 16 04 02 12 28  3.0000000  0  2G21G16                                          
  22695409.78949 119265179.86349     -7782.75049        48.000  
  18581569.66449  97646806.99649      8753.96949        50.000  
 16 04 02 12 28  3.1000000  0  2G21G16                                          
  22695557.89849 119265958.18049     -7783.30549        48.000  
  18581403.12549  97645931.81649      8750.04349        49.000  
 16 04 02 12 28  3.2000000  0  2G21G16                                          
  22695706.01649 119266736.53949     -7783.89549        48.000  
  18581236.65649  97645057.02349      8745.92249        49.000  
 16 04 02 12 28  3.3000000  0  2G21G16                                          
  22695854.12549 119267514.87549     -7783.53949        48.000  
  18581070.25049  97644182.57049      8742.63349        50.000  
 16 04 02 12 28  3.4000000  0  2G21G16                                          
  22696002.25049 119268293.25849     -7784.01249        48.000  
  18580903.92249  97643308.48449      8739.05149        49.000  
 16 04 02 12 28  3.5000000  0  2G21G16                                          
  22696150.39149 119269071.73049     -7785.07049        48.000  
  18580737.67249  97642434.83649      8734.57449        50.000  
 16 04 02 12 28  3.6000000  0  2G21G16                                          
  22696298.53949 119269850.26649     -7785.60549        48.000  
  18580571.50049  97641561.59849      8730.55549        49.000  
 16 04 02 12 28  3.7000000  0  2G21G16                                          
  22696446.69549 119270628.80549     -7785.72349        48.000  
  18580405.39849  97640688.71549      8726.94549        49.000  
 16 04 02 12 28  3.8000000  0  2G21G16                                          
  22696594.85949 119271407.44149     -7786.77349        48.000  
  18580239.36749  97639816.25049      8722.62949        49.000  
 16 04 02 12 28  3.9000000  0  2G21G16                                          
  22696743.04749 119272186.16849     -7787.50849        48.000  
  18580073.43049  97638944.23049      8718.35949        50.000  
 16 04 02 12 28  4.0000000  0  2G21G16                                          
  22696891.22749 119272964.82849     -7786.81649        48.000  
  18579907.54749  97638072.50049      8715.51649        50.000  
 16 04 02 12 28  4.1000000  0  2G21G16                                          
  22697039.42249 119273743.57849     -7787.71949        48.000  
  18579741.74249  97637201.19149      8711.28149        50.000  
 16 04 02 12 28  4.2000000  0  2G21G16                                          
  22697187.61749 119274522.37549     -7788.10949        48.000  
  18579576.00849  97636330.27749      8707.44549        50.000  
 16 04 02 12 28  4.3000000  0  2G21G16                                          
  22697335.82849 119275301.23049     -7789.02349        48.000  
  18579410.35249  97635459.76249      8703.06649        50.000  
 16 04 02 12 28  4.4000000  0  2G21G16                                          
  22697484.06249 119276080.17649     -7789.80549        48.000  
  18579244.78149  97634589.67649      8698.85949        49.000  
 16 04 02 12 28  4.5000000  0  2G21G16                                          
  22697632.28949 119276859.11749     -7789.57449        48.000  
  18579079.27349  97633719.93849      8695.54749        49.000  
 16 04 02 12 28  4.6000000  0  2G21G16                                          
  22697780.53149 119277638.11349     -7790.13749        48.000  
  18578913.84449  97632850.59849      8691.62149        49.000  
 16 04 02 12 28  4.7000000  0  2G21G16                                          
  22697928.78949 119278417.19949     -7791.09049        48.000  
  18578748.49249  97631981.66849      8687.39549        49.000  
 16 04 02 12 28  4.8000000  0  2G21G16                                          
  22698077.03949 119279196.25849     -7790.97749        48.000  
  18578583.20349  97631113.08649      8683.85949        50.000  
 16 04 02 12 28  4.9000000  0  2G21G16                                          
  22698225.31249 119279975.43849     -7791.93049        48.000  
  18578418.00849  97630244.96549      8679.39549        49.000  
 16 04 02 12 28  5.0000000  0  2G21G16                                          
  22698373.58649 119280754.61749     -7792.12949        48.000  
  18578252.86749  97629377.16049      8676.06249        49.000  
 16 04 02 12 28  5.1000000  0  2G21G16                                          
  22698521.85949 119281533.78549     -7791.87549        48.000  
  18578087.79749  97628509.71549      8672.69949        49.000  
 16 04 02 12 28  5.2000000  0  2G21G16                                          
  22698670.14149 119282313.00049     -7792.44549        48.000  
  18577922.80549  97627642.66449      8668.66049        50.000  
 16 04 02 12 28  5.3000000  0  2G21G16                                          
  22698818.42249 119283092.24649     -7792.62549        48.000  
  18577757.87549  97626775.96949      8665.10249        50.000  
 16 04 02 12 28  5.4000000  0  2G21G16                                          
  22698966.72749 119283871.57049     -7793.62549        48.000  
  18577593.03149  97625909.69949      8660.68449        50.000  
 16 04 02 12 28  5.5000000  0  2G21G16                                          
  22699115.05549 119284651.01249     -7794.63749        48.000  
  18577428.27349  97625043.89849      8656.07049        49.000  
 16 04 02 12 28  5.6000000  0  2G21G16                                          
  22699263.36749 119285430.42249     -7794.58249        48.000  
  18577263.57849  97624178.39549      8652.93849        49.000  
 16 04 02 12 28  5.7000000  0  2G21G16                                          
  22699411.71149 119286209.93449     -7795.28149        48.000  
  18577098.96949  97623313.36349      8648.58249        49.000  
 16 04 02 12 28  5.8000000  0  2G21G16                                          
  22699560.04749 119286989.44149     -7795.33649        48.000  
  18576934.41449  97622448.65249      8645.09049        49.000  
 16 04 02 12 28  5.9000000  0  2G21G16                                          
  22699708.39149 119287768.98049     -7795.64849        48.000  
  18576769.93849  97621584.32049      8641.44149        49.000  
 16 04 02 12 28  6.0000000  0  2G21G16                                          
  22699856.74249 119288548.57049     -7796.27349        48.000  
  18576605.53949  97620720.38749      8637.35949        49.000  
 16 04 02 12 28  6.1000000  0  2G21G16                                          
  22700005.10949 119289328.27349     -7797.33649        48.000  
  18576441.21949  97619856.90249      8632.90249        49.000  
 16 04 02 12 28  6.2000000  0  2G21G16                                          
  22700153.50049 119290108.04349     -7798.17649        48.000  
  18576276.98449  97618993.83649      8628.64149        49.000  
 16 04 02 12 28  6.3000000  0  2G21G16                                          
  22700301.87549 119290887.77349     -7797.56249        48.000  
  18576112.81249  97618131.07849      8625.85949        49.000  
 16 04 02 12 28  6.4000000  0  2G21G16                                          
  22700450.28149 119291667.61749     -7798.75049        48.000  
  18575948.71949  97617268.78949      8620.97749        50.000  
 16 04 02 12 28  6.5000000  0  2G21G16                                          
  22700598.69549 119292447.53549     -7799.41449        48.000  
  18575784.70349  97616406.89149      8616.97749        50.000  
 16 04 02 12 28  6.6000000  0  2G21G16                                          
  22700747.09449 119293227.39849     -7798.73849        48.000  
  18575620.75049  97615545.29349      8614.07449        50.000  
 16 04 02 12 28  6.7000000  0  2G21G16                                          
  22700895.52349 119294007.35949     -7799.79749        48.000  
  18575456.87549  97614684.13349      8609.85249        50.000  
 16 04 02 12 28  6.8000000  0  2G21G16                                          
  22701043.95349 119294787.37949     -7800.27049        48.000  
  18575293.08649  97613823.38749      8605.73049        50.000  
 16 04 02 12 28  6.9000000  0  2G21G16                                          
  22701192.39849 119295567.43049     -7800.53149        48.000  
  18575129.35949  97612963.00849      8601.89849        50.000  
 16 04 02 12 28  7.0000000  0  2G21G16                                          
  22701340.84449 119296347.51649     -7801.12549        48.000  
  18574965.71149  97612103.01649      8598.02749        50.000  
 16 04 02 12 28  7.1000000  0  2G21G16                                          
  22701489.29749 119297127.66449     -7801.77049        48.000  
  18574802.13349  97611243.41849      8594.05949        50.000  
 16 04 02 12 28  7.2000000  0  2G21G16                                          
  22701637.76649 119297907.86749     -7802.31649        48.000  
  18574638.64149  97610384.23449      8589.96549        49.000  
 16 04 02 12 28  7.3000000  0  2G21G16                                          
  22701786.24249 119298688.10949     -7802.64149        48.000  
  18574475.21149  97609525.42649      8586.23449        50.000  
 16 04 02 12 28  7.4000000  0  2G21G16                                          
  22701934.71949 119299468.35949     -7802.78149        48.000  
  18574311.85949  97608666.97349      8582.64549        49.000  
 16 04 02 12 28  7.5000000  0  2G21G16                                          
  22702083.23449 119300248.77749     -7804.46149        48.000  
  18574148.59449  97607809.02349      8577.63349        50.000  
 16 04 02 12 28  7.6000000  0  2G21G16                                          
  22702231.73449 119301029.14549     -7804.15249        48.000  
  18573985.39149  97606951.38749      8574.33249        49.000  
 16 04 02 12 28  7.7000000  0  2G21G16                                          
  22702380.24249 119301809.55549     -7804.30149        48.000  
  18573822.25849  97606094.11749      8570.90649        49.000  
 16 04 02 12 28  7.8000000  0  2G21G16                                          
  22702528.78149 119302590.12949     -7806.10949        48.000  
  18573659.21949  97605237.37549      8565.57049        49.000  
 16 04 02 12 28  7.9000000  0  2G21G16                                          
  22702677.33649 119303370.77349     -7806.84849        48.000  
  18573496.26649  97604381.03149      8561.32449        50.000  
 16 04 02 12 28  8.0000000  0  2G21G16                                          
  22702825.87549 119304151.37949     -7806.48449        48.000  
  18573333.36749  97603525.00449      8558.27049        50.000  
 16 04 02 12 28  8.1000000  0  2G21G16                                          
  22702974.42249 119304931.98449     -7806.04749        48.000  
  18573170.53949  97602669.31649      8555.26249        50.000  
 16 04 02 12 28  8.2000000  0  2G21G16                                          
  22703122.97749 119305712.65249     -7807.07449        48.000  
  18573007.78949  97601814.04749      8550.84049        50.000  
 16 04 02 12 28  8.3000000  0  2G21G16                                          
  22703271.54749 119306493.37949     -7807.34049        48.000  
  18572845.10949  97600959.16849      8547.00449        50.000  
 16 04 02 12 28  8.4000000  0  2G21G16                                          
  22703420.11749 119307274.11749     -7807.88749        48.000  
  18572682.50049  97600104.64549      8543.21949        50.000  
 16 04 02 12 28  8.5000000  0  2G21G16                                          
  22703568.71149 119308054.98049     -7808.94549        48.000  
  18572519.98449  97599250.61349      8538.40249        50.000  
 16 04 02 12 28  8.6000000  0  2G21G16                                          
  22703717.31249 119308835.88749     -7809.62949        48.000  
  18572357.53149  97598396.94549      8534.59049        50.000  
 16 04 02 12 28  8.7000000  0  2G21G16                                          
  22703865.92249 119309616.82449     -7809.54349        48.000  
  18572195.15649  97597543.67249      8530.85249        50.000  
 16 04 02 12 28  8.8000000  0  2G21G16                                          
  22704014.53149 119310397.78149     -7809.93849        48.000  
  18572032.85249  97596690.75049      8527.28949        50.000  
 16 04 02 12 28  8.9000000  0  2G21G16                                          
  22704163.15649 119311178.78949     -7810.29749        48.000  
  18571870.62549  97595838.22349      8523.34049        49.000  
 16 04 02 12 28  9.0000000  0  2G21G16                                          
  22704311.78949 119311959.85549     -7810.98849        48.000  
  18571708.46949  97594986.11349      8519.27049        50.000  
 16 04 02 12 28  9.1000000  0  2G21G16                                          
  22704460.44549 119312741.03949     -7812.15649        48.000  
  18571546.40649  97594134.46149      8514.55949        49.000  
 16 04 02 12 28  9.2000000  0  2G21G16                                          
  22704609.09449 119313522.20749     -7811.86749        48.000  
  18571384.40649  97593283.13749      8511.32849        49.000  
 16 04 02 12 28  9.3000000  0  2G21G16                                          
  22704757.75049 119314303.37949     -7811.78149        48.000  
  18571222.47749  97592432.15649      8507.99649        49.000  
 16 04 02 12 28  9.4000000  0  2G21G16                                          
  22704906.42249 119315084.63349     -7812.68449        48.000  
  18571060.61749  97591581.60949      8503.65249        49.000  
 16 04 02 12 28  9.5000000  0  2G21G16                                          
  22705055.09449 119315865.95349     -7813.45349        48.000  
  18570898.84449  97590731.46549      8499.59449        49.000  
 16 04 02 12 28  9.6000000  0  2G21G16                                          
  22705203.78149 119316647.28149     -7813.46949        48.000  
  18570737.13349  97589881.68849      8495.96949        49.000  
 16 04 02 12 28  9.7000000  0  2G21G16                                          
  22705352.46949 119317428.65249     -7813.87149        48.000  
  18570575.50049  97589032.28949      8492.19949        49.000  
 16 04 02 12 28  9.8000000  0  2G21G16                                          
  22705501.17249 119318210.09849     -7814.63349        48.000  
  18570413.93849  97588183.30949      8488.06249        49.000  
 16 04 02 12 28  9.9000000  0  2G21G16                                          
  22705649.88349 119318991.57449     -7814.96149        48.000  
  18570252.46149  97587334.71149      8484.18049        49.000  
 16 04 02 12 28 10.0000000  0  2G21G16                                          
  22705798.59449 119319773.07049     -7815.23049        48.000  
  18570091.04749  97586486.48049      8480.47749        49.000  
 16 04 02 12 28 10.1000000  0  2G21G16                                          
  22705947.32049 119320554.60949     -7815.57849        48.000  
  18569929.71149  97585638.64549      8476.53149        49.000  
 16 04 02 12 28 10.2000000  0  2G21G16                                          
  22706096.07049 119321336.28949     -7817.24249        48.000  
  18569768.46149  97584791.27749      8471.60549        49.000  
 16 04 02 12 28 10.3000000  0  2G21G16                                          
  22706244.82049 119322117.98049     -7817.17649        48.000  
  18569607.28149  97583944.28949      8467.88349        49.000  
 16 04 02 12 28 10.4000000  0  2G21G16                                          
  22706393.56249 119322899.62149     -7816.55549        48.000  
  18569446.16449  97583097.57849      8465.26249        49.000  
 16 04 02 12 28 10.5000000  0  2G21G16                                          
  22706542.32049 119323681.35249     -7817.32049        48.000  
  18569285.11749  97582251.30149      8461.14149        49.000  
 16 04 02 12 28 10.6000000  0  2G21G16                                          
  22706691.09449 119324463.14149     -7818.36749        48.000  
  18569124.15649  97581405.44549      8456.62149        50.000  
 16 04 02 12 28 10.7000000  0  2G21G16                                          
  22706839.87549 119325245.02349     -7819.21549        48.000  
  18568963.27349  97580560.00849      8452.39849        49.000  
 16 04 02 12 28 10.8000000  0  2G21G16                                          
  22706988.68049 119326026.98449     -7820.00049        48.000  
  18568802.47749  97579715.00849      8448.03149        49.000  
 16 04 02 12 28 10.9000000  0  2G21G16                                          
  22707137.48449 119326808.93049     -7819.72349        48.000  
  18568641.74249  97578870.35249      8444.61749        49.000  
 16 04 02 12 28 11.0000000  0  2G21G16                                          
  22707286.28949 119327590.89549     -7819.88749        48.000  
  18568481.07049  97578026.03549      8441.21549        50.000  
 16 04 02 12 28 11.1000000  0  2G21G16                                          
  22707435.10949 119328372.96949     -7820.94149        48.000  
  18568320.49249  97577182.18849      8436.67649        50.000  
 16 04 02 12 28 11.2000000  0  2G21G16                                          
  22707583.94549 119329155.09049     -7821.64549        48.000  
  18568159.98449  97576338.72349      8432.57049        50.000  
 16 04 02 12 28 11.3000000  0  2G21G16                                          
  22707732.77349 119329937.20749     -7821.34849        48.000  
  18567999.54749  97575495.60949      8429.27749        49.000  
 16 04 02 12 28 11.4000000  0  2G21G16                                          
  22707881.61749 119330719.38349     -7821.90649        48.000  
  18567839.18849  97574652.90249      8425.11749        49.000  
 16 04 02 12 28 11.5000000  0  2G21G16                                          
  22708030.48449 119331501.67649     -7823.16049        48.000  
  18567678.91449  97573810.66049      8420.50849        49.000  
 16 04 02 12 28 11.6000000  0  2G21G16                                          
  22708179.36749 119332284.05549     -7823.94549        48.000  
  18567518.71949  97572968.84449      8416.34449        49.000  
 16 04 02 12 28 11.7000000  0  2G21G16                                          
  22708328.23449 119333066.33649     -7823.04749        48.000  
  18567358.57049  97572127.26249      8413.89149        49.000  
 16 04 02 12 28 11.8000000  0  2G21G16                                          
  22708477.10949 119333848.68849     -7823.80949        48.000  
  18567198.50849  97571286.12149      8409.59849        49.000  
 16 04 02 12 28 11.9000000  0  2G21G16                                          
  22708626.00849 119334631.11749     -7824.49649        48.000  
  18567038.52349  97570445.39849      8405.44549        49.000  
 16 04 02 12 28 12.0000000  0  2G21G16                                          
  22708774.91449 119335413.63349     -7825.33649        48.000  
  18566878.62549  97569605.09849      8401.12549        49.000  
 16 04 02 12 28 12.1000000  0  2G21G16                                          
  22708923.82849 119336196.16849     -7825.57849        48.000  
  18566718.78949  97568765.18049      8397.32449        49.000  
 16 04 02 12 28 12.2000000  0  2G21G16                                          
  22709072.75049 119336978.78549     -7826.46549        48.000  
  18566559.03949  97567925.68449      8392.99249        49.000  
 16 04 02 12 28 12.3000000  0  2G21G16                                          
  22709221.68849 119337761.43049     -7826.62949        48.000  
  18566399.35949  97567086.53949      8389.56649        49.000  
 16 04 02 12 28 12.4000000  0  2G21G16                                          
  22709370.61749 119338544.07049     -7826.74249        48.000  
  18566239.75049  97566247.77049      8385.78549        49.000  
 16 04 02 12 28 12.5000000  0  2G21G16                                          
  22709519.57849 119339326.84049     -7827.94149        48.000  
  18566080.21949  97565409.46549      8381.24249        49.000  
 16 04 02 12 28 12.6000000  0  2G21G16                                          
  22709668.53949 119340109.63349     -7828.05549        48.000  
  18565920.76649  97564571.52049      8377.62949        49.000  
 16 04 02 12 28 12.7000000  0  2G21G16                                          
  22709817.50849 119340892.46549     -7828.79749        48.000  
  18565761.39149  97563733.98449      8373.36349        49.000  
 16 04 02 12 28 12.8000000  0  2G21G16                                          
  22709966.48449 119341675.35949     -7829.07049        48.000  
  18565602.07849  97562896.83249      8369.68049        49.000  
 16 04 02 12 28 12.9000000  0  2G21G16                                          
  22710115.46149 119342458.19549     -7828.59049        48.000  
  18565442.83649  97562059.98449      8366.56249        49.000  
 16 04 02 12 28 13.0000000  0  2G21G16                                          
  22710264.44549 119343241.12549     -7829.59849        48.000  
  18565283.67249  97561223.56649      8362.28549        49.000  
 16 04 02 12 28 13.1000000  0  2G21G16                                          
  22710413.44549 119344024.10949     -7829.92249        48.000  
  18565124.58649  97560387.56249      8358.25049        49.000  
 16 04 02 12 28 13.2000000  0  2G21G16                                          
  22710562.44549 119344807.10249     -7830.12549        48.000  
  18564965.56249  97559551.91049      8354.60949        49.000  
 16 04 02 12 28 13.3000000  0  2G21G16                                          
  22710711.45349 119345590.16449     -7830.94149        48.000  
  18564806.61749  97558716.65649      8350.49249        49.000  
 16 04 02 12 28 13.4000000  0  2G21G16                                          
  22710860.48449 119346373.30149     -7831.69949        48.000  
  18564647.75849  97557881.83649      8346.32849        49.000  
 16 04 02 12 28 13.5000000  0  2G21G16                                          
  22711009.50849 119347156.43849     -7831.51249        48.000  
  18564488.96149  97557047.37149      8342.85249        49.000  
 16 04 02 12 28 13.6000000  0  2G21G16                                          
  22711158.54749 119347939.64149     -7832.31249        48.000  
  18564330.25049  97556213.32049      8338.52349        49.000  
 16 04 02 12 28 13.7000000  0  2G21G16                                          
  22711307.59449 119348722.90649     -7832.73049        48.000  
  18564171.60949  97555379.66449      8334.67649        49.000  
 16 04 02 12 28 13.8000000  0  2G21G16                                          
  22711456.65649 119349506.22749     -7833.48449        48.000  
  18564013.04749  97554546.41849      8330.51249        49.000  
 16 04 02 12 28 13.9000000  0  2G21G16                                          
  22711605.72749 119350289.57049     -7833.71149        48.000  
  18563854.55549  97553713.54349      8326.85949        49.000  
 16 04 02 12 28 14.0000000  0  2G21G16                                          
  22711754.78949 119351072.90249     -7833.37949        48.000  
  18563696.13349  97552881.00049      8323.67249        50.000  
 16 04 02 12 28 14.1000000  0  2G21G16                                          
  22711903.86749 119351856.30949     -7834.20749        48.000  
  18563537.78149  97552048.87549      8319.42249        50.000  
 16 04 02 12 28 14.2000000  0  2G21G16                                          
  22712052.95349 119352639.74249     -7834.42649        48.000  
  18563379.50849  97551217.13349      8315.67649        50.000  
 16 04 02 12 28 14.3000000  0  2G21G16                                          
  22712202.04749 119353423.25049     -7835.49249        48.000  
  18563221.31249  97550385.81249      8311.22749        49.000  
 16 04 02 12 28 14.4000000  0  2G21G16                                          
  22712351.15649 119354206.80549     -7835.63349        48.000  
  18563063.19549  97549554.88349      8307.50849        49.000  
 16 04 02 12 28 14.5000000  0  2G21G16                                          
  22712500.26649 119354990.38349     -7836.11749        48.000  
  18562905.14149  97548724.32449      8303.61749        49.000  
 16 04 02 12 28 14.6000000  0  2G21G16                                          
  22712649.40649 119355774.10549     -7837.48849        48.000  
  18562747.18849  97547894.27049      8298.62549        49.000  
 16 04 02 12 28 14.7000000  0  2G21G16                                          
  22712798.56249 119356557.91049     -7838.39149        48.000  
  18562589.31249  97547064.61749      8294.43049        49.000  
 16 04 02 12 28 14.8000000  0  2G21G16                                          
  22712947.70349 119357341.66049     -7837.76249        48.000  
  18562431.49249  97546235.27349      8291.55149        49.000  
 16 04 02 12 28 14.9000000  0  2G21G16                                          
  22713096.85249 119358125.45349     -7837.93049        48.000  
  18562273.75049  97545406.32849      8287.77349        49.000  
 16 04 02 12 28 15.0000000  0  2G21G16                                          
  22713246.01649 119358909.29349     -7838.59849        48.000  
  18562116.07849  97544577.76249      8283.82049        49.000  
 16 04 02 12 28 15.1000000  0  2G21G16                                          
  22713395.19549 119359693.19949     -7839.24649        48.000  
  18561958.48449  97543749.60949      8279.69149        49.000  
 16 04 02 12 28 15.2000000  0  2G21G16                                          
  22713544.36749 119360477.11749     -7839.53949        48.000  
  18561800.96949  97542921.82449      8275.92649        49.000  
 16 04 02 12 28 15.3000000  0  2G21G16                                          
  22713693.56249 119361261.12149     -7840.48449        48.000  
  18561643.53149  97542094.47749      8271.45349        49.000  
 16 04 02 12 28 15.4000000  0  2G21G16                                          
  22713842.76649 119362045.21149     -7841.14549        48.000  
  18561486.17249  97541267.54749      8267.41049        49.000  
 16 04 02 12 28 15.5000000  0  2G21G16                                          
  22713991.97749 119362829.31249     -7841.47749        48.000  
  18561328.88349  97540441.00049      8263.41049        49.000  
 16 04 02 12 28 15.6000000  0  2G21G16                                          
  22714141.19549 119363613.44549     -7841.53949        48.000  
  18561171.66449  97539614.81649      8260.00449        49.000  
 16 04 02 12 28 15.7000000  0  2G21G16                                          
  22714290.42249 119364397.64549     -7842.31649        48.000  
  18561014.53149  97538789.05149      8255.77349        49.000  
 16 04 02 12 28 15.8000000  0  2G21G16                                          
  22714439.67249 119365181.96149     -7843.28149        48.000  
  18560857.47749  97537963.74249      8251.25049        49.000  
 16 04 02 12 28 15.9000000  0  2G21G16                                          
  22714588.92249 119365966.23849     -7843.18049        48.000  
  18560700.48449  97537138.75849      8247.81249        49.000  
 16 04 02 12 28 16.0000000  0  2G21G16                                          
  22714738.17249 119366750.57449     -7843.34449        48.000  
  18560543.57049  97536314.17649      8244.08249        49.000  
 16 04 02 12 28 16.1000000  0  2G21G16                                          
  22714887.43049 119367534.90649     -7843.73449        48.000  
  18560386.71949  97535489.91849      8240.63349        49.000  
 16 04 02 12 28 16.2000000  0  2G21G16                                          
  22715036.70349 119368319.34449     -7844.54349        48.000  
  18560229.96149  97534666.13349      8236.16449        49.000  
 16 04 02 12 28 16.3000000  0  2G21G16                                          
  22715185.98449 119369103.80149     -7844.96549        48.000  
  18560073.27349  97533842.72349      8232.09449        49.000  
 16 04 02 12 28 16.4000000  0  2G21G16                                          
  22715335.26649 119369888.30949     -7845.34849        48.000  
  18559916.65649  97533019.70349      8228.27749        49.000  
 16 04 02 12 28 16.5000000  0  2G21G16                                          
  22715484.58649 119370672.98449     -7847.09449        48.000  
  18559760.14149  97532197.18849      8223.13349        49.000  
 16 04 02 12 28 16.6000000  0  2G21G16                                          
  22715633.90649 119371457.65249     -7847.08249        48.000  
  18559603.68849  97531375.02049      8219.53149        49.000  
 16 04 02 12 28 16.7000000  0  2G21G16                                          
  22715783.24249 119372242.40249     -7847.75449        48.000  
  18559447.31249  97530553.27749      8215.55149        49.000  
 16 04 02 12 28 16.8000000  0  2G21G16                                          
  22715932.57849 119373027.18049     -7848.12549        48.000  
  18559291.02349  97529731.93849      8211.39149        49.000  
 16 04 02 12 28 16.9000000  0  2G21G16                                          
  22716081.93049 119373812.00049     -7848.09849        48.000  
  18559134.78949  97528910.95349      8208.10549        49.000  
 16 04 02 12 28 17.0000000  0  2G21G16                                          
  22716231.28949 119374596.87149     -7848.96949        48.000  
  18558978.64149  97528090.38349      8203.79349        49.000  
 16 04 02 12 28 17.1000000  0  2G21G16                                          
  22716380.64849 119375381.76249     -7849.24249        48.000  
  18558822.56249  97527270.18049      8200.08649        49.000  
 16 04 02 12 28 17.2000000  0  2G21G16                                          
  22716530.02349 119376166.74249     -7850.01249        48.000  
  18558666.57049  97526450.42649      8195.65249        49.000  
 16 04 02 12 28 17.3000000  0  2G21G16                                          
  22716679.40649 119376951.73449     -7850.06649        48.000  
  18558510.64149  97525631.01249      8192.39149        49.000  
 16 04 02 12 28 17.4000000  0  2G21G16                                          
  22716828.79749 119377736.79349     -7850.75049        48.000  
  18558354.79749  97524812.03549      8187.96149        49.000  
 16 04 02 12 28 17.5000000  0  2G21G16                                          
  22716978.19549 119378521.91049     -7851.57849        48.000  
  18558199.02349  97523993.44149      8183.96149        49.000  
 16 04 02 12 28 17.6000000  0  2G21G16                                          
  22717127.61749 119379307.09449     -7852.14149        48.000  
  18558043.33649  97523175.27049      8179.80949        49.000  
 16 04 02 12 28 17.7000000  0  2G21G16                                          
  22717277.03949 119380092.32449     -7852.77349        48.000  
  18557887.71149  97522357.49249      8175.69949        49.000  
 16 04 02 12 28 17.8000000  0  2G21G16                                          
  22717426.46949 119380877.56249     -7852.74249        48.000  
  18557732.16449  97521540.09049      8172.14549        50.000  
 16 04 02 12 28 17.9000000  0  2G21G16                                          
  22717575.92249 119381662.91449     -7853.65249        48.000  
  18557576.70349  97520723.12149      8167.76649        50.000  
 16 04 02 12 28 18.0000000  0  2G21G16                                          
  22717725.35949 119382448.23849     -7853.53549        48.000  
  18557421.30549  97519906.50449      8164.30949        49.000  
 16 04 02 12 28 18.1000000  0  2G21G16                                          
  22717874.82049 119383233.66849     -7854.35249        48.000  
  18557265.99249  97519090.32049      8160.07049        49.000  
 16 04 02 12 28 18.2000000  0  2G21G16                                          
  22718024.29749 119384019.16049     -7855.36749        48.000  
  18557110.75049  97518274.55149      8155.72349        49.000  
 16 04 02 12 28 18.3000000  0  2G21G16                                          
  22718173.78149 119384804.72749     -7855.98449        48.000  
  18556955.59449  97517459.19549      8151.54749        49.000  
 16 04 02 12 28 18.4000000  0  2G21G16                                          
  22718323.27349 119385590.28949     -7855.79749        48.000  
  18556800.50849  97516644.19949      8148.18849        49.000  
 16 04 02 12 28 18.5000000  0  2G21G16                                          
  22718472.76649 119386375.91449     -7856.28149        48.000  
  18556645.50049  97515829.61749      8144.10949        49.000  
 16 04 02 12 28 18.6000000  0  2G21G16                                          
  22718622.25849 119387161.50049     -7855.99249        48.000  
  18556490.54749  97515015.33649      8141.02349        49.000  
 16 04 02 12 28 18.7000000  0  2G21G16                                          
  22718771.76649 119387947.17649     -7856.91049        48.000  
  18556335.68049  97514201.50049      8136.57049        49.000  
 16 04 02 12 28 18.8000000  0  2G21G16                                          
  22718921.28149 119388732.86749     -7857.18049        48.000  
  18556180.88349  97513388.03549      8132.67649        49.000  
 16 04 02 12 28 18.9000000  0  2G21G16                                          
  22719070.82049 119389518.67649     -7858.29349        48.000  
  18556026.17249  97512575.01649      8128.35549        49.000  
 16 04 02 12 28 19.0000000  0  2G21G16                                          
  22719220.35949 119390304.51649     -7858.84049        48.000  
  18555871.53149  97511762.38749      8124.27349        49.000  
 16 04 02 12 28 19.1000000  0  2G21G16                                          
  22719369.90649 119391090.37149     -7858.91049        48.000  
  18555716.96149  97510950.12149      8120.62549        49.000  
 16 04 02 12 28 19.2000000  0  2G21G16                                          
  22719519.46949 119391876.31249     -7859.58249        48.000  
  18555562.47749  97510138.28949      8116.51649        49.000  
 16 04 02 12 28 19.3000000  0  2G21G16                                          
  22719669.03949 119392662.30549     -7860.33249        48.000  
  18555408.07049  97509326.86749      8112.26249        49.000  
 16 04 02 12 28 19.4000000  0  2G21G16                                          
  22719818.61749 119393448.35249     -7860.84849        48.000  
  18555253.73449  97508515.83649      8108.35549        49.000  
 16 04 02 12 28 19.5000000  0  2G21G16                                          
  22719968.20349 119394234.44149     -7861.20349        48.000  
  18555099.47749  97507705.19949      8104.44149        49.000  
 16 04 02 12 28 19.6000000  0  2G21G16                                          
  22720117.81249 119395020.62549     -7862.19549        48.000  
  18554945.30549  97506895.01249      8099.95349        49.000  
 16 04 02 12 28 19.7000000  0  2G21G16                                          
  22720267.42249 119395806.81249     -7862.40249        48.000  
  18554791.19549  97506085.18449      8096.26249        50.000  
 16 04 02 12 28 19.8000000  0  2G21G16                                          
  22720417.04749 119396593.08249     -7862.74649        48.000  
  18554637.17249  97505275.77349      8092.38749        49.000  
 16 04 02 12 28 19.9000000  0  2G21G16                                          
  22720566.66449 119397379.34849     -7862.82049        48.000  
  18554483.21149  97504466.71149      8088.87549        49.000  
 16 04 02 12 28 20.0000000  0  2G21G16                                          
  22720716.30549 119398165.71149     -7863.83249        48.000  
  18554329.34449  97503658.10249      8084.32849        49.000  
 16 04 02 12 28 20.1000000  0  2G21G16                                          
  22720865.96149 119398952.15249     -7865.00449        48.000  
  18554175.54749  97502849.90649      8079.81649        49.000  
 16 04 02 12 28 20.2000000  0  2G21G16                                          
  22721015.64149 119399738.71949     -7866.13349        48.000  
  18554021.84449  97502042.19549      8075.03149        49.000  
 16 04 02 12 28 20.3000000  0  2G21G16                                          
  22721165.31249 119400525.23449     -7865.42649        48.000  
  18553868.20349  97501234.78549      8072.22749        49.000  
 16 04 02 12 28 20.4000000  0  2G21G16                                          
  22721314.99249 119401311.80549     -7865.77349        48.000  
  18553714.62549  97500427.77349      8068.36749        49.000  
 16 04 02 12 28 20.5000000  0  2G21G16                                          
  22721464.68049 119402098.38749     -7866.10549        48.000  
  18553561.13349  97499621.12949      8064.55549        49.000  
 16 04 02 12 28 20.6000000  0  2G21G16                                          
  22721614.36749 119402885.00849     -7866.26649        48.000  
  18553407.70349  97498814.87149      8060.85949        49.000  
 16 04 02 12 28 20.7000000  0  2G21G16                                          
  22721764.07049 119403671.71549     -7867.39149        48.000  
  18553254.35949  97498009.05549      8056.26249        49.000  
 16 04 02 12 28 20.8000000  0  2G21G16                                          
  22721913.78949 119404458.46149     -7867.88749        48.000  
  18553101.09449  97497203.61749      8052.26249        49.000  
 16 04 02 12 28 20.9000000  0  2G21G16                                          
  22722063.50049 119405245.21149     -7867.80549        48.000  
  18552947.89149  97496398.53549      8048.91049        49.000  
 16 04 02 12 28 21.0000000  0  2G21G16                                          
  22722213.23449 119406032.06649     -7868.68449        48.000  
  18552794.77349  97495593.90649      8044.54749        49.000  
 16 04 02 12 28 21.1000000  0  2G21G16                                          
  22722362.96949 119406818.90649     -7868.71149        48.000  
  18552641.71949  97494789.62149      8040.94949        49.000  
 16 04 02 12 28 21.2000000  0  2G21G16                                          
  22722512.70349 119407605.77749     -7868.87949        48.000  
  18552488.73449  97493985.70349      8037.37949        49.000  
 16 04 02 12 28 21.3000000  0  2G21G16                                          
  22722662.44549 119408392.68049     -7869.10549        48.000  
  18552335.83649  97493182.18049      8033.55949        49.000  
 16 04 02 12 28 21.4000000  0  2G21G16                                          
  22722812.18849 119409179.58649     -7869.28149        48.000  
  18552182.99249  97492378.99649      8029.97749        49.000  
 16 04 02 12 28 21.5000000  0  2G21G16                                          
  22722961.95349 119409966.59449     -7870.27049        48.000  
  18552030.24249  97491576.28149      8025.35249        49.000  
 16 04 02 12 28 21.6000000  0  2G21G16                                          
  22723111.71949 119410753.64849     -7870.74649        48.000  
  18551877.56249  97490773.94949      8021.40649        49.000  
 16 04 02 12 28 21.7000000  0  2G21G16                                          
  22723261.50049 119411540.69149     -7870.71549        48.000  
  18551724.94549  97489971.96149      8017.98849        49.000  
 16 04 02 12 28 21.8000000  0  2G21G16                                          
  22723411.27349 119412327.75449     -7870.72749        48.000  
  18551572.40649  97489170.34049      8014.39549        49.000  
 16 04 02 12 28 21.9000000  0  2G21G16                                          
  22723561.05549 119413114.88349     -7871.58249        48.000  
  18551419.94549  97488369.14149      8010.04349        49.000  
 16 04 02 12 28 22.0000000  0  2G21G16                                          
  22723710.85949 119413902.08249     -7872.31649        48.000  
  18551267.55549  97487568.35249      8005.82849        49.000  
 16 04 02 12 28 22.1000000  0  2G21G16                                          
  22723860.66449 119414689.31649     -7872.78149        48.000  
  18551115.25049  97486767.95749      8001.97349        49.000  
 16 04 02 12 28 22.2000000  0  2G21G16                                          
  22724010.48449 119415476.63749     -7873.62149        48.000  
  18550963.02349  97485967.99649      7997.61349        49.000  
 16 04 02 12 28 22.3000000  0  2G21G16                                          
  22724160.32049 119416264.00849     -7874.11749        48.000  
  18550810.86749  97485168.44549      7993.40249        50.000  
 16 04 02 12 28 22.4000000  0  2G21G16                                          
  22724310.15649 119417051.39849     -7873.99249        48.000  
  18550658.78949  97484369.25049      7990.04749        49.000  
 16 04 02 12 28 22.5000000  0  2G21G16                                          
  22724460.00049 119417838.82049     -7874.45349        48.000  
  18550506.78149  97483570.44149      7986.22749        49.000  
 16 04 02 12 28 22.6000000  0  2G21G16                                          
  22724609.85949 119418626.34049     -7875.52349        48.000  
  18550354.85949  97482772.07849      7981.61349        49.000  
 16 04 02 12 28 22.7000000  0  2G21G16                                          
  22724759.72749 119419413.85949     -7875.14849        48.000  
  18550203.00049  97481974.06249      7978.35249        49.000  
 16 04 02 12 28 22.8000000  0  2G21G16                                          
  22724909.59449 119420201.41049     -7875.80149        48.000  
  18550051.21949  97481176.43449      7974.39849        50.000  
 16 04 02 12 28 22.9000000  0  2G21G16                                          
  22725059.47749 119420989.05549     -7876.62149        48.000  
  18549899.51649  97480379.24249      7970.13749        49.000  
 16 04 02 12 28 23.0000000  0  2G21G16                                          
  22725209.36749 119421776.75049     -7877.44549        48.000  
  18549747.89149  97479582.46949      7965.75849        50.000  
 16 04 02 12 28 23.1000000  0  2G21G16                                          
  22725359.27349 119422564.50849     -7877.92249        48.000  
  18549596.34449  97478786.09449      7961.74249        50.000  
 16 04 02 12 28 23.2000000  0  2G21G16                                          
  22725509.18049 119423352.27349     -7877.73849        48.000  
  18549444.86749  97477990.07849      7958.34449        50.000  
 16 04 02 12 28 23.3000000  0  2G21G16                                          
  22725659.08649 119424140.02749     -7877.56249        48.000  
  18549293.46149  97477194.41849      7954.89549        49.000  
 16 04 02 12 28 23.4000000  0  2G21G16                                          
  22725809.00049 119424927.84049     -7878.24249        48.000  
  18549142.12549  97476399.14549      7950.93049        50.000  
 16 04 02 12 28 23.5000000  0  2G21G16                                          
  22725958.93849 119425715.75449     -7879.50049        48.000  
  18548990.88349  97475604.33249      7946.14849        50.000  
 16 04 02 12 28 23.6000000  0  2G21G16                                          
  22726108.86749 119426503.64549     -7879.06249        48.000  
  18548839.69549  97474809.84049      7943.12549        50.000  
 16 04 02 12 28 23.7000000  0  2G21G16                                          
  22726258.81249 119427291.60249     -7879.74249        48.000  
  18548688.59449  97474015.78949      7938.72349        50.000  
 16 04 02 12 28 23.8000000  0  2G21G16                                          
  22726408.76649 119428079.60249     -7880.36749        48.000  
  18548537.55549  97473222.10249      7934.85549        49.000  
 16 04 02 12 28 23.9000000  0  2G21G16                                          
  22726558.72749 119428867.66049     -7880.64549        48.000  
  18548386.60249  97472428.84449      7930.84849        49.000  
 16 04 02 12 28 24.0000000  0  2G21G16                                          
  22726708.68849 119429655.71549     -7880.88749        48.000  
  18548235.71949  97471635.91449      7927.43049        49.000  
 16 04 02 12 28 24.1000000  0  2G21G16                                          
  22726858.66449 119430443.82849     -7881.39849        48.000  
  18548084.90649  97470843.41449      7923.21549        49.000  
 16 04 02 12 28 24.2000000  0  2G21G16                                          
  22727008.64149 119431231.96149     -7881.50049        48.000  
  18547934.17249  97470051.27049      7919.60549        50.000  
 16 04 02 12 28 24.3000000  0  2G21G16                                          
  22727158.62549 119432020.12549     -7881.93449        48.000  
  18547783.50849  97469259.51649      7915.59849        50.000  
 16 04 02 12 28 24.4000000  0  2G21G16                                          
  22727308.61749 119432808.36749     -7882.68449        48.000  
  18547632.92249  97468468.19549      7911.34849        50.000  
 16 04 02 12 28 24.5000000  0  2G21G16                                          
  22727458.62549 119433596.66449     -7883.28949        48.000  
  18547482.41449  97467677.27049      7907.26249        50.000  
 16 04 02 12 28 24.6000000  0  2G21G16                                          
  22727608.64149 119434385.00049     -7883.52349        48.000  
  18547331.97749  97466886.73849      7903.48449        49.000  
 16 04 02 12 28 24.7000000  0  2G21G16                                          
  22727758.65649 119435173.34049     -7883.73049        48.000  
  18547181.60949  97466096.55949      7899.86349        49.000  
 16 04 02 12 28 24.8000000  0  2G21G16                                          
  22727908.68849 119435961.73449     -7884.16049        48.000  
  18547031.32849  97465306.80149      7895.78949        49.000  
 16 04 02 12 28 24.9000000  0  2G21G16                                          
  22728058.71949 119436750.17249     -7884.57049        48.000  
  18546881.11749  97464517.42649      7891.89549        49.000  
 16 04 02 12 28 25.0000000  0  2G21G16                                          
  22728208.77349 119437538.69949     -7885.46949        48.000  
  18546730.98449  97463728.48049      7887.55149        49.000  
 16 04 02 12 28 25.1000000  0  2G21G16                                          
  22728358.83649 119438327.25449     -7885.92649        48.000  
  18546580.93049  97462939.93049      7883.47749        49.000  
 16 04 02 12 28 25.2000000  0  2G21G16                                          
  22728508.89849 119439115.85549     -7886.13749        48.000  
  18546430.94549  97462151.76249      7879.77749        49.000  
 16 04 02 12 28 25.3000000  0  2G21G16                                          
  22728658.97749 119439904.48049     -7886.46549        48.000  
  18546281.03149  97461363.98449      7875.98449        49.000  
 16 04 02 12 28 25.4000000  0  2G21G16                                          
  22728809.04749 119440693.13749     -7886.78549        48.000  
  18546131.19549  97460576.58649      7872.08649        49.000  
 16 04 02 12 28 25.5000000  0  2G21G16                                          
  22728959.14149 119441481.89149     -7887.79349        48.000  
  18545981.44549  97459789.63349      7867.60249        49.000  
 16 04 02 12 28 25.6000000  0  2G21G16                                          
  22729109.24249 119442270.68049     -7888.23449        48.000  
  18545831.76649  97459003.06649      7863.66049        49.000  
 16 04 02 12 28 25.7000000  0  2G21G16                                          
  22729259.35249 119443059.49649     -7888.47349        48.000  
  18545682.15649  97458216.87949      7859.95749        49.000  
 16 04 02 12 28 25.8000000  0  2G21G16                                          
  22729409.46949 119443848.37549     -7889.00049        48.000  
  18545532.62549  97457431.10249      7855.89849        49.000  
 16 04 02 12 28 25.9000000  0  2G21G16                                          
  22729559.60249 119444637.30949     -7889.53549        48.000  
  18545383.18049  97456645.73449      7851.86349        49.000  
 16 04 02 12 28 26.0000000  0  2G21G16                                          
  22729709.74249 119445426.28949     -7890.17649        48.000  
  18545233.80549  97455860.77049      7847.61349        49.000  
 16 04 02 12 28 26.1000000  0  2G21G16                                          
  22729859.89849 119446215.34449     -7890.82049        48.000  
  18545084.50849  97455076.23049      7843.51249        49.000  
 16 04 02 12 28 26.2000000  0  2G21G16                                          
  22730010.03949 119447004.37149     -7890.57449        48.000  
  18544935.28149  97454292.01249      7840.25449        49.000  
 16 04 02 12 28 26.3000000  0  2G21G16                                          
  22730160.19549 119447793.43849     -7890.78149        48.000  
  18544786.12549  97453508.18049      7836.47749        49.000  
 16 04 02 12 28 26.4000000  0  2G21G16                                          
  22730310.36749 119448582.58249     -7891.73449        48.000  
  18544637.04749  97452724.78549      7831.99649        49.000  
 16 04 02 12 28 26.5000000  0  2G21G16                                          
  22730460.55549 119449371.77049     -7892.27049        48.000  
  18544488.04749  97451941.77349      7828.12549        49.000  
 16 04 02 12 28 26.6000000  0  2G21G16                                          
  22730610.75049 119450161.05149     -7893.38349        48.000  
  18544339.13349  97451159.23049      7823.30949        49.000  
 16 04 02 12 28 26.7000000  0  2G21G16                                          
  22730760.96149 119450950.41049     -7893.89549        48.000  
  18544190.29749  97450377.09849      7819.37949        49.000  
 16 04 02 12 28 26.8000000  0  2G21G16                                          
  22730911.17249 119451739.77049     -7893.82449        48.000  
  18544041.52349  97449595.31649      7815.96549        49.000  
 16 04 02 12 28 26.9000000  0  2G21G16                                          
  22731061.39849 119452529.21949     -7894.79349        48.000  
  18543892.84449  97448813.99249      7811.34449        49.000  
 16 04 02 12 28 27.0000000  0  2G21G16                                          
  22731211.64149 119453318.71949     -7895.32049        48.000  
  18543744.23449  97448033.05549      7807.37949        49.000  
 16 04 02 12 28 27.1000000  0  2G21G16                                          
  22731361.87549 119454108.22749     -7895.31649        48.000  
  18543595.69549  97447252.48049      7803.86749        49.000  
 16 04 02 12 28 27.2000000  0  2G21G16                                          
  22731512.12549 119454897.77349     -7895.64849        48.000  
  18543447.23449  97446472.30549      7799.96149        49.000  
 16 04 02 12 28 27.3000000  0  2G21G16                                          
  22731662.37549 119455687.33649     -7895.98449        48.000  
  18543298.84449  97445692.49249      7796.20749        49.000  
 16 04 02 12 28 27.4000000  0  2G21G16                                          
  22731812.64149 119456476.97749     -7896.33649        48.000  
  18543150.53149  97444913.10949      7792.25049        49.000  
 16 04 02 12 28 27.5000000  0  2G21G16                                          
  22731962.91449 119457266.64549     -7896.89849        48.000  
  18543002.28949  97444134.10549      7788.15649        49.000  
 16 04 02 12 28 27.6000000  0  2G21G16                                          
  22732113.18849 119458056.35949     -7897.41849        48.000  
  18542854.12549  97443355.50049      7784.16849        49.000  
 16 04 02 12 28 27.7000000  0  2G21G16                                          
  22732263.47749 119458846.11749     -7897.71149        48.000  
  18542706.03949  97442577.28949      7780.28549        49.000  
 16 04 02 12 28 27.8000000  0  2G21G16                                          
  22732413.77349 119459635.93049     -7898.55949        48.000  
  18542558.02349  97441799.48449      7776.00849        49.000  
 16 04 02 12 28 27.9000000  0  2G21G16                                          
  22732564.08649 119460425.81249     -7899.21549        48.000  
  18542410.09449  97441022.10949      7771.76649        49.000  
 16 04 02 12 28 28.0000000  0  2G21G16                                          
  22732714.39849 119461215.70349     -7898.98849        48.000  
  18542262.23449  97440245.08649      7768.46949        49.000  
 16 04 02 12 28 28.1000000  0  2G21G16                                          
  22732864.71149 119462005.59849     -7899.07449        48.000  
  18542114.43849  97439468.42249      7764.80549        49.000  
 16 04 02 12 28 28.2000000  0  2G21G16                                          
  22733015.03149 119462795.55149     -7899.77749        48.000  
  18541966.72749  97438692.18449      7760.53549        49.000  
 16 04 02 12 28 28.3000000  0  2G21G16                                          
  22733165.37549 119463585.58649     -7900.44549        48.000  
  18541819.08649  97437916.35549      7756.41049        49.000  
 16 04 02 12 28 28.4000000  0  2G21G16                                          
  22733315.71949 119464375.65249     -7900.79749        48.000  
  18541671.53149  97437140.92249      7752.43449        49.000  
 16 04 02 12 28 28.5000000  0  2G21G16                                          
  22733466.06249 119465165.71949     -7900.81649        48.000  
  18541524.03949  97436365.84449      7748.87149        49.000  
 16 04 02 12 28 28.6000000  0  2G21G16                                          
  22733616.43049 119465955.90649     -7902.27749        48.000  
  18541376.63349  97435591.22749      7744.22349        49.000  
 16 04 02 12 28 28.7000000  0  2G21G16                                          
  22733766.81249 119466746.14149     -7902.62549        48.000  
  18541229.30549  97434817.02749      7740.14149        49.000  
 16 04 02 12 28 28.8000000  0  2G21G16                                          
  22733917.20349 119467536.44149     -7903.26249        48.000  
  18541082.05549  97434043.22349      7735.99249        49.000  
 16 04 02 12 28 28.9000000  0  2G21G16                                          
  22734067.58649 119468326.73049     -7903.36749        48.000  
  18540934.87549  97433269.78549      7732.44949        49.000  
 16 04 02 12 28 29.0000000  0  2G21G16                                          
  22734217.98449 119469117.07049     -7903.51649        48.000  
  18540787.77349  97432496.73849      7728.64549        49.000  
 16 04 02 12 28 29.1000000  0  2G21G16                                          
  22734368.39849 119469907.50849     -7904.44549        48.000  
  18540640.75049  97431724.13749      7724.24649        49.000  
 16 04 02 12 28 29.2000000  0  2G21G16                                          
  22734518.82049 119470697.94549     -7904.66049        48.000  
  18540493.79749  97430951.90249      7720.34449        49.000  
 16 04 02 12 28 29.3000000  0  2G21G16                                          
  22734669.24249 119471488.41849     -7904.93449        48.000  
  18540346.92249  97430180.05949      7716.57049        49.000  
 16 04 02 12 28 29.4000000  0  2G21G16                                          
  22734819.67249 119472278.94149     -7905.35949        48.000  
  18540200.11749  97429408.59449      7712.78949        49.000  
 16 04 02 12 28 29.5000000  0  2G21G16                                          
  22734970.11749 119473069.52749     -7906.10549        48.000  
  18540053.39149  97428637.55549      7708.46949        49.000  
 16 04 02 12 28 29.6000000  0  2G21G16                                          
  22735120.57049 119473860.16449     -7906.72749        48.000  
  18539906.74249  97427866.92249      7704.30949        49.000  
 16 04 02 12 28 29.7000000  0  2G21G16                                          
  22735271.02349 119474650.81649     -7906.84849        48.000  
  18539760.17249  97427096.65649      7700.71949        49.000  
 16 04 02 12 28 29.8000000  0  2G21G16                                          
  22735421.50049 119475441.53949     -7907.57449        48.000  
  18539613.67249  97426326.81649      7696.49249        49.000  
 16 04 02 12 28 29.9000000  0  2G21G16                                          
  22735571.98449 119476232.34849     -7908.30149        48.000  
  18539467.26649  97425557.41849      7692.04349        49.000  
 16 04 02 12 28 30.0000000  0  2G21G16                                          
  22735722.46949 119477023.16849     -7908.50849        48.000  
  18539320.92249  97424788.38749      7688.36349        49.000  
 16 04 02 12 28 30.1000000  0  2G21G16                                          
  22735872.96149 119477813.98849     -7908.30149        48.000  
  18539174.64849  97424019.69949      7685.05549        49.000  
 16 04 02 12 28 30.2000000  0  2G21G16                                          
  22736023.46949 119478604.91449     -7909.48049        48.000  
  18539028.46149  97423251.47749      7680.35949        49.000  
 16 04 02 12 28 30.3000000  0  2G21G16                                          
  22736173.97749 119479395.84449     -7909.54749        48.000  
  18538882.33649  97422483.59849      7676.82849        49.000  
 16 04 02 12 28 30.4000000  0  2G21G16                                          
  22736324.50849 119480186.88349     -7910.74649        48.000  
  18538736.30549  97421716.19949      7671.96949        49.000  
 16 04 02 12 28 30.5000000  0  2G21G16                                          
  22736475.04749 119480977.94549     -7910.91849        48.000  
  18538590.34449  97420949.16849      7668.22349        49.000  
 16 04 02 12 28 30.6000000  0  2G21G16                                          
  22736625.58649 119481769.07049     -7911.69549        48.000  
  18538444.46149  97420182.55149      7664.20749        49.000  
 16 04 02 12 28 30.7000000  0  2G21G16                                          
  22736776.14149 119482560.21949     -7911.55949        48.000  
  18538298.65649  97419416.31649      7660.61749        49.000  
 16 04 02 12 28 30.8000000  0  2G21G16                                          
  22736926.69549 119483351.38349     -7911.81649        48.000  
  18538152.91449  97418650.45349      7656.73849        49.000  
 16 04 02 12 28 30.9000000  0  2G21G16                                          
  22737077.26649 119484142.62949     -7912.76649        48.000  
  18538007.25049  97417885.01649      7652.36749        49.000  
 16 04 02 12 28 31.0000000  0  2G21G16                                          
  22737227.85249 119484933.94149     -7913.30149        48.000  
  18537861.68049  97417120.00449      7648.23849        49.000  
 16 04 02 12 28 31.1000000  0  2G21G16                                          
  22737378.44549 119485725.30949     -7913.80549        48.000  
  18537716.18049  97416355.39849      7644.18049        49.000  
 16 04 02 12 28 31.2000000  0  2G21G16                                          
  22737529.02349 119486516.63749     -7913.57049        48.000  
  18537570.74249  97415591.11349      7640.91849        49.000  
 16 04 02 12 28 31.3000000  0  2G21G16                                          
  22737679.62549 119487308.03549     -7913.96949        48.000  
  18537425.37549  97414827.23449      7637.03149        49.000  
 16 04 02 12 28 31.4000000  0  2G21G16                                          
  22737830.22749 119488099.45349     -7914.60249        48.000  
  18537280.08649  97414063.73849      7632.93849        49.000  
 16 04 02 12 28 31.5000000  0  2G21G16                                          
  22737980.82849 119488890.87149     -7914.40649        48.000  
  18537134.86749  97413300.60949      7629.47749        49.000  
 16 04 02 12 28 31.6000000  0  2G21G16                                          
  22738131.45349 119489682.38749     -7915.40649        48.000  
  18536989.73449  97412537.92249      7624.90649        49.000  
 16 04 02 12 28 31.7000000  0  2G21G16                                          
  22738282.08649 119490473.96549     -7916.00449        48.000  
  18536844.68049  97411775.63749      7620.89849        49.000  
 16 04 02 12 28 31.8000000  0  2G21G16                                          
  22738432.71949 119491265.53949     -7915.73449        48.000  
  18536699.68849  97411013.71549      7617.39849        49.000  
 16 04 02 12 28 31.9000000  0  2G21G16                                          
  22738583.35249 119492057.14549     -7916.43449        48.000  
  18536554.77349  97410252.18449      7613.29749        49.000  
 16 04 02 12 28 32.0000000  0  2G21G16                                          
  22738734.00849 119492848.84049     -7917.14849        48.000  
  18536409.93849  97409491.09049      7609.05549        49.000  
 16 04 02 12 28 32.1000000  0  2G21G16                                          
  22738884.66449 119493640.55549     -7917.30549        48.000  
  18536265.18049  97408730.35949      7605.30549        49.000  
 16 04 02 12 28 32.2000000  0  2G21G16                                          
  22739035.32049 119494432.25049     -7917.11349        48.000  
  18536120.48449  97407969.97349      7602.00049        49.000  
 16 04 02 12 28 32.3000000  0  2G21G16                                          
  22739185.98449 119495224.00049     -7917.57049        48.000  
  18535975.86749  97407209.99649      7598.09449        49.000  
 16 04 02 12 28 32.4000000  0  2G21G16                                          
  22739336.67249 119496015.85949     -7919.04749        48.000  
  18535831.32849  97406450.47749      7593.21149        49.000  
 16 04 02 12 28 32.5000000  0  2G21G16                                          
  22739487.37549 119496807.79749     -7919.65249        48.000  
  18535686.88349  97405691.40249      7588.77749        49.000  
 16 04 02 12 28 32.6000000  0  2G21G16                                          
  22739638.07849 119497599.77749     -7920.23449        48.000  
  18535542.50849  97404932.70349      7584.86749        49.000  
 16 04 02 12 28 32.7000000  0  2G21G16                                          
  22739788.79749 119498391.79349     -7920.46549        48.000  
  18535398.20349  97404174.40249      7581.03549        49.000  
 16 04 02 12 28 32.8000000  0  2G21G16                                          
  22739939.51649 119499183.80949     -7920.57849        48.000  
  18535253.97749  97403416.46549      7577.32849        49.000  
 16 04 02 12 28 32.9000000  0  2G21G16                                          
  22740090.24249 119499975.87949     -7920.78549        48.000  
  18535109.82049  97402658.92249      7573.67649        49.000  
 16 04 02 12 28 33.0000000  0  2G21G16                                          
  22740240.98449 119500768.02049     -7921.79349        48.000  
  18534965.75049  97401901.81649      7569.07849        49.000  
 16 04 02 12 28 33.1000000  0  2G21G16                                          
  22740391.72749 119501560.18049     -7921.96949        48.000  
  18534821.75049  97401145.08649      7565.37149        49.000  
 16 04 02 12 28 33.2000000  0  2G21G16                                          
  22740542.48449 119502352.42649     -7922.84049        48.000  
  18534677.82849  97400388.78549      7561.02349        49.000  
 16 04 02 12 28 33.3000000  0  2G21G16                                          
  22740693.25849 119503144.72349     -7923.30549        48.000  
  18534533.98449  97399632.89149      7556.92649        49.000  
 16 04 02 12 28 33.4000000  0  2G21G16                                          
  22740844.03149 119503937.05949     -7923.34849        48.000  
  18534390.21949  97398877.38349      7553.25849        49.000  
 16 04 02 12 28 33.5000000  0  2G21G16                                          
  22740994.79749 119504729.34449     -7923.14149        48.000  
  18534246.50849  97398122.20749      7549.93849        49.000  
 16 04 02 12 28 33.6000000  0  2G21G16                                          
  22741145.58649 119505521.73049     -7924.00849        48.000  
  18534102.89149  97397367.46149      7545.66449        49.000  
 16 04 02 12 28 33.7000000  0  2G21G16                                          
  22741296.39149 119506314.19949     -7925.05549        48.000  
  18533959.35249  97396613.15249      7541.06649        49.000  
 16 04 02 12 28 33.8000000  0  2G21G16                                          
  22741447.19549 119507106.71149     -7925.52049        48.000  
  18533815.89149  97395859.25049      7537.06249        49.000  
 16 04 02 12 28 33.9000000  0  2G21G16                                          
  22741598.01649 119507899.24649     -7925.37949        48.000  
  18533672.50049  97395105.73449      7533.32449        49.000  
 16 04 02 12 28 34.0000000  0  2G21G16                                          
  22741748.82849 119508691.79749     -7925.58249        48.000  
  18533529.18049  97394352.56249      7529.80549        49.000  
 16 04 02 12 28 34.1000000  0  2G21G16                                          
  22741899.65649 119509484.36749     -7926.06649        48.000  
  18533385.93049  97393599.77749      7525.88349        49.000  
 16 04 02 12 28 34.2000000  0  2G21G16                                          
  22742050.48449 119510276.98049     -7926.34449        48.000  
  18533242.75049  97392847.39549      7521.96549        49.000  
 16 04 02 12 28 34.3000000  0  2G21G16                                          
  22742201.33649 119511069.68849     -7927.48049        48.000  
  18533099.66449  97392095.45349      7517.44149        49.000  
 16 04 02 12 28 34.4000000  0  2G21G16                                          
  22742352.18849 119511862.41449     -7927.48049        48.000  
  18532956.64849  97391343.89549      7513.67249        49.000  
 16 04 02 12 28 34.5000000  0  2G21G16                                          
  22742503.03949 119512655.18049     -7927.87149        48.000  
  18532813.70349  97390592.71549      7509.90649        49.000  
 16 04 02 12 28 34.6000000  0  2G21G16                                          
  22742653.89849 119513447.94149     -7927.72749        48.000  
  18532670.82849  97389841.90649      7506.33249        49.000  
 16 04 02 12 28 34.7000000  0  2G21G16                                          
  22742804.76649 119514240.74649     -7928.35949        48.000  
  18532528.02349  97389091.48449      7502.23849        49.000  
 16 04 02 12 28 34.8000000  0  2G21G16                                          
  22742955.66449 119515033.70349     -7929.61349        48.000  
  18532385.32049  97388341.55949      7497.43049        49.000  
 16 04 02 12 28 34.9000000  0  2G21G16                                          
  22743106.55549 119515826.63349     -7929.80149        48.000  
  18532242.68049  97387591.97749      7493.74249        49.000  
 16 04 02 12 28 35.0000000  0  2G21G16                                          
  22743257.46149 119516619.66049     -7930.44949        48.000  
  18532100.12549  97386842.83649      7489.46949        49.000  
 16 04 02 12 28 35.1000000  0  2G21G16                                          
  22743408.37549 119517412.73849     -7931.00449        48.000  
  18531957.64849  97386094.11349      7485.16049        49.000  
 16 04 02 12 28 35.2000000  0  2G21G16                                          
  22743559.29749 119518205.83249     -7931.08649        48.000  
  18531815.23449  97385345.73449      7482.03149        49.000  
 16 04 02 12 28 35.3000000  0  2G21G16                                          
  22743710.23449 119518998.97349     -7931.72749        48.000  
  18531672.90649  97384597.78949      7477.62949        49.000  
 16 04 02 12 28 35.4000000  0  2G21G16                                          
  22743861.17249 119519792.17649     -7932.28549        48.000  
  18531530.64849  97383850.25449      7473.41449        49.000  
 16 04 02 12 28 35.5000000  0  2G21G16                                          
  22744012.13349 119520585.44949     -7932.94949        48.000  
  18531388.47749  97383103.13349      7469.28149        49.000  
 16 04 02 12 28 35.6000000  0  2G21G16                                          
  22744163.07849 119521378.66049     -7932.08249        48.000  
  18531246.36749  97382356.32449      7466.32049        49.000  
 16 04 02 12 28 35.7000000  0  2G21G16                                          
  22744314.03149 119522171.95349     -7933.01249        48.000  
  18531104.32849  97381609.91849      7462.08249        49.000  
 16 04 02 12 28 35.8000000  0  2G21G16                                          
  22744464.99249 119522965.24249     -7932.98049        48.000  
  18530962.36749  97380863.89549      7458.46149        49.000  
 16 04 02 12 28 35.9000000  0  2G21G16                                          
  22744615.96949 119523758.62549     -7934.14149        48.000  
  18530820.49249  97380118.29749      7453.99249        49.000  
 16 04 02 12 28 36.0000000  0  2G21G16                                          
  22744766.95349 119524552.04349     -7934.50049        48.000  
  18530678.68049  97379373.11349      7449.83649        49.000  
 16 04 02 12 28 36.1000000  0  2G21G16                                          
  22744917.95349 119525345.57449     -7935.77749        48.000  
  18530536.96949  97378628.38749      7445.19549        49.000  
 16 04 02 12 28 36.2000000  0  2G21G16                                          
  22745068.96149 119526139.10549     -7935.63349        48.000  
  18530395.31249  97377884.01649      7441.69149        49.000  
 16 04 02 12 28 36.3000000  0  2G21G16                                          
  22745219.96949 119526932.67249     -7936.04349        48.000  
  18530253.74249  97377140.03549      7437.78149        49.000  
 16 04 02 12 28 36.4000000  0  2G21G16                                          
  22745370.98449 119527726.26249     -7936.02049        48.000  
  18530112.23449  97376396.42249      7434.25449        49.000  
 16 04 02 12 28 36.5000000  0  2G21G16                                          
  22745522.02349 119528519.95349     -7937.26249        48.000  
  18529970.82049  97375653.27749      7429.48049        49.000  
 16 04 02 12 28 36.6000000  0  2G21G16                                          
  22745673.06249 119529313.67649     -7937.55549        48.000  
  18529829.47749  97374910.52049      7425.58649        49.000  
 16 04 02 12 28 36.7000000  0  2G21G16                                          
  22745824.11749 119530107.45349     -7938.12149        48.000  
  18529688.21149  97374168.17249      7421.51649        49.000  
 16 04 02 12 28 36.8000000  0  2G21G16                                          
  22745975.18049 119530901.29349     -7938.58249        48.000  
  18529547.02349  97373426.22749      7417.55549        49.000  
 16 04 02 12 28 36.9000000  0  2G21G16                                          
  22746126.23449 119531695.09049     -7938.28149        48.000  
  18529405.89849  97372684.62149      7414.20349        49.000  
 16 04 02 12 28 37.0000000  0  2G21G16                                          
  22746277.30549 119532488.96949     -7938.85949        48.000  
  18529264.85949  97371943.43449      7410.17249        49.000  
 16 04 02 12 28 37.1000000  0  2G21G16                                          
  22746428.39149 119533282.89549     -7939.46149        48.000  
  18529123.89149  97371202.65649      7406.00049        49.000  
 16 04 02 12 28 37.2000000  0  2G21G16                                          
  22746579.46149 119534076.80949     -7939.30149        48.000  
  18528982.99249  97370462.23849      7402.39549        49.000  
 16 04 02 12 28 37.3000000  0  2G21G16                                          
  22746730.54749 119534870.74649     -7939.51649        48.000  
  18528842.16449  97369722.16849      7398.78549        49.000  
 16 04 02 12 28 37.4000000  0  2G21G16                                          
  22746881.64149 119535664.75449     -7940.42249        48.000  
  18528701.41449  97368982.54749      7394.36349        49.000  
 16 04 02 12 28 37.5000000  0  2G21G16                                          
  22747032.75049 119536458.79749     -7940.60249        48.000  
  18528560.74249  97368243.28149      7390.66449        49.000  
 16 04 02 12 28 37.6000000  0  2G21G16                                          
  22747183.85949 119537252.91449     -7941.29349        48.000  
  18528420.15649  97367504.49249      7386.02349        49.000  
 16 04 02 12 28 37.7000000  0  2G21G16                                          
  22747334.98449 119538047.06649     -7941.68849        48.000  
  18528279.64149  97366766.06249      7382.27749        49.000  
 16 04 02 12 28 37.8000000  0  2G21G16                                          
  22747486.12549 119538841.30949     -7942.80549        48.000  
  18528139.21149  97366028.10249      7377.59849        49.000  
 16 04 02 12 28 37.9000000  0  2G21G16                                          
  22747637.27349 119539635.58649     -7942.99249        48.000  
  18527998.84449  97365290.50449      7374.02749        49.000  
 16 04 02 12 28 38.0000000  0  2G21G16                                          
  22747788.42249 119540429.89149     -7943.35549        48.000  
  18527858.55549  97364553.30549      7370.10249        49.000  
 16 04 02 12 28 38.1000000  0  2G21G16                                          
  22747939.57849 119541224.20349     -7943.25049        48.000  
  18527718.34449  97363816.48849      7366.35949        49.000  
 16 04 02 12 28 38.2000000  0  2G21G16                                          
  22748090.75049 119542018.60249     -7944.28949        48.000  
  18527578.21149  97363080.07849      7362.03949        49.000  
 16 04 02 12 28 38.3000000  0  2G21G16                                          
  22748241.93849 119542813.08649     -7945.18049        48.000  
  18527438.17249  97362344.14149      7357.32449        50.000  
 16 04 02 12 28 38.4000000  0  2G21G16                                          
  22748393.13349 119543607.60949     -7945.51649        48.000  
  18527298.19549  97361608.57449      7353.53949        49.000  
 16 04 02 12 28 38.5000000  0  2G21G16                                          
  22748544.32849 119544402.15249     -7945.75849        48.000  
  18527158.29749  97360873.38749      7349.97749        49.000  
 16 04 02 12 28 38.6000000  0  2G21G16                                          
  22748695.53949 119545196.77049     -7946.39549        48.000  
  18527018.47749  97360138.64549      7345.55949        49.000  
 16 04 02 12 28 38.7000000  0  2G21G16                                          
  22748846.75849 119545991.40649     -7946.43849        48.000  
  18526878.73449  97359404.28149      7341.71949        49.000  
 16 04 02 12 28 38.8000000  0  2G21G16                                          
  22748997.99249 119546786.16049     -7947.75849        48.000  
  18526739.07049  97358670.35949      7337.25449        49.000  
 16 04 02 12 28 38.9000000  0  2G21G16                                          
  22749149.23449 119547580.92649     -7948.07449        48.000  
  18526599.48449  97357936.84049      7333.19549        50.000  
 16 04 02 12 28 39.0000000  0  2G21G16                                          
  22749300.48449 119548375.73449     -7948.31649        48.000  
  18526459.97749  97357203.69149      7329.52049        50.000  
 16 04 02 12 28 39.1000000  0  2G21G16                                          
  22749451.72749 119549170.53949     -7948.36349        48.000  
  18526320.53149  97356470.91449      7325.84049        49.000  
 16 04 02 12 28 39.2000000  0  2G21G16                                          
  22749602.98449 119549965.39149     -7948.50449        48.000  
  18526181.16449  97355738.52349      7322.22349        49.000  
 16 04 02 12 28 39.3000000  0  2G21G16                                          
  22749754.24249 119550760.25849     -7949.22749        48.000  
  18526041.86749  97355006.52349      7317.97349        49.000  
 16 04 02 12 28 39.4000000  0  2G21G16                                          
  22749905.52349 119551555.24249     -7950.22349        48.000  
  18525902.66449  97354274.98049      7313.43849        50.000  
 16 04 02 12 28 39.5000000  0  2G21G16                                          
  22750056.80549 119552350.24249     -7950.32049        48.000  
  18525763.53149  97353543.82849      7309.57049        50.000  
 16 04 02 12 28 39.6000000  0  2G21G16                                          
  22750208.09449 119553145.26649     -7950.51249        48.000  
  18525624.46949  97352813.05149      7305.82449        50.000  
 16 04 02 12 28 39.7000000  0  2G21G16                                          
  22750359.39849 119553940.38349     -7951.37549        48.000  
  18525485.49249  97352082.71949      7301.35549        50.000  
 16 04 02 12 28 39.8000000  0  2G21G16                                          
  22750510.71149 119554735.52349     -7951.64849        48.000  
  18525346.58649  97351352.75849      7297.69549        50.000  
 16 04 02 12 28 39.9000000  0  2G21G16                                          
  22750662.03149 119555530.71149     -7952.28949        48.000  
  18525207.75849  97350623.20349      7293.60549        50.000  
 16 04 02 12 28 40.0000000  0  2G21G16                                          
  22750813.36749 119556325.97749     -7953.04749        48.000  
  18525069.00849  97349894.09449      7289.14149        50.000  
 16 04 02 12 28 40.1000000  0  2G21G16                                          
  22750964.71149 119557121.27349     -7953.20349        48.000  
  18524930.33649  97349165.37149      7285.25049        50.000  
 16 04 02 12 28 40.2000000  0  2G21G16                                          
  22751116.05549 119557916.58649     -7953.35949        48.000  
  18524791.74249  97348437.02349      7281.57449        50.000  
 16 04 02 12 28 40.3000000  0  2G21G16                                          
  22751267.41449 119558711.94149     -7953.43049        48.000  
  18524653.21149  97347709.05949      7277.87949        50.000  
 16 04 02 12 28 40.4000000  0  2G21G16                                          
  22751418.78149 119559507.38349     -7954.62549        48.000  
  18524514.77349  97346981.54349      7273.25449        50.000  
 16 04 02 12 28 40.5000000  0  2G21G16                                          
  22751570.14149 119560302.79749     -7954.41049        48.000  
  18524376.39149  97346254.35249      7269.99249        50.000  
 16 04 02 12 28 40.6000000  0  2G21G16                                          
  22751721.51649 119561098.27049     -7954.87549        48.000  
  18524238.09449  97345527.60549      7265.68849        50.000  
 16 04 02 12 28 40.7000000  0  2G21G16                                          
  22751872.89849 119561893.77049     -7955.22749        48.000  
  18524099.86749  97344801.20349      7262.17649        50.000  
 16 04 02 12 28 40.8000000  0  2G21G16                                          
  22752024.28949 119562689.35549     -7956.19949        48.000  
  18523961.72749  97344075.27349      7257.33249        50.000  
 16 04 02 12 28 40.9000000  0  2G21G16                                          
  22752175.69549 119563484.99249     -7956.78549        48.000  
  18523823.65649  97343349.72749      7253.44949        50.000  
 16 04 02 12 28 41.0000000  0  2G21G16                                          
  22752327.11749 119564280.71149     -7957.55949        48.000  
  18523685.68049  97342624.64849      7248.81649        50.000  
 16 04 02 12 28 41.1000000  0  2G21G16                                          
  22752478.53949 119565076.45749     -7957.79349        48.000  
  18523547.77349  97341899.93449      7245.10549        50.000  
 16 04 02 12 28 41.2000000  0  2G21G16                                          
  22752629.96949 119565872.20749     -7957.55949        48.000  
  18523409.93049  97341175.59449      7241.65249        50.000  
 16 04 02 12 28 41.3000000  0  2G21G16                                          
  22752781.41449 119566668.03949     -7958.43049        48.000  
  18523272.17249  97340451.68049      7237.34849        50.000  
 16 04 02 12 28 41.4000000  0  2G21G16                                          
  22752932.85949 119567463.87949     -7958.61749        48.000  
  18523134.48449  97339728.12549      7233.58249        50.000  
 16 04 02 12 28 41.5000000  0  2G21G16                                          
  22753084.31249 119568259.78549     -7959.24649        48.000  
  18522996.88349  97339005.01249      7229.34049        50.000  
 16 04 02 12 28 41.6000000  0  2G21G16                                          
  22753235.77349 119569055.71149     -7959.49649        48.000  
  18522859.35249  97338282.27349      7225.48449        50.000  
 16 04 02 12 28 41.7000000  0  2G21G16                                          
  22753387.25849 119569851.73849     -7960.43449        48.000  
  18522721.89849  97337559.97749      7221.08249        50.000  
 16 04 02 12 28 41.8000000  0  2G21G16                                          
  22753538.73449 119570647.76649     -7960.53149        48.000  
  18522584.52349  97336838.04349      7217.45749        50.000  
 16 04 02 12 28 41.9000000  0  2G21G16                                          
  22753690.22749 119571443.85549     -7961.11749        48.000  
  18522447.22749  97336116.53549      7213.18049        50.000  
 16 04 02 12 28 42.0000000  0  2G21G16                                          
  22753841.72749 119572240.00849     -7961.71149        48.000  
  18522310.00849  97335395.44549      7208.91449        50.000  
 16 04 02 12 28 42.1000000  0  2G21G16                                          
  22753993.25049 119573036.22349     -7962.60549        48.000  
  18522172.86749  97334674.77749      7204.63349        50.000  
 16 04 02 12 28 42.2000000  0  2G21G16                                          
  22754144.78149 119573832.51249     -7962.87149        48.000  
  18522035.80549  97333954.53149      7200.66449        50.000  
 16 04 02 12 28 42.3000000  0  2G21G16                                          
  22754296.31249 119574628.81649     -7963.21149        48.000  
  18521898.82049  97333234.66849      7196.74649        50.000  
 16 04 02 12 28 42.4000000  0  2G21G16                                          
  22754447.83649 119575425.07449     -7962.85549        48.000  
  18521761.89849  97332515.11349      7193.57049        50.000  
 16 04 02 12 28 42.5000000  0  2G21G16                                          
  22754599.38349 119576221.45749     -7964.04749        48.000  
  18521625.06249  97331796.04349      7188.75049        50.000  
 16 04 02 12 28 42.6000000  0  2G21G16                                          
  22754750.93849 119577017.88749     -7964.39149        48.000  
  18521488.30549  97331077.36749      7184.86749        49.000  
 16 04 02 12 28 42.7000000  0  2G21G16                                          
  22754902.50849 119577814.35249     -7964.89549        48.000  
  18521351.61749  97330359.09049      7180.77749        49.000  
 16 04 02 12 28 42.8000000  0  2G21G16                                          
  22755054.07849 119578610.88349     -7965.54749        48.000  
  18521215.01649  97329641.24249      7176.59049        50.000  
 16 04 02 12 28 42.9000000  0  2G21G16                                          
  22755205.65649 119579407.40649     -7965.56249        48.000  
  18521078.47749  97328923.73849      7173.05949        49.000  
 16 04 02 12 28 43.0000000  0  2G21G16                                          
  22755357.24249 119580203.99649     -7966.20749        48.000  
  18520942.02349  97328206.65649      7168.89149        49.000  
 16 04 02 12 28 43.1000000  0  2G21G16                                          
  22755508.83649 119581000.62549     -7966.57849        48.000  
  18520805.64849  97327489.98449      7164.82449        49.000  
 16 04 02 12 28 43.2000000  0  2G21G16                                          
  22755660.43849 119581797.29349     -7966.96949        48.000  
  18520669.34449  97326773.69549      7160.92649        50.000  
 16 04 02 12 28 43.3000000  0  2G21G16                                          
  22755812.04749 119582593.98849     -7967.15249        48.000  
  18520533.10949  97326057.79349      7157.17249        49.000  
 16 04 02 12 28 43.4000000  0  2G21G16                                          
  22755963.65649 119583390.69149     -7967.34849        48.000  
  18520396.95349  97325342.25449      7153.33249        49.000  
 16 04 02 12 28 43.5000000  0  2G21G16                                          
  22756115.28949 119584187.54749     -7968.64849        48.000  
  18520260.89149  97324627.23049      7148.35949        49.000  
 16 04 02 12 28 43.6000000  0  2G21G16                                          
  22756266.93049 119584984.40649     -7969.11349        48.000  
  18520124.89149  97323912.57049      7144.45349        49.000  
 16 04 02 12 28 43.7000000  0  2G21G16                                          
  22756418.57849 119585781.32049     -7969.61349        48.000  
  18519988.97749  97323198.32049      7140.43849        49.000  
 16 04 02 12 28 43.8000000  0  2G21G16                                          
  22756570.23449 119586578.29349     -7969.85249        48.000  
  18519853.13349  97322484.48449      7136.52349        49.000  
 16 04 02 12 28 43.9000000  0  2G21G16                                          
  22756721.89849 119587375.28149     -7970.14849        48.000  
  18519717.36749  97321771.02749      7132.69549        49.000  
 16 04 02 12 28 44.0000000  0  2G21G16                                          
  22756873.56249 119588172.28949     -7970.18849        48.000  
  18519581.67249  97321057.94149      7129.02049        49.000  
 16 04 02 12 28 44.1000000  0  2G21G16                                          
  22757025.23449 119588969.34449     -7970.73449        48.000  
  18519446.05549  97320345.26649      7124.87949        49.000  
 16 04 02 12 28 44.2000000  0  2G21G16                                          
  22757176.92249 119589766.46549     -7971.62549        48.000  
  18519310.51649  97319633.00849      7120.55549        49.000  
 16 04 02 12 28 44.3000000  0  2G21G16                                          
  22757328.62549 119590563.66049     -7972.22349        48.000  
  18519175.06249  97318921.18849      7116.28949        49.000  
 16 04 02 12 28 44.4000000  0  2G21G16                                          
  22757480.32849 119591360.87549     -7972.46149        48.000  
  18519039.68049  97318209.75449      7112.35949        49.000  
 16 04 02 12 28 44.5000000  0  2G21G16                                          
  22757632.04749 119592158.16049     -7972.81649        48.000  
  18518904.37549  97317498.72749      7108.45749        49.000  
 16 04 02 12 28 44.6000000  0  2G21G16                                          
  22757783.77349 119592955.46549     -7973.29749        48.000  
  18518769.14149  97316788.08649      7104.46149        49.000  
 16 04 02 12 28 44.7000000  0  2G21G16                                          
  22757935.49249 119593752.76249     -7973.15249        48.000  
  18518633.97749  97316077.78549      7101.16049        49.000  
 16 04 02 12 28 44.8000000  0  2G21G16                                          
  22758087.21949 119594550.09049     -7973.55949        48.000  
  18518498.89149  97315367.89849      7097.01249        49.000  
 16 04 02 12 28 44.9000000  0  2G21G16                                          
  22758238.96149 119595347.46949     -7974.02049        48.000  
  18518363.87549  97314658.41449      7092.91049        49.000  
 16 04 02 12 28 45.0000000  0  2G21G16                                          
  22758390.69549 119596144.85949     -7974.12949        48.000  
  18518228.93849  97313949.29349      7089.26249        49.000  
 16 04 02 12 28 45.1000000  0  1G16                                             
  18518094.08649  97313240.62149      7084.76249        49.000  
 16 04 02 12 28 45.2000000  0  1G16                                             
  18517959.30549  97312532.37149      7080.49649        49.000  
 16 04 02 12 28 45.3000000  0  1G16                                             
  18517824.60249  97311824.51249      7076.70749        49.000  
 16 04 02 12 28 45.4000000  0  1G16                                             
  18517689.98449  97311117.10249      7072.07449        49.000  
 16 04 02 12 28 45.5000000  0  1G16                                             
  18517555.43849  97310410.05949      7068.55949        49.000  
 16 04 02 12 28 45.6000000  0  1G16                                             
  18517420.96949  97309703.39149      7064.83249        49.000  
 16 04 02 12 28 45.7000000  0  1G16                                             
  18517286.57849  97308997.17649      7060.27049        49.000  
 16 04 02 12 28 45.8000000  0  1G16                                             
  18517152.25849  97308291.31649      7056.78149        49.000  
 16 04 02 12 28 45.9000000  0  1G16                                             
  18517018.00849  97307585.85549      7052.66449        49.000  
 16 04 02 12 28 46.0000000  0  1G16                                             
  18516883.83649  97306880.78549      7048.81649        49.000  
 16 04 02 12 28 46.1000000  0  1G16                                             
  18516749.72749  97306176.03549      7045.58249        49.000  
 16 04 02 12 28 46.2000000  0  1G16                                             
  18516615.70349  97305471.75049      7041.09849        49.000  
 16 04 02 12 28 46.3000000  0  1G16                                             
  18516481.75049  97304767.82849      7037.34449        49.000  
 16 04 02 12 28 46.4000000  0  1G16                                             
  18516347.88349  97304064.34449      7032.94149        49.000  
 16 04 02 12 28 46.5000000  0  1G16                                             
  18516214.09449  97303361.27049      7028.74249        49.000  
 16 04 02 12 28 46.6000000  0  1G16                                             
  18516080.38349  97302658.59449      7024.93449        49.000  
 16 04 02 12 28 46.7000000  0  1G16                                             
  18515946.74249  97301956.32049      7020.80149        49.000  
 16 04 02 12 28 46.8000000  0  1G16                                             
  18515813.18049  97301254.45749      7016.73049        49.000  
 16 04 02 12 28 46.9000000  0  1G16                                             
  18515679.68049  97300552.90649      7013.60249        49.000  
 16 04 02 12 28 47.0000000  0  1G16                                             
  18515546.27349  97299851.84049      7008.83249        49.000  
 16 04 02 12 28 47.1000000  0  1G16                                             
  18515412.93849  97299151.16449      7004.77049        49.000  
 16 04 02 12 28 47.2000000  0  1G16                                             
  18515279.68049  97298450.86349      7001.21149        49.000  
 16 04 02 12 28 47.3000000  0  1G16                                             
  18515146.48449  97297750.92249      6997.55549        49.000  
 16 04 02 12 28 47.4000000  0  1G16                                             
  18515013.37549  97297051.43049      6993.09049        49.000  
 16 04 02 12 28 47.5000000  0  1G16                                             
  18514880.34449  97296352.32449      6989.08249        49.000  
 16 04 02 12 28 47.6000000  0  1G16                                             
  18514747.38349  97295653.62549      6984.97349        49.000  
 16 04 02 12 28 47.7000000  0  1G16                                             
  18514614.51649  97294955.37949      6980.51649        49.000  
 16 04 02 12 28 47.8000000  0  1G16                                             
  18514481.70349  97294257.46149      6977.10549        49.000  
 16 04 02 12 28 47.9000000  0  1G16                                             
  18514348.99249  97293560.04349      6972.27749        49.000  
 16 04 02 12 28 48.0000000  0  1G16                                             
  18514216.35249  97292863.04349      6967.93049        49.000  
 16 04 02 12 28 48.1000000  0  1G16                                             
  18514083.78149  97292166.36749      6964.78149        49.000  
 16 04 02 12 28 48.2000000  0  1G16                                             
  18513951.27349  97291470.05149      6961.37149        49.000  
 16 04 02 12 28 48.3000000  0  1G16                                             
  18513818.85949  97290774.19149      6956.75449        49.000  
 16 04 02 12 28 48.4000000  0  1G16                                             
  18513686.51649  97290078.73049      6952.71149        49.000  
 16 04 02 12 28 48.5000000  0  1G16                                             
  18513554.25049  97289383.67249      6948.54749        49.000  
 16 04 02 12 28 48.6000000  0  1G16                                             
  18513422.07049  97288689.04349      6944.33249        49.000  
 16 04 02 12 28 48.7000000  0  1G16                                             
  18513289.96149  97287994.79349      6940.52349        49.000  
 16 04 02 12 28 48.8000000  0  1G16                                             
  18513157.93049  97287300.99649      6935.95349        49.000  
 16 04 02 12 28 48.9000000  0  1G16                                             
  18513025.96149  97286607.49249      6933.00049        49.000  
 16 04 02 12 28 49.0000000  0  1G16                                             
  18512894.10249  97285914.53949      6927.66449        49.000  
 16 04 02 12 28 49.1000000  0  1G16                                             
  18512762.31249  97285221.98849      6923.36349        49.000  
 16 04 02 12 28 49.2000000  0  1G16                                             
  18512630.59449  97284529.80949      6919.94549        49.000  
 16 04 02 12 28 49.3000000  0  1G16                                             
  18512498.94549  97283837.97349      6916.58649        49.000  
 16 04 02 12 28 49.4000000  0  1G16                                             
  18512367.35949  97283146.50049      6913.02049        49.000  
 16 04 02 12 28 49.5000000  0  1G16                                             
  18512235.85949  97282455.46149      6908.52749        49.000  
 16 04 02 12 28 49.6000000  0  1G16                                             
  18512104.44549  97281764.90249      6903.67249        49.000  
 16 04 02 12 28 49.7000000  0  1G16                                             
  18511973.10249  97281074.66849      6900.31649        49.000  
 16 04 02 12 28 49.8000000  0  1G16                                             
  18511841.82849  97280384.83649      6896.37949        49.000  
 16 04 02 12 28 49.9000000  0  1G16                                             
  18511710.63349  97279695.39849      6892.57849        49.000  
 16 04 02 12 28 50.0000000  0  1G16                                             
  18511579.50849  97279006.34449      6888.65249        49.000  
 16 04 02 12 28 50.1000000  0  1G16                                             
  18511448.46949  97278317.70349      6884.53949        49.000  
 16 04 02 12 28 50.2000000  0  1G16                                             
  18511317.50849  97277629.51249      6879.95749        49.000  
 16 04 02 12 28 50.3000000  0  1G16                                             
  18511186.61749  97276941.68849      6876.19549        49.000  
 16 04 02 12 28 50.4000000  0  1G16                                             
  18511055.81249  97276254.28549      6872.01649        49.000  
 16 04 02 12 28 50.5000000  0  1G16                                             
  18510925.07049  97275567.23449      6868.57849        49.000  
 16 04 02 12 28 50.6000000  0  1G16                                             
  18510794.41449  97274880.62949      6864.17649        49.000  
 16 04 02 12 28 50.7000000  0  1G16                                             
  18510663.83649  97274194.44949      6859.69949        49.000  
 16 04 02 12 28 50.8000000  0  1G16                                             
  18510533.32049  97273508.60249      6856.58249        49.000  
 16 04 02 12 28 50.9000000  0  1G16                                             
  18510402.90649  97272823.23849      6851.60949        49.000  
 16 04 02 12 28 51.0000000  0  1G16                                             
  18510272.57049  97272138.31249      6847.22349        49.000  
 16 04 02 12 28 51.1000000  0  1G16                                             
  18510142.28949  97271453.70749      6844.07449        49.000  
 16 04 02 12 28 51.2000000  0  1G16                                             
  18510012.10249  97270769.54349      6839.87549        49.000  
 16 04 02 12 28 51.3000000  0  1G16                                             
  18509881.98449  97270085.78149      6835.68049        49.000  
 16 04 02 12 28 51.4000000  0  1G16                                             
  18509751.94549  97269402.44549      6831.34449        49.000  
 16 04 02 12 28 51.5000000  0  1G16                                             
  18509621.99249  97268719.52349      6827.23849        49.000  
 16 04 02 12 28 51.6000000  0  1G16                                             
  18509492.10949  97268036.97749      6823.51249        49.000  
 16 04 02 12 28 51.7000000  0  1G16                                             
  18509362.31249  97267354.88749      6818.86349        49.000  
 16 04 02 12 28 51.8000000  0  1G16                                             
  18509232.59449  97266673.21949      6814.71149        49.000  
 16 04 02 12 28 51.9000000  0  1G16                                             
  18509102.94549  97265991.91049      6811.23049        49.000  
 16 04 02 12 28 52.0000000  0  1G16                                             
  18508973.37549  97265311.00449      6807.16049        49.000  
 16 04 02 12 28 52.1000000  0  1G16                                             
  18508843.87549  97264630.50449      6803.19549        49.000  
 16 04 02 12 28 52.2000000  0  1G16                                             
  18508714.46149  97263950.40649      6799.17649        49.000  
 16 04 02 12 28 52.3000000  0  1G16                                             
  18508585.10249  97263270.62149      6796.03549        49.000  
 16 04 02 12 28 52.4000000  0  1G16                                             
  18508455.82849  97262591.28149      6791.58249        49.000  
 16 04 02 12 28 52.5000000  0  1G16                                             
  18508326.63349  97261912.34449      6787.47349        49.000  
 16 04 02 12 28 52.6000000  0  1G16                                             
  18508197.50849  97261233.82049      6783.14549        49.000  
 16 04 02 12 28 52.7000000  0  1G16                                             
  18508068.47749  97260555.73449      6778.80549        49.000  
 16 04 02 12 28 52.8000000  0  1G16                                             
  18507939.52349  97259878.10549      6774.20749        49.000  
 16 04 02 12 28 52.9000000  0  1G16                                             
  18507810.64849  97259200.84849      6770.52349        49.000  
 16 04 02 12 28 53.0000000  0  1G16                                             
  18507681.85249  97258524.02349      6766.23849        49.000  
 16 04 02 12 28 53.1000000  0  1G16                                             
  18507553.12549  97257847.55549      6762.83249        49.000  
 16 04 02 12 28 53.2000000  0  1G16                                             
  18507424.46949  97257171.47749      6759.03549        49.000  
 16 04 02 12 28 53.3000000  0  1G16                                             
  18507295.88349  97256495.74649      6755.42249        49.000  
 16 04 02 12 28 53.4000000  0  1G16                                             
  18507167.37549  97255820.42649      6751.35949        49.000  
 16 04 02 12 28 53.5000000  0  1G16                                             
  18507038.94549  97255145.53549      6746.98849        49.000  
 16 04 02 12 28 53.6000000  0  1G16                                             
  18506910.59449  97254471.05549      6742.82449        49.000  
 16 04 02 12 28 53.7000000  0  1G16                                             
  18506782.32849  97253796.99249      6738.68849        49.000  
 16 04 02 12 28 53.8000000  0  1G16                                             
  18506654.12549  97253123.30149      6734.98049        49.000  
 16 04 02 12 28 53.9000000  0  1G16                                             
  18506526.00849  97252450.01649      6730.84849        49.000  
 16 04 02 12 28 54.0000000  0  1G16                                             
  18506397.98449  97251777.24249      6725.64549        49.000  
 16 04 02 12 28 54.1000000  0  1G16                                             
  18506270.02349  97251104.81649      6722.28549        49.000  
 16 04 02 12 28 54.2000000  0  1G16                                             
  18506142.12549  97250432.71949      6719.17649        49.000  
 16 04 02 12 28 54.3000000  0  1G16                                             
  18506014.31249  97249761.05149      6714.84049        49.000  
 16 04 02 12 28 54.4000000  0  1G16                                             
  18505886.58649  97249089.85549      6709.92649        49.000  
 16 04 02 12 28 54.5000000  0  1G16                                             
  18505758.93849  97248419.06249      6705.92649        49.000  
 16 04 02 12 28 54.6000000  0  1G16                                             
  18505631.35249  97247748.60949      6702.46149        49.000  
 16 04 02 12 28 54.7000000  0  1G16                                             
  18505503.87549  97247078.69549      6697.19949        49.000  
 16 04 02 12 28 54.8000000  0  1G16                                             
  18505376.45349  97246409.12149      6693.67249        49.000  
 16 04 02 12 28 54.9000000  0  1G16                                             
  18505249.10949  97245739.91049      6690.23849        49.000  
 16 04 02 12 28 55.0000000  0  1G16                                             
  18505121.84449  97245071.12949      6685.81649        49.000  
 16 04 02 12 28 55.1000000  0  1G16                                             
  18504994.65649  97244402.76249      6681.73849        49.000  
 16 04 02 12 28 55.2000000  0  1G16                                             
  18504867.54749  97243734.78149      6677.85249        49.000  
 16 04 02 12 28 55.3000000  0  1G16                                             
  18504740.50049  97243067.15249      6674.48049        49.000  
 16 04 02 12 28 55.4000000  0  1G16                                             
  18504613.52349  97242399.89149      6670.78949        49.000  
 16 04 02 12 28 55.5000000  0  1G16                                             
  18504486.63349  97241733.05149      6666.51649        49.000  
 16 04 02 12 28 55.6000000  0  1G16                                             
  18504359.82049  97241066.67249      6661.83249        49.000  
 16 04 02 12 28 55.7000000  0  1G16                                             
  18504233.10249  97240400.73849      6657.37549        49.000  
 16 04 02 12 28 55.8000000  0  1G16                                             
  18504106.44549  97239735.17249      6653.62549        49.000  
 16 04 02 12 28 55.9000000  0  1G16                                             
  18503979.86749  97239069.97749      6650.00049        49.000  
 16 04 02 12 28 56.0000000  0  1G16                                             
  18503853.37549  97238405.25849      6645.32449        49.000  
 16 04 02 12 28 56.1000000  0  1G16                                             
  18503726.94549  97237740.88749      6641.75049        49.000  
 16 04 02 12 28 56.2000000  0  1G16                                             
  18503600.60249  97237076.94149      6637.24649        49.000  
 16 04 02 12 28 56.3000000  0  1G16                                             
  18503474.35249  97236413.49649      6632.58649        49.000  
 16 04 02 12 28 56.4000000  0  1G16                                             
  18503348.17249  97235750.39149      6629.02749        49.000  
 16 04 02 12 28 56.5000000  0  1G16                                             
  18503222.06249  97235087.69549      6625.16049        49.000  
 16 04 02 12 28 56.6000000  0  1G16                                             
  18503096.02349  97234425.35549      6621.62549        49.000  
 16 04 02 12 28 56.7000000  0  1G16                                             
  18502970.07049  97233763.46149      6617.00449        49.000  
 16 04 02 12 28 56.8000000  0  1G16                                             
  18502844.18849  97233101.94149      6613.39849        49.000  
 16 04 02 12 28 56.9000000  0  1G16                                             
  18502718.36749  97232440.75849      6609.98049        49.000  
 16 04 02 12 28 57.0000000  0  1G16                                             
  18502592.64149  97231780.03149      6605.50849        49.000  
 16 04 02 12 28 57.1000000  0  1G16                                             
  18502466.97749  97231119.65249      6601.76249        49.000  
 16 04 02 12 28 57.2000000  0  1G16                                             
  18502341.39149  97230459.72349      6597.36349        49.000  
 16 04 02 12 28 57.3000000  0  1G16                                             
  18502215.89849  97229800.23049      6592.95749        49.000  
 16 04 02 12 28 57.4000000  0  1G16                                             
  18502090.46949  97229141.12149      6589.10949        49.000  
 16 04 02 12 28 57.5000000  0  1G16                                             
  18501965.12549  97228482.44149      6584.92249        49.000  
 16 04 02 12 28 57.6000000  0  1G16                                             
  18501839.85949  97227824.15249      6580.91849        49.000  
 16 04 02 12 28 57.7000000  0  1G16                                             
  18501714.68049  97227166.31649      6576.55549        49.000  
 16 04 02 12 28 57.8000000  0  1G16                                             
  18501589.57049  97226508.86349      6572.43849        49.000  
 16 04 02 12 28 57.9000000  0  1G16                                             
  18501464.53949  97225851.83649      6568.46549        49.000  
 16 04 02 12 28 58.0000000  0  1G16                                             
  18501339.58649  97225195.18449      6564.58649        49.000  
 16 04 02 12 28 58.1000000  0  1G16                                             
  18501214.71149  97224538.96149      6560.31649        49.000  
 16 04 02 12 28 58.2000000  0  1G16                                             
  18501089.91449  97223883.15249      6556.07449        49.000  
 16 04 02 12 28 58.3000000  0  1G16                                             
  18500965.18049  97223227.68449      6552.75849        49.000  
 16 04 02 12 28 58.4000000  0  1G16                                             
  18500840.53149  97222572.62549      6548.83249        49.000  
 16 04 02 12 28 58.5000000  0  1G16                                             
  18500715.94549  97221917.90649      6545.41849        49.000  
