     2.10           OBSERVATION DATA    G (GPS)             RINEX VERSION / TYPE
Convert v1.8.0                          07-Jun-2016 18:56   PGM / RUN BY / DATE 
Signal Strength values S1,S2 are in dBHz                    COMMENT             
                                                            MARKER NAME         
                                                            MARKER NUMBER       
                                                            OBSERVER / AGENCY   
                    NovAtel GPSCard                         REC # / TYPE / VERS 
                                                            ANT # / TYPE        
0.0000        0.0000        0.0000                          APPROX POSITION XYZ 
        0.0000        0.0000        0.0000                  ANTENNA: DELTA H/E/N
     1     1                                                WAVELENGTH FACT L1/2
     1     1     7   G07   G08   G09   G16   G23   G26   G27WAVELENGTH FACT L1/2
     1     1     1   G31                                    WAVELENGTH FACT L1/2
                                                            COMMENT             
                                                            COMMENT             
                                                            COMMENT             
                                                            COMMENT             
                                                            COMMENT             
     8    C1    L1    D1    S1    P2    L2    D2    S2      # / TYPES OF OBSERV 
     0.100                                                  INTERVAL            
  2016    04    02    14    06     6.9000000    GPS         TIME OF FIRST OBS   
  2016    04    02    14    10    27.5000000    GPS         TIME OF LAST OBS    
Leap Seconds Unknown                                        COMMENT             
                                                            END OF HEADER       
 16 04 02 14 06  6.9000000  0  1G27                                             
  23070308.74249 121235289.75859     -5404.60549        49.000  

 16 04 02 14 06  7.0000000  0  1G27                                             
  23070411.63349 121235830.42249     -5408.70349        49.000  

 16 04 02 14 06  7.1000000  0  1G27                                             
  23070514.59449 121236371.48049     -5412.76649        49.000  

 16 04 02 14 06  7.2000000  0  1G27                                             
  23070617.63349 121236912.95749     -5416.82849        49.000  

 16 04 02 14 06  7.3000000  0  1G27                                             
  23070720.73449 121237454.75449     -5420.01249        49.000  

 16 04 02 14 06  7.4000000  0  1G27                                             
  23070823.91449 121237996.93849     -5424.03549        49.000  

 16 04 02 14 06  7.5000000  0  1G27                                             
  23070927.18049 121238539.62949     -5428.94949        49.000  

 16 04 02 14 06  7.6000000  0  1G27                                             
  23071030.51649 121239082.69149     -5432.82449        49.000  

 16 04 02 14 06  7.7000000  0  1G27                                             
  23071133.93049 121239626.10549     -5436.32849        49.000  

 16 04 02 14 06  7.8000000  0  1G27                                             
  23071237.41449 121240169.91849     -5440.22749        49.000  

 16 04 02 14 06  7.9000000  0  1G27                                             
  23071341.00049 121240714.21949     -5445.25449        49.000  

 16 04 02 14 06  8.0000000  0  1G27                                             
  23071444.64149 121241258.87149     -5448.73049        49.000  

 16 04 02 14 06  8.1000000  0  1G27                                             
  23071548.36749 121241803.95749     -5452.88349        49.000  

 16 04 02 14 06  8.2000000  0  1G27                                             
  23071652.15649 121242349.38349     -5456.43849        49.000  

 16 04 02 14 06  8.3000000  0  1G27                                             
  23071756.03149 121242895.25849     -5460.75049        49.000  

 16 04 02 14 06  8.4000000  0  1G27                                             
  23071859.96949 121243441.46149     -5464.13749        49.000  

 16 04 02 14 06  8.5000000  0  1G27                                             
  23071963.99249 121243988.08649     -5468.24649        49.000  

 16 04 02 14 06  8.6000000  0  1G27                                             
  23072068.09449 121244535.12949     -5472.66849        49.000  

 16 04 02 14 06  8.7000000  0  1G27                                             
  23072172.28149 121245082.59449     -5476.69549        49.000  

 16 04 02 14 06  8.8000000  0  1G27                                             
  23072276.53149 121245630.41449     -5480.46149        49.000  

 16 04 02 14 06  8.9000000  0  1G27                                             
  23072380.85949 121246178.67249     -5484.77749        49.000  

 16 04 02 14 06  9.0000000  0  1G27                                             
  23072485.25849 121246727.32449     -5488.77749        49.000  

 16 04 02 14 06  9.1000000  0  1G27                                             
  23072589.73449 121247276.35549     -5492.54349        49.000  

 16 04 02 14 06  9.2000000  0  1G27                                             
  23072694.29749 121247825.85949     -5497.22349        49.000  

 16 04 02 14 06  9.3000000  0  1G27                                             
  23072798.94549 121248375.77349     -5501.44149        49.000  

 16 04 02 14 06  9.4000000  0  1G27                                             
  23072903.65649 121248926.04749     -5504.99249        49.000  

 16 04 02 14 06  9.5000000  0  1G27                                             
  23073008.44549 121249476.74649     -5508.98449        49.000  

 16 04 02 14 06  9.6000000  0  1G27                                             
  23073113.31249 121250027.82449     -5512.90649        49.000  

 16 04 02 14 06  9.7000000  0  1G27                                             
  23073218.25849 121250579.35949     -5517.47749        49.000  

 16 04 02 14 06  9.8000000  0  1G27                                             
  23073323.28949 121251131.30549     -5521.74249        49.000  

 16 04 02 14 06  9.9000000  0  1G27                                             
  23073428.39849 121251683.64549     -5525.45349        49.000  

 16 04 02 14 06 10.0000000  0  1G27                                             
  23073533.57049 121252236.33249     -5529.03549        49.000  

 16 04 02 14 06 10.1000000  0  1G27                                             
  23073638.82849 121252789.45349     -5533.16849        49.000  

 16 04 02 14 06 10.2000000  0  1G27                                             
  23073744.15649 121253342.95349     -5537.11349        49.000  

 16 04 02 14 06 10.3000000  0  1G27                                             
  23073849.55549 121253896.81649     -5540.71149        49.000  

 16 04 02 14 06 10.4000000  0  1G27                                             
  23073955.02349 121254451.06249     -5544.56249        49.000  

 16 04 02 14 06 10.5000000  0  1G27                                             
  23074060.57049 121255005.74249     -5548.71149        49.000  

 16 04 02 14 06 10.6000000  0  1G27                                             
  23074166.18849 121255560.79349     -5552.67249        49.000  

 16 04 02 14 06 10.7000000  0  1G27                                             
  23074271.89849 121256116.31249     -5557.28149        49.000  

 16 04 02 14 06 10.8000000  0  1G27                                             
  23074377.67249 121256672.17649     -5560.97349        49.000  

 16 04 02 14 06 10.9000000  0  1G27                                             
  23074483.53149 121257228.44949     -5564.76249        49.000  

 16 04 02 14 06 11.0000000  0  1G27                                             
  23074589.45349 121257785.08649     -5568.30949        49.000  

 16 04 02 14 06 11.1000000  0  1G27                                             
  23074695.45349 121258342.15249     -5572.80149        49.000  

 16 04 02 14 06 11.2000000  0  1G27                                             
  23074801.53949 121258899.60549     -5576.46549        49.000  

 16 04 02 14 06 11.3000000  0  1G27                                             
  23074907.68049 121259457.42649     -5580.30549        49.000  

 16 04 02 14 06 11.4000000  0  1G27                                             
  23075013.91449 121260015.70349     -5584.87949        49.000  

 16 04 02 14 06 11.5000000  0  1G27                                             
  23075120.22749 121260574.37549     -5589.08649        49.000  

 16 04 02 14 06 11.6000000  0  1G27                                             
  23075226.61749 121261133.45349     -5592.63349        50.000  

 16 04 02 14 06 11.7000000  0  1G27                                             
  23075333.07849 121261692.95749     -5597.09049        49.000  

 16 04 02 14 06 11.8000000  0  1G27                                             
  23075439.62549 121262252.86349     -5601.19949        49.000  

 16 04 02 14 06 11.9000000  0  1G27                                             
  23075546.26649 121262813.20349     -5605.63349        49.000  

 16 04 02 14 06 12.0000000  0  1G27                                             
  23075652.96149 121263373.92249     -5609.21549        49.000  

 16 04 02 14 06 12.1000000  0  1G27                                             
  23075759.72749 121263934.97349     -5612.59049        49.000  

 16 04 02 14 06 12.2000000  0  1G27                                             
  23075866.57849 121264496.45749     -5616.92649        49.000  

 16 04 02 14 06 12.3000000  0  1G27                                             
  23075973.51649 121265058.39149     -5621.39149        49.000  

 16 04 02 14 06 12.4000000  0  1G27                                             
  23076080.51649 121265620.68449     -5625.05949        49.000  

 16 04 02 14 06 12.5000000  0  1G27                                             
  23076187.59449 121266183.39549     -5629.18049        49.000  

 16 04 02 14 06 12.6000000  0  1G27                                             
  23076294.74249 121266746.46549     -5632.84049        49.000  

 16 04 02 14 06 12.7000000  0  1G27                                             
  23076401.98449 121267309.98049     -5637.37949        49.000  

 16 04 02 14 06 12.8000000  0  1G27                                             
  23076509.28949 121267873.88349     -5641.13349        49.000  

 16 04 02 14 06 12.9000000  0  1G27                                             
  23076616.67249 121268438.21549     -5645.38349        49.000  

 16 04 02 14 06 13.0000000  0  1G27                                             
  23076724.12549 121269002.85549     -5648.32849        49.000  

 16 04 02 14 06 13.1000000  0  1G27                                             
  23076831.63349 121269567.85249     -5652.02749        49.000  

 16 04 02 14 06 13.2000000  0  1G27                                             
  23076939.24249 121270133.33649     -5656.99649        49.000  

 16 04 02 14 06 13.3000000  0  1G27                                             
  23077046.90649 121270699.17649     -5660.38749        49.000  

 16 04 02 14 06 13.4000000  0  1G27                                             
  23077154.66449 121271265.44549     -5664.94549        49.000  

 16 04 02 14 06 13.5000000  0  1G27                                             
  23077262.50049 121271832.13749     -5669.03149        49.000  

 16 04 02 14 06 13.6000000  0  1G27                                             
  23077370.41449 121272399.22749     -5673.21549        49.000  

 16 04 02 14 06 13.7000000  0  1G27                                             
  23077478.41449 121272966.74249     -5677.37949        49.000  

 16 04 02 14 06 13.8000000  0  1G27                                             
  23077586.47749 121273534.63749     -5681.23049        50.000  

 16 04 02 14 06 13.9000000  0  1G27                                             
  23077694.60249 121274102.93849     -5684.97349        50.000  

 16 04 02 14 06 14.0000000  0  1G27                                             
  23077802.80549 121274671.56649     -5688.53149        49.000  

 16 04 02 14 06 14.1000000  0  1G27                                             
  23077911.09449 121275240.64849     -5692.68049        49.000  

 16 04 02 14 06 14.2000000  0  1G27                                             
  23078019.46949 121275810.16049     -5697.56249        49.000  

 16 04 02 14 06 14.3000000  0  1G27                                             
  23078127.91449 121276380.05549     -5701.07449        49.000  

 16 04 02 14 06 14.4000000  0  1G27                                             
  23078236.43849 121276950.33249     -5704.96149        49.000  

 16 04 02 14 06 14.5000000  0  1G27                                             
  23078345.03149 121277521.03949     -5709.09849        49.000  

 16 04 02 14 06 14.6000000  0  1G27                                             
  23078453.71149 121278092.15249     -5713.08649        49.000  

 16 04 02 14 06 14.7000000  0  1G27                                             
  23078562.44549 121278663.60249     -5716.81249        49.000  

 16 04 02 14 06 14.8000000  0  1G27                                             
  23078671.26649 121279235.46949     -5720.75049        49.000  

 16 04 02 14 06 14.9000000  0  1G27                                             
  23078780.16449 121279807.73849     -5725.07049        49.000  

 16 04 02 14 06 15.0000000  0  1G27                                             
  23078889.14149 121280380.42649     -5729.03149        49.000  

 16 04 02 14 06 15.1000000  0  1G27                                             
  23078998.20349 121280953.48849     -5732.58249        49.000  

 16 04 02 14 06 15.2000000  0  1G27                                             
  23079107.32049 121281526.93849     -5736.64849        49.000  

 16 04 02 14 06 15.3000000  0  1G27                                             
  23079216.53149 121282100.83249     -5741.04349        49.000  

 16 04 02 14 06 15.4000000  0  1G27                                             
  23079325.81249 121282675.11749     -5745.18449        49.000  

 16 04 02 14 06 15.5000000  0  1G27                                             
  23079435.17249 121283249.80949     -5749.04349        49.000  

 16 04 02 14 06 15.6000000  0  1G27                                             
  23079544.59449 121283824.84049     -5752.34449        49.000  

 16 04 02 14 06 15.7000000  0  1G27                                             
  23079654.09449 121284400.25849     -5756.12549        49.000  

 16 04 02 14 06 15.8000000  0  1G27                                             
  23079763.68049 121284976.12549     -5760.69149        49.000  

 16 04 02 14 06 15.9000000  0  1G27                                             
  23079873.32849 121285552.34049     -5764.49649        49.000  

 16 04 02 14 06 16.0000000  0  1G27                                             
  23079983.07049 121286129.02349     -5768.86349        49.000  

 16 04 02 14 06 16.1000000  0  1G27                                             
  23080092.86749 121286706.06249     -5772.68849        49.000  

 16 04 02 14 06 16.2000000  0  1G27                                             
  23080202.74249 121287283.46549     -5775.95349        49.000  

 16 04 02 14 06 16.3000000  0  1G27                                             
  23080312.69549 121287861.24249     -5779.80949        49.000  

 16 04 02 14 06 16.4000000  0  1G27                                             
  23080422.73449 121288439.50449     -5784.73849        49.000  

 16 04 02 14 06 16.5000000  0  1G27                                             
  23080532.85949 121289018.12949     -5788.22349        49.000  

 16 04 02 14 06 16.6000000  0  1G27                                             
  23080643.03949 121289597.12549     -5792.07449        49.000  

 16 04 02 14 06 16.7000000  0  1G27                                             
  23080753.30549 121290176.53949     -5796.18849        49.000  

 16 04 02 14 06 16.8000000  0  1G27                                             
  23080863.62549 121290756.30549     -5799.75449        49.000  

 16 04 02 14 06 16.9000000  0  1G27                                             
  23080974.04749 121291336.56249     -5804.92249        49.000  

 16 04 02 14 06 17.0000000  0  1G27                                             
  23081084.53949 121291917.19149     -5808.49249        49.000  

 16 04 02 14 06 17.1000000  0  1G27                                             
  23081195.10249 121292498.16449     -5811.74649        49.000  

 16 04 02 14 06 17.2000000  0  1G27                                             
  23081305.73449 121293079.56649     -5815.82449        49.000  

 16 04 02 14 06 17.3000000  0  1G27                                             
  23081416.43049 121293661.30549     -5819.63349        49.000  

 16 04 02 14 06 17.4000000  0  1G27                                             
  23081527.21949 121294243.48449     -5823.93849        49.000  

 16 04 02 14 06 17.5000000  0  1G27                                             
  23081638.07849 121294826.05149     -5827.82049        49.000  

 16 04 02 14 06 17.6000000  0  1G27                                             
  23081749.02349 121295409.05549     -5832.05949        49.000  

 16 04 02 14 06 17.7000000  0  1G27                                             
  23081860.02349 121295992.40249     -5835.80949        49.000  

 16 04 02 14 06 17.8000000  0  1G27                                             
  23081971.12549 121296576.22749     -5840.38349        49.000  

 16 04 02 14 06 17.9000000  0  1G27                                             
  23082082.28149 121297160.39549     -5843.79749        49.000  

 16 04 02 14 06 18.0000000  0  1G27                                             
  23082193.52349 121297744.98849     -5848.02349        49.000  

 16 04 02 14 06 18.1000000  0  1G27                                             
  23082304.85249 121298329.99249     -5852.24249        49.000  

 16 04 02 14 06 18.2000000  0  1G27                                             
  23082416.24249 121298915.35549     -5855.64849        49.000  

 16 04 02 14 06 18.3000000  0  1G27                                             
  23082527.69549 121299501.07449     -5859.09049        49.000  

 16 04 02 14 06 18.4000000  0  1G27                                             
  23082639.23449 121300087.20749     -5863.35549        49.000  

 16 04 02 14 06 18.5000000  0  1G27                                             
  23082750.85249 121300673.78149     -5867.61749        49.000  

 16 04 02 14 06 18.6000000  0  1G27                                             
  23082862.53949 121301260.71949     -5871.58249        49.000  

 16 04 02 14 06 18.7000000  0  1G27                                             
  23082974.30549 121301848.03949     -5875.39849        49.000  

 16 04 02 14 06 18.8000000  0  1G27                                             
  23083086.14849 121302435.80949     -5879.73449        49.000  

 16 04 02 14 06 18.9000000  0  1G27                                             
  23083198.07049 121303023.98849     -5883.96949        49.000  

 16 04 02 14 06 19.0000000  0  1G27                                             
  23083310.07049 121303612.54749     -5887.64549        49.000  

 16 04 02 14 06 19.1000000  0  1G27                                             
  23083422.14149 121304201.48049     -5891.35249        49.000  

 16 04 02 14 06 19.2000000  0  1G27                                             
  23083534.29749 121304790.86749     -5896.03549        49.000  

 16 04 02 14 06 19.3000000  0  1G27                                             
  23083646.53949 121305380.66049     -5899.96549        49.000  

 16 04 02 14 06 19.4000000  0  1G27                                             
  23083758.85249 121305970.83249     -5903.83649        49.000  

 16 04 02 14 06 19.5000000  0  1G27                                             
  23083871.23449 121306561.46549     -5908.60249        49.000  

 16 04 02 14 06 19.6000000  0  1G27                                             
  23083983.69549 121307152.47749     -5912.23449        49.000  

 16 04 02 14 06 19.7000000  0  1G27                                             
  23084096.23449 121307743.85549     -5915.68849        49.000  

 16 04 02 14 06 19.8000000  0  1G27                                             
  23084208.83649 121308335.55949     -5918.89849        49.000  

 16 04 02 14 06 19.9000000  0  1G27                                             
  23084321.50049 121308927.63749     -5922.88749        49.000  

 16 04 02 14 06 20.0000000  0  1G27                                             
  23084434.26649 121309520.19549     -5927.75049        49.000  

 16 04 02 14 06 20.1000000  0  1G27                                             
  23084547.09449 121310113.13749     -5931.74649        49.000  

 16 04 02 14 06 20.2000000  0  1G27                                             
  23084660.00049 121310706.44149     -5934.96149        49.000  

 16 04 02 14 06 20.3000000  0  1G27                                             
  23084772.97749 121311300.15649     -5939.32449        49.000  

 16 04 02 14 06 20.4000000  0  1G27                                             
  23084886.04749 121311894.32449     -5943.98449        49.000  

 16 04 02 14 06 20.5000000  0  1G27                                             
  23084999.18849 121312488.88749     -5947.71549        49.000  

 16 04 02 14 06 20.6000000  0  1G27                                             
  23085112.38349 121313083.76649     -5950.91049        49.000  

 16 04 02 14 06 20.7000000  0  1G27                                             
  23085225.68049 121313679.14549     -5956.14849        49.000  

 16 04 02 14 06 20.8000000  0  1G27                                             
  23085339.06249 121314274.94949     -5960.19149        49.000  

 16 04 02 14 06 20.9000000  0  1G27                                             
  23085452.49249 121314871.06649     -5963.22349        49.000  

 16 04 02 14 06 21.0000000  0  1G27                                             
  23085566.00049 121315467.55549     -5966.68449        49.000  

 16 04 02 14 06 21.1000000  0  1G27                                             
  23085679.57849 121316064.43449     -5971.03149        49.000  

 16 04 02 14 06 21.2000000  0  1G27                                             
  23085793.24249 121316661.75449     -5975.29349        49.000  

 16 04 02 14 06 21.3000000  0  1G27                                             
  23085906.98449 121317259.43849     -5978.88749        49.000  

 16 04 02 14 06 21.4000000  0  1G27                                             
  23086020.78149 121317857.46549     -5982.48849        49.000  

 16 04 02 14 06 21.5000000  0  1G27                                             
  23086134.67249 121318455.97749     -5987.36749        49.000  

 16 04 02 14 06 21.6000000  0  1G27                                             
  23086248.64149 121319054.89149     -5991.28149        49.000  

 16 04 02 14 06 21.7000000  0  1G27                                             
  23086362.68049 121319654.13749     -5994.36749        49.000  

 16 04 02 14 06 21.8000000  0  1G27                                             
  23086476.79749 121320253.83249     -5998.99249        49.000  

 16 04 02 14 06 21.9000000  0  1G27                                             
  23086591.00049 121320853.92649     -6002.85549        49.000  

 16 04 02 14 06 22.0000000  0  1G27                                             
  23086705.26649 121321454.39149     -6006.96549        49.000  

 16 04 02 14 06 22.1000000  0  1G27                                             
  23086819.61749 121322055.31649     -6011.27049        49.000  

 16 04 02 14 06 22.2000000  0  1G27                                             
  23086934.03949 121322656.60549     -6015.16449        49.000  

 16 04 02 14 06 22.3000000  0  1G27                                             
  23087048.53949 121323258.28949     -6019.05149        49.000  

 16 04 02 14 06 22.4000000  0  1G27                                             
  23087163.11749 121323860.41049     -6023.28549        49.000  

 16 04 02 14 06 22.5000000  0  1G27                                             
  23087277.77349 121324462.91049     -6027.09049        49.000  

 16 04 02 14 06 22.6000000  0  1G27                                             
  23087392.49249 121325065.76249     -6030.62549        49.000  

 16 04 02 14 06 22.7000000  0  1G27                                             
  23087507.28949 121325669.04749     -6034.77049        49.000  

 16 04 02 14 06 22.8000000  0  1G27                                             
  23087622.17249 121326272.74249     -6038.95349        49.000  

 16 04 02 14 06 22.9000000  0  1G27                                             
  23087737.11749 121326876.78949     -6042.58649        49.000  

 16 04 02 14 06 23.0000000  0  1G27                                             
  23087852.13349 121327481.21549     -6046.20349        49.000  

 16 04 02 14 06 23.1000000  0  1G27                                             
  23087967.23449 121328086.04749     -6050.48049        49.000  

 16 04 02 14 06 23.2000000  0  1G27                                             
  23088082.41449 121328691.30949     -6054.69949        49.000  

 16 04 02 14 06 23.3000000  0  1G27                                             
  23088197.67249 121329296.96949     -6058.68849        49.000  

 16 04 02 14 06 23.4000000  0  1G27                                             
  23088312.99249 121329903.00049     -6062.24649        49.000  

 16 04 02 14 06 23.5000000  0  1G27                                             
  23088428.39149 121330509.43449     -6066.48049        49.000  

 16 04 02 14 06 23.6000000  0  1G27                                             
  23088543.86749 121331116.27349     -6070.39549        49.000  

 16 04 02 14 06 23.7000000  0  1G27                                             
  23088659.41449 121331723.48449     -6074.30949        49.000  

 16 04 02 14 06 23.8000000  0  1G27                                             
  23088775.03149 121332331.06649     -6077.94949        49.000  

 16 04 02 14 06 23.9000000  0  1G27                                             
  23088890.74249 121332939.10549     -6082.40249        49.000  

 16 04 02 14 06 24.0000000  0  1G27                                             
  23089006.53149 121333547.57449     -6086.96949        49.000  

 16 04 02 14 06 24.1000000  0  1G27                                             
  23089122.39149 121334156.41849     -6090.54349        49.000  

 16 04 02 14 06 24.2000000  0  1G27                                             
  23089238.32049 121334765.64849     -6094.46549        49.000  

 16 04 02 14 06 24.3000000  0  1G27                                             
  23089354.32049 121335375.23049     -6097.73049        49.000  

 16 04 02 14 06 24.4000000  0  1G27                                             
  23089470.39849 121335985.23049     -6101.98049        49.000  

 16 04 02 14 06 24.5000000  0  1G27                                             
  23089586.54749 121336595.60949     -6105.76249        49.000  

 16 04 02 14 06 24.6000000  0  1G27                                             
  23089702.76649 121337206.35249     -6109.53549        49.000  

 16 04 02 14 06 24.7000000  0  1G27                                             
  23089819.07049 121337817.52049     -6113.60949        49.000  

 16 04 02 14 06 24.8000000  0  1G27                                             
  23089935.43849 121338429.06649     -6117.53149        49.000  

 16 04 02 14 06 24.9000000  0  1G27                                             
  23090051.88349 121339041.00049     -6121.70349        49.000  

 16 04 02 14 06 25.0000000  0  1G27                                             
  23090168.42249 121339653.43849     -6126.51249        49.000  

 16 04 02 14 06 25.1000000  0  1G27                                             
  23090285.04749 121340266.25849     -6130.39149        49.000  

 16 04 02 14 06 25.2000000  0  1G27                                             
  23090401.72749 121340879.39549     -6133.28149        49.000  

 16 04 02 14 06 25.3000000  0  1G27                                             
  23090518.48449 121341492.94549     -6137.68449        49.000  

 16 04 02 14 06 25.4000000  0  1G27                                             
  23090635.31249 121342106.88349     -6141.44949        49.000  

 16 04 02 14 06 25.5000000  0  1G27                                             
  23090752.21949 121342721.23849     -6145.41849        49.000  

 16 04 02 14 06 25.6000000  0  1G27                                             
  23090869.19549 121343335.93049     -6148.91049        49.000  

 16 04 02 14 06 25.7000000  0  1G27                                             
  23090986.23449 121343951.03549     -6153.17249        49.000  

 16 04 02 14 06 25.8000000  0  1G27                                             
  23091103.36749 121344566.58249     -6157.65249        49.000  

 16 04 02 14 06 25.9000000  0  1G27                                             
  23091220.58649 121345182.55149     -6162.01249        49.000  

 16 04 02 14 06 26.0000000  0  1G27                                             
  23091337.86749 121345798.85949     -6165.26649        49.000  

 16 04 02 14 06 26.1000000  0  1G27                                             
  23091455.21949 121346415.53949     -6168.96149        49.000  

 16 04 02 14 06 26.2000000  0  1G27                                             
  23091572.64149 121347032.59849     -6172.68049        49.000  

 16 04 02 14 06 26.3000000  0  1G27                                             
  23091690.14149 121347650.07049     -6176.75449        49.000  

 16 04 02 14 06 26.4000000  0  1G27                                             
  23091807.71149 121348267.91849     -6180.53949        49.000  

 16 04 02 14 06 26.5000000  0  1G27                                             
  23091925.36749 121348886.21149     -6185.05149        49.000  

 16 04 02 14 06 26.6000000  0  1G27                                             
  23092043.10249 121349504.89149     -6188.93049        49.000  

 16 04 02 14 06 26.7000000  0  1G27                                             
  23092160.91449 121350123.98849     -6193.00849        49.000  

 16 04 02 14 06 26.8000000  0  1G27                                             
  23092278.80549 121350743.50449     -6197.46149        49.000  

 16 04 02 14 06 26.9000000  0  1G27                                             
  23092396.76649 121351363.39549     -6201.03549        49.000  

 16 04 02 14 06 27.0000000  0  1G27                                             
  23092514.79749 121351983.64149     -6204.62549        49.000  

 16 04 02 14 06 27.1000000  0  1G27                                             
  23092632.91449 121352604.34849     -6209.14149        49.000  

 16 04 02 14 06 27.2000000  0  1G27                                             
  23092751.09449 121353225.40249     -6212.62149        49.000  

 16 04 02 14 06 27.3000000  0  1G27                                             
  23092869.35249 121353846.83649     -6216.52749        49.000  

 16 04 02 14 06 27.4000000  0  1G27                                             
  23092987.68849 121354468.70349     -6220.74249        49.000  

 16 04 02 14 06 27.5000000  0  1G27                                             
  23093106.09449 121355090.93049     -6224.44549        49.000  

 16 04 02 14 06 27.6000000  0  1G27                                             
  23093224.57849 121355713.57449     -6228.71149        49.000  

 16 04 02 14 06 27.7000000  0  1G27                                             
  23093343.14849 121356336.65249     -6233.01249        49.000  

 16 04 02 14 06 27.8000000  0  1G27                                             
  23093461.78949 121356960.11749     -6236.81249        49.000  

 16 04 02 14 06 27.9000000  0  1G27                                             
  23093580.48449 121357583.93449     -6240.22349        49.000  

 16 04 02 14 06 28.0000000  0  1G27                                             
  23093699.27349 121358208.16849     -6244.36749        49.000  

 16 04 02 14 06 28.1000000  0  1G27                                             
  23093818.12549 121358832.75449     -6248.04349        49.000  

 16 04 02 14 06 28.2000000  0  1G27                                             
  23093937.07049 121359457.81649     -6252.52049        49.000  

 16 04 02 14 06 28.3000000  0  1G27                                             
  23094056.07849 121360083.21149     -6256.22749        49.000  

 16 04 02 14 06 28.4000000  0  1G27                                             
  23094175.16449 121360709.04749     -6260.51249        49.000  

 16 04 02 14 06 28.5000000  0  1G27                                             
  23094294.34449 121361335.31249     -6264.91449        49.000  

 16 04 02 14 06 28.6000000  0  1G27                                             
  23094413.58649 121361961.94549     -6268.44149        49.000  

 16 04 02 14 06 28.7000000  0  1G27                                             
  23094532.90649 121362588.96949     -6272.38349        49.000  

 16 04 02 14 06 28.8000000  0  1G27                                             
  23094652.29749 121363216.40649     -6276.60549        49.000  

 16 04 02 14 06 28.9000000  0  1G27                                             
  23094771.78149 121363844.29349     -6281.06249        49.000  

 16 04 02 14 06 29.0000000  0  1G27                                             
  23094891.33649 121364472.56249     -6284.96149        49.000  

 16 04 02 14 06 29.1000000  0  1G27                                             
  23095010.99249 121365101.30949     -6289.48449        49.000  

 16 04 02 14 06 29.2000000  0  1G27                                             
  23095130.69549 121365730.35949     -6292.61349        49.000  

 16 04 02 14 06 29.3000000  0  1G27                                             
  23095250.47749 121366359.80949     -6296.32049        49.000  

 16 04 02 14 06 29.4000000  0  1G27                                             
  23095370.32049 121366989.60249     -6300.01649        49.000  

 16 04 02 14 06 29.5000000  0  1G27                                             
  23095490.25049 121367619.81649     -6304.19549        49.000  

 16 04 02 14 06 29.6000000  0  1G27                                             
  23095610.25049 121368250.39149     -6307.94549        49.000  

 16 04 02 14 06 29.7000000  0  1G27                                             
  23095730.31249 121368881.39549     -6312.09449        49.000  

 16 04 02 14 06 29.8000000  0  1G27                                             
  23095850.46149 121369512.78549     -6315.98449        49.000  

 16 04 02 14 06 29.9000000  0  1G27                                             
  23095970.69549 121370144.59449     -6320.14549        49.000  

 16 04 02 14 06 30.0000000  0  1G27                                             
  23096091.00049 121370776.78949     -6324.06649        49.000  

 16 04 02 14 06 30.1000000  0  1G27                                             
  23096211.38349 121371409.42249     -6328.46949        49.000  

 16 04 02 14 06 30.2000000  0  1G27                                             
  23096331.82849 121372042.39149     -6331.73849        49.000  

 16 04 02 14 06 30.3000000  0  1G27                                             
  23096452.35949 121372675.77049     -6335.82849        49.000  

 16 04 02 14 06 30.4000000  0  1G27                                             
  23096572.96949 121373309.57049     -6340.03549        49.000  

 16 04 02 14 06 30.5000000  0  1G27                                             
  23096693.63349 121373943.71949     -6343.55949        49.000  

 16 04 02 14 06 30.6000000  0  1G27                                             
  23096814.39149 121374578.31649     -6348.30949        49.000  

 16 04 02 14 06 30.7000000  0  1G27                                             
  23096935.24249 121375213.37949     -6352.77349        49.000  

 16 04 02 14 06 30.8000000  0  1G27                                             
  23097056.14849 121375848.75449     -6355.65649        49.000  

 16 04 02 14 06 30.9000000  0  1G27                                             
  23097177.12549 121376484.49249     -6359.47749        49.000  

 16 04 02 14 06 31.0000000  0  1G27                                             
  23097298.18049 121377120.62949     -6363.21949        49.000  

 16 04 02 14 06 31.1000000  0  1G27                                             
  23097419.30549 121377757.18449     -6367.61749        49.000  

 16 04 02 14 06 31.2000000  0  1G27                                             
  23097540.50849 121378394.11749     -6371.50049        49.000  

 16 04 02 14 06 31.3000000  0  1G27                                             
  23097661.78949 121379031.44949     -6375.33649        49.000  

 16 04 02 14 06 31.4000000  0  1G27                                             
  23097783.15649 121379669.20749     -6379.67249        49.000  

 16 04 02 14 06 31.5000000  0  1G27                                             
  23097904.57049 121380307.29349     -6382.85549        49.000  

 16 04 02 14 06 31.6000000  0  1G27                                             
  23098026.07849 121380945.80949     -6387.30549        49.000  

 16 04 02 14 06 31.7000000  0  1G27                                             
  23098147.64849 121381584.64849     -6390.43049        49.000  

 16 04 02 14 06 31.8000000  0  1G27                                             
  23098269.29749 121382223.92249     -6394.92249        49.000  

 16 04 02 14 06 31.9000000  0  1G27                                             
  23098391.03949 121382863.67249     -6399.69949        49.000  

 16 04 02 14 06 32.0000000  0  1G27                                             
  23098512.85949 121383503.78949     -6403.29749        49.000  

 16 04 02 14 06 32.1000000  0  1G27                                             
  23098634.75049 121384144.32049     -6407.47349        49.000  

 16 04 02 14 06 32.2000000  0  1G27                                             
  23098756.71949 121384785.25849     -6411.30149        49.000  

 16 04 02 14 06 32.3000000  0  1G27                                             
  23098878.75049 121385426.53949     -6414.90649        49.000  

 16 04 02 14 06 32.4000000  0  1G27                                             
  23099000.85249 121386068.21149     -6418.85949        49.000  

 16 04 02 14 06 32.5000000  0  1G27                                             
  23099123.03949 121386710.29349     -6422.75849        49.000  

 16 04 02 14 06 32.6000000  0  1G27                                             
  23099245.29749 121387352.74249     -6426.60549        49.000  

 16 04 02 14 06 32.7000000  0  1G27                                             
  23099367.63349 121387995.59049     -6430.71549        49.000  

 16 04 02 14 06 32.8000000  0  1G27                                             
  23099490.04749 121388638.87149     -6434.75449        49.000  

 16 04 02 14 06 32.9000000  0  1G27                                             
  23099612.52349 121389282.45749     -6438.03149        49.000  

 16 04 02 14 06 33.0000000  0  1G27                                             
  23099735.07849 121389926.52749     -6442.82049        49.000  

 16 04 02 14 06 33.1000000  0  1G27                                             
  23099857.71149 121390570.92249     -6446.08249        49.000  

 16 04 02 14 06 33.2000000  0  1G27                                             
  23099980.41449 121391215.74649     -6450.32449        49.000  

 16 04 02 14 06 33.3000000  0  1G27                                             
  23100103.20349 121391860.99649     -6454.56649        49.000  

 16 04 02 14 06 33.4000000  0  1G27                                             
  23100226.06249 121392506.60549     -6458.10549        49.000  

 16 04 02 14 06 33.5000000  0  1G27                                             
  23100348.99249 121393152.62149     -6462.30549        49.000  

 16 04 02 14 06 33.6000000  0  1G27                                             
  23100472.00049 121393799.01649     -6466.03949        49.000  

 16 04 02 14 06 33.7000000  0  1G27                                             
  23100595.08649 121394445.84849     -6470.30949        49.000  

 16 04 02 14 06 33.8000000  0  1G27                                             
  23100718.24249 121395093.05549     -6474.34849        49.000  

 16 04 02 14 06 33.9000000  0  1G27                                             
  23100841.47749 121395740.66449     -6478.19149        49.000  

 16 04 02 14 06 34.0000000  0  1G27                                             
  23100964.79749 121396388.71549     -6482.74249        49.000  

 16 04 02 14 06 34.1000000  0  1G27                                             
  23101088.19549 121397037.16449     -6486.73049        49.000  

 16 04 02 14 06 34.2000000  0  1G27                                             
  23101211.66449 121397686.01249     -6490.59849        49.000  

 16 04 02 14 06 34.3000000  0  1G27                                             
  23101335.21149 121398335.21549     -6493.93849        49.000  

 16 04 02 14 06 34.4000000  0  1G27                                             
  23101458.82049 121398984.80949     -6498.12549        49.000  

 16 04 02 14 06 34.5000000  0  1G27                                             
  23101582.51649 121399634.82049     -6502.01649        49.000  

 16 04 02 14 06 34.6000000  0  1G27                                             
  23101706.28949 121400285.21949     -6506.31649        49.000  

 16 04 02 14 06 34.7000000  0  1G27                                             
  23101830.13349 121400936.01249     -6510.04349        49.000  

 16 04 02 14 06 34.8000000  0  1G27                                             
  23101954.06249 121401587.27749     -6514.91049        49.000  

 16 04 02 14 06 34.9000000  0  1G27                                             
  23102078.05549 121402238.89849     -6518.27349        49.000  

 16 04 02 14 06 35.0000000  0  1G27                                             
  23102202.13349 121402890.92249     -6522.12949        49.000  

 16 04 02 14 06 35.1000000  0  1G27                                             
  23102326.25849 121403543.23049     -6525.03149        49.000  

 16 04 02 14 06 35.2000000  0  1G27                                             
  23102450.46149 121404195.91449     -6528.77749        49.000  

 16 04 02 14 06 35.3000000  0  1G27                                             
  23102574.75049 121404849.04749     -6533.30549        49.000  

 16 04 02 14 06 35.4000000  0  1G27                                             
  23102699.11749 121405502.58649     -6537.68049        49.000  

 16 04 02 14 06 35.5000000  0  1G27                                             
  23102823.53949 121406156.44149     -6540.90249        49.000  

 16 04 02 14 06 35.6000000  0  1G27                                             
  23102948.05549 121406810.80149     -6545.68049        49.000  

 16 04 02 14 06 35.7000000  0  1G27                                             
  23103072.63349 121407465.48849     -6548.99249        49.000  

 16 04 02 14 06 35.8000000  0  1G27                                             
  23103197.30549 121408120.64149     -6553.56249        49.000  

 16 04 02 14 06 35.9000000  0  1G27                                             
  23103322.05549 121408776.19549     -6557.89149        49.000  

 16 04 02 14 06 36.0000000  0  1G27                                             
  23103446.85949 121409432.05149     -6560.61349        49.000  

 16 04 02 14 06 36.1000000  0  1G27                                             
  23103571.74249 121410088.30149     -6564.44549        49.000  

 16 04 02 14 06 36.2000000  0  1G27                                             
  23103696.71149 121410745.00049     -6569.27349        49.000  

 16 04 02 14 06 36.3000000  0  1G27                                             
  23103821.74249 121411402.09449     -6573.10949        49.000  

 16 04 02 14 06 36.4000000  0  1G27                                             
  23103946.85949 121412059.56649     -6576.81249        49.000  

 16 04 02 14 06 36.5000000  0  1G27                                             
  23104072.03949 121412717.41449     -6580.78949        49.000  

 16 04 02 14 06 36.6000000  0  1G27                                             
  23104197.30549 121413375.65249     -6584.59849        49.000  

 16 04 02 14 06 36.7000000  0  1G27                                             
  23104322.64849 121414034.32449     -6588.77749        49.000  

 16 04 02 14 06 36.8000000  0  1G27                                             
  23104448.06249 121414693.38349     -6592.82049        49.000  

 16 04 02 14 06 36.9000000  0  1G27                                             
  23104573.55549 121415352.86349     -6596.85949        49.000  

 16 04 02 14 06 37.0000000  0  1G27                                             
  23104699.10949 121416012.64849     -6600.00449        49.000  

 16 04 02 14 06 37.1000000  0  1G27                                             
  23104824.75849 121416672.92649     -6604.88349        49.000  

 16 04 02 14 06 37.2000000  0  1G27                                             
  23104950.47749 121417333.58249     -6608.51249        49.000  

 16 04 02 14 06 37.3000000  0  1G27                                             
  23105076.26649 121417994.62149     -6612.61749        49.000  

 16 04 02 14 06 37.4000000  0  1G27                                             
  23105202.14149 121418656.09449     -6616.72749        49.000  

 16 04 02 14 06 37.5000000  0  1G27                                             
  23105328.07849 121419317.92649     -6620.37549        49.000  

 16 04 02 14 06 37.6000000  0  1G27                                             
  23105454.09449 121419980.13349     -6624.32049        49.000  

 16 04 02 14 06 37.7000000  0  1G27                                             
  23105580.18849 121420642.76649     -6628.23049        49.000  

 16 04 02 14 06 37.8000000  0  1G27                                             
  23105706.35949 121421305.78949     -6632.49649        49.000  

 16 04 02 14 06 37.9000000  0  1G27                                             
  23105832.60249 121421969.18849     -6636.01249        49.000  

 16 04 02 14 06 38.0000000  0  1G27                                             
  23105958.91449 121422632.96149     -6639.82449        49.000  

 16 04 02 14 06 38.1000000  0  1G27                                             
  23106085.30549 121423297.16849     -6644.20749        49.000  

 16 04 02 14 06 38.2000000  0  1G27                                             
  23106211.78149 121423961.78949     -6648.25449        49.000  

 16 04 02 14 06 38.3000000  0  1G27                                             
  23106338.32849 121424626.75849     -6651.68849        49.000  

 16 04 02 14 06 38.4000000  0  1G27                                             
  23106464.93849 121425292.13349     -6655.92249        49.000  

 16 04 02 14 06 38.5000000  0  1G27                                             
  23106591.64149 121425957.89549     -6659.72349        49.000  

 16 04 02 14 06 38.6000000  0  1G27                                             
  23106718.39849 121426624.02349     -6663.17649        49.000  

 16 04 02 14 06 38.7000000  0  1G27                                             
  23106845.22749 121427290.53149     -6667.24649        49.000  

 16 04 02 14 06 38.8000000  0  1G27                                             
  23106972.14849 121427957.50449     -6672.05549        49.000  

 16 04 02 14 06 38.9000000  0  1G27                                             
  23107099.15649 121428624.89149     -6675.83249        49.000  

 16 04 02 14 06 39.0000000  0  1G27                                             
  23107226.21949 121429292.61749     -6679.43449        49.000  

 16 04 02 14 06 39.1000000  0  1G27                                             
  23107353.35949 121429960.76249     -6683.32449        49.000  

 16 04 02 14 06 39.2000000  0  1G27                                             
  23107480.58649 121430629.32849     -6687.93049        49.000  

 16 04 02 14 06 39.3000000  0  1G27                                             
  23107607.89149 121431298.29749     -6691.63749        49.000  

 16 04 02 14 06 39.4000000  0  1G27                                             
  23107735.25849 121431967.64149     -6695.41849        49.000  

 16 04 02 14 06 39.5000000  0  1G27                                             
  23107862.70349 121432637.34449     -6699.10549        49.000  

 16 04 02 14 06 39.6000000  0  1G27                                             
  23107990.21949 121433307.46549     -6703.27349        49.000  

 16 04 02 14 06 39.7000000  0  1G27                                             
  23108117.82849 121433978.02349     -6707.70349        49.000  

 16 04 02 14 06 39.8000000  0  1G27                                             
  23108245.51649 121434649.01249     -6711.99649        49.000  

 16 04 02 14 06 39.9000000  0  1G27                                             
  23108373.25849 121435320.30149     -6715.07049        49.000  

 16 04 02 14 06 40.0000000  0  1G27                                             
  23108501.08649 121435992.03549     -6719.40649        49.000  

 16 04 02 14 06 40.1000000  0  1G27                                             
  23108628.98449 121436664.15649     -6723.41049        49.000  

 16 04 02 14 06 40.2000000  0  1G27                                             
  23108756.98449 121437336.75449     -6728.16049        49.000  

 16 04 02 14 06 40.3000000  0  1G27                                             
  23108885.02349 121438009.64149     -6731.05149        49.000  

 16 04 02 14 06 40.4000000  0  1G27                                             
  23109013.14849 121438682.93049     -6734.77049        49.000  

 16 04 02 14 06 40.5000000  0  1G27                                             
  23109141.33649 121439356.57049     -6738.52749        49.000  

 16 04 02 14 06 40.6000000  0  1G27                                             
  23109269.61749 121440030.68049     -6743.38349        49.000  

 16 04 02 14 06 40.7000000  0  1G27                                             
  23109397.96949 121440705.18449     -6747.08249        49.000  

 16 04 02 14 06 40.8000000  0  1G27                                             
  23109526.39849 121441380.08249     -6751.05949        49.000  

 16 04 02 14 06 40.9000000  0  1G27                                             
  23109654.89849 121442055.35249     -6754.57449        49.000  

 16 04 02 14 06 41.0000000  0  1G27                                             
  23109783.46949 121442730.97749     -6758.36749        49.000  

 16 04 02 14 06 41.1000000  0  1G27                                             
  23109912.11749 121443407.05149     -6762.88349        49.000  

 16 04 02 14 06 41.2000000  0  1G27                                             
  23110040.85949 121444083.54349     -6766.91049        49.000  

 16 04 02 14 06 41.3000000  0  1G27                                             
  23110169.65649 121444760.37149     -6770.47349        49.000  

 16 04 02 14 06 41.4000000  0  1G27                                             
  23110298.53149 121445437.59449     -6774.30949        49.000  

 16 04 02 14 06 41.5000000  0  1G27                                             
  23110427.46949 121446115.18049     -6777.92249        49.000  

 16 04 02 14 06 41.6000000  0  1G27                                             
  23110556.49249 121446793.18049     -6782.01249        49.000  

 16 04 02 14 06 41.7000000  0  1G27                                             
  23110685.58649 121447471.58249     -6786.18049        49.000  

 16 04 02 14 06 41.8000000  0  1G27                                             
  23110814.75849 121448150.38749     -6790.16049        49.000  

 16 04 02 14 06 41.9000000  0  1G27                                             
  23110944.00049 121448829.54349     -6793.41449        49.000  

 16 04 02 14 06 42.0000000  0  1G27                                             
  23111073.32849 121449509.14549     -6798.07449        49.000  

 16 04 02 14 06 42.1000000  0  1G27                                             
  23111202.71149 121450189.06249     -6801.30149        49.000  

 16 04 02 14 06 42.2000000  0  1G27                                             
  23111332.17249 121450869.41849     -6805.53549        49.000  

 16 04 02 14 06 42.3000000  0  1G27                                             
  23111461.72749 121451550.19149     -6809.98849        49.000  

 16 04 02 14 06 42.4000000  0  1G27                                             
  23111591.34449 121452231.33649     -6813.39849        49.000  

 16 04 02 14 06 42.5000000  0  1G27                                             
  23111721.03949 121452912.86749     -6817.39149        49.000  

 16 04 02 14 06 42.6000000  0  1G27                                             
  23111850.79749 121453594.72749     -6820.70749        49.000  

 16 04 02 14 06 42.7000000  0  1G27                                             
  23111980.64849 121454277.09449     -6825.64849        49.000  

 16 04 02 14 06 42.8000000  0  1G27                                             
  23112110.56249 121454959.80549     -6829.21949        49.000  

 16 04 02 14 06 42.9000000  0  1G27                                             
  23112240.55549 121455642.93449     -6833.50049        49.000  

 16 04 02 14 06 43.0000000  0  1G27                                             
  23112370.62549 121456326.46149     -6837.45749        49.000  

 16 04 02 14 06 43.1000000  0  1G27                                             
  23112500.76649 121457010.33649     -6840.78949        49.000  

 16 04 02 14 06 43.2000000  0  1G27                                             
  23112630.96949 121457694.56249     -6844.38749        49.000  

 16 04 02 14 06 43.3000000  0  1G27                                             
  23112761.25849 121458379.25049     -6848.87149        49.000  

 16 04 02 14 06 43.4000000  0  1G27                                             
  23112891.62549 121459064.31249     -6852.93449        49.000  

 16 04 02 14 06 43.5000000  0  1G27                                             
  23113022.07049 121459749.79749     -6857.07449        49.000  

 16 04 02 14 06 43.6000000  0  1G27                                             
  23113152.59449 121460435.71949     -6861.51649        49.000  

 16 04 02 14 06 43.7000000  0  1G27                                             
  23113283.19549 121461122.03949     -6865.08649        49.000  

 16 04 02 14 06 43.8000000  0  1G27                                             
  23113413.84449 121461808.61349     -6867.88349        49.000  

 16 04 02 14 06 43.9000000  0  1G27                                             
  23113544.59449 121462495.70749     -6872.82449        49.000  

 16 04 02 14 06 44.0000000  0  1G27                                             
  23113675.41449 121463183.15249     -6876.62949        49.000  

 16 04 02 14 06 44.1000000  0  1G27                                             
  23113806.30549 121463871.00849     -6880.73049        49.000  

 16 04 02 14 06 44.2000000  0  1G27                                             
  23113937.28149 121464559.27049     -6884.62949        49.000  

 16 04 02 14 06 44.3000000  0  1G27                                             
  23114068.31249 121465247.85249     -6887.95349        49.000  

 16 04 02 14 06 44.4000000  0  1G27                                             
  23114199.42249 121465936.85949     -6892.20749        49.000  

 16 04 02 14 06 44.5000000  0  1G27                                             
  23114330.60949 121466626.25449     -6895.57449        49.000  

 16 04 02 14 06 44.6000000  0  1G27                                             
  23114461.86749 121467316.02349     -6899.95749        49.000  

 16 04 02 14 06 44.7000000  0  1G27                                             
  23114593.21149 121468006.23449     -6904.12949        49.000  

 16 04 02 14 06 44.8000000  0  1G27                                             
  23114724.61749 121468696.77049     -6907.43449        49.000  

 16 04 02 14 06 44.9000000  0  1G27                                             
  23114856.10949 121469387.77049     -6911.98849        49.000  

 16 04 02 14 06 45.0000000  0  1G27                                             
  23114987.68049 121470079.17249     -6916.12549        49.000  

 16 04 02 14 06 45.1000000  0  1G27                                             
  23115119.32049 121470770.91449     -6919.53149        49.000  

 16 04 02 14 06 45.2000000  0  1G27                                             
  23115251.03149 121471463.06249     -6923.42649        49.000  

 16 04 02 14 06 45.3000000  0  1G27                                             
  23115382.82049 121472155.60949     -6927.60549        49.000  

 16 04 02 14 06 45.4000000  0  1G27                                             
  23115514.67249 121472848.52349     -6931.10549        49.000  

 16 04 02 14 06 45.5000000  0  1G27                                             
  23115646.60949 121473541.90249     -6936.05149        49.000  

 16 04 02 14 06 45.6000000  0  1G27                                             
  23115778.63349 121474235.68449     -6940.03949        49.000  

 16 04 02 14 06 45.7000000  0  1G27                                             
  23115910.73449 121474929.85549     -6943.87149        49.000  

 16 04 02 14 06 45.8000000  0  1G27                                             
  23116042.90649 121475624.41049     -6947.65249        49.000  

 16 04 02 14 06 45.9000000  0  1G27                                             
  23116175.14849 121476319.39149     -6951.89149        49.000  

 16 04 02 14 06 46.0000000  0  1G27                                             
  23116307.46949 121477014.71549     -6955.31649        49.000  

 16 04 02 14 06 46.1000000  0  1G27                                             
  23116439.85249 121477710.41849     -6958.98449        49.000  

 16 04 02 14 06 46.2000000  0  1G27                                             
  23116572.32049 121478406.53549     -6963.28149        49.000  

 16 04 02 14 06 46.3000000  0  1G27                                             
  23116704.88349 121479103.13349     -6968.11749        49.000  

 16 04 02 14 06 46.4000000  0  1G27                                             
  23116837.50049 121479800.04749     -6971.11749        49.000  

 16 04 02 14 06 46.5000000  0  1G27                                             
  23116970.18049 121480497.28949     -6974.48849        49.000  

 16 04 02 14 06 46.6000000  0  1G27                                             
  23117102.94549 121481194.95749     -6978.91049        49.000  

 16 04 02 14 06 46.7000000  0  1G27                                             
  23117235.79749 121481893.09849     -6983.21149        49.000  

 16 04 02 14 06 46.8000000  0  1G27                                             
  23117368.70349 121482591.53149     -6986.75049        49.000  

 16 04 02 14 06 46.9000000  0  1G27                                             
  23117501.71149 121483290.46549     -6991.53549        49.000  

 16 04 02 14 06 47.0000000  0  1G27                                             
  23117634.78949 121483989.78949     -6995.23849        49.000  

 16 04 02 14 06 47.1000000  0  1G27                                             
  23117767.92249 121484689.44149     -6998.67249        49.000  

 16 04 02 14 06 47.2000000  0  1G27                                             
  23117901.14849 121485389.52349     -7002.84449        49.000  

 16 04 02 14 06 47.3000000  0  1G27                                             
  23118034.43849 121486089.99249     -7006.92649        49.000  

 16 04 02 14 06 47.4000000  0  1G27                                             
  23118167.81249 121486790.89549     -7011.18449        49.000  

 16 04 02 14 06 47.5000000  0  1G27                                             
  23118301.27349 121487492.18449     -7014.94949        49.000  

 16 04 02 14 06 47.6000000  0  1G27                                             
  23118434.78949 121488193.82849     -7018.39149        49.000  

 16 04 02 14 06 47.7000000  0  1G27                                             
  23118568.38349 121488895.87549     -7022.60249        49.000  

 16 04 02 14 06 47.8000000  0  1G27                                             
  23118702.05549 121489598.32449     -7026.56249        49.000  

 16 04 02 14 06 47.9000000  0  1G27                                             
  23118835.79749 121490301.12949     -7030.12949        49.000  

 16 04 02 14 06 48.0000000  0  1G27                                             
  23118969.60949 121491004.32049     -7033.96149        49.000  

 16 04 02 14 06 48.1000000  0  1G27                                             
  23119103.49249 121491707.89549     -7037.82849        49.000  

 16 04 02 14 06 48.2000000  0  1G27                                             
  23119237.45349 121492411.88749     -7041.98449        49.000  

 16 04 02 14 06 48.3000000  0  1G27                                             
  23119371.48449 121493116.23049     -7045.43849        49.000  

 16 04 02 14 06 48.4000000  0  1G27                                             
  23119505.60949 121493821.02749     -7050.12949        49.000  

 16 04 02 14 06 48.5000000  0  1G27                                             
  23119639.78949 121494526.16049     -7053.48849        49.000  

 16 04 02 14 06 48.6000000  0  1G27                                             
  23119774.03949 121495231.68049     -7057.34449        49.000  

 16 04 02 14 06 48.7000000  0  1G27                                             
  23119908.38349 121495937.62949     -7061.58649        49.000  

 16 04 02 14 06 48.8000000  0  1G27                                             
  23120042.80549 121496644.00049     -7065.87549        49.000  

 16 04 02 14 06 48.9000000  0  1G27                                             
  23120177.28949 121497350.70749     -7069.00849        49.000  

 16 04 02 14 06 49.0000000  0  1G27                                             
  23120311.83649 121498057.77049     -7072.51649        49.000  

 16 04 02 14 06 49.1000000  0  1G27                                             
  23120446.46149 121498765.23849     -7076.85949        49.000  

 16 04 02 14 06 49.2000000  0  1G27                                             
  23120581.17249 121499473.11349     -7080.65649        49.000  

 16 04 02 14 06 49.3000000  0  1G27                                             
  23120715.93849 121500181.30949     -7084.20749        49.000  

 16 04 02 14 06 49.4000000  0  1G27                                             
  23120850.78949 121500889.94949     -7088.37949        49.000  

 16 04 02 14 06 49.5000000  0  1G27                                             
  23120985.70349 121501598.94149     -7092.23049        49.000  

 16 04 02 14 06 49.6000000  0  1G27                                             
  23121120.70349 121502308.35549     -7096.12549        49.000  

 16 04 02 14 06 49.7000000  0  1G27                                             
  23121255.77349 121503018.18449     -7100.40649        49.000  

 16 04 02 14 06 49.8000000  0  1G27                                             
  23121390.91449 121503728.36349     -7104.17249        49.000  

 16 04 02 14 06 49.9000000  0  1G27                                             
  23121526.14149 121504438.98049     -7108.19949        49.000  

 16 04 02 14 06 50.0000000  0  1G27                                             
  23121661.43849 121505149.94949     -7111.71549        49.000  

 16 04 02 14 06 50.1000000  0  1G27                                             
  23121796.80549 121505861.27349     -7115.51649        49.000  

 16 04 02 14 06 50.2000000  0  1G27                                             
  23121932.24249 121506573.01249     -7119.39849        49.000  

 16 04 02 14 06 50.3000000  0  1G27                                             
  23122067.75849 121507285.16849     -7123.79749        49.000  

 16 04 02 14 06 50.4000000  0  1G27                                             
  23122203.35949 121507997.75849     -7127.80949        49.000  

 16 04 02 14 06 50.5000000  0  1G27                                             
  23122339.02349 121508710.65249     -7131.18849        49.000  

 16 04 02 14 06 50.6000000  0  1G27                                             
  23122474.76649 121509423.98449     -7135.32449        49.000  

 16 04 02 14 06 50.7000000  0  1G27                                             
  23122610.59449 121510137.74249     -7139.82449        49.000  

 16 04 02 14 06 50.8000000  0  1G27                                             
  23122746.49249 121510851.91849     -7143.79349        49.000  

 16 04 02 14 06 50.9000000  0  1G27                                             
  23122882.46149 121511566.41049     -7147.13749        49.000  

 16 04 02 14 06 51.0000000  0  1G27                                             
  23123018.50849 121512281.35249     -7151.59449        49.000  

 16 04 02 14 06 51.1000000  0  1G27                                             
  23123154.62549 121512996.64849     -7154.93449        49.000  

 16 04 02 14 06 51.2000000  0  1G27                                             
  23123290.81249 121513712.30149     -7158.45749        49.000  

 16 04 02 14 06 51.3000000  0  1G27                                             
  23123427.07849 121514428.35249     -7162.52749        49.000  

 16 04 02 14 06 51.4000000  0  1G27                                             
  23123563.40649 121515144.76249     -7166.25849        49.000  

 16 04 02 14 06 51.5000000  0  1G27                                             
  23123699.81249 121515861.58249     -7170.25449        49.000  

 16 04 02 14 06 51.6000000  0  1G27                                             
  23123836.29749 121516578.84449     -7174.53549        49.000  

 16 04 02 14 06 51.7000000  0  1G27                                             
  23123972.84449 121517296.41849     -7177.94949        49.000  

 16 04 02 14 06 51.8000000  0  1G27                                             
  23124109.47749 121518014.41849     -7181.99649        49.000  

 16 04 02 14 06 51.9000000  0  1G27                                             
  23124246.18049 121518732.82449     -7186.13749        49.000  

 16 04 02 14 06 52.0000000  0  1G27                                             
  23124382.95349 121519451.56649     -7189.54749        49.000  

 16 04 02 14 06 52.1000000  0  1G27                                             
  23124519.81249 121520170.75849     -7193.98449        49.000  

 16 04 02 14 06 52.2000000  0  1G27                                             
  23124656.73449 121520890.28149     -7197.49249        49.000  

 16 04 02 14 06 52.3000000  0  1G27                                             
  23124793.73449 121521610.25449     -7201.71549        49.000  

 16 04 02 14 06 52.4000000  0  1G27                                             
  23124930.81249 121522330.57849     -7205.28149        49.000  

 16 04 02 14 06 52.5000000  0  1G27                                             
  23125067.95349 121523051.25849     -7208.73849        49.000  

 16 04 02 14 06 52.6000000  0  1G27                                             
  23125205.17249 121523772.34849     -7212.88349        49.000  

 16 04 02 14 06 52.7000000  0  1G27                                             
  23125342.47749 121524493.89849     -7217.62149        49.000  

 16 04 02 14 06 52.8000000  0  1G27                                             
  23125479.83649 121525215.73049     -7220.46949        49.000  

 16 04 02 14 06 52.9000000  0  1G27                                             
  23125617.28149 121525938.00849     -7224.77749        49.000  

 16 04 02 14 06 53.0000000  0  1G27                                             
  23125754.80549 121526660.67649     -7228.77049        49.000  

 16 04 02 14 06 53.1000000  0  1G27                                             
  23125892.39849 121527383.73449     -7232.63749        49.000  

 16 04 02 14 06 53.2000000  0  1G27                                             
  23126030.07049 121528107.19949     -7236.59449        49.000  

 16 04 02 14 06 53.3000000  0  1G27                                             
  23126167.80549 121528830.99649     -7240.00449        49.000  

 16 04 02 14 06 53.4000000  0  1G27                                             
  23126305.59449 121529555.10549     -7242.73049        49.000  

 16 04 02 14 06 53.5000000  0  1G27                                             
  23126443.46149 121530279.61349     -7247.15249        49.000  

 16 04 02 14 06 53.6000000  0  1G27                                             
  23126581.41449 121531004.54749     -7251.35949        49.000  

 16 04 02 14 06 53.7000000  0  1G27                                             
  23126719.43849 121531729.86349     -7255.22349        49.000  

 16 04 02 14 06 53.8000000  0  1G27                                             
  23126857.53149 121532455.54749     -7259.01649        49.000  

 16 04 02 14 06 53.9000000  0  1G27                                             
  23126995.71149 121533181.68849     -7263.55549        49.000  

 16 04 02 14 06 54.0000000  0  1G27                                             
  23127133.96149 121533908.19149     -7267.06249        49.000  

 16 04 02 14 06 54.1000000  0  1G27                                             
  23127272.28949 121534635.09049     -7271.04349        49.000  

 16 04 02 14 06 54.2000000  0  1G27                                             
  23127410.68049 121535362.31649     -7274.44949        49.000  

 16 04 02 14 06 54.3000000  0  1G27                                             
  23127549.15649 121536090.00049     -7278.73449        49.000  

 16 04 02 14 06 54.4000000  0  1G27                                             
  23127687.69549 121536818.04349     -7282.85549        49.000  

 16 04 02 14 06 54.5000000  0  1G27                                             
  23127826.31249 121537546.51249     -7286.79749        49.000  

 16 04 02 14 06 54.6000000  0  1G27                                             
  23127965.00049 121538275.29749     -7289.87549        49.000  

 16 04 02 14 06 54.7000000  0  1G27                                             
  23128103.76649 121539004.52749     -7294.51649        49.000  

 16 04 02 14 06 54.8000000  0  1G27                                             
  23128242.62549 121539734.22749     -7299.03949        49.000  

 16 04 02 14 06 54.9000000  0  1G27                                             
  23128381.53949 121540464.25849     -7302.34449        49.000  

 16 04 02 14 06 55.0000000  0  1G27                                             
  23128520.53949 121541194.67249     -7306.28949        49.000  

 16 04 02 14 06 55.1000000  0  1G27                                             
  23128659.60949 121541925.51249     -7310.34849        49.000  

 16 04 02 14 06 55.2000000  0  1G27                                             
  23128798.74249 121542656.66449     -7313.44549        49.000  

 16 04 02 14 06 55.3000000  0  1G27                                             
  23128937.96949 121543388.27049     -7318.07849        49.000  

 16 04 02 14 06 55.4000000  0  1G27                                             
  23129077.26649 121544120.29349     -7322.62549        49.000  

 16 04 02 14 06 55.5000000  0  1G27                                             
  23129216.64849 121544852.77049     -7327.05149        50.000  

 16 04 02 14 06 55.6000000  0  1G27                                             
  23129356.11749 121545585.64149     -7330.83649        50.000  

 16 04 02 14 06 55.7000000  0  1G27                                             
  23129495.63349 121546318.84849     -7334.10549        49.000  

 16 04 02 14 07 13.8000000  0  1G27                                             
  23155952.89849 121685353.12159     -8027.52349        49.000  

 16 04 02 14 07 13.9000000  0  1G27                                             
  23156105.68049 121686156.02049     -8031.03149        49.000  

 16 04 02 14 07 14.0000000  0  1G27                                             
  23156258.55549 121686959.29349     -8034.68849        49.000  

 16 04 02 14 07 14.1000000  0  1G27                                             
  23156411.47749 121687762.91449     -8038.10949        49.000  

 16 04 02 14 07 14.2000000  0  1G27                                             
  23156564.50049 121688566.96149     -8042.48449        49.000  

 16 04 02 14 07 14.3000000  0  1G27                                             
  23156717.57049 121689371.38349     -8046.25849        49.000  

 16 04 02 14 07 14.4000000  0  1G27                                             
  23156870.73449 121690176.16049     -8050.00049        49.000  

 16 04 02 14 07 14.5000000  0  1G27                                             
  23157023.96949 121690981.38749     -8054.31649        49.000  

 16 04 02 14 07 14.6000000  0  1G27                                             
  23157177.25849 121691787.01649     -8058.50449        49.000  

 16 04 02 14 07 14.7000000  0  1G27                                             
  23157330.62549 121692592.94949     -8061.37149        49.000  

 16 04 02 14 07 14.8000000  0  1G27                                             
  23157484.05549 121693399.20749     -8064.48849        49.000  

 16 04 02 14 07 14.9000000  0  1G27                                             
  23157637.57049 121694205.94949     -8069.29349        49.000  

 16 04 02 14 07 15.0000000  0  1G27                                             
  23157791.15649 121695013.05949     -8073.11349        49.000  

 16 04 02 14 07 15.1000000  0  1G27                                             
  23157944.81249 121695820.52049     -8076.62949        49.000  

 16 04 02 14 07 15.2000000  0  1G27                                             
  23158098.54749 121696628.34049     -8080.14149        49.000  

 16 04 02 14 07 15.3000000  0  1G27                                             
  23158252.34449 121697436.54749     -8083.97349        49.000  

 16 04 02 14 07 15.4000000  0  1G27                                             
  23158406.21149 121698245.11749     -8087.71549        49.000  

 16 04 02 14 07 15.5000000  0  1G27                                             
  23158560.15649 121699054.12149     -8092.06649        49.000  

 16 04 02 14 07 15.6000000  0  1G27                                             
  23158714.20349 121699863.47349     -8095.50849        49.000  

 16 04 02 14 07 15.7000000  0  1G27                                             
  23158868.28949 121700673.18449     -8099.19949        49.000  

 16 04 02 14 07 15.8000000  0  1G27                                             
  23159022.43849 121701483.27749     -8103.00449        49.000  

 16 04 02 14 07 15.9000000  0  1G27                                             
  23159176.67249 121702293.76249     -8106.75849        49.000  

 16 04 02 14 07 16.0000000  0  1G27                                             
  23159330.96149 121703104.60549     -8110.34849        49.000  

 16 04 02 14 07 16.1000000  0  1G27                                             
  23159485.32049 121703915.77749     -8113.61349        49.000  

 16 04 02 14 07 16.2000000  0  1G27                                             
  23159639.76649 121704727.39549     -8118.22349        49.000  

 16 04 02 14 07 16.3000000  0  1G27                                             
  23159794.27349 121705539.34049     -8121.40249        49.000  

 16 04 02 14 07 16.4000000  0  1G27                                             
  23159948.85949 121706351.71549     -8125.84449        49.000  

 16 04 02 14 07 16.5000000  0  1G27                                             
  23160103.50849 121707164.41849     -8129.18049        49.000  

 16 04 02 14 07 16.6000000  0  1G27                                             
  23160258.26649 121707977.54749     -8133.29349        49.000  

 16 04 02 14 07 16.7000000  0  1G27                                             
  23160413.07049 121708791.05149     -8136.93049        49.000  

 16 04 02 14 07 16.8000000  0  1G27                                             
  23160567.94549 121709604.89549     -8140.51249        49.000  

 16 04 02 14 07 16.9000000  0  1G27                                             
  23160722.88349 121710419.12549     -8144.15649        49.000  

 16 04 02 14 07 17.0000000  0  1G27                                             
  23160877.88349 121711233.72749     -8147.87149        49.000  

 16 04 02 14 07 17.1000000  0  1G27                                             
  23161032.95349 121712048.62549     -8150.87949        49.000  

 16 04 02 14 07 17.2000000  0  1G27                                             
  23161188.09449 121712863.91849     -8154.77749        49.000  

 16 04 02 14 07 17.3000000  0  1G27                                             
  23161343.32049 121713679.64549     -8159.44549        49.000  

 16 04 02 14 07 17.4000000  0  1G27                                             
  23161498.62549 121714495.73849     -8162.77749        49.000  

 16 04 02 14 07 17.5000000  0  1G27                                             
  23161653.99249 121715312.21149     -8166.77049        49.000  

 16 04 02 14 07 17.6000000  0  1G27                                             
  23161809.46149 121716129.11349     -8171.39549        49.000  

 16 04 02 14 07 17.7000000  0  1G27                                             
  23161964.99249 121716946.41049     -8174.93049        49.000  

 16 04 02 14 07 17.8000000  0  1G27                                             
  23162120.60249 121717764.05149     -8178.55549        49.000  

 16 04 02 14 07 17.9000000  0  1G27                                             
  23162276.25049 121718582.00849     -8181.31249        49.000  

 16 04 02 14 07 18.0000000  0  1G27                                             
  23162431.99249 121719400.35249     -8185.28149        49.000  

 16 04 02 14 07 18.1000000  0  1G27                                             
  23162587.78149 121720219.01249     -8188.55549        49.000  

 16 04 02 14 07 18.2000000  0  1G27                                             
  23162743.64849 121721038.00849     -8191.73049        49.000  

 16 04 02 14 07 18.3000000  0  1G27                                             
  23162899.57049 121721857.40249     -8195.95349        49.000  

 16 04 02 14 07 18.4000000  0  1G27                                             
  23163055.58649 121722677.28149     -8200.98049        49.000  

 16 04 02 14 07 18.5000000  0  1G27                                             
  23163211.68049 121723497.55149     -8204.86349        49.000  

 16 04 02 14 07 18.6000000  0  1G27                                             
  23163367.82049 121724318.15249     -8207.98849        49.000  

 16 04 02 14 07 18.7000000  0  1G27                                             
  23163524.04749 121725139.15649     -8211.94149        49.000  

 16 04 02 14 07 18.8000000  0  1G27                                             
  23163680.34449 121725960.52049     -8215.68849        49.000  

 16 04 02 14 07 18.9000000  0  1G27                                             
  23163836.72749 121726782.29349     -8219.76249        49.000  

 16 04 02 14 07 19.0000000  0  1G27                                             
  23163993.16449 121727604.43449     -8223.30949        49.000  

 16 04 02 14 07 19.1000000  0  1G27                                             
  23164149.68849 121728426.96949     -8227.39849        49.000  

 16 04 02 14 07 19.2000000  0  1G27                                             
  23164306.25849 121729249.82849     -8230.41049        49.000  

 16 04 02 14 07 19.3000000  0  1G27                                             
  23164462.91449 121730073.05149     -8234.04749        49.000  

 16 04 02 14 07 19.4000000  0  1G27                                             
  23164619.65649 121730896.66449     -8238.18449        49.000  

 16 04 02 14 07 19.5000000  0  1G27                                             
  23164776.46149 121731720.67249     -8242.23449        49.000  

 16 04 02 14 07 19.6000000  0  1G27                                             
  23164933.34449 121732545.09449     -8246.30149        49.000  

 16 04 02 14 07 19.7000000  0  1G27                                             
  23165090.28949 121733369.86349     -8249.72349        49.000  

 16 04 02 14 07 19.8000000  0  1G27                                             
  23165247.31249 121734194.98849     -8253.18849        49.000  

 16 04 02 14 07 19.9000000  0  1G27                                             
  23165404.40649 121735020.55149     -8257.53549        49.000  

 16 04 02 14 07 20.0000000  0  1G27                                             
  23165561.53949 121735846.45749     -8261.09449        49.000  

 16 04 02 14 07 20.1000000  0  1G27                                             
  23165718.78149 121736672.74249     -8264.96149        49.000  

 16 04 02 14 07 20.2000000  0  1G27                                             
  23165876.09449 121737499.45749     -8269.22349        49.000  

 16 04 02 14 07 20.3000000  0  1G27                                             
  23166033.48449 121738326.56249     -8273.08649        49.000  

 16 04 02 14 07 20.4000000  0  1G27                                             
  23166190.93849 121739153.98049     -8276.21549        49.000  

 16 04 02 14 07 20.5000000  0  1G27                                             
  23166348.46949 121739981.80149     -8280.10249        49.000  

 16 04 02 14 07 20.6000000  0  1G27                                             
  23166506.05549 121740809.95749     -8283.37149        49.000  

 16 04 02 14 07 20.7000000  0  1G27                                             
  23166663.71949 121741638.48849     -8287.44549        49.000  

 16 04 02 14 07 20.8000000  0  1G27                                             
  23166821.46949 121742467.43449     -8291.50849        49.000  

 16 04 02 14 07 20.9000000  0  1G27                                             
  23166979.28149 121743296.75049     -8295.35949        49.000  

 16 04 02 14 07 21.0000000  0  1G27                                             
  23167137.17249 121744126.46549     -8299.16849        49.000  

 16 04 02 14 07 21.1000000  0  1G27                                             
  23167295.12549 121744956.50849     -8302.20349        49.000  

 16 04 02 14 07 21.2000000  0  1G27                                             
  23167453.15649 121745786.93049     -8306.34449        49.000  

 16 04 02 14 07 21.3000000  0  1G27                                             
  23167611.25049 121746617.73449     -8309.94949        49.000  

 16 04 02 14 07 21.4000000  0  1G27                                             
  23167769.42249 121747448.87949     -8313.55549        49.000  

 16 04 02 14 07 21.5000000  0  1G27                                             
  23167927.67249 121748280.48049     -8317.87949        49.000  

 16 04 02 14 07 21.6000000  0  1G27                                             
  23168085.97749 121749112.41049     -8321.37149        49.000  

 16 04 02 14 07 21.7000000  0  1G27                                             
  23168244.35949 121749944.71949     -8325.09449        49.000  

 16 04 02 14 07 21.8000000  0  1G27                                             
  23168402.82049 121750777.37149     -8328.60249        49.000  

 16 04 02 14 07 21.9000000  0  1G27                                             
  23168561.34449 121751610.44149     -8332.64849        49.000  

 16 04 02 14 07 22.0000000  0  1G27                                             
  23168719.95349 121752443.87949     -8336.53949        49.000  

 16 04 02 14 07 22.1000000  0  1G27                                             
  23168878.60949 121753277.66449     -8339.70349        49.000  

 16 04 02 14 07 22.2000000  0  1G27                                             
  23169037.31249 121754111.84449     -8343.72349        49.000  

 16 04 02 14 07 22.3000000  0  1G27                                             
  23169196.11749 121754946.37149     -8347.32449        49.000  

 16 04 02 14 07 22.4000000  0  1G27                                             
  23169355.00049 121755781.25449     -8350.81249        49.000  

 16 04 02 14 07 22.5000000  0  1G27                                             
  23169513.96149 121756616.60949     -8355.61349        49.000  

 16 04 02 14 07 22.6000000  0  1G27                                             
  23169672.97749 121757452.28949     -8358.98449        49.000  

 16 04 02 14 07 22.7000000  0  1G27                                             
  23169832.08649 121758288.37949     -8362.81249        49.000  

 16 04 02 14 07 22.8000000  0  1G27                                             
  23169991.24249 121759124.82049     -8366.53149        49.000  

 16 04 02 14 07 22.9000000  0  1G27                                             
  23170150.49249 121759961.66849     -8370.44149        49.000  

 16 04 02 14 07 23.0000000  0  1G27                                             
  23170309.77349 121760798.83249     -8373.45749        49.000  

 16 04 02 14 07 23.1000000  0  1G27                                             
  23170469.15649 121761636.42649     -8377.98049        49.000  

 16 04 02 14 07 23.2000000  0  1G27                                             
  23170628.62549 121762474.37549     -8381.25049        49.000  

 16 04 02 14 07 23.3000000  0  1G27                                             
  23170788.14149 121763312.64149     -8384.60549        49.000  

 16 04 02 14 07 23.4000000  0  1G27                                             
  23170947.74249 121764151.30149     -8388.61749        49.000  

 16 04 02 14 07 23.5000000  0  1G27                                             
  23171107.41449 121764990.36749     -8392.88749        49.000  

 16 04 02 14 07 23.6000000  0  1G27                                             
  23171267.15649 121765829.84049     -8397.05949        49.000  

 16 04 02 14 07 23.7000000  0  1G27                                             
  23171426.97749 121766669.67649     -8400.34449        49.000  

 16 04 02 14 07 23.8000000  0  1G27                                             
  23171586.85249 121767509.86749     -8403.95749        49.000  

 16 04 02 14 07 23.9000000  0  1G27                                             
  23171746.81249 121768350.45749     -8407.94549        49.000  

 16 04 02 14 07 24.0000000  0  1G27                                             
  23171906.82849 121769191.38349     -8410.98049        49.000  

 16 04 02 14 07 24.1000000  0  1G27                                             
  23172066.92249 121770032.64849     -8414.72749        49.000  

 16 04 02 14 07 24.2000000  0  1G27                                             
  23172227.06249 121770874.29749     -8418.37149        49.000  

 16 04 02 14 07 24.3000000  0  1G27                                             
  23172387.28949 121771716.28949     -8421.81249        49.000  

 16 04 02 14 07 24.4000000  0  1G27                                             
  23172547.59449 121772558.68849     -8425.78549        49.000  

 16 04 02 14 07 24.5000000  0  1G27                                             
  23172707.96149 121773401.39849     -8429.14849        49.000  

 16 04 02 14 07 24.6000000  0  1G27                                             
  23172868.36749 121774244.50449     -8432.87949        49.000  

 16 04 02 14 07 24.7000000  0  1G27                                             
  23173028.89149 121775088.07049     -8437.74649        49.000  

 16 04 02 14 07 24.8000000  0  1G27                                             
  23173189.48449 121775931.92649     -8440.73849        49.000  

 16 04 02 14 07 24.9000000  0  1G27                                             
  23173350.13349 121776776.12949     -8443.87949        49.000  

 16 04 02 14 07 25.0000000  0  1G27                                             
  23173510.85949 121777620.74249     -8447.98849        49.000  

 16 04 02 14 07 25.1000000  0  1G27                                             
  23173671.64149 121778465.68049     -8451.33249        49.000  

 16 04 02 14 07 25.2000000  0  1G27                                             
  23173832.50049 121779311.04349     -8455.77349        49.000  

 16 04 02 14 07 25.3000000  0  1G27                                             
  23173993.44549 121780156.81249     -8459.94549        49.000  

 16 04 02 14 07 25.4000000  0  1G27                                             
  23174154.43849 121781002.91849     -8462.98049        49.000  

 16 04 02 14 07 25.5000000  0  1G27                                             
  23174315.51649 121781849.39549     -8466.86749        49.000  

 16 04 02 14 07 25.6000000  0  1G27                                             
  23174476.66449 121782696.26249     -8470.64149        49.000  

 16 04 02 14 07 25.7000000  0  1G27                                             
  23174637.89849 121783543.55549     -8474.80549        49.000  

 16 04 02 14 07 25.8000000  0  1G27                                             
  23174799.18849 121784391.13749     -8477.74649        49.000  

 16 04 02 14 07 25.9000000  0  1G27                                             
  23174960.54749 121785239.05149     -8481.09849        49.000  

 16 04 02 14 07 26.0000000  0  1G27                                             
  23175121.98449 121786087.40249     -8485.51249        49.000  

 16 04 02 14 07 26.1000000  0  1G27                                             
  23175283.48449 121786936.09849     -8489.01249        49.000  

 16 04 02 14 07 26.2000000  0  1G27                                             
  23175445.05549 121787785.15649     -8492.49649        49.000  

 16 04 02 14 07 26.3000000  0  1G27                                             
  23175606.70349 121788634.61749     -8496.56649        49.000  

 16 04 02 14 07 26.4000000  0  1G27                                             
  23175768.42249 121789484.43049     -8500.32849        49.000  

 16 04 02 14 07 26.5000000  0  1G27                                             
  23175930.21949 121790334.66049     -8504.37949        49.000  

 16 04 02 14 07 26.6000000  0  1G27                                             
  23176092.07049 121791185.26649     -8508.10549        49.000  

 16 04 02 14 07 26.7000000  0  1G27                                             
  23176253.99249 121792036.16849     -8510.93049        49.000  

 16 04 02 14 07 26.8000000  0  1G27                                             
  23176415.98449 121792887.50049     -8515.28149        49.000  

 16 04 02 14 07 26.9000000  0  1G27                                             
  23176578.05549 121793739.19149     -8519.02349        49.000  

 16 04 02 14 07 27.0000000  0  1G27                                             
  23176740.18049 121794591.21949     -8522.04749        49.000  

 16 04 02 14 07 27.1000000  0  1G27                                             
  23176902.37549 121795443.56649     -8525.38349        49.000  

 16 04 02 14 07 27.2000000  0  1G27                                             
  23177064.64849 121796296.31649     -8529.41449        49.000  

 16 04 02 14 07 27.3000000  0  1G27                                             
  23177226.99249 121797149.43449     -8533.05549        49.000  

 16 04 02 14 07 27.4000000  0  1G27                                             
  23177389.39849 121798002.89549     -8536.74649        49.000  

 16 04 02 14 07 27.5000000  0  1G27                                             
  23177551.89149 121798856.78149     -8540.97749        49.000  

 16 04 02 14 07 27.6000000  0  1G27                                             
  23177714.44549 121799711.00449     -8544.28149        49.000  

 16 04 02 14 07 27.7000000  0  1G27                                             
  23177877.07849 121800565.62949     -8548.04349        49.000  

 16 04 02 14 07 27.8000000  0  1G27                                             
  23178039.76649 121801420.62549     -8552.37949        49.000  

 16 04 02 14 07 27.9000000  0  1G27                                             
  23178202.53949 121802275.99649     -8555.37549        49.000  

 16 04 02 14 07 28.0000000  0  1G27                                             
  23178365.35949 121803131.70349     -8559.12949        49.000  

 16 04 02 14 07 28.1000000  0  1G27                                             
  23178528.26649 121803987.77049     -8562.45349        49.000  

 16 04 02 14 07 28.2000000  0  1G27                                             
  23178691.23449 121804844.19949     -8566.38349        49.000  

 16 04 02 14 07 28.3000000  0  1G27                                             
  23178854.29749 121805701.12149     -8571.59449        49.000  

 16 04 02 14 07 28.4000000  0  1G27                                             
  23179017.42249 121806558.35949     -8574.26249        49.000  

 16 04 02 14 07 28.5000000  0  1G27                                             
  23179180.61749 121807415.96149     -8577.98049        49.000  

 16 04 02 14 07 28.6000000  0  1G27                                             
  23179343.89149 121808273.95749     -8582.01649        49.000  

 16 04 02 14 07 28.7000000  0  1G27                                             
  23179507.23449 121809132.31649     -8585.59049        49.000  

 16 04 02 14 07 28.8000000  0  1G27                                             
  23179670.64849 121809991.08649     -8589.65649        49.000  

 16 04 02 14 07 28.9000000  0  1G27                                             
  23179834.14149 121810850.24249     -8593.66449        49.000  

 16 04 02 14 07 29.0000000  0  1G27                                             
  23179997.68849 121811709.70749     -8596.26249        49.000  

 16 04 02 14 07 29.1000000  0  1G27                                             
  23180161.28949 121812569.44549     -8599.23849        49.000  

 16 04 02 14 07 29.2000000  0  1G27                                             
  23180324.99249 121813429.62549     -8603.48849        49.000  

 16 04 02 14 07 29.3000000  0  1G27                                             
  23180488.75049 121814290.18049     -8607.73449        49.000  

 16 04 02 14 07 29.4000000  0  1G27                                             
  23180652.58649 121815151.14549     -8611.61349        49.000  

 16 04 02 14 07 29.5000000  0  1G27                                             
  23180816.47749 121816012.40249     -8614.59049        49.000  

 16 04 02 14 07 29.6000000  0  1G27                                             
  23180980.44549 121816874.05149     -8618.48049        49.000  

 16 04 02 14 07 29.7000000  0  1G27                                             
  23181144.47749 121817736.03949     -8621.68049        49.000  

 16 04 02 14 07 29.8000000  0  1G27                                             
  23181308.57849 121818598.41049     -8625.80549        49.000  

 16 04 02 14 07 29.9000000  0  1G27                                             
  23181472.77349 121819461.24649     -8630.66849        49.000  

 16 04 02 14 07 30.0000000  0  1G27                                             
  23181637.03149 121820324.44549     -8634.12149        49.000  

 16 04 02 14 07 30.1000000  0  1G27                                             
  23181801.36749 121821188.02049     -8637.69949        49.000  

 16 04 02 14 07 30.2000000  0  1G27                                             
  23181965.75849 121822051.93049     -8640.91449        49.000  

 16 04 02 14 07 30.3000000  0  1G27                                             
  23182130.22749 121822916.18849     -8644.42649        49.000  

 16 04 02 14 07 30.4000000  0  1G27                                             
  23182294.76649 121823780.86349     -8648.82849        49.000  

 16 04 02 14 07 30.5000000  0  1G27                                             
  23182459.38349 121824645.91449     -8652.62949        49.000  

 16 04 02 14 07 30.6000000  0  1G27                                             
  23182624.07049 121825511.38749     -8656.84849        49.000  

 16 04 02 14 07 30.7000000  0  1G27                                             
  23182788.83649 121826377.23449     -8660.50049        49.000  

 16 04 02 14 07 30.8000000  0  1G27                                             
  23182953.66449 121827243.44149     -8663.92649        49.000  

 16 04 02 14 07 30.9000000  0  1G27                                             
  23183118.56249 121828109.99649     -8667.35249        49.000  

 16 04 02 14 07 31.0000000  0  1G27                                             
  23183283.55549 121828976.89549     -8671.08649        49.000  

 16 04 02 14 07 31.1000000  0  1G27                                             
  23183448.59449 121829844.16849     -8674.52749        49.000  

 16 04 02 14 07 31.2000000  0  1G27                                             
  23183613.69549 121830711.76249     -8677.84849        49.000  

 16 04 02 14 07 31.3000000  0  1G27                                             
  23183778.86749 121831579.74249     -8681.69549        49.000  

 16 04 02 14 07 31.4000000  0  1G27                                             
  23183944.11749 121832448.14849     -8686.08249        49.000  

 16 04 02 14 07 31.5000000  0  1G27                                             
  23184109.43049 121833316.90649     -8689.58649        49.000  

 16 04 02 14 07 31.6000000  0  1G27                                             
  23184274.82849 121834185.96549     -8692.59449        49.000  

 16 04 02 14 07 31.7000000  0  1G27                                             
  23184440.28149 121835055.41449     -8696.35949        49.000  

 16 04 02 14 07 31.8000000  0  1G27                                             
  23184605.79749 121835925.21149     -8700.02749        49.000  

 16 04 02 14 07 31.9000000  0  1G27                                             
  23184771.39149 121836795.41449     -8704.00049        49.000  

 16 04 02 14 07 32.0000000  0  1G27                                             
  23184937.05549 121837665.98849     -8707.75449        49.000  

 16 04 02 14 07 32.1000000  0  1G27                                             
  23185102.79749 121838536.94949     -8711.48049        49.000  

 16 04 02 14 07 32.2000000  0  1G27                                             
  23185268.60249 121839408.25849     -8714.91049        49.000  

 16 04 02 14 07 32.3000000  0  1G27                                             
  23185434.47749 121840279.94549     -8718.90649        49.000  

 16 04 02 14 07 32.4000000  0  1G27                                             
  23185600.42249 121841151.99249     -8722.35949        49.000  

 16 04 02 14 07 32.5000000  0  1G27                                             
  23185766.44549 121842024.44149     -8726.58649        49.000  

 16 04 02 14 07 32.6000000  0  1G27                                             
  23185932.54749 121842897.28949     -8730.46149        49.000  

 16 04 02 14 07 32.7000000  0  1G27                                             
  23186098.70349 121843770.46949     -8733.74649        49.000  

 16 04 02 14 07 32.8000000  0  1G27                                             
  23186264.94549 121844644.06649     -8737.63349        49.000  

 16 04 02 14 07 32.9000000  0  1G27                                             
  23186431.23449 121845517.93049     -8740.74649        49.000  

 16 04 02 14 07 33.0000000  0  1G27                                             
  23186597.60249 121846392.21549     -8744.82849        49.000  

 16 04 02 14 07 33.1000000  0  1G27                                             
  23186764.03949 121847266.85949     -8748.38349        49.000  

 16 04 02 14 07 33.2000000  0  1G27                                             
  23186930.55549 121848141.88349     -8752.14549        49.000  

 16 04 02 14 07 33.3000000  0  1G27                                             
  23187097.13349 121849017.26649     -8755.98049        49.000  

 16 04 02 14 07 33.4000000  0  1G27                                             
  23187263.80549 121849893.05149     -8759.67649        49.000  

 16 04 02 14 07 33.5000000  0  1G27                                             
  23187430.53949 121850769.25449     -8764.16049        49.000  

 16 04 02 14 07 33.6000000  0  1G27                                             
  23187597.32049 121851645.78549     -8767.46949        49.000  

 16 04 02 14 07 33.7000000  0  1G27                                             
  23187764.19549 121852522.70749     -8770.91049        49.000  

 16 04 02 14 07 33.8000000  0  1G27                                             
  23187931.14149 121853400.01649     -8775.18049        49.000  

 16 04 02 14 07 33.9000000  0  1G27                                             
  23188098.16449 121854277.73049     -8779.26649        49.000  

 16 04 02 14 07 34.0000000  0  1G27                                             
  23188265.23449 121855155.75449     -8782.10249        49.000  

 16 04 02 14 07 34.1000000  0  1G27                                             
  23188432.37549 121856034.10949     -8785.37949        49.000  

 16 04 02 14 07 34.2000000  0  1G27                                             
  23188599.59449 121856912.86349     -8789.37949        49.000  

 16 04 02 14 07 34.3000000  0  1G27                                             
  23188766.87549 121857791.95749     -8792.92249        49.000  

 16 04 02 14 07 34.4000000  0  1G27                                             
  23188934.23449 121858671.43049     -8796.68049        49.000  

 16 04 02 14 07 34.5000000  0  1G27                                             
  23189101.65649 121859551.22349     -8799.80949        49.000  

 16 04 02 14 07 34.6000000  0  1G27                                             
  23189269.14849 121860431.47349     -8804.42649        49.000  

 16 04 02 14 07 34.7000000  0  1G27                                             
  23189436.71149 121861312.03149     -8807.55549        49.000  

 16 04 02 14 07 34.8000000  0  1G27                                             
  23189604.35949 121862192.96149     -8811.28949        49.000  

 16 04 02 14 07 34.9000000  0  1G27                                             
  23189772.07049 121863074.30549     -8815.62149        49.000  

 16 04 02 14 07 35.0000000  0  1G27                                             
  23189939.87549 121863956.07449     -8819.81649        49.000  

 16 04 02 14 07 35.1000000  0  1G27                                             
  23190107.73449 121864838.17649     -8823.01649        49.000  

 16 04 02 14 07 35.2000000  0  1G27                                             
  23190275.67249 121865720.63349     -8826.44149        49.000  

 16 04 02 14 07 35.3000000  0  1G27                                             
  23190443.66449 121866603.41849     -8829.88749        49.000  

 16 04 02 14 07 35.4000000  0  1G27                                             
  23190611.72749 121867486.59849     -8833.54349        49.000  

 16 04 02 14 07 35.5000000  0  1G27                                             
  23190779.85949 121868370.16049     -8837.48049        49.000  

 16 04 02 14 07 35.6000000  0  1G27                                             
  23190948.07849 121869254.04749     -8840.86749        49.000  

 16 04 02 14 07 35.7000000  0  1G27                                             
  23191116.33649 121870138.27049     -8844.16449        49.000  

 16 04 02 14 07 35.8000000  0  1G27                                             
  23191284.67249 121871022.85249     -8847.59849        49.000  

 16 04 02 14 07 35.9000000  0  1G27                                             
  23191453.07049 121871907.79349     -8851.37149        49.000  

 16 04 02 14 07 36.0000000  0  1G27                                             
  23191621.55549 121872793.18449     -8855.94149        49.000  

 16 04 02 14 07 36.1000000  0  1G27                                             
  23191790.10249 121873678.89849     -8859.13749        49.000  

 16 04 02 14 07 36.2000000  0  1G27                                             
  23191958.71149 121874564.95749     -8862.53149        49.000  

 16 04 02 14 07 36.3000000  0  1G27                                             
  23192127.39849 121875451.40649     -8866.41049        49.000  

 16 04 02 14 07 36.4000000  0  1G27                                             
  23192296.15649 121876338.24249     -8870.19549        49.000  

 16 04 02 14 07 36.5000000  0  1G27                                             
  23192464.96949 121877225.37149     -8873.23049        49.000  

 16 04 02 14 07 36.6000000  0  1G27                                             
  23192633.85949 121878112.89849     -8877.14149        49.000  

 16 04 02 14 07 36.7000000  0  1G27                                             
  23192802.81249 121879000.73849     -8880.34849        49.000  

 16 04 02 14 07 36.8000000  0  1G27                                             
  23192971.84449 121879888.96949     -8884.12149        49.000  

 16 04 02 14 07 36.9000000  0  1G27                                             
  23193140.93849 121880777.57449     -8888.16049        49.000  

 16 04 02 14 07 37.0000000  0  1G27                                             
  23193310.11749 121881666.57849     -8892.23449        49.000  

 16 04 02 14 07 37.1000000  0  1G27                                             
  23193479.35949 121882555.95749     -8895.63749        49.000  

 16 04 02 14 07 37.2000000  0  1G27                                             
  23193648.67249 121883445.69549     -8899.40649        49.000  

 16 04 02 14 07 37.3000000  0  1G27                                             
  23193818.06249 121884335.83249     -8903.28549        49.000  

 16 04 02 14 07 37.4000000  0  1G27                                             
  23193987.52349 121885226.33649     -8907.00449        49.000  

 16 04 02 14 07 37.5000000  0  1G27                                             
  23194157.04749 121886117.20349     -8910.79349        49.000  

 16 04 02 14 07 37.6000000  0  1G27                                             
  23194326.64149 121887008.47749     -8914.71549        49.000  

 16 04 02 14 07 37.7000000  0  1G27                                             
  23194496.32049 121887900.12549     -8918.36349        49.000  

 16 04 02 14 07 37.8000000  0  1G27                                             
  23194666.05549 121888792.07849     -8921.75049        49.000  

 16 04 02 14 07 37.9000000  0  1G27                                             
  23194835.87549 121889684.45749     -8925.70749        49.000  

 16 04 02 14 07 38.0000000  0  1G27                                             
  23195005.75849 121890577.17249     -8929.02049        49.000  

 16 04 02 14 07 38.1000000  0  1G27                                             
  23195175.71149 121891470.28549     -8933.12149        49.000  

 16 04 02 14 07 38.2000000  0  1G27                                             
  23195345.73449 121892363.73849     -8936.43449        49.000  

 16 04 02 14 07 38.3000000  0  1G27                                             
  23195515.81249 121893257.53949     -8939.88749        49.000  

 16 04 02 14 07 38.4000000  0  1G27                                             
  23195685.97749 121894151.75049     -8944.14549        49.000  

 16 04 02 14 07 38.5000000  0  1G27                                             
  23195856.21149 121895046.34049     -8947.68449        49.000  

 16 04 02 14 07 38.6000000  0  1G27                                             
  23196026.52349 121895941.27749     -8951.37549        49.000  

 16 04 02 14 07 38.7000000  0  1G27                                             
  23196196.89149 121896836.58649     -8954.88749        49.000  

 16 04 02 14 07 38.8000000  0  1G27                                             
  23196367.32849 121897732.27049     -8958.93049        49.000  

 16 04 02 14 07 38.9000000  0  1G27                                             
  23196537.84449 121898628.32449     -8962.49249        49.000  

 16 04 02 14 07 39.0000000  0  1G27                                             
  23196708.43049 121899524.77749     -8966.53149        49.000  

 16 04 02 14 07 39.1000000  0  1G27                                             
  23196879.09449 121900421.60549     -8970.39149        49.000  

 16 04 02 14 07 39.2000000  0  1G27                                             
  23197049.81249 121901318.77349     -8973.91849        49.000  

 16 04 02 14 07 39.3000000  0  1G27                                             
  23197220.62549 121902216.40249     -8978.17649        49.000  

 16 04 02 14 07 39.4000000  0  1G27                                             
  23197391.50049 121903114.34449     -8981.38349        49.000  

 16 04 02 14 07 39.5000000  0  1G27                                             
  23197562.44549 121904012.63749     -8984.84449        49.000  

 16 04 02 14 07 39.6000000  0  1G27                                             
  23197733.46149 121904911.33249     -8988.77749        49.000  

 16 04 02 14 07 39.7000000  0  1G27                                             
  23197904.54749 121905810.41449     -8992.67249        49.000  

 16 04 02 14 07 39.8000000  0  1G27                                             
  23198075.70349 121906709.85549     -8996.75449        49.000  

 16 04 02 14 07 39.9000000  0  1G27                                             
  23198246.93049 121907609.67649     -8999.98049        49.000  

 16 04 02 14 07 40.0000000  0  1G27                                             
  23198418.23449 121908509.84049     -9003.54349        49.000  

 16 04 02 14 07 40.1000000  0  1G27                                             
  23198589.59449 121909410.35949     -9007.24649        49.000  

 16 04 02 14 07 40.2000000  0  1G27                                             
  23198761.03149 121910311.22749     -9010.75049        49.000  

 16 04 02 14 07 40.3000000  0  1G27                                             
  23198932.53149 121911212.46949     -9014.37949        49.000  

 16 04 02 14 07 40.4000000  0  1G27                                             
  23199104.09449 121912114.05549     -9017.84849        49.000  

 16 04 02 14 07 40.5000000  0  1G27                                             
  23199275.74249 121913016.06649     -9022.11749        49.000  

 16 04 02 14 07 40.6000000  0  1G27                                             
  23199447.45349 121913918.42249     -9025.48849        49.000  

 16 04 02 14 07 40.7000000  0  1G27                                             
  23199619.24249 121914821.14149     -9029.15649        49.000  

 16 04 02 14 07 40.8000000  0  1G27                                             
  23199791.09449 121915724.23849     -9032.93449        49.000  

 16 04 02 14 07 40.9000000  0  1G27                                             
  23199963.02349 121916627.75449     -9037.27349        49.000  

 16 04 02 14 07 41.0000000  0  1G27                                             
  23200135.03949 121917531.65249     -9041.07449        49.000  

 16 04 02 14 07 41.1000000  0  1G27                                             
  23200307.10949 121918435.90249     -9044.45349        49.000  

 16 04 02 14 07 41.2000000  0  1G27                                             
  23200479.25049 121919340.47349     -9047.56249        49.000  

 16 04 02 14 07 41.3000000  0  1G27                                             
  23200651.46149 121920245.42649     -9051.56249        49.000  

 16 04 02 14 07 41.4000000  0  1G27                                             
  23200823.73449 121921150.77749     -9055.63749        49.000  

 16 04 02 14 07 41.5000000  0  1G27                                             
  23200996.08649 121922056.48449     -9059.15649        49.000  

 16 04 02 14 07 41.6000000  0  1G27                                             
  23201168.50849 121922962.54749     -9062.42649        49.000  

 16 04 02 14 07 41.7000000  0  1G27                                             
  23201340.99249 121923868.98449     -9066.38749        49.000  

 16 04 02 14 07 41.8000000  0  1G27                                             
  23201513.55549 121924775.77049     -9069.75849        49.000  

 16 04 02 14 07 41.9000000  0  1G27                                             
  23201686.17249 121925682.90649     -9073.48049        49.000  

 16 04 02 14 07 42.0000000  0  1G27                                             
  23201858.87549 121926590.46549     -9077.53549        49.000  

 16 04 02 14 07 42.1000000  0  1G27                                             
  23202031.64149 121927498.34849     -9080.58249        49.000  

 16 04 02 14 07 42.2000000  0  1G27                                             
  23202204.46949 121928406.55949     -9084.07049        49.000  

 16 04 02 14 07 42.3000000  0  1G27                                             
  23202377.37549 121929315.19149     -9088.23049        49.000  

 16 04 02 14 07 42.4000000  0  1G27                                             
  23202550.35949 121930224.23449     -9092.55549        49.000  

 16 04 02 14 07 42.5000000  0  1G27                                             
  23202723.39849 121931133.55549     -9095.25449        49.000  

 16 04 02 14 07 42.6000000  0  1G27                                             
  23202896.50849 121932043.23049     -9098.70749        49.000  

 16 04 02 14 07 42.7000000  0  1G27                                             
  23203069.68849 121932953.33249     -9102.96149        49.000  

 16 04 02 14 07 42.8000000  0  1G27                                             
  23203242.94549 121933863.76649     -9106.31249        49.000  

 16 04 02 14 07 42.9000000  0  1G27                                             
  23203416.26649 121934774.55549     -9109.89149        49.000  

 16 04 02 14 07 43.0000000  0  1G27                                             
  23203589.65649 121935685.72349     -9113.50449        49.000  

 16 04 02 14 07 43.1000000  0  1G27                                             
  23203763.10949 121936597.22349     -9116.87149        49.000  

 16 04 02 14 07 43.2000000  0  1G27                                             
  23203936.63349 121937509.11349     -9120.92249        49.000  

 16 04 02 14 07 43.3000000  0  1G27                                             
  23204110.21949 121938421.33649     -9124.08249        49.000  

 16 04 02 14 07 43.4000000  0  1G27                                             
  23204283.87549 121939333.89149     -9127.52049        49.000  

 16 04 02 14 07 43.5000000  0  1G27                                             
  23204457.60249 121940246.83649     -9131.44149        49.000  

 16 04 02 14 07 43.6000000  0  1G27                                             
  23204631.39849 121941160.14849     -9135.08249        49.000  

 16 04 02 14 07 43.7000000  0  1G27                                             
  23204805.27349 121942073.86749     -9138.92249        49.000  

 16 04 02 14 07 43.8000000  0  1G27                                             
  23204979.21949 121942987.92249     -9142.46949        49.000  

 16 04 02 14 07 43.9000000  0  1G27                                             
  23205153.23449 121943902.38349     -9146.41849        49.000  

 16 04 02 14 07 44.0000000  0  1G27                                             
  23205327.32049 121944817.24249     -9150.73849        49.000  

 16 04 02 14 07 44.1000000  0  1G27                                             
  23205501.47749 121945732.44549     -9154.07849        49.000  

 16 04 02 14 07 44.2000000  0  1G27                                             
  23205675.70349 121946647.99649     -9157.42249        49.000  

 16 04 02 14 07 44.3000000  0  1G27                                             
  23205849.99249 121947563.90249     -9160.99249        49.000  

 16 04 02 14 07 44.4000000  0  1G27                                             
  23206024.35949 121948480.20349     -9164.92649        49.000  

 16 04 02 14 07 44.5000000  0  1G27                                             
  23206198.80549 121949396.90649     -9168.96549        49.000  

 16 04 02 14 07 44.6000000  0  1G27                                             
  23206373.30549 121950313.93449     -9172.34449        49.000  

 16 04 02 14 07 44.7000000  0  1G27                                             
  23206547.88349 121951231.33249     -9175.97349        49.000  

 16 04 02 14 07 44.8000000  0  1G27                                             
  23206722.53149 121952149.11349     -9179.67249        49.000  

 16 04 02 14 07 44.9000000  0  1G27                                             
  23206897.23449 121953067.19549     -9182.58249        49.000  

 16 04 02 14 07 45.0000000  0  1G27                                             
  23207072.01649 121953985.66849     -9186.71949        49.000  

 16 04 02 14 07 45.1000000  0  1G27                                             
  23207246.85949 121954904.48849     -9190.18849        49.000  

 16 04 02 14 07 45.2000000  0  1G27                                             
  23207421.77349 121955823.69949     -9194.14149        49.000  

 16 04 02 14 07 45.3000000  0  1G27                                             
  23207596.76649 121956743.28549     -9197.98049        49.000  

 16 04 02 14 07 45.4000000  0  1G27                                             
  23207771.82849 121957663.24249     -9201.40649        49.000  

 16 04 02 14 07 45.5000000  0  1G27                                             
  23207946.96149 121958583.55549     -9204.93449        49.000  

 16 04 02 14 07 45.6000000  0  1G27                                             
  23208122.14149 121959504.12949     -9207.48849        49.000  

 16 04 02 14 07 45.7000000  0  1G27                                             
  23208297.40649 121960425.15649     -9212.33649        49.000  

 16 04 02 14 07 45.8000000  0  1G27                                             
  23208472.74249 121961346.60549     -9216.40249        49.000  

 16 04 02 14 07 45.9000000  0  1G27                                             
  23208648.14149 121962268.34049     -9219.24649        49.000  

 16 04 02 14 07 46.0000000  0  1G27                                             
  23208823.61749 121963190.44949     -9222.99649        49.000  

 16 04 02 14 07 46.1000000  0  1G27                                             
  23208999.16449 121964112.93049     -9226.80149        49.000  

 16 04 02 14 07 46.2000000  0  1G27                                             
  23209174.77349 121965035.78149     -9230.41449        49.000  

 16 04 02 14 07 46.3000000  0  1G27                                             
  23209350.46149 121965959.02049     -9234.56649        49.000  

 16 04 02 14 07 46.4000000  0  1G27                                             
  23209526.21949 121966882.63349     -9238.05549        49.000  

 16 04 02 14 07 46.5000000  0  1G27                                             
  23209702.03949 121967806.56249     -9241.19949        49.000  

 16 04 02 14 07 46.6000000  0  1G27                                             
  23209877.93049 121968730.89149     -9245.16849        49.000  

 16 04 02 14 07 46.7000000  0  1G27                                             
  23210053.89849 121969655.63749     -9249.43849        49.000  

 16 04 02 14 07 46.8000000  0  1G27                                             
  23210229.94549 121970580.73449     -9253.12149        49.000  

 16 04 02 14 07 46.9000000  0  1G27                                             
  23210406.06249 121971506.24249     -9257.09049        49.000  

 16 04 02 14 07 47.0000000  0  1G27                                             
  23210582.23449 121972432.03149     -9259.72349        49.000  

 16 04 02 14 07 47.1000000  0  1G27                                             
  23210758.47749 121973358.18049     -9263.35949        49.000  

 16 04 02 14 07 47.2000000  0  1G27                                             
  23210934.78949 121974284.74649     -9267.58249        49.000  

 16 04 02 14 07 47.3000000  0  1G27                                             
  23211111.18849 121975211.72749     -9271.99249        49.000  

 16 04 02 14 07 47.4000000  0  1G27                                             
  23211287.64849 121976139.04349     -9275.22749        49.000  

 16 04 02 14 07 47.5000000  0  1G27                                             
  23211464.17249 121977066.70749     -9278.46149        49.000  

 16 04 02 14 07 47.6000000  0  1G27                                             
  23211640.75849 121977994.69549     -9281.83649        49.000  

 16 04 02 14 07 47.7000000  0  1G27                                             
  23211817.43849 121978923.15649     -9286.59449        49.000  

 16 04 02 14 07 47.8000000  0  1G27                                             
  23211994.17249 121979851.91849     -9289.56649        49.000  

 16 04 02 14 07 47.9000000  0  1G27                                             
  23212170.97749 121980781.01249     -9292.80149        49.000  

 16 04 02 14 07 48.0000000  0  1G27                                             
  23212347.85249 121981710.50849     -9296.76649        49.000  

 16 04 02 14 07 48.1000000  0  1G27                                             
  23212524.79749 121982640.39549     -9300.77049        49.000  

 16 04 02 14 07 48.2000000  0  1G27                                             
  23212701.81249 121983570.61749     -9304.28949        49.000  

 16 04 02 14 07 48.3000000  0  1G27                                             
  23212878.90649 121984501.24649     -9308.34049        49.000  

 16 04 02 14 07 48.4000000  0  1G27                                             
  23213056.07049 121985432.27349     -9312.35549        49.000  

 16 04 02 14 07 48.5000000  0  1G27                                             
  23213233.29749 121986363.59849     -9315.39549        49.000  

 16 04 02 14 07 48.6000000  0  1G27                                             
  23213410.60249 121987295.31249     -9318.94949        49.000  

 16 04 02 14 07 48.7000000  0  1G27                                             
  23213587.96149 121988227.35549     -9322.34049        49.000  

 16 04 02 14 07 48.8000000  0  1G27                                             
  23213765.39149 121989159.72749     -9325.52349        49.000  

 16 04 02 14 07 48.9000000  0  1G27                                             
  23213942.88349 121990092.47349     -9329.25849        49.000  

 16 04 02 14 07 49.0000000  0  1G27                                             
  23214120.45349 121991025.58649     -9333.09449        49.000  

 16 04 02 14 07 49.1000000  0  1G27                                             
  23214298.08649 121991959.05149     -9336.61349        49.000  

 16 04 02 14 07 49.2000000  0  1G27                                             
  23214475.78949 121992892.87949     -9340.13749        49.000  

 16 04 02 14 07 49.3000000  0  1G27                                             
  23214653.56249 121993827.07849     -9343.94549        49.000  

 16 04 02 14 07 49.4000000  0  1G27                                             
  23214831.41449 121994761.69149     -9348.23449        49.000  

 16 04 02 14 07 49.5000000  0  1G27                                             
  23215009.32849 121995696.62949     -9351.15249        49.000  

 16 04 02 14 07 49.6000000  0  1G27                                             
  23215187.30549 121996631.95349     -9355.35549        49.000  

 16 04 02 14 07 49.7000000  0  1G27                                             
  23215365.37549 121997567.69149     -9359.29749        49.000  

 16 04 02 14 07 49.8000000  0  1G27                                             
  23215543.49249 121998503.72349     -9362.16049        49.000  

 16 04 02 14 07 49.9000000  0  1G27                                             
  23215721.68849 121999440.11349     -9365.84049        49.000  

 16 04 02 14 07 50.0000000  0  1G27                                             
  23215899.95349 122000376.90249     -9369.59049        49.000  

 16 04 02 14 07 50.1000000  0  1G27                                             
  23216078.28149 122001314.03549     -9373.50849        49.000  

 16 04 02 14 07 50.2000000  0  1G27                                             
  23216256.68049 122002251.56649     -9377.30949        49.000  

 16 04 02 14 07 50.3000000  0  1G27                                             
  23216435.14849 122003189.46149     -9380.81249        49.000  

 16 04 02 14 07 50.4000000  0  1G27                                             
  23216613.68849 122004127.66849     -9383.97749        49.000  

 16 04 02 14 07 50.5000000  0  1G27                                             
  23216792.30549 122005066.31649     -9388.45749        49.000  

 16 04 02 14 07 50.6000000  0  1G27                                             
  23216971.00049 122006005.33249     -9392.10549        49.000  

 16 04 02 14 07 50.7000000  0  1G27                                             
  23217149.75049 122006944.68449     -9395.61349        49.000  

 16 04 02 14 07 50.8000000  0  1G27                                             
  23217328.57849 122007884.42249     -9399.27749        49.000  

 16 04 02 14 07 50.9000000  0  1G27                                             
  23217507.46149 122008824.47749     -9402.34049        49.000  

 16 04 02 14 07 51.0000000  0  1G27                                             
  23217686.42249 122009764.89849     -9406.20749        49.000  

 16 04 02 14 07 51.1000000  0  1G27                                             
  23217865.43849 122010705.64849     -9409.55149        49.000  

 16 04 02 14 07 51.2000000  0  1G27                                             
  23218044.53149 122011646.81249     -9413.52349        49.000  

 16 04 02 14 07 51.3000000  0  1G27                                             
  23218223.68849 122012588.26649     -9416.41049        49.000  

 16 04 02 14 07 51.4000000  0  1G27                                             
  23218402.91449 122013530.10549     -9420.28949        49.000  

 16 04 02 14 07 51.5000000  0  1G27                                             
  23218582.21149 122014472.31649     -9424.21949        49.000  

 16 04 02 14 07 51.6000000  0  1G27                                             
  23218761.57849 122015414.88749     -9427.41049        49.000  

 16 04 02 14 07 51.7000000  0  1G27                                             
  23218941.00849 122016357.79349     -9431.00049        49.000  

 16 04 02 14 07 51.8000000  0  1G27                                             
  23219120.51649 122017301.10249     -9435.08649        49.000  

 16 04 02 14 07 51.9000000  0  1G27                                             
  23219300.09449 122018244.76649     -9438.55949        49.000  

 16 04 02 14 07 52.0000000  0  1G27                                             
  23219479.73449 122019188.79749     -9442.28949        49.000  

 16 04 02 14 07 52.1000000  0  1G27                                             
  23219659.44549 122020133.18049     -9445.78149        49.000  

 16 04 02 14 07 52.2000000  0  1G27                                             
  23219839.21949 122021077.93049     -9449.37549        49.000  

 16 04 02 14 07 52.3000000  0  1G27                                             
  23220019.07049 122022023.07049     -9453.33649        49.000  

 16 04 02 14 07 52.4000000  0  1G27                                             
  23220198.98449 122022968.53549     -9456.64849        49.000  

 16 04 02 14 07 52.5000000  0  1G27                                             
  23220378.98449 122023914.43849     -9460.83649        49.000  

 16 04 02 14 07 52.6000000  0  1G27                                             
  23220559.03149 122024860.63349     -9463.79349        49.000  

 16 04 02 14 07 52.7000000  0  1G27                                             
  23220739.16449 122025807.22349     -9467.93449        49.000  

 16 04 02 14 07 52.8000000  0  1G27                                             
  23220919.36749 122026754.20349     -9471.60949        49.000  

 16 04 02 14 07 52.9000000  0  1G27                                             
  23221099.64149 122027701.53549     -9475.25849        49.000  

 16 04 02 14 07 53.0000000  0  1G27                                             
  23221279.98449 122028649.20749     -9478.50849        49.000  

 16 04 02 14 07 53.1000000  0  1G27                                             
  23221460.37549 122029597.18849     -9481.49649        49.000  

 16 04 02 14 07 53.2000000  0  1G27                                             
  23221640.82849 122030545.50849     -9485.07049        49.000  

 16 04 02 14 07 53.3000000  0  1G27                                             
  23221821.35949 122031494.21549     -9488.82049        49.000  

 16 04 02 14 07 53.4000000  0  1G27                                             
  23222001.95349 122032443.21549     -9491.94949        49.000  

 16 04 02 14 07 53.5000000  0  1G27                                             
  23222182.62549 122033392.67249     -9496.46949        49.000  

 16 04 02 14 07 53.6000000  0  1G27                                             
  23222363.37549 122034342.47749     -9500.07049        49.000  

 16 04 02 14 07 53.7000000  0  1G27                                             
  23222544.18849 122035292.65649     -9503.82849        49.000  

 16 04 02 14 07 53.8000000  0  1G27                                             
  23222725.06249 122036243.18449     -9507.27049        49.000  

 16 04 02 14 07 53.9000000  0  1G27                                             
  23222906.02349 122037194.12949     -9511.66049        49.000  

 16 04 02 14 07 54.0000000  0  1G27                                             
  23223087.05549 122038145.43449     -9514.81249        49.000  

 16 04 02 14 07 54.1000000  0  1G27                                             
  23223268.12549 122039096.99249     -9517.62149        49.000  

 16 04 02 14 07 54.2000000  0  1G27                                             
  23223449.29749 122040049.02049     -9522.13349        49.000  

 16 04 02 14 07 54.3000000  0  1G27                                             
  23223630.53149 122041001.41049     -9525.92649        49.000  

 16 04 02 14 07 54.4000000  0  1G27                                             
  23223811.82849 122041954.11749     -9529.29349        49.000  

 16 04 02 14 07 54.5000000  0  1G27                                             
  23223993.19549 122042907.22349     -9533.04349        49.000  

 16 04 02 14 07 54.6000000  0  1G27                                             
  23224174.63349 122043860.65249     -9536.16049        49.000  

 16 04 02 14 07 54.7000000  0  1G27                                             
  23224356.14149 122044814.50449     -9540.46949        49.000  

 16 04 02 14 07 54.8000000  0  1G27                                             
  23224537.71949 122045768.69549     -9543.96149        49.000  

 16 04 02 14 07 54.9000000  0  1G27                                             
  23224719.36749 122046723.26249     -9547.58249        49.000  

 16 04 02 14 07 55.0000000  0  1G27                                             
  23224901.08649 122047678.21949     -9551.73049        49.000  

 16 04 02 14 07 55.1000000  0  1G27                                             
  23225082.87549 122048633.50449     -9554.67649        49.000  

 16 04 02 14 07 55.2000000  0  1G27                                             
  23225264.73449 122049589.18849     -9558.95349        49.000  

 16 04 02 14 07 55.3000000  0  1G27                                             
  23225446.67249 122050545.26649     -9562.78949        49.000  

 16 04 02 14 07 55.4000000  0  1G27                                             
  23225628.68049 122051501.73049     -9566.71149        49.000  

 16 04 02 14 07 55.5000000  0  1G27                                             
  23225810.75849 122052458.55149     -9570.15249        49.000  

 16 04 02 14 07 55.6000000  0  1G27                                             
  23225992.90649 122053415.73449     -9573.69549        49.000  

 16 04 02 14 07 55.7000000  0  1G27                                             
  23226175.12549 122054373.30549     -9577.61349        49.000  

 16 04 02 14 07 55.8000000  0  1G27                                             
  23226357.41449 122055331.25049     -9581.39149        49.000  

 16 04 02 14 07 55.9000000  0  1G27                                             
  23226539.77349 122056289.52049     -9584.73049        49.000  

 16 04 02 14 07 56.0000000  0  1G27                                             
  23226722.20349 122057248.20749     -9588.71949        49.000  

 16 04 02 14 07 56.1000000  0  1G27                                             
  23226904.68849 122058207.16049     -9591.31249        49.000  

 16 04 02 14 07 56.2000000  0  1G27                                             
  23227087.24249 122059166.50449     -9595.30549        49.000  

 16 04 02 14 07 56.3000000  0  1G27                                             
  23227269.86749 122060126.21549     -9598.84449        49.000  

 16 04 02 14 07 56.4000000  0  1G27                                             
  23227452.57049 122061086.32849     -9603.32849        49.000  

 16 04 02 14 07 56.5000000  0  1G27                                             
  23227635.35249 122062046.83249     -9607.07849        49.000  

 16 04 02 14 07 56.6000000  0  1G27                                             
  23227818.18049 122063007.62549     -9609.93849        49.000  

 16 04 02 14 07 56.7000000  0  1G27                                             
  23228001.08649 122063968.82449     -9613.93849        49.000  

 16 04 02 14 07 56.8000000  0  1G27                                             
  23228184.07049 122064930.37949     -9617.43449        49.000  

 16 04 02 14 07 56.9000000  0  1G27                                             
  23228367.10949 122065892.27749     -9620.71549        49.000  

 16 04 02 14 07 57.0000000  0  1G27                                             
  23228550.23449 122066854.55949     -9624.85249        49.000  

 16 04 02 14 07 57.1000000  0  1G27                                             
  23228733.42249 122067817.20749     -9628.18449        49.000  

 16 04 02 14 07 57.2000000  0  1G27                                             
  23228916.67249 122068780.23849     -9632.50049        49.000  

 16 04 02 14 07 57.3000000  0  1G27                                             
  23229100.00049 122069743.62549     -9635.70349        49.000  

 16 04 02 14 07 57.4000000  0  1G27                                             
  23229283.39149 122070707.34449     -9639.01249        49.000  

 16 04 02 14 07 57.5000000  0  1G27                                             
  23229466.84449 122071671.40249     -9642.43849        49.000  

 16 04 02 14 07 57.6000000  0  1G27                                             
  23229650.38349 122072635.86749     -9646.32849        49.000  

 16 04 02 14 07 57.7000000  0  1G27                                             
  23229833.97749 122073600.68049     -9650.25049        49.000  

 16 04 02 14 07 57.8000000  0  1G27                                             
  23230017.64849 122074565.87949     -9654.04349        49.000  

 16 04 02 14 07 57.9000000  0  1G27                                             
  23230201.39149 122075531.45349     -9657.68849        49.000  

 16 04 02 14 07 58.0000000  0  1G27                                             
  23230385.20349 122076497.36749     -9660.99649        49.000  

 16 04 02 14 07 58.1000000  0  1G27                                             
  23230569.07849 122077463.60249     -9664.28149        49.000  

 16 04 02 14 07 58.2000000  0  1G27                                             
  23230753.01649 122078430.21949     -9667.96549        49.000  

 16 04 02 14 07 58.3000000  0  1G27                                             
  23230937.03149 122079397.22349     -9672.05949        49.000  

 16 04 02 14 07 58.4000000  0  1G27                                             
  23231121.10949 122080364.56649     -9675.36349        49.000  

 16 04 02 14 07 58.5000000  0  1G27                                             
  23231305.25849 122081332.26249     -9678.88349        49.000  

 16 04 02 14 07 58.6000000  0  1G27                                             
  23231489.48449 122082300.35549     -9683.02349        49.000  

 16 04 02 14 07 58.7000000  0  1G27                                             
  23231673.77349 122083268.80149     -9686.44949        49.000  

 16 04 02 14 07 58.8000000  0  1G27                                             
  23231858.13349 122084237.64149     -9690.19149        49.000  

 16 04 02 14 07 58.9000000  0  1G27                                             
  23232042.56249 122085206.80149     -9693.43449        49.000  

 16 04 02 14 07 59.0000000  0  1G27                                             
  23232227.04749 122086176.30149     -9696.93849        49.000  

 16 04 02 14 07 59.1000000  0  1G27                                             
  23232411.60949 122087146.18849     -9700.90249        49.000  

 16 04 02 14 07 59.2000000  0  1G27                                             
  23232596.24249 122088116.43449     -9704.38749        49.000  

 16 04 02 14 07 59.3000000  0  1G27                                             
  23232780.93849 122089087.05549     -9708.20349        49.000  

 16 04 02 14 07 59.4000000  0  1G27                                             
  23232965.72749 122090058.09849     -9712.52049        49.000  

 16 04 02 14 07 59.5000000  0  1G27                                             
  23233150.57049 122091029.45749     -9715.58649        49.000  

 16 04 02 14 07 59.6000000  0  1G27                                             
  23233335.47749 122092001.15249     -9718.86349        49.000  

 16 04 02 14 07 59.7000000  0  1G27                                             
  23233520.45349 122092973.23849     -9722.64149        49.000  

 16 04 02 14 07 59.8000000  0  1G27                                             
  23233705.50049 122093945.65249     -9725.97349        49.000  

 16 04 02 14 07 59.9000000  0  1G27                                             
  23233890.61749 122094918.43449     -9729.83649        49.000  

 16 04 02 14 08  0.0000000  0  1G27                                             
  23234075.79749 122095891.58249     -9733.32449        49.000  

 16 04 02 14 08  0.1000000  0  1G27                                             
  23234261.04749 122096865.09049     -9736.85249        49.000  

 16 04 02 14 08  0.2000000  0  1G27                                             
  23234446.36749 122097838.91449     -9740.21149        49.000  

 16 04 02 14 08  0.3000000  0  1G27                                             
  23234631.75849 122098813.12949     -9744.20749        49.000  

 16 04 02 14 08  0.4000000  0  1G27                                             
  23234817.21149 122099787.75049     -9748.17649        49.000  

 16 04 02 14 08  0.5000000  0  1G27                                             
  23235002.73449 122100762.65649     -9750.91849        49.000  

 16 04 02 14 08  0.6000000  0  1G27                                             
  23235188.32849 122101737.93849     -9754.62949        49.000  

 16 04 02 14 08  0.7000000  0  1G27                                             
  23235373.98449 122102713.60249     -9758.77749        49.000  

 16 04 02 14 08  0.8000000  0  1G27                                             
  23235559.73449 122103689.67249     -9762.69549        49.000  

 16 04 02 14 08  0.9000000  0  1G27                                             
  23235745.53149 122104666.04349     -9765.82849        49.000  

 16 04 02 14 08  1.0000000  0  1G27                                             
  23235931.39849 122105642.81649     -9769.83249        49.000  

 16 04 02 14 08  1.1000000  0  1G27                                             
  23236117.34449 122106619.95749     -9773.13349        49.000  

 16 04 02 14 08  1.2000000  0  1G27                                             
  23236303.34449 122107597.40649     -9776.34049        49.000  

 16 04 02 14 08  1.3000000  0  1G27                                             
  23236489.41449 122108575.21549     -9779.95349        49.000  

 16 04 02 14 08  1.4000000  0  1G27                                             
  23236675.56249 122109553.39849     -9783.82449        49.000  

 16 04 02 14 08  1.5000000  0  1G27                                             
  23236861.78149 122110531.98449     -9787.86349        49.000  

 16 04 02 14 08  1.6000000  0  1G27                                             
  23237048.06249 122111510.91849     -9791.32849        49.000  

 16 04 02 14 08  1.7000000  0  1G27                                             
  23237234.41449 122112490.22749     -9795.03149        49.000  

 16 04 02 14 08  1.8000000  0  1G27                                             
  23237420.83649 122113469.86349     -9798.32849        49.000  

 16 04 02 14 08  1.9000000  0  1G27                                             
  23237607.32849 122114449.91449     -9802.51649        49.000  

 16 04 02 14 08  2.0000000  0  1G27                                             
  23237793.89849 122115430.30549     -9805.86749        49.000  

 16 04 02 14 08  2.1000000  0  1G27                                             
  23237980.53149 122116411.05149     -9809.35549        49.000  

 16 04 02 14 08  2.2000000  0  1G27                                             
  23238167.22749 122117392.16449     -9812.93849        49.000  

 16 04 02 14 08  2.3000000  0  1G27                                             
  23238353.99249 122118373.64849     -9816.77349        49.000  

 16 04 02 14 08  2.4000000  0  1G27                                             
  23238540.83649 122119355.47749     -9820.32049        49.000  

 16 04 02 14 08  2.5000000  0  1G27                                             
  23238727.74249 122120337.66049     -9823.70349        49.000  

 16 04 02 14 08  2.6000000  0  1G27                                             
  23238914.71949 122121320.23849     -9827.98449        49.000  

 16 04 02 14 08  2.7000000  0  1G27                                             
  23239101.75849 122122303.14549     -9830.64849        49.000  

 16 04 02 14 08  2.8000000  0  1G27                                             
  23239288.85949 122123286.37149     -9834.15249        49.000  

 16 04 02 14 08  2.9000000  0  1G27                                             
  23239476.03949 122124270.00849     -9838.29749        49.000  

 16 04 02 14 08  3.0000000  0  1G27                                             
  23239663.28949 122125254.02049     -9842.07449        49.000  

 16 04 02 14 08  3.1000000  0  1G27                                             
  23239850.60249 122126238.35949     -9845.41049        49.000  

 16 04 02 14 08  3.2000000  0  1G27                                             
  23240037.99249 122127223.06649     -9848.91449        49.000  

 16 04 02 14 08  3.3000000  0  1G27                                             
  23240225.45349 122128208.17249     -9852.95349        49.000  

 16 04 02 14 08  3.4000000  0  1G27                                             
  23240412.97749 122129193.64549     -9856.80149        49.000  

 16 04 02 14 08  3.5000000  0  1G27                                             
  23240600.58649 122130179.50849     -9860.67249        49.000  

 16 04 02 14 08  3.6000000  0  1G27                                             
  23240788.25849 122131165.73849     -9864.39849        49.000  

 16 04 02 14 08  3.7000000  0  1G27                                             
  23240975.99249 122132152.32449     -9867.84849        49.000  

 16 04 02 14 08  3.8000000  0  1G27                                             
  23241163.79749 122133139.24649     -9870.97349        49.000  

 16 04 02 14 08  3.9000000  0  1G27                                             
  23241351.66449 122134126.47749     -9874.11349        49.000  

 16 04 02 14 08  4.0000000  0  1G27                                             
  23241539.60949 122135114.12949     -9878.40249        49.000  

 16 04 02 14 08  4.1000000  0  1G27                                             
  23241727.60949 122136102.07449     -9881.32849        49.000  

 16 04 02 14 08  4.2000000  0  1G27                                             
  23241915.68849 122137090.44149     -9885.36749        49.000  

 16 04 02 14 08  4.3000000  0  1G27                                             
  23242103.82849 122138079.12949     -9889.08249        49.000  

 16 04 02 14 08  4.4000000  0  1G27                                             
  23242292.03949 122139068.21949     -9892.71149        50.000  

 16 04 02 14 08  4.5000000  0  1G27                                             
  23242480.31249 122140057.59049     -9895.71949        49.000  

 16 04 02 14 08  4.6000000  0  1G27                                             
  23242668.64849 122141047.32049     -9899.25449        49.000  

 16 04 02 14 08  4.7000000  0  1G27                                             
  23242857.06249 122142037.44549     -9903.29349        49.000  

 16 04 02 14 08  4.8000000  0  1G27                                             
  23243045.55549 122143027.98449     -9907.35549        49.000  

 16 04 02 14 08  4.9000000  0  1G27                                             
  23243234.10949 122144018.83249     -9910.32049        49.000  

 16 04 02 14 08  5.0000000  0  1G27                                             
  23243422.72749 122145010.03549     -9913.95749        49.000  

 16 04 02 14 08  5.1000000  0  1G27                                             
  23243611.41449 122146001.57849     -9917.25049        49.000  

 16 04 02 14 08  5.2000000  0  1G27                                             
  23243800.17249 122146993.52049     -9921.21949        49.000  

 16 04 02 14 08  5.3000000  0  1G27                                             
  23243988.99249 122147985.78549     -9924.49249        49.000  

 16 04 02 14 08  5.4000000  0  1G27                                             
  23244177.88349 122148978.45749     -9928.67249        49.000  

 16 04 02 14 08  5.5000000  0  1G27                                             
  23244366.85949 122149971.50849     -9932.73449        49.000  

 16 04 02 14 08  5.6000000  0  1G27                                             
  23244555.89849 122150964.94149     -9936.27049        49.000  

 16 04 02 14 08  5.7000000  0  1G27                                             
  23244745.00849 122151958.69149     -9939.42249        49.000  

 16 04 02 14 08  5.8000000  0  1G27                                             
  23244934.19549 122152952.87149     -9943.68049        49.000  

 16 04 02 14 08  5.9000000  0  1G27                                             
  23245123.44549 122153947.37949     -9947.07049        49.000  

 16 04 02 14 08  6.0000000  0  1G27                                             
  23245312.76649 122154942.23849     -9950.31649        49.000  

 16 04 02 14 08  6.1000000  0  1G27                                             
  23245502.14149 122155937.40649     -9953.52049        49.000  

 16 04 02 14 08  6.2000000  0  1G27                                             
  23245691.58649 122156932.97349     -9957.59849        49.000  

 16 04 02 14 08  6.3000000  0  1G27                                             
  23245881.10249 122157928.87949     -9961.18449        49.000  

 16 04 02 14 08  6.4000000  0  1G27                                             
  23246070.69549 122158925.19549     -9964.97349        49.000  

 16 04 02 14 08  6.5000000  0  1G27                                             
  23246260.34449 122159921.81249     -9968.02349        49.000  

 16 04 02 14 08  6.6000000  0  1G27                                             
  23246450.05549 122160918.71549     -9970.93449        49.000  

 16 04 02 14 08  6.7000000  0  1G27                                             
  23246639.85249 122161916.09449     -9975.79349        49.000  

 16 04 02 14 08  6.8000000  0  1G27                                             
  23246829.72749 122162913.87949     -9980.12549        49.000  

 16 04 02 14 08  6.9000000  0  1G27                                             
  23247019.65649 122163911.96549     -9982.81249        49.000  

 16 04 02 14 08  7.0000000  0  1G27                                             
  23247209.65649 122164910.41449     -9986.34449        49.000  

 16 04 02 14 08  7.1000000  0  1G27                                             
  23247399.71949 122165909.20349     -9989.95349        49.000  

 16 04 02 14 08  7.2000000  0  1G27                                             
  23247589.85949 122166908.40249     -9993.89549        49.000  

 16 04 02 14 08  7.3000000  0  1G27                                             
  23247780.06249 122167907.92649     -9997.04349        49.000  

 16 04 02 14 08  7.4000000  0  1G27                                             
  23247970.32849 122168907.78149    -10000.46149        49.000  

 16 04 02 14 08  7.5000000  0  1G27                                             
  23248160.67249 122169908.04349    -10004.58249        49.000  

 16 04 02 14 08  7.6000000  0  1G27                                             
  23248351.07049 122170908.59049    -10007.20349        49.000  

 16 04 02 14 08  7.7000000  0  1G27                                             
  23248541.54749 122171909.53549    -10011.53949        49.000  

 16 04 02 14 08  7.8000000  0  1G27                                             
  23248732.10249 122172910.90649    -10015.57049        49.000  

 16 04 02 14 08  7.9000000  0  1G27                                             
  23248922.71149 122173912.57449    -10018.53949        49.000  

 16 04 02 14 08  8.0000000  0  1G27                                             
  23249113.39149 122174914.60549    -10022.29749        49.000  

 16 04 02 14 08  8.1000000  0  1G27                                             
  23249304.14149 122175917.00049    -10025.61749        49.000  

 16 04 02 14 08  8.2000000  0  1G27                                             
  23249494.94549 122176919.68049    -10028.71549        49.000  

 16 04 02 14 08  8.3000000  0  1G27                                             
  23249685.83649 122177922.82449    -10033.49249        49.000  

 16 04 02 14 08  8.4000000  0  1G27                                             
  23249876.79749 122178926.31249    -10036.79749        49.000  

 16 04 02 14 08  8.5000000  0  1G27                                             
  23250067.82849 122179930.18849    -10040.73049        49.000  

 16 04 02 14 08  8.6000000  0  1G27                                             
  23250258.91449 122180934.34449    -10043.52349        49.000  

 16 04 02 14 08  8.7000000  0  1G27                                             
  23250450.07049 122181938.87949    -10047.11349        49.000  

 16 04 02 14 08  8.8000000  0  1G27                                             
  23250641.28949 122182943.75049    -10050.56249        49.000  

 16 04 02 14 08  8.9000000  0  1G27                                             
  23250832.58649 122183949.02349    -10054.72349        49.000  

 16 04 02 14 08  9.0000000  0  1G27                                             
  23251023.95349 122184954.64149    -10058.16049        49.000  

 16 04 02 14 08  9.1000000  0  1G27                                             
  23251215.38349 122185960.60949    -10061.58649        49.000  

 16 04 02 14 08  9.2000000  0  1G27                                             
  23251406.87549 122186966.88349    -10064.56249        49.000  

 16 04 02 14 08  9.3000000  0  1G27                                             
  23251598.43849 122187973.53149    -10068.39149        49.000  

 16 04 02 14 08  9.4000000  0  1G27                                             
  23251790.07849 122188980.62149    -10072.79749        49.000  

 16 04 02 14 08  9.5000000  0  1G27                                             
  23251981.78149 122189988.04349    -10076.11349        49.000  

 16 04 02 14 08  9.6000000  0  1G27                                             
  23252173.54749 122190995.78949    -10079.53149        49.000  

 16 04 02 14 08  9.7000000  0  1G27                                             
  23252365.39149 122192003.90649    -10082.76249        49.000  

 16 04 02 14 08  9.8000000  0  1G27                                             
  23252557.28149 122193012.34449    -10086.37149        49.000  

 16 04 02 14 08  9.9000000  0  1G27                                             
  23252749.25849 122194021.16049    -10090.02049        49.000  

 16 04 02 14 08 10.0000000  0  1G27                                             
  23252941.29749 122195030.35249    -10093.69549        49.000  

 16 04 02 14 08 10.1000000  0  1G27                                             
  23253133.39149 122196039.82049    -10096.39849        49.000  

 16 04 02 14 08 10.2000000  0  1G27                                             
  23253325.57049 122197049.67649    -10100.55549        49.000  

 16 04 02 14 08 10.3000000  0  1G27                                             
  23253517.82849 122198059.96949    -10104.92649        49.000  

 16 04 02 14 08 10.4000000  0  1G27                                             
  23253710.14849 122199070.63349    -10108.65249        49.000  

 16 04 02 14 08 10.5000000  0  1G27                                             
  23253902.53149 122200081.58249    -10111.58649        49.000  

 16 04 02 14 08 10.6000000  0  1G27                                             
  23254094.98449 122201092.97349    -10115.80549        49.000  

 16 04 02 14 08 10.7000000  0  1G27                                             
  23254287.50849 122202104.67649    -10118.84449        49.000  

 16 04 02 14 08 10.8000000  0  1G27                                             
  23254480.10249 122203116.74249    -10122.65249        49.000  

 16 04 02 14 08 10.9000000  0  1G27                                             
  23254672.76649 122204129.20749    -10126.50049        49.000  

 16 04 02 14 08 11.0000000  0  1G27                                             
  23254865.48449 122205141.97749    -10129.74649        49.000  

 16 04 02 14 08 11.1000000  0  1G27                                             
  23255058.28149 122206155.12149    -10133.30549        49.000  

 16 04 02 14 08 11.2000000  0  1G27                                             
  23255251.14149 122207168.62949    -10136.99249        49.000  

 16 04 02 14 08 11.3000000  0  1G27                                             
  23255444.07049 122208182.48849    -10140.75849        49.000  

 16 04 02 14 08 11.4000000  0  1G27                                             
  23255637.07049 122209196.72749    -10144.23849        49.000  

 16 04 02 14 08 11.5000000  0  1G27                                             
  23255830.13349 122210211.25449    -10147.23849        49.000  

 16 04 02 14 08 11.6000000  0  1G27                                             
  23256023.26649 122211226.18849    -10151.32449        49.000  

 16 04 02 14 08 11.7000000  0  1G27                                             
  23256216.47749 122212241.50049    -10155.15249        49.000  

 16 04 02 14 08 11.8000000  0  1G27                                             
  23256409.75049 122213257.13749    -10158.38749        49.000  

 16 04 02 14 08 11.9000000  0  1G27                                             
  23256603.09449 122214273.16449    -10162.18849        49.000  

 16 04 02 14 08 12.0000000  0  1G27                                             
  23256796.50849 122215289.53549    -10165.83249        49.000  

 16 04 02 14 08 12.1000000  0  1G27                                             
  23256989.99249 122216306.32449    -10169.54749        49.000  

 16 04 02 14 08 12.2000000  0  1G27                                             
  23257183.52349 122217323.36749    -10172.44149        49.000  

 16 04 02 14 08 12.3000000  0  1G27                                             
  23257377.14149 122218340.80549    -10176.14549        49.000  

 16 04 02 14 08 12.4000000  0  1G27                                             
  23257570.81249 122219358.58649    -10179.62149        49.000  

 16 04 02 14 08 12.5000000  0  1G27                                             
  23257764.55549 122220376.69149    -10183.05949        49.000  

 16 04 02 14 08 12.6000000  0  1G27                                             
  23257958.37549 122221395.22349    -10187.14549        49.000  

 16 04 02 14 08 12.7000000  0  1G27                                             
  23258152.25049 122222414.04349    -10190.26649        49.000  

 16 04 02 14 08 12.8000000  0  1G27                                             
  23258346.20349 122223433.24649    -10193.58649        49.000  

 16 04 02 14 08 12.9000000  0  1G27                                             
  23258540.21149 122224452.78949    -10197.56649        49.000  

 16 04 02 14 08 13.0000000  0  1G27                                             
  23258734.30549 122225472.71949    -10201.05949        49.000  

 16 04 02 14 08 13.1000000  0  1G27                                             
  23258928.46949 122226493.04749    -10205.59849        49.000  

 16 04 02 14 08 13.2000000  0  1G27                                             
  23259122.68849 122227513.71549    -10208.62549        49.000  

 16 04 02 14 08 13.3000000  0  1G27                                             
  23259316.96949 122228534.66449    -10211.54349        49.000  

 16 04 02 14 08 13.4000000  0  1G27                                             
  23259511.32849 122229556.02349    -10215.54349        49.000  

 16 04 02 14 08 13.5000000  0  1G27                                             
  23259705.75849 122230577.76649    -10219.31649        49.000  

 16 04 02 14 08 13.6000000  0  1G27                                             
  23259900.25049 122231599.83249    -10222.63749        49.000  

 16 04 02 14 08 13.7000000  0  1G27                                             
  23260094.82049 122232622.28149    -10226.25849        49.000  

 16 04 02 14 08 13.8000000  0  1G27                                             
  23260289.44549 122233645.05949    -10229.71949        49.000  

 16 04 02 14 08 13.9000000  0  1G27                                             
  23260484.14849 122234668.22349    -10233.55949        49.000  

 16 04 02 14 08 14.0000000  0  1G27                                             
  23260678.92249 122235691.74649    -10237.04349        49.000  

 16 04 02 14 08 14.1000000  0  1G27                                             
  23260873.75049 122236715.56249    -10240.04749        49.000  

 16 04 02 14 08 14.2000000  0  1G27                                             
  23261068.65649 122237739.79749    -10244.31249        49.000  

 16 04 02 14 08 14.3000000  0  1G27                                             
  23261263.62549 122238764.35549    -10247.72349        49.000  

 16 04 02 14 08 14.4000000  0  1G27                                             
  23261458.67249 122239789.33249    -10251.67649        49.000  

 16 04 02 14 08 14.5000000  0  1G27                                             
  23261653.78149 122240814.64149    -10255.03949        49.000  

 16 04 02 14 08 14.6000000  0  1G27                                             
  23261848.95349 122241840.31249    -10258.80549        49.000  

 16 04 02 14 08 14.7000000  0  1G27                                             
  23262044.19549 122242866.33249    -10262.03149        49.000  

 16 04 02 14 08 14.8000000  0  1G27                                             
  23262239.51649 122243892.72349    -10265.85249        49.000  

 16 04 02 14 08 14.9000000  0  1G27                                             
  23262434.89849 122244919.47749    -10269.51649        49.000  

 16 04 02 14 08 15.0000000  0  1G27                                             
  23262630.34449 122245946.55549    -10272.89549        49.000  

 16 04 02 14 08 15.1000000  0  1G27                                             
  23262825.86749 122246974.02049    -10276.47749        49.000  

 16 04 02 14 08 15.2000000  0  1G27                                             
  23263021.45349 122248001.84449    -10279.93049        50.000  

 16 04 02 14 08 15.3000000  0  1G27                                             
  23263217.09449 122249029.95349    -10283.12149        50.000  

 16 04 02 14 08 15.4000000  0  1G27                                             
  23263412.81249 122250058.44549    -10286.87149        50.000  

 16 04 02 14 08 15.5000000  0  1G27                                             
  23263608.60249 122251087.34849    -10290.86749        49.000  

 16 04 02 14 08 15.6000000  0  1G27                                             
  23263804.46149 122252116.60249    -10294.78149        49.000  

 16 04 02 14 08 15.7000000  0  1G27                                             
  23264000.40649 122253146.27349    -10298.57849        49.000  

 16 04 02 14 08 15.8000000  0  1G27                                             
  23264196.39849 122254176.22349    -10301.57049        49.000  

 16 04 02 14 08 15.9000000  0  1G27                                             
  23264392.46149 122255206.53549    -10304.87949        49.000  

 16 04 02 14 08 16.0000000  0  1G27                                             
  23264588.59449 122256237.19949    -10308.47349        49.000  

 16 04 02 14 08 16.1000000  0  1G27                                             
  23264784.79749 122257268.25849    -10312.66049        49.000  

 16 04 02 14 08 16.2000000  0  1G27                                             
  23264981.07849 122258299.71949    -10316.77049        49.000  

 16 04 02 14 08 16.3000000  0  1G27                                             
  23265177.41449 122259331.46149    -10319.29349        49.000  

 16 04 02 14 08 16.4000000  0  1G27                                             
  23265373.82049 122260363.58249    -10323.03149        49.000  

 16 04 02 14 08 16.5000000  0  1G27                                             
  23265570.30549 122261396.10249    -10327.09849        49.000  

 16 04 02 14 08 16.6000000  0  1G27                                             
  23265766.85949 122262429.01649    -10331.22349        49.000  

 16 04 02 14 08 16.7000000  0  1G27                                             
  23265963.47749 122263462.25049    -10334.45749        49.000  

 16 04 02 14 08 16.8000000  0  1G27                                             
  23266160.16449 122264495.85249    -10337.78549        49.000  

 16 04 02 14 08 16.9000000  0  1G27                                             
  23266356.91449 122265529.76249    -10341.09849        49.000  

 16 04 02 14 08 17.0000000  0  1G27                                             
  23266553.73449 122266564.10249    -10345.32849        49.000  

 16 04 02 14 08 17.1000000  0  1G27                                             
  23266750.62549 122267598.76649    -10348.66449        49.000  

 16 04 02 14 08 17.2000000  0  1G27                                             
  23266947.60249 122268633.84049    -10352.39549        49.000  

 16 04 02 14 08 17.3000000  0  1G27                                             
  23267144.62549 122269669.19549    -10355.72749        49.000  

 16 04 02 14 08 17.4000000  0  1G27                                             
  23267341.71949 122270704.94549    -10359.37149        49.000  

 16 04 02 14 08 17.5000000  0  1G27                                             
  23267538.89149 122271741.08649    -10363.59049        49.000  

 16 04 02 14 08 17.6000000  0  1G27                                             
  23267736.11749 122272777.52049    -10366.14849        49.000  

 16 04 02 14 08 17.7000000  0  1G27                                             
  23267933.41449 122273814.32049    -10369.96549        49.000  

 16 04 02 14 08 17.8000000  0  1G27                                             
  23268130.78149 122274851.51649    -10373.84449        49.000  

 16 04 02 14 08 17.9000000  0  1G27                                             
  23268328.22749 122275889.09449    -10377.90249        49.000  

 16 04 02 14 08 18.0000000  0  1G27                                             
  23268525.73449 122276926.96949    -10380.69949        49.000  

 16 04 02 14 08 18.1000000  0  1G27                                             
  23268723.30549 122277965.21149    -10384.41449        49.000  

 16 04 02 14 08 18.2000000  0  1G27                                             
  23268920.93849 122279003.79749    -10387.75849        49.000  

 16 04 02 14 08 18.3000000  0  1G27                                             
  23269118.65649 122280042.79349    -10391.91049        50.000  

 16 04 02 14 08 18.4000000  0  1G27                                             
  23269316.44549 122281082.18049    -10395.74649        49.000  

 16 04 02 14 08 18.5000000  0  1G27                                             
  23269514.30549 122282121.94949    -10399.67649        49.000  

 16 04 02 14 08 18.6000000  0  1G27                                             
  23269712.22749 122283162.00049    -10402.44549        49.000  

 16 04 02 14 08 18.7000000  0  1G27                                             
  23269910.21149 122284202.42649    -10406.24249        49.000  

 16 04 02 14 08 18.8000000  0  1G27                                             
  23270108.26649 122285243.20749    -10409.74249        49.000  

 16 04 02 14 08 18.9000000  0  1G27                                             
  23270306.39849 122286284.42649    -10414.03949        49.000  

 16 04 02 14 08 19.0000000  0  1G27                                             
  23270504.59449 122287325.93849    -10416.96149        49.000  

 16 04 02 14 08 19.1000000  0  1G27                                             
  23270702.85949 122288367.82849    -10420.84849        49.000  

 16 04 02 14 08 19.2000000  0  1G27                                             
  23270901.18849 122289410.06649    -10424.41849        49.000  

 16 04 02 14 08 19.3000000  0  1G27                                             
  23271099.58649 122290452.65249    -10427.78949        49.000  

 16 04 02 14 08 19.4000000  0  1G27                                             
  23271298.05549 122291495.60249    -10431.48449        49.000  

 16 04 02 14 08 19.5000000  0  1G27                                             
  23271496.59449 122292538.93049    -10435.06649        49.000  

 16 04 02 14 08 19.6000000  0  1G27                                             
  23271695.20349 122293582.60949    -10438.81249        49.000  

 16 04 02 14 08 19.7000000  0  1G27                                             
  23271893.88349 122294626.68049    -10442.88749        49.000  

 16 04 02 14 08 19.8000000  0  1G27                                             
  23272092.64149 122295671.17649    -10446.94149        49.000  

 16 04 02 14 08 19.9000000  0  1G27                                             
  23272291.46149 122296715.96949    -10449.89849        49.000  

 16 04 02 14 08 20.0000000  0  1G27                                             
  23272490.35249 122297761.15249    -10453.74649        49.000  

 16 04 02 14 08 20.1000000  0  1G27                                             
  23272689.29749 122298806.64549    -10456.77049        49.000  

 16 04 02 14 08 20.2000000  0  1G27                                             
  23272888.32849 122299852.54749    -10460.98049        49.000  

 16 04 02 14 08 20.3000000  0  1G27                                             
  23273087.42249 122300898.81649    -10464.62549        49.000  

 16 04 02 14 08 20.4000000  0  1G27                                             
  23273286.59449 122301945.41449    -10467.98049        49.000  

 16 04 02 14 08 20.5000000  0  1G27                                             
  23273485.82049 122302992.37949    -10471.57449        49.000  

 16 04 02 14 08 20.6000000  0  1G27                                             
  23273685.12549 122304039.75049    -10475.46549        49.000  

 16 04 02 14 08 20.7000000  0  1G27                                             
  23273884.48449 122305087.39149    -10478.29349        49.000  

 16 04 02 14 08 20.8000000  0  1G27                                             
  23274083.93049 122306135.46949    -10482.67649        49.000  

 16 04 02 14 08 20.9000000  0  1G27                                             
  23274283.43849 122307183.89549    -10486.33649        49.000  

 16 04 02 14 08 21.0000000  0  1G27                                             
  23274483.02349 122308232.68849    -10489.88749        49.000  

 16 04 02 14 08 21.1000000  0  1G27                                             
  23274682.65649 122309281.79349    -10492.86749        49.000  

 16 04 02 14 08 21.2000000  0  1G27                                             
  23274882.35249 122310331.20349    -10496.03149        49.000  

 16 04 02 14 08 21.3000000  0  1G27                                             
  23275082.11749 122311380.96549    -10499.51249        49.000  

 16 04 02 14 08 21.4000000  0  1G27                                             
  23275281.95349 122312431.14549    -10503.68449        49.000  

 16 04 02 14 08 21.5000000  0  1G27                                             
  23275481.85949 122313481.66049    -10507.12549        49.000  

 16 04 02 14 08 21.6000000  0  1G27                                             
  23275681.82849 122314532.47749    -10509.96149        49.000  

 16 04 02 14 08 21.7000000  0  1G27                                             
  23275881.86749 122315583.68449    -10513.96549        49.000  

 16 04 02 14 08 21.8000000  0  1G27                                             
  23276081.97749 122316635.30949    -10518.24649        49.000  

 16 04 02 14 08 21.9000000  0  1G27                                             
  23276282.14849 122317687.23049    -10521.19149        49.000  

 16 04 02 14 08 22.0000000  0  1G27                                             
  23276482.39849 122318739.53949    -10524.84049        49.000  

 16 04 02 14 08 22.1000000  0  1G27                                             
  23276682.71149 122319792.18449    -10528.44949        49.000  

 16 04 02 14 08 22.2000000  0  1G27                                             
  23276883.10249 122320845.19949    -10532.00849        49.000  

 16 04 02 14 08 22.3000000  0  1G27                                             
  23277083.54749 122321898.53949    -10535.42249        49.000  

 16 04 02 14 08 22.4000000  0  1G27                                             
  23277284.06249 122322952.27349    -10539.18049        49.000  

 16 04 02 14 08 22.5000000  0  1G27                                             
  23277484.64849 122324006.34449    -10542.54749        49.000  

 16 04 02 14 08 22.6000000  0  1G27                                             
  23277685.29749 122325060.76649    -10546.26249        49.000  

 16 04 02 14 08 22.7000000  0  1G27                                             
  23277886.01649 122326115.54349    -10549.51649        49.000  

 16 04 02 14 08 22.8000000  0  1G27                                             
  23278086.78949 122327170.62949    -10552.71549        49.000  

 16 04 02 14 08 22.9000000  0  1G27                                             
  23278287.64149 122328226.12149    -10556.85949        49.000  

 16 04 02 14 08 23.0000000  0  1G27                                             
  23278488.56249 122329281.94149    -10560.21949        49.000  

 16 04 02 14 08 23.1000000  0  1G27                                             
  23278689.54749 122330338.12549    -10563.83649        49.000  

 16 04 02 14 08 23.2000000  0  1G27                                             
  23278890.60949 122331394.68849    -10567.41049        49.000  

 16 04 02 14 08 23.3000000  0  1G27                                             
  23279091.72749 122332451.57049    -10570.82049        49.000  

 16 04 02 14 08 23.4000000  0  1G27                                             
  23279292.92249 122333508.87149    -10574.82449        49.000  

 16 04 02 14 08 23.5000000  0  1G27                                             
  23279494.17249 122334566.46949    -10578.07449        49.000  

 16 04 02 14 08 23.6000000  0  1G27                                             
  23279695.50049 122335624.46149    -10581.74249        49.000  

 16 04 02 14 08 23.7000000  0  1G27                                             
  23279896.89849 122336682.80949    -10585.48849        49.000  

 16 04 02 14 08 23.8000000  0  1G27                                             
  23280098.35949 122337741.51249    -10588.91449        49.000  

 16 04 02 14 08 23.9000000  0  1G27                                             
  23280299.88349 122338800.52749    -10591.87949        49.000  

 16 04 02 14 08 24.0000000  0  1G27                                             
  23280501.47749 122339859.93049    -10596.38349        49.000  

 16 04 02 14 08 24.1000000  0  1G27                                             
  23280703.14849 122340919.71549    -10599.59849        49.000  

 16 04 02 14 08 24.2000000  0  1G27                                             
  23280904.87549 122341979.82449    -10603.27349        49.000  

 16 04 02 14 08 24.3000000  0  1G27                                             
  23281106.68849 122343040.35249    -10607.16849        49.000  

 16 04 02 14 08 24.4000000  0  1G27                                             
  23281308.56249 122344101.18049    -10610.27049        49.000  

 16 04 02 14 08 24.5000000  0  1G27                                             
  23281510.50049 122345162.39549    -10613.93449        49.000  

 16 04 02 14 08 24.6000000  0  1G27                                             
  23281712.51649 122346223.96949    -10617.71949        49.000  

 16 04 02 14 08 24.7000000  0  1G27                                             
  23281914.60249 122347285.92249    -10621.46949        49.000  

 16 04 02 14 08 24.8000000  0  1G27                                             
  23282116.74249 122348348.21949    -10624.86749        49.000  

 16 04 02 14 08 24.9000000  0  1G27                                             
  23282318.96949 122349410.91849    -10629.09049        49.000  

 16 04 02 14 08 25.0000000  0  1G27                                             
  23282521.26649 122350473.96549    -10632.44549        49.000  

 16 04 02 14 08 25.1000000  0  1G27                                             
  23282723.61749 122351537.36349    -10635.64849        49.000  

 16 04 02 14 08 25.2000000  0  1G27                                             
  23282926.04749 122352601.10949    -10639.30549        49.000  

 16 04 02 14 08 25.3000000  0  1G27                                             
  23283128.53149 122353665.18049    -10642.64849        49.000  

 16 04 02 14 08 25.4000000  0  1G27                                             
  23283331.09449 122354729.67249    -10646.97349        49.000  

 16 04 02 14 08 25.5000000  0  1G27                                             
  23283533.71949 122355794.48049    -10650.00849        49.000  

 16 04 02 14 08 25.6000000  0  1G27                                             
  23283736.41449 122356859.65649    -10653.65649        49.000  

 16 04 02 14 08 25.7000000  0  1G27                                             
  23283939.18849 122357925.23049    -10657.55949        49.000  

 16 04 02 14 08 25.8000000  0  1G27                                             
  23284142.01649 122358991.08249    -10660.44949        49.000  

 16 04 02 14 08 25.9000000  0  1G27                                             
  23284344.92249 122360057.33649    -10664.50449        49.000  

 16 04 02 14 08 26.0000000  0  1G27                                             
  23284547.89149 122361123.96549    -10668.01249        49.000  

 16 04 02 14 08 26.1000000  0  1G27                                             
  23284750.93049 122362190.93049    -10671.72349        49.000  

 16 04 02 14 08 26.2000000  0  1G27                                             
  23284954.03949 122363258.29749    -10675.60949        49.000  

 16 04 02 14 08 26.3000000  0  1G27                                             
  23285157.21949 122364326.02749    -10679.08649        49.000  

 16 04 02 14 08 26.4000000  0  1G27                                             
  23285360.46149 122365394.06649    -10682.45749        49.000  

 16 04 02 14 08 26.5000000  0  1G27                                             
  23285563.78149 122366462.49649    -10686.07449        49.000  

 16 04 02 14 08 26.6000000  0  1G27                                             
  23285767.15649 122367531.25449    -10689.54349        49.000  

 16 04 02 14 08 26.7000000  0  1G27                                             
  23285970.61749 122368600.43449    -10693.76249        49.000  

 16 04 02 14 08 26.8000000  0  1G27                                             
  23286174.13349 122369669.94949    -10697.09049        49.000  

 16 04 02 14 08 26.9000000  0  1G27                                             
  23286377.71149 122370739.75449    -10699.87549        49.000  

 16 04 02 14 08 27.0000000  0  1G27                                             
  23286581.35949 122371809.93849    -10703.85549        49.000  

 16 04 02 14 08 27.1000000  0  1G27                                             
  23286785.06249 122372880.43849    -10706.73449        49.000  

 16 04 02 14 08 27.2000000  0  1G27                                             
  23286988.84449 122373951.31249    -10710.32849        49.000  

 16 04 02 14 08 27.3000000  0  1G27                                             
  23287192.68849 122375022.52349    -10714.18449        49.000  

 16 04 02 14 08 27.4000000  0  1G27                                             
  23287396.61749 122376094.17649    -10718.24649        49.000  

 16 04 02 14 08 27.5000000  0  1G27                                             
  23287600.60949 122377166.13749    -10721.65249        49.000  

 16 04 02 14 08 27.6000000  0  1G27                                             
  23287804.67249 122378238.50049    -10725.57849        49.000  

 16 04 02 14 08 27.7000000  0  1G27                                             
  23288008.79749 122379311.19549    -10729.04349        49.000  

 16 04 02 14 08 27.8000000  0  1G27                                             
  23288212.99249 122380384.26249    -10732.60549        49.000  

 16 04 02 14 08 27.9000000  0  1G27                                             
  23288417.26649 122381457.71949    -10736.48449        49.000  

 16 04 02 14 08 28.0000000  0  1G27                                             
  23288621.60249 122382531.53549    -10740.25849        49.000  

 16 04 02 14 08 28.1000000  0  1G27                                             
  23288826.01649 122383605.72749    -10743.71549        49.000  

 16 04 02 14 08 28.2000000  0  1G27                                             
  23289030.48449 122384680.23849    -10747.04749        49.000  

 16 04 02 14 08 28.3000000  0  1G27                                             
  23289235.02349 122385755.08249    -10750.26249        49.000  

 16 04 02 14 08 28.4000000  0  1G27                                             
  23289439.62549 122386830.28949    -10753.73849        49.000  

 16 04 02 14 08 28.5000000  0  1G27                                             
  23289644.29749 122387905.85249    -10757.72349        49.000  

 16 04 02 14 08 28.6000000  0  1G27                                             
  23289849.05549 122388981.81649    -10761.69949        49.000  

 16 04 02 14 08 28.7000000  0  1G27                                             
  23290053.85949 122390058.09049    -10764.72749        49.000  

 16 04 02 14 08 28.8000000  0  1G27                                             
  23290258.74249 122391134.77049    -10768.75849        49.000  

 16 04 02 14 08 28.9000000  0  1G27                                             
  23290463.70349 122392211.84049    -10772.78549        49.000  

 16 04 02 14 08 29.0000000  0  1G27                                             
  23290668.72749 122393289.26249    -10776.30149        49.000  

 16 04 02 14 08 29.1000000  0  1G27                                             
  23290873.82049 122394367.01249    -10779.30549        49.000  

 16 04 02 14 08 29.2000000  0  1G27                                             
  23291078.96149 122395445.07849    -10782.40649        49.000  

 16 04 02 14 08 29.3000000  0  1G27                                             
  23291284.18849 122396523.52049    -10786.24649        49.000  

 16 04 02 14 08 29.4000000  0  1G27                                             
  23291489.46149 122397602.27049    -10789.48049        49.000  

 16 04 02 14 08 29.5000000  0  1G27                                             
  23291694.82849 122398681.45349    -10793.67249        49.000  

 16 04 02 14 08 29.6000000  0  1G27                                             
  23291900.25049 122399760.95749    -10797.15649        49.000  

 16 04 02 14 08 29.7000000  0  1G27                                             
  23292105.74249 122400840.81649    -10800.37549        49.000  

 16 04 02 14 08 29.8000000  0  1G27                                             
  23292311.29749 122401921.01249    -10803.89549        49.000  

 16 04 02 14 08 29.9000000  0  1G27                                             
  23292516.91449 122403001.55949    -10807.45349        49.000  

 16 04 02 14 08 30.0000000  0  1G27                                             
  23292722.60249 122404082.45349    -10810.81249        49.000  

 16 04 02 14 08 30.1000000  0  1G27                                             
  23292928.35249 122405163.71549    -10814.64149        49.000  

 16 04 02 14 08 30.2000000  0  1G27                                             
  23293134.18849 122406245.34049    -10818.17649        49.000  

 16 04 02 14 08 30.3000000  0  1G27                                             
  23293340.07849 122407327.33649    -10821.89549        49.000  

 16 04 02 14 08 30.4000000  0  1G27                                             
  23293546.03949 122408409.64849    -10825.01649        49.000  

 16 04 02 14 08 30.5000000  0  1G27                                             
  23293752.07049 122409492.34449    -10828.82049        49.000  

 16 04 02 14 08 30.6000000  0  1G27                                             
  23293958.17249 122410575.38749    -10832.64149        49.000  

 16 04 02 14 08 30.7000000  0  1G27                                             
  23294164.35249 122411658.89849    -10836.94149        49.000  

 16 04 02 14 08 30.8000000  0  1G27                                             
  23294370.58649 122412742.64849    -10839.76249        49.000  

 16 04 02 14 08 30.9000000  0  1G27                                             
  23294576.89149 122413826.81249    -10843.29349        49.000  

 16 04 02 14 08 31.0000000  0  1G27                                             
  23294783.25849 122414911.28949    -10846.60249        49.000  

 16 04 02 14 08 31.1000000  0  1G27                                             
  23294989.68849 122415996.07449    -10849.61749        49.000  

 16 04 02 14 08 31.2000000  0  1G27                                             
  23295196.18849 122417081.27349    -10853.88749        49.000  

 16 04 02 14 08 31.3000000  0  1G27                                             
  23295402.75849 122418166.78949    -10857.09849        49.000  

 16 04 02 14 08 31.4000000  0  1G27                                             
  23295609.40649 122419252.73049    -10861.48049        49.000  

 16 04 02 14 08 31.5000000  0  1G27                                             
  23295816.12549 122420339.02049    -10864.77749        49.000  

 16 04 02 14 08 31.6000000  0  1G27                                             
  23296022.90649 122421425.66049    -10868.54749        49.000  

 16 04 02 14 08 31.7000000  0  1G27                                             
  23296229.75049 122422512.62149    -10871.33649        49.000  

 16 04 02 14 08 31.8000000  0  1G27                                             
  23296436.66449 122423599.96149    -10875.20349        49.000  

 16 04 02 14 08 31.9000000  0  1G27                                             
  23296643.64149 122424687.64149    -10878.71149        49.000  

 16 04 02 14 08 32.0000000  0  1G27                                             
  23296850.69549 122425775.73849    -10882.96149        49.000  

 16 04 02 14 08 32.1000000  0  1G27                                             
  23297057.81249 122426864.13749    -10885.86749        49.000  

 16 04 02 14 08 32.2000000  0  1G27                                             
  23297265.00049 122427952.89549    -10889.50049        49.000  

 16 04 02 14 08 32.3000000  0  1G27                                             
  23297472.25049 122429042.01249    -10892.90249        49.000  

 16 04 02 14 08 32.4000000  0  1G27                                             
  23297679.56249 122430131.45349    -10896.29349        49.000  

 16 04 02 14 08 32.5000000  0  1G27                                             
  23297886.94549 122431221.22749    -10899.58649        49.000  

 16 04 02 14 08 32.6000000  0  1G27                                             
  23298094.39849 122432311.42249    -10903.69549        49.000  

 16 04 02 14 08 32.7000000  0  1G27                                             
  23298301.91449 122433401.92249    -10906.95349        49.000  

 16 04 02 14 08 32.8000000  0  1G27                                             
  23298509.49249 122434492.77349    -10910.23449        49.000  

 16 04 02 14 08 32.9000000  0  1G27                                             
  23298717.14149 122435583.98849    -10913.91849        49.000  

 16 04 02 14 08 33.0000000  0  1G27                                             
  23298924.86749 122436675.58649    -10917.96549        49.000  

 16 04 02 14 08 33.1000000  0  1G27                                             
  23299132.66449 122437767.55149    -10921.60549        49.000  

 16 04 02 14 08 33.2000000  0  1G27                                             
  23299340.51649 122438859.82049    -10924.48849        49.000  

 16 04 02 14 08 33.3000000  0  1G27                                             
  23299548.43849 122439952.46949    -10928.47749        49.000  

 16 04 02 14 08 33.4000000  0  1G27                                             
  23299756.44549 122441045.52349    -10932.30149        49.000  

 16 04 02 14 08 33.5000000  0  1G27                                             
  23299964.50049 122442138.87149    -10935.55549        49.000  

 16 04 02 14 08 33.6000000  0  1G27                                             
  23300172.63349 122443232.62549    -10939.52749        49.000  

 16 04 02 14 08 33.7000000  0  1G27                                             
  23300380.82849 122444326.70349    -10942.65649        49.000  

 16 04 02 14 08 33.8000000  0  1G27                                             
  23300589.08649 122445421.10249    -10945.96149        49.000  

 16 04 02 14 08 33.9000000  0  1G27                                             
  23300797.41449 122446515.86749    -10949.51249        49.000  

 16 04 02 14 08 34.0000000  0  1G27                                             
  23301005.81249 122447611.01249    -10953.27049        49.000  

 16 04 02 14 08 34.1000000  0  1G27                                             
  23301214.28149 122448706.52049    -10957.05949        49.000  

 16 04 02 14 08 34.2000000  0  1G27                                             
  23301422.81249 122449802.35249    -10960.28549        49.000  

 16 04 02 14 08 34.3000000  0  1G27                                             
  23301631.40649 122450898.52749    -10963.67649        49.000  

 16 04 02 14 08 34.4000000  0  1G27                                             
  23301840.07849 122451995.08649    -10967.48849        49.000  

 16 04 02 14 08 34.5000000  0  1G27                                             
  23302048.81249 122453092.00049    -10971.18449        49.000  

 16 04 02 14 08 34.6000000  0  1G27                                             
  23302257.62549 122454189.30549    -10974.85549        49.000  

 16 04 02 14 08 34.7000000  0  1G27                                             
  23302466.48449 122455286.89849    -10978.10549        49.000  

 16 04 02 14 08 34.8000000  0  1G27                                             
  23302675.44549 122456384.97349    -10982.52049        49.000  

 16 04 02 14 08 34.9000000  0  1G27                                             
  23302884.45349 122457483.34449    -10985.92649        49.000  

 16 04 02 14 08 35.0000000  0  1G27                                             
  23303093.53949 122458582.09049    -10989.22349        49.000  

 16 04 02 14 08 35.1000000  0  1G27                                             
  23303302.68849 122459681.15249    -10992.59849        49.000  

 16 04 02 14 08 35.2000000  0  1G27                                             
  23303511.89849 122460780.61349    -10996.75049        49.000  

 16 04 02 14 08 35.3000000  0  1G27                                             
  23303721.18849 122461880.43849    -11000.19949        49.000  

 16 04 02 14 08 35.4000000  0  1G27                                             
  23303930.53949 122462980.59449    -11003.36749        49.000  

 16 04 02 14 08 35.5000000  0  1G27                                             
  23304139.96149 122464081.08249    -11006.71149        49.000  

 16 04 02 14 08 35.6000000  0  1G27                                             
  23304349.44549 122465181.94149    -11010.55949        49.000  

 16 04 02 14 08 35.7000000  0  1G27                                             
  23304559.00049 122466283.18049    -11014.05549        49.000  

 16 04 02 14 08 35.8000000  0  1G27                                             
  23304768.63349 122467384.78549    -11018.14149        49.000  

 16 04 02 14 08 35.9000000  0  1G27                                             
  23304978.32049 122468486.70749    -11020.99649        49.000  

 16 04 02 14 08 36.0000000  0  1G27                                             
  23305188.07049 122469588.97349    -11024.54349        49.000  

 16 04 02 14 08 36.1000000  0  1G27                                             
  23305397.89849 122470691.62949    -11028.67649        49.000  

 16 04 02 14 08 36.2000000  0  1G27                                             
  23305607.81249 122471794.73449    -11033.12949        49.000  

 16 04 02 14 08 36.3000000  0  1G27                                             
  23305817.78149 122472898.12149    -11035.94949        49.000  

 16 04 02 14 08 36.4000000  0  1G27                                             
  23306027.83649 122474001.92649    -11039.99249        49.000  

 16 04 02 14 08 36.5000000  0  1G27                                             
  23306237.94549 122475106.07849    -11043.64849        49.000  

 16 04 02 14 08 36.6000000  0  1G27                                             
  23306448.12549 122476210.57449    -11046.78949        49.000  

 16 04 02 14 08 36.7000000  0  1G27                                             
  23306658.36749 122477315.39549    -11049.97349        49.000  

 16 04 02 14 08 36.8000000  0  1G27                                             
  23306868.66449 122478420.54349    -11053.32449        49.000  

 16 04 02 14 08 36.9000000  0  1G27                                             
  23307079.04749 122479526.09049    -11057.18849        49.000  

 16 04 02 14 08 37.0000000  0  1G27                                             
  23307289.48449 122480631.94949    -11060.51649        49.000  

 16 04 02 14 08 37.1000000  0  1G27                                             
  23307499.99249 122481738.16849    -11064.16049        49.000  

 16 04 02 14 08 37.2000000  0  1G27                                             
  23307710.57049 122482844.73849    -11067.48049        49.000  

 16 04 02 14 08 37.3000000  0  1G27                                             
  23307921.21149 122483951.65649    -11071.15249        49.000  

 16 04 02 14 08 37.4000000  0  1G27                                             
  23308131.92249 122485058.96149    -11075.03949        49.000  

 16 04 02 14 08 37.5000000  0  1G27                                             
  23308342.68849 122486166.53549    -11077.67649        49.000  

 16 04 02 14 08 37.6000000  0  1G27                                             
  23308553.53149 122487274.52749    -11081.73849        49.000  

 16 04 02 14 08 37.7000000  0  1G27                                             
  23308764.43049 122488382.80149    -11084.63749        49.000  

 16 04 02 14 08 37.8000000  0  1G27                                             
  23308975.40649 122489491.48449    -11088.80949        49.000  

 16 04 02 14 08 37.9000000  0  1G27                                             
  23309186.45349 122490600.58249    -11092.99649        49.000  

 16 04 02 14 08 38.0000000  0  1G27                                             
  23309397.57849 122491710.01249    -11096.34449        49.000  

 16 04 02 14 08 38.1000000  0  1G27                                             
  23309608.75849 122492819.80149    -11099.86349        49.000  

 16 04 02 14 08 38.2000000  0  1G27                                             
  23309820.01649 122493929.95349    -11103.29349        49.000  

 16 04 02 14 08 38.3000000  0  1G27                                             
  23310031.33649 122495040.43849    -11106.97349        49.000  

 16 04 02 14 08 38.4000000  0  1G27                                             
  23310242.72749 122496151.32849    -11110.59049        49.000  

 16 04 02 14 08 38.5000000  0  1G27                                             
  23310454.18849 122497262.54349    -11114.12949        49.000  

 16 04 02 14 08 38.6000000  0  1G27                                             
  23310665.71949 122498374.14149    -11117.82849        49.000  

 16 04 02 14 08 38.7000000  0  1G27                                             
  23310877.30549 122499486.05949    -11121.05949        49.000  

 16 04 02 14 08 38.8000000  0  1G27                                             
  23311088.96149 122500598.32049    -11124.33249        49.000  

 16 04 02 14 08 38.9000000  0  1G27                                             
  23311300.68849 122501710.93449    -11128.09449        49.000  

 16 04 02 14 08 39.0000000  0  1G27                                             
  23311512.46949 122502823.87149    -11131.33649        49.000  

 16 04 02 14 08 39.1000000  0  1G27                                             
  23311724.32849 122503937.21149    -11135.33249        49.000  

 16 04 02 14 08 39.2000000  0  1G27                                             
  23311936.25849 122505050.91049    -11138.94149        49.000  

 16 04 02 14 08 39.3000000  0  1G27                                             
  23312148.24249 122506164.89149    -11141.72749        49.000  

 16 04 02 14 08 39.4000000  0  1G27                                             
  23312360.30549 122507279.26249    -11145.64849        49.000  

 16 04 02 14 08 39.5000000  0  1G27                                             
  23312572.43049 122508393.99649    -11149.23849        49.000  

 16 04 02 14 08 39.6000000  0  1G27                                             
  23312784.61749 122509509.07049    -11152.64549        49.000  

 16 04 02 14 08 39.7000000  0  1G27                                             
  23312996.88349 122510624.52049    -11156.16049        49.000  

 16 04 02 14 08 39.8000000  0  1G27                                             
  23313209.20349 122511740.28549    -11159.79749        49.000  

 16 04 02 14 08 39.9000000  0  1G27                                             
  23313421.60949 122512856.46149    -11163.60249        49.000  

 16 04 02 14 08 40.0000000  0  1G27                                             
  23313634.05549 122513972.87949    -11166.06249        49.000  

 16 04 02 14 08 40.1000000  0  1G27                                             
  23313846.58649 122515089.72749    -11170.28149        49.000  

 16 04 02 14 08 40.2000000  0  1G27                                             
  23314059.18049 122516206.91049    -11174.03949        49.000  

 16 04 02 14 08 40.3000000  0  1G27                                             
  23314271.83649 122517324.42649    -11177.21149        49.000  

 16 04 02 14 08 40.4000000  0  1G27                                             
  23314484.54749 122518442.25049    -11180.03549        49.000  

 16 04 02 14 08 40.5000000  0  1G27                                             
  23314697.33649 122519560.43449    -11183.59449        49.000  

 16 04 02 14 08 40.6000000  0  1G27                                             
  23314910.19549 122520679.00849    -11187.41449        49.000  

 16 04 02 14 08 40.7000000  0  1G27                                             
  23315123.11749 122521797.92649    -11191.26649        49.000  

 16 04 02 14 08 40.8000000  0  1G27                                             
  23315336.10249 122522917.17249    -11194.40649        49.000  

 16 04 02 14 08 40.9000000  0  1G27                                             
  23315549.15649 122524036.76249    -11197.74249        49.000  

 16 04 02 14 08 41.0000000  0  1G27                                             
  23315762.27349 122525156.72749    -11201.55949        49.000  

 16 04 02 14 08 41.1000000  0  1G27                                             
  23315975.46949 122526277.07449    -11205.75049        49.000  

 16 04 02 14 08 41.2000000  0  1G27                                             
  23316188.73449 122527397.79749    -11209.31249        49.000  

 16 04 02 14 08 41.3000000  0  1G27                                             
  23316402.07049 122528518.86349    -11212.64849        49.000  

 16 04 02 14 08 41.4000000  0  1G27                                             
  23316615.47749 122529640.35549    -11216.86749        49.000  

 16 04 02 14 08 41.5000000  0  1G27                                             
  23316828.93849 122530762.09849    -11219.23449        49.000  

 16 04 02 14 08 41.6000000  0  1G27                                             
  23317042.46149 122531884.15649    -11222.37949        49.000  

 16 04 02 14 08 41.7000000  0  1G27                                             
  23317256.06249 122533006.63749    -11226.59449        49.000  

 16 04 02 14 08 41.8000000  0  1G27                                             
  23317469.73449 122534129.50449    -11230.56249        49.000  

 16 04 02 14 08 41.9000000  0  1G27                                             
  23317683.47749 122535252.69949    -11234.00849        49.000  

 16 04 02 14 08 42.0000000  0  1G27                                             
  23317897.27349 122536376.24249    -11237.45749        49.000  

 16 04 02 14 08 42.1000000  0  1G27                                             
  23318111.14149 122537500.11749    -11240.51249        49.000  

 16 04 02 14 08 42.2000000  0  1G27                                             
  23318325.07049 122538624.32449    -11243.85949        49.000  

 16 04 02 14 08 42.3000000  0  1G27                                             
  23318539.07049 122539748.87149    -11247.16849        49.000  

 16 04 02 14 08 42.4000000  0  1G27                                             
  23318753.14149 122540873.81249    -11251.34049        49.000  

 16 04 02 14 08 42.5000000  0  1G27                                             
  23318967.26649 122541999.07449    -11254.59849        49.000  

 16 04 02 14 08 42.6000000  0  1G27                                             
  23319181.46149 122543124.66849    -11257.81249        49.000  

 16 04 02 14 08 42.7000000  0  1G27                                             
  23319395.72749 122544250.63349    -11261.52049        49.000  

 16 04 02 14 08 42.8000000  0  1G27                                             
  23319610.05549 122545376.96149    -11265.05949        49.000  

 16 04 02 14 08 42.9000000  0  1G27                                             
  23319824.46149 122546503.67249    -11269.14549        49.000  

 16 04 02 14 08 43.0000000  0  1G27                                             
  23320038.93849 122547630.72349    -11272.50849        49.000  

 16 04 02 14 08 43.1000000  0  1G27                                             
  23320253.46149 122548758.05949    -11275.31249        49.000  

 16 04 02 14 08 43.2000000  0  1G27                                             
  23320468.07049 122549885.83249    -11279.62549        49.000  

 16 04 02 14 08 43.3000000  0  1G27                                             
  23320682.75049 122551013.98849    -11283.62549        49.000  

 16 04 02 14 08 43.4000000  0  1G27                                             
  23320897.49249 122552142.46549    -11286.60249        49.000  

 16 04 02 14 08 43.5000000  0  1G27                                             
  23321112.28949 122553271.24649    -11289.52049        49.000  

 16 04 02 14 08 43.6000000  0  1G27                                             
  23321327.15649 122554400.39149    -11293.40649        49.000  

 16 04 02 14 08 43.7000000  0  1G27                                             
  23321542.09449 122555529.87149    -11296.59849        49.000  

 16 04 02 14 08 43.8000000  0  1G27                                             
  23321757.09449 122556659.73849    -11300.61749        49.000  

 16 04 02 14 08 43.9000000  0  1G27                                             
  23321972.17249 122557789.97349    -11304.19549        49.000  

 16 04 02 14 08 44.0000000  0  1G27                                             
  23322187.30549 122558920.51249    -11307.22349        49.000  

 16 04 02 14 08 44.1000000  0  1G27                                             
  23322402.50049 122560051.35549    -11310.05949        49.000  

 16 04 02 14 08 44.2000000  0  1G27                                             
  23322617.75049 122561182.52749    -11313.43049        49.000  

 16 04 02 14 08 44.3000000  0  1G27                                             
  23322833.07849 122562314.07849    -11317.23849        49.000  

 16 04 02 14 08 44.4000000  0  1G27                                             
  23323048.48449 122563446.02349    -11321.54349        49.000  

 16 04 02 14 08 44.5000000  0  1G27                                             
  23323263.95349 122564578.32849    -11325.13349        49.000  

 16 04 02 14 08 44.6000000  0  1G27                                             
  23323479.50049 122565711.02349    -11328.81649        49.000  

 16 04 02 14 08 44.7000000  0  1G27                                             
  23323695.09449 122566843.98449    -11331.56249        49.000  

 16 04 02 14 08 44.8000000  0  1G27                                             
  23323910.77349 122567977.35249    -11335.45749        49.000  

 16 04 02 14 08 44.9000000  0  1G27                                             
  23324126.50849 122569111.05149    -11339.02749        49.000  

 16 04 02 14 08 45.0000000  0  1G27                                             
  23324342.31249 122570245.12149    -11342.73849        49.000  

 16 04 02 14 08 45.1000000  0  1G27                                             
  23324558.18849 122571379.54749    -11346.25449        49.000  

 16 04 02 14 08 45.2000000  0  1G27                                             
  23324774.13349 122572514.31649    -11349.31649        49.000  

 16 04 02 14 08 45.3000000  0  1G27                                             
  23324990.13349 122573649.42249    -11353.16449        49.000  

 16 04 02 14 08 45.4000000  0  1G27                                             
  23325206.20349 122574784.90649    -11356.54349        49.000  

 16 04 02 14 08 45.5000000  0  1G27                                             
  23325422.33649 122575920.68049    -11359.81649        49.000  

 16 04 02 14 08 45.6000000  0  1G27                                             
  23325638.54749 122577056.86749    -11363.50849        49.000  

 16 04 02 14 08 45.7000000  0  1G27                                             
  23325854.81249 122578193.36349    -11366.91849        49.000  

 16 04 02 14 08 45.8000000  0  1G27                                             
  23326071.14849 122579330.19149    -11369.99649        49.000  

 16 04 02 14 08 45.9000000  0  1G27                                             
  23326287.55549 122580467.40649    -11373.94949        49.000  

 16 04 02 14 08 46.0000000  0  1G27                                             
  23326504.02349 122581604.98849    -11377.77749        49.000  

 16 04 02 14 08 46.1000000  0  1G27                                             
  23326720.56249 122582742.89549    -11380.84449        49.000  

 16 04 02 14 08 46.2000000  0  1G27                                             
  23326937.16449 122583881.12949    -11384.37549        49.000  

 16 04 02 14 08 46.3000000  0  1G27                                             
  23327153.83649 122585019.77349    -11388.33249        49.000  

 16 04 02 14 08 46.4000000  0  1G27                                             
  23327370.57849 122586158.75049    -11391.55949        49.000  

 16 04 02 14 08 46.5000000  0  1G27                                             
  23327587.37549 122587298.02749    -11394.62949        49.000  

 16 04 02 14 08 46.6000000  0  1G27                                             
  23327804.24249 122588437.66049    -11398.40649        49.000  

 16 04 02 14 08 46.7000000  0  1G27                                             
  23328021.18849 122589577.71949    -11402.38349        49.000  

 16 04 02 14 08 46.8000000  0  1G27                                             
  23328238.18849 122590718.04749    -11405.20749        49.000  

 16 04 02 14 08 46.9000000  0  1G27                                             
  23328455.25049 122591858.73049    -11408.60549        49.000  

 16 04 02 14 08 47.0000000  0  1G27                                             
  23328672.38349 122592999.77749    -11412.44149        49.000  

 16 04 02 14 08 47.1000000  0  1G27                                             
  23328889.58649 122594141.18849    -11416.00049        49.000  

 16 04 02 14 08 47.2000000  0  1G27                                             
  23329106.85249 122595282.91849    -11419.41049        49.000  

 16 04 02 14 08 47.3000000  0  1G27                                             
  23329324.18849 122596425.03549    -11423.14149        49.000  

 16 04 02 14 08 47.4000000  0  1G27                                             
  23329541.59449 122597567.50449    -11426.56649        49.000  

 16 04 02 14 08 47.5000000  0  1G27                                             
  23329759.07049 122598710.37149    -11430.59449        49.000  

 16 04 02 14 08 47.6000000  0  1G27                                             
  23329976.61749 122599853.53949    -11433.54749        49.000  

 16 04 02 14 08 47.7000000  0  1G27                                             
  23330194.22749 122600997.10549    -11437.55549        49.000  

 16 04 02 14 08 47.8000000  0  1G27                                             
  23330411.91449 122602141.04749    -11441.30549        49.000  

 16 04 02 14 08 47.9000000  0  1G27                                             
  23330629.66449 122603285.32849    -11444.59049        49.000  

 16 04 02 14 08 48.0000000  0  1G27                                             
  23330847.46949 122604429.92649    -11447.85949        49.000  

 16 04 02 14 08 48.1000000  0  1G27                                             
  23331065.35249 122605574.89549    -11451.55149        49.000  

 16 04 02 14 08 48.2000000  0  1G27                                             
  23331283.28949 122606720.19149    -11454.69949        49.000  

 16 04 02 14 08 48.3000000  0  1G27                                             
  23331501.28949 122607865.81249    -11458.05549        49.000  

 16 04 02 14 08 48.4000000  0  1G27                                             
  23331719.37549 122609011.84049    -11462.23449        49.000  

 16 04 02 14 08 48.5000000  0  1G27                                             
  23331937.51649 122610158.18449    -11465.21149        49.000  

 16 04 02 14 08 48.6000000  0  1G27                                             
  23332155.71949 122611304.87549    -11468.94549        49.000  

 16 04 02 14 08 48.7000000  0  1G27                                             
  23332374.00049 122612451.95349    -11472.64549        49.000  

 16 04 02 14 08 48.8000000  0  1G27                                             
  23332592.35949 122613599.41849    -11476.57849        49.000  

 16 04 02 14 08 48.9000000  0  1G27                                             
  23332810.77349 122614747.20749    -11479.84049        49.000  

 16 04 02 14 08 49.0000000  0  1G27                                             
  23333029.26649 122615895.38749    -11483.77049        49.000  

 16 04 02 14 08 49.1000000  0  1G27                                             
  23333247.81249 122617043.85949    -11486.57849        49.000  

 16 04 02 14 08 49.2000000  0  1G27                                             
  23333466.43049 122618192.67649    -11489.93049        49.000  

 16 04 02 14 08 49.3000000  0  1G27                                             
  23333685.10249 122619341.80949    -11493.16449        49.000  

 16 04 02 14 08 49.4000000  0  1G27                                             
  23333903.85249 122620491.35249    -11497.20349        49.000  

 16 04 02 14 08 49.5000000  0  1G27                                             
  23334122.66449 122621641.21949    -11500.61349        49.000  

 16 04 02 14 08 49.6000000  0  1G27                                             
  23334341.53949 122622791.38749    -11503.43849        49.000  

 16 04 02 14 08 49.7000000  0  1G27                                             
  23334560.47749 122623941.91449    -11507.03549        49.000  

 16 04 02 14 08 49.8000000  0  1G27                                             
  23334779.49249 122625092.86749    -11511.62549        49.000  

 16 04 02 14 08 49.9000000  0  1G27                                             
  23334998.57849 122626244.15249    -11514.85949        49.000  

 16 04 02 14 08 50.0000000  0  1G27                                             
  23335217.71949 122627395.74649    -11517.85249        49.000  

 16 04 02 14 08 50.1000000  0  1G27                                             
  23335436.93849 122628547.72349    -11521.68049        49.000  

 16 04 02 14 08 50.2000000  0  1G27                                             
  23335656.21949 122629700.07049    -11525.53549        49.000  

 16 04 02 14 08 50.3000000  0  1G27                                             
  23335875.57049 122630852.76649    -11528.95349        49.000  

 16 04 02 14 08 50.4000000  0  1G27                                             
  23336094.98449 122632005.79349    -11532.20749        49.000  

 16 04 02 14 08 50.5000000  0  1G27                                             
  23336314.46149 122633159.16049    -11535.26649        49.000  

 16 04 02 14 08 50.6000000  0  1G27                                             
  23336533.99249 122634312.82449    -11538.56249        49.000  

 16 04 02 14 08 50.7000000  0  1G27                                             
  23336753.60949 122635466.91049    -11542.72349        49.000  

 16 04 02 14 08 50.8000000  0  1G27                                             
  23336973.29749 122636621.37549    -11546.62149        49.000  

 16 04 02 14 08 50.9000000  0  1G27                                             
  23337193.04749 122637776.19549    -11550.19949        49.000  

 16 04 02 14 08 51.0000000  0  1G27                                             
  23337412.86749 122638931.32449    -11553.15649        49.000  

 16 04 02 14 08 51.1000000  0  1G27                                             
  23337632.74249 122640086.76649    -11556.18049        49.000  

 16 04 02 14 08 51.2000000  0  1G27                                             
  23337852.69549 122641242.63349    -11560.52749        49.000  

 16 04 02 14 08 51.3000000  0  1G27                                             
  23338072.71149 122642398.85249    -11564.25049        49.000  

 16 04 02 14 08 51.4000000  0  1G27                                             
  23338292.79749 122643555.38749    -11567.11749        49.000  

 16 04 02 14 08 51.5000000  0  1G27                                             
  23338512.93849 122644712.24249    -11570.23849        49.000  

 16 04 02 14 08 51.6000000  0  1G27                                             
  23338733.15649 122645869.48849    -11574.59849        49.000  

 16 04 02 14 08 51.7000000  0  1G27                                             
  23338953.44549 122647027.09449    -11577.77749        49.000  

 16 04 02 14 08 51.8000000  0  1G27                                             
  23339173.78149 122648184.98849    -11580.91849        49.000  

 16 04 02 14 08 51.9000000  0  1G27                                             
  23339394.19549 122649343.27349    -11584.70749        49.000  

 16 04 02 14 08 52.0000000  0  1G27                                             
  23339614.68049 122650501.91449    -11588.43849        49.000  

 16 04 02 14 08 52.1000000  0  1G27                                             
  23339835.21949 122651660.86349    -11591.35249        49.000  

 16 04 02 14 08 52.2000000  0  1G27                                             
  23340055.83649 122652820.18049    -11595.04349        49.000  

 16 04 02 14 08 52.3000000  0  1G27                                             
  23340276.51649 122653979.85949    -11598.36349        49.000  

 16 04 02 14 08 52.4000000  0  1G27                                             
  23340497.24249 122655139.78949    -11601.31649        49.000  

 16 04 02 14 08 52.5000000  0  1G27                                             
  23340718.05549 122656300.15249    -11605.44149        49.000  

 16 04 02 14 08 52.6000000  0  1G27                                             
  23340938.93849 122657460.89849    -11609.58649        49.000  

 16 04 02 14 08 52.7000000  0  1G27                                             
  23341159.89149 122658622.01249    -11613.08249        49.000  

 16 04 02 14 08 52.8000000  0  1G27                                             
  23341380.90649 122659783.46949    -11616.70349        49.000  

 16 04 02 14 08 52.9000000  0  1G27                                             
  23341601.99249 122660945.28949    -11619.79349        49.000  

 16 04 02 14 08 53.0000000  0  1G27                                             
  23341823.14849 122662107.44149    -11623.58249        49.000  

 16 04 02 14 08 53.1000000  0  1G27                                             
  23342044.37549 122663270.00449    -11627.50449        49.000  

 16 04 02 14 08 53.2000000  0  1G27                                             
  23342265.65649 122664432.87549    -11630.67249        49.000  

 16 04 02 14 08 53.3000000  0  1G27                                             
  23342487.00849 122665596.05949    -11633.73849        50.000  

 16 04 02 14 08 53.4000000  0  1G27                                             
  23342708.42249 122666759.60949    -11637.30549        49.000  

 16 04 02 14 08 53.5000000  0  1G27                                             
  23342929.89849 122667923.48849    -11640.69549        49.000  

 16 04 02 14 08 53.6000000  0  1G27                                             
  23343151.44549 122669087.72749    -11644.20749        49.000  

 16 04 02 14 08 53.7000000  0  1G27                                             
  23343373.05549 122670252.26649    -11647.30949        49.000  

 16 04 02 14 08 53.8000000  0  1G27                                             
  23343594.71949 122671417.15249    -11650.70349        49.000  

 16 04 02 14 08 53.9000000  0  1G27                                             
  23343816.46149 122672582.41049    -11654.28149        49.000  

 16 04 02 14 08 54.0000000  0  1G27                                             
  23344038.25849 122673747.95349    -11657.27749        49.000  

 16 04 02 14 08 54.1000000  0  1G27                                             
  23344260.13349 122674913.91049    -11661.23449        49.000  

 16 04 02 14 08 54.2000000  0  1G27                                             
  23344482.05549 122676080.14549    -11664.43049        49.000  

 16 04 02 14 08 54.3000000  0  1G27                                             
  23344704.07049 122677246.83649    -11668.59849        49.000  

 16 04 02 14 08 54.4000000  0  1G27                                             
  23344926.14149 122678413.82049    -11671.94549        49.000  

 16 04 02 14 08 54.5000000  0  1G27                                             
  23345148.28149 122679581.18849    -11675.42249        50.000  

 16 04 02 14 08 54.6000000  0  1G27                                             
  23345370.48449 122680748.86749    -11678.80949        49.000  

 16 04 02 14 08 54.7000000  0  1G27                                             
  23345592.75849 122681916.94549    -11682.68849        49.000  

 16 04 02 14 08 54.8000000  0  1G27                                             
  23345815.10249 122683085.37949    -11686.43849        49.000  

 16 04 02 14 08 54.9000000  0  1G27                                             
  23346037.53149 122684254.25849    -11691.00849        49.000  

 16 04 02 14 08 55.0000000  0  1G27                                             
  23346260.03949 122685423.55949    -11694.99649        49.000  

 16 04 02 14 08 55.1000000  0  1G27                                             
  23346482.58649 122686593.04749    -11696.87549        50.000  

 16 04 02 14 08 55.2000000  0  1G27                                             
  23346705.21149 122687762.96149    -11700.82449        50.000  

 16 04 02 14 08 55.3000000  0  1G27                                             
  23346927.90649 122688933.20349    -11704.21549        50.000  

 16 04 02 14 08 55.4000000  0  1G27                                             
  23347150.65649 122690103.78149    -11707.65249        50.000  

 16 04 02 14 08 55.5000000  0  1G27                                             
  23347373.48449 122691274.73049    -11711.35249        49.000  

 16 04 02 14 08 55.6000000  0  1G27                                             
  23347596.36749 122692446.01249    -11714.71949        50.000  

 16 04 02 14 08 55.7000000  0  1G27                                             
  23347819.30549 122693617.57049    -11717.56649        49.000  

 16 04 02 14 08 55.8000000  0  1G27                                             
  23348042.32849 122694789.52749    -11721.32049        49.000  

 16 04 02 14 08 55.9000000  0  1G27                                             
  23348265.41449 122695961.82849    -11725.03949        49.000  

 16 04 02 14 08 56.0000000  0  1G27                                             
  23348488.57049 122697134.52749    -11728.78149        49.000  

 16 04 02 14 08 56.1000000  0  1G27                                             
  23348711.78149 122698307.51649    -11731.83249        49.000  

 16 04 02 14 08 56.2000000  0  1G27                                             
  23348935.06249 122699480.89849    -11735.84049        49.000  

 16 04 02 14 08 56.3000000  0  1G27                                             
  23349158.42249 122700654.66849    -11739.68049        49.000  

 16 04 02 14 08 56.4000000  0  1G27                                             
  23349381.85249 122701828.78549    -11743.13749        50.000  

 16 04 02 14 08 56.5000000  0  1G27                                             
  23349605.34449 122703003.22749    -11746.14149        50.000  

 16 04 02 14 08 56.6000000  0  1G27                                             
  23349828.89149 122704177.96149    -11749.46549        50.000  

 16 04 02 14 08 56.7000000  0  1G27                                             
  23350052.52349 122705353.16849    -11753.87949        49.000  

 16 04 02 14 08 56.8000000  0  1G27                                             
  23350276.22749 122706528.72349    -11757.62549        50.000  

 16 04 02 14 08 56.9000000  0  1G27                                             
  23350500.00049 122707704.66049    -11761.56249        50.000  

 16 04 02 14 08 57.0000000  0  1G27                                             
  23350723.83649 122708880.94549    -11764.69549        49.000  

 16 04 02 14 08 57.1000000  0  1G27                                             
  23350947.73449 122710057.53149    -11767.71549        49.000  

 16 04 02 14 08 57.2000000  0  1G27                                             
  23351171.69549 122711234.45349    -11770.84449        50.000  

 16 04 02 14 08 57.3000000  0  1G27                                             
  23351395.72749 122712411.76249    -11774.93049        50.000  

 16 04 02 14 08 57.4000000  0  1G27                                             
  23351619.82849 122713589.39849    -11778.25449        49.000  

 16 04 02 14 08 57.5000000  0  1G27                                             
  23351843.98449 122714767.36749    -11781.51249        50.000  

 16 04 02 14 08 57.6000000  0  1G27                                             
  23352068.21149 122715945.66449    -11784.78949        50.000  

 16 04 02 14 08 57.7000000  0  1G27                                             
  23352292.50049 122717124.30549    -11788.25849        50.000  

 16 04 02 14 08 57.8000000  0  1G27                                             
  23352516.86749 122718303.36749    -11792.57449        50.000  

 16 04 02 14 09 19.8000000  0  2G09G23                                          
  23345196.28949 122679833.63759      9936.25449        50.000  

  22860626.47749 120133402.15259    -14467.66049        49.000  

 16 04 02 14 09 19.9000000  0  2G09G23                                          
  23345007.27349 122678840.34449      9929.82049        50.000  

  22860901.85249 120134849.27049    -14474.50849        49.000  

 16 04 02 14 09 20.0000000  0  2G09G23                                          
  23344818.33649 122677847.62549      9923.69149        50.000  

  22861177.37549 120136297.02749    -14481.22349        49.000  

 16 04 02 14 09 20.1000000  0  2G09G23                                          
  23344629.54749 122676855.53549      9917.57849        50.000  

  22861453.00049 120137745.44149    -14487.39849        49.000  

 16 04 02 14 09 20.2000000  0  2G09G23                                          
  23344440.85249 122675864.08649      9911.49249        50.000  

  22861728.74249 120139194.55949    -14494.24649        49.000  

 16 04 02 14 09 20.3000000  0  2G09G23                                          
  23344252.28949 122674873.16049      9905.74649        50.000  

  22862004.60949 120140644.23849    -14500.47349        49.000  

 16 04 02 14 09 20.4000000  0  2G09G23                                          
  23344063.79749 122673882.84049      9899.89149        50.000  

  22862280.57849 120142094.57849    -14506.82049        49.000  

 16 04 02 14 09 20.5000000  0  2G09G23                                          
  23343875.46149 122672893.14849      9893.77349        50.000  

  22862556.69549 120143545.58249    -14513.36749        49.000  

 16 04 02 14 09 20.6000000  0  2G09G23                                          
  23343687.27349 122671904.06649      9887.28549        50.000  

  22862832.93849 120144997.26649    -14520.41049        49.000  

 16 04 02 14 09 20.7000000  0  2G09G23                                          
  23343499.17249 122670915.61749      9881.16049        50.000  

  22863109.31249 120146449.60249    -14526.87149        49.000  

 16 04 02 14 09 20.8000000  0  2G09G23                                          
  23343311.18049 122669927.71549      9875.99649        50.000  

  22863385.78149 120147902.53549    -14532.61349        49.000  

 16 04 02 14 09 20.9000000  0  2G09G23                                          
  23343123.29749 122668940.37149      9870.14849        50.000  

  22863662.38349 120149356.07449    -14538.83649        49.000  

 16 04 02 14 09 21.0000000  0  2G09G23                                          
  23342935.54749 122667953.69949      9863.56249        50.000  

  22863939.10249 120150810.34049    -14545.87949        49.000  

 16 04 02 14 09 21.1000000  0  2G09G23                                          
  23342747.89849 122666967.58649      9857.80149        50.000  

  22864215.95349 120152265.20749    -14552.25449        49.000  

 16 04 02 14 09 21.2000000  0  2G09G23                                          
  23342560.39849 122665982.12149      9851.37149        50.000  

  22864492.93049 120153720.77349    -14559.12949        49.000  

 16 04 02 14 09 21.3000000  0  2G09G23                                          
  23342372.98449 122664997.23849      9845.46949        50.000  

  22864770.03149 120155176.94949    -14565.39149        49.000  

 16 04 02 14 09 21.4000000  0  2G09G23                                          
  23342185.68849 122664013.02749      9838.88749        50.000  

  22865047.28149 120156633.86749    -14572.47349        49.000  

 16 04 02 14 09 21.5000000  0  2G09G23                                          
  23341998.50049 122663029.33249      9833.70749        50.000  

  22865324.62549 120158091.32849    -14578.13749        49.000  

 16 04 02 14 09 21.6000000  0  2G09G23                                          
  23341811.42249 122662046.21149      9827.90249        50.000  

  22865602.12549 120159549.42249    -14584.37549        49.000  

 16 04 02 14 09 21.7000000  0  2G09G23                                          
  23341624.46949 122661063.75849      9821.38349        50.000  

  22865879.72749 120161008.22749    -14591.43449        49.000  

 16 04 02 14 09 21.8000000  0  2G09G23                                          
  23341437.63349 122660081.91849      9815.16849        50.000  

  22866157.43849 120162467.67649    -14597.88749        49.000  

 16 04 02 14 09 21.9000000  0  2G09G23                                          
  23341250.90649 122659100.67649      9809.11349        50.000  

  22866435.28149 120163927.77749    -14604.50049        49.000  

 16 04 02 14 09 22.0000000  0  2G09G23                                          
  23341064.32849 122658119.98849      9803.53949        50.000  

  22866713.24249 120165388.47749    -14610.37949        49.000  

 16 04 02 14 09 22.1000000  0  2G09G23                                          
  23340877.82049 122657139.89549      9797.87549        50.000  

  22866991.32849 120166849.82449    -14616.61749        49.000  

 16 04 02 14 09 22.2000000  0  2G09G23                                          
  23340691.42249 122656160.35549      9792.09449        50.000  

  22867269.52349 120168311.76649    -14622.81249        49.000  

 16 04 02 14 09 22.3000000  0  2G09G23                                          
  23340505.14149 122655181.45749      9785.67649        50.000  

  22867547.85949 120169774.39549    -14629.84049        49.000  

 16 04 02 14 09 22.4000000  0  2G09G23                                          
  23340318.99249 122654203.20749      9779.18849        50.000  

  22867826.31249 120171237.70749    -14636.57849        49.000  

 16 04 02 14 09 22.5000000  0  2G09G23                                          
  23340132.93849 122653225.49649      9773.65649        50.000  

  22868104.88349 120172701.62149    -14642.71549        49.000  

 16 04 02 14 09 22.6000000  0  2G09G23                                          
  23339946.99249 122652248.42649      9767.64149        50.000  

  22868383.58649 120174166.20349    -14649.10249        49.000  

 16 04 02 14 09 22.7000000  0  2G09G23                                          
  23339761.17249 122651271.91049      9761.76249        50.000  

  22868662.39849 120175631.39149    -14655.40649        49.000  

 16 04 02 14 09 22.8000000  0  2G09G23                                          
  23339575.48449 122650296.05149      9755.28949        50.000  

  22868941.35249 120177097.28949    -14662.33649        49.000  

 16 04 02 14 09 22.9000000  0  2G09G23                                          
  23339389.89849 122649320.77049      9749.56249        50.000  

  22869220.41449 120178563.80149    -14668.55549        49.000  

 16 04 02 14 09 23.0000000  0  2G09G23                                          
  23339204.40649 122648346.09449      9743.46549        50.000  

  22869499.60249 120180030.96149    -14675.10249        49.000  

 16 04 02 14 09 23.1000000  0  2G09G23                                          
  23339019.04749 122647372.02749      9737.35949        50.000  

  22869778.91449 120181498.77349    -14681.46549        49.000  

 16 04 02 14 09 23.2000000  0  2G09G23                                          
  23338833.78149 122646398.52349      9732.05949        50.000  

  22870058.36749 120182967.20349    -14687.35549        49.000  

 16 04 02 14 09 23.3000000  0  2G09G23                                          
  23338648.64849 122645425.61349      9726.07049        50.000  

  22870337.92249 120184436.26649    -14693.73049        49.000  

 16 04 02 14 09 23.4000000  0  2G09G23                                          
  23338463.61749 122644453.28949      9719.67249        50.000  

  22870617.60949 120185905.95749    -14700.53149        49.000  

 16 04 02 14 09 23.5000000  0  2G09G23                                          
  23338278.71949 122643481.64849      9713.19149        50.000  

  22870897.42249 120187376.37549    -14707.53549        49.000  

 16 04 02 14 09 23.6000000  0  2G09G23                                          
  23338093.96149 122642510.59849      9707.05549        50.000  

  22871177.34449 120188847.43049    -14714.03549        49.000  

 16 04 02 14 09 23.7000000  0  2G09G23                                          
  23337909.29749 122641540.17649      9700.87949        50.000  

  22871457.40649 120190319.15249    -14720.68049        49.000  

 16 04 02 14 09 23.8000000  0  2G09G23                                          
  23337724.74249 122640570.35249      9694.85949        50.000  

  22871737.58649 120191791.52749    -14727.20749        49.000  

 16 04 02 14 09 23.9000000  0  2G09G23                                          
  23337540.31249 122639601.16049      9688.78949        50.000  

  22872017.89149 120193264.55949    -14733.66849        49.000  

 16 04 02 14 09 24.0000000  0  2G09G23                                          
  23337355.97749 122638632.49649      9683.26249        50.000  

  22872298.30549 120194738.18849    -14739.70349        49.000  

 16 04 02 14 09 24.1000000  0  2G09G23                                          
  23337171.76649 122637664.45749      9677.32049        50.000  

  22872578.85249 120196212.47349    -14746.07449        49.000  

 16 04 02 14 09 24.2000000  0  2G09G23                                          
  23336987.67249 122636697.02749      9670.98049        50.000  

  22872859.52349 120197687.39849    -14752.73449        49.000  

 16 04 02 14 09 24.3000000  0  2G09G23                                          
  23336803.68849 122635730.18849      9665.28949        50.000  

  22873140.32049 120199162.97749    -14758.93849        49.000  

 16 04 02 14 09 24.4000000  0  2G09G23                                          
  23336619.82049 122634763.92649      9659.28549        50.000  

  22873421.23449 120200639.16449    -14765.32849        49.000  

 16 04 02 14 09 24.5000000  0  2G09G23                                          
  23336436.06249 122633798.29749      9653.11749        50.000  

  22873702.27349 120202116.03149    -14772.00449        49.000  

 16 04 02 14 09 24.6000000  0  2G09G23                                          
  23336252.41449 122632833.21949      9647.65649        50.000  

  22873983.39149 120203593.50049    -14777.91849        49.000  

 16 04 02 14 09 24.7000000  0  2G09G23                                          
  23336068.89149 122631868.76649      9641.41849        50.000  

  22874264.66449 120205071.62949    -14784.62149        49.000  

 16 04 02 14 09 24.8000000  0  2G09G23                                          
  23335885.45349 122630904.93449      9634.80149        50.000  

  22874546.07049 120206550.41849    -14791.48049        49.000  

 16 04 02 14 09 24.9000000  0  2G09G23                                          
  23335702.15649 122629941.69949      9629.08249        50.000  

  22874827.60249 120208029.85549    -14797.80549        49.000  

 16 04 02 14 09 25.0000000  0  2G09G23                                          
  23335518.99249 122628979.09849      9622.74249        50.000  

  22875109.22749 120209509.96549    -14804.53149        49.000  

 16 04 02 14 09 25.1000000  0  2G09G23                                          
  23335335.94549 122628017.15649      9615.98849        50.000  

  22875391.01649 120210990.77349    -14811.58649        49.000  

 16 04 02 14 09 25.2000000  0  2G09G23                                          
  23335153.00849 122627055.75049      9610.77049        50.000  

  22875672.91449 120212472.17249    -14817.36749        49.000  

 16 04 02 14 09 25.3000000  0  2G09G23                                          
  23334970.17249 122626094.95349      9604.63749        50.000  

  22875954.93849 120213954.21549    -14823.82449        49.000  

 16 04 02 14 09 25.4000000  0  2G09G23                                          
  23334787.46149 122625134.78949      9598.39149        50.000  

  22876237.09449 120215436.94149    -14830.74249        49.000  

 16 04 02 14 09 25.5000000  0  2G09G23                                          
  23334604.85249 122624175.16449      9593.19149        50.000  

  22876519.35949 120216920.23049    -14836.14149        49.000  

 16 04 02 14 09 25.6000000  0  2G09G23                                          
  23334422.33649 122623216.14149      9587.02049        50.000  

  22876801.76649 120218404.16849    -14842.70749        49.000  

 16 04 02 14 09 25.7000000  0  2G09G23                                          
  23334239.96949 122622257.77049      9580.44549        50.000  

  22877084.28149 120219888.81249    -14849.86749        49.000  

 16 04 02 14 09 25.8000000  0  3G09G23G16                                       
  23334057.68849 122621300.01649      9574.07849        50.000  

  22877366.92249 120221374.10549    -14856.53949        49.000  

  23116093.65649 121475891.80559     14521.42649        49.000  

 16 04 02 14 09 25.9000000  0  3G09G23G16                                       
  23333875.55549 122620342.88349      9568.07449        50.000  

  22877649.68849 120222860.06649    -14863.03149        49.000  

  23115817.35949 121474439.86749     14517.16449        49.000  

 16 04 02 14 09 26.0000000  0  3G09G23G16                                       
  23333693.53149 122619386.30949      9562.41849        50.000  

  22877932.60249 120224346.63749    -14869.13749        49.000  

  23115541.10949 121472988.30149     14513.37149        49.000  

 16 04 02 14 09 26.1000000  0  3G09G23G16                                       
  23333511.62549 122618430.35249      9556.47749        50.000  

  22878215.60949 120225833.85949    -14875.41849        49.000  

  23115264.96949 121471537.16849     14509.23449        49.000  

 16 04 02 14 09 26.2000000  0  3G09G23G16                                       
  23333329.85249 122617475.01649      9550.18049        50.000  

  22878498.75049 120227321.73849    -14882.15649        49.000  

  23114988.91449 121470086.47349     14504.74649        49.000  

 16 04 02 14 09 26.3000000  0  3G09G23G16                                       
  23333148.17249 122616520.28949      9543.97349        50.000  

  22878782.00849 120228810.27349    -14888.65249        49.000  

  23114712.93849 121468636.19949     14500.59049        49.000  

 16 04 02 14 09 26.4000000  0  3G09G23G16                                       
  23332966.60949 122615566.13349      9538.19949        50.000  

  22879065.39149 120230299.42649    -14894.99649        49.000  

  23114437.04749 121467186.32049     14496.51649        49.000  

 16 04 02 14 09 26.5000000  0  3G09G23G16                                       
  23332785.15649 122614612.59449      9532.19949        50.000  

  22879348.89149 120231789.22749    -14901.35949        49.000  

  23114161.21949 121465736.87149     14492.27349        49.000  

 16 04 02 14 09 26.6000000  0  3G09G23G16                                       
  23332603.81249 122613659.67249      9525.72749        50.000  

  22879632.52349 120233279.69149    -14908.19949        49.000  

  23113885.46149 121464287.85249     14487.80949        49.000  

 16 04 02 14 09 26.7000000  0  3G09G23G16                                       
  23332422.59449 122612707.37149      9519.97349        50.000  

  22879916.28149 120234770.81649    -14914.42249        49.000  

  23113609.80549 121462839.27749     14483.76649        49.000  

 16 04 02 14 09 26.8000000  0  3G09G23G16                                       
  23332241.47749 122611755.66049      9513.58249        50.000  

  22880200.14849 120236262.57849    -14921.25849        49.000  

  23113334.23449 121461391.09849     14479.17649        49.000  

 16 04 02 14 09 26.9000000  0  3G09G23G16                                       
  23332060.49249 122610804.58649      9507.72749        50.000  

  22880484.15649 120237755.01649    -14927.57049        49.000  

  23113058.74249 121459943.37949     14475.17649        49.000  

 16 04 02 14 09 27.0000000  0  3G09G23G16                                       
  23331879.61749 122609854.07849      9501.66049        50.000  

  22880768.27349 120239248.05949    -14934.04749        49.000  

  23112783.28949 121458496.04349     14470.96949        49.000  

 16 04 02 14 09 27.1000000  0  3G09G23G16                                       
  23331698.85249 122608904.16449      9495.95349        50.000  

  22881052.50849 120240741.73449    -14940.10549        49.000  

  23112507.94549 121457049.10949     14467.18049        49.000  

 16 04 02 14 09 27.2000000  0  3G09G23G16                                       
  23331518.21949 122607954.91449      9489.35949        50.000  

  22881336.87549 120242236.12549    -14947.21149        49.000  

  23112232.69549 121455602.66849     14462.30549        49.000  

 16 04 02 14 09 27.3000000  0  3G09G23G16                                       
  23331337.68849 122607006.19949      9483.76649        50.000  

  22881621.35949 120243731.08649    -14953.10549        49.000  

  23111957.51649 121454156.57049     14458.60549        49.000  

 16 04 02 14 09 27.4000000  0  3G09G23G16                                       
  23331157.28149 122606058.12949      9477.43049        50.000  

  22881905.97749 120245226.73049    -14959.89549        49.000  

  23111682.43049 121452710.92649     14454.28149        49.000  

 16 04 02 14 09 27.5000000  0  3G09G23G16                                       
  23330976.99249 122605110.69949      9470.85549        50.000  

  22882190.71949 120246723.06249    -14966.82849        49.000  

  23111407.42249 121451265.75849     14449.32449        49.000  

 16 04 02 14 09 27.6000000  0  3G09G23G16                                       
  23330796.81249 122604163.91849      9464.38349        50.000  

  22882475.58649 120248220.06649    -14973.62549        49.000  

  23111132.48449 121449821.04749     14444.67249        49.000  

 16 04 02 14 09 27.7000000  0  3G09G23G16                                       
  23330616.76649 122603217.77049      9458.04349        50.000  

  22882760.58649 120249717.76249    -14980.44949        49.000  

  23110857.64849 121448376.77349     14440.34449        49.000  

 16 04 02 14 09 27.8000000  0  3G09G23G16                                       
  23330436.82849 122602272.22749      9452.34049        50.000  

  22883045.71949 120251216.10249    -14986.66049        49.000  

  23110582.87549 121446932.92649     14436.41049        49.000  

 16 04 02 14 09 27.9000000  0  3G09G23G16                                       
  23330256.99249 122601327.19149      9447.25049        50.000  

  22883330.94549 120252714.98049    -14992.07449        49.000  

  23110308.18049 121445489.41049     14433.12549        49.000  

 16 04 02 14 09 28.0000000  0  3G09G23G16                                       
  23330077.28949 122600382.79749      9440.94149        50.000  

  22883616.32049 120254214.55149    -14998.80549        49.000  

  23110033.57849 121444046.34449     14428.47749        49.000  

 16 04 02 14 09 28.1000000  0  3G09G23G16                                       
  23329897.68049 122599438.97749      9435.08649        50.000  

  22883901.79749 120255714.72749    -15005.00049        49.000  

  23109759.04749 121442603.68049     14424.50049        49.000  

 16 04 02 14 09 28.2000000  0  3G09G23G16                                       
  23329718.22749 122598495.77749      9428.94149        50.000  

  22884187.39149 120257215.57049    -15011.66049        49.000  

  23109484.58649 121441161.43849     14420.16849        49.000  

 16 04 02 14 09 28.3000000  0  3G09G23G16                                       
  23329538.85949 122597553.18449      9422.49649        50.000  

  22884473.11749 120258717.05149    -15018.34049        49.000  

  23109210.21149 121439719.60549     14415.93449        49.000  

 16 04 02 14 09 28.4000000  0  3G09G23G16                                       
  23329359.60249 122596611.16449      9416.92249        50.000  

  22884758.94549 120260219.16449    -15024.48049        49.000  

  23108935.90649 121438278.20349     14412.09449        49.000  

 16 04 02 14 09 28.5000000  0  3G09G23G16                                       
  23329180.46149 122595669.75849      9410.85949        50.000  

  22885044.90649 120261721.91049    -15030.93849        49.000  

  23108661.69549 121436837.19149     14407.73449        49.000  

 16 04 02 14 09 28.6000000  0  3G09G23G16                                       
  23329001.44549 122594728.94549      9404.63749        50.000  

  22885331.00049 120263225.30149    -15037.42649        49.000  

  23108387.53949 121435396.62949     14403.30549        49.000  

 16 04 02 14 09 28.7000000  0  3G09G23G16                                       
  23328822.53949 122593788.79749      9398.08649        50.000  

  22885617.21949 120264729.39549    -15044.37149        49.000  

  23108113.49249 121433956.50449     14398.77749        49.000  

 16 04 02 14 09 28.8000000  0  3G09G23G16                                       
  23328643.74249 122592849.23849      9392.44149        50.000  

  22885903.55549 120266234.11749    -15050.53149        49.000  

  23107839.52349 121432516.81249     14394.85549        49.000  

 16 04 02 14 09 28.9000000  0  3G09G23G16                                       
  23328465.06249 122591910.25849      9386.63749        50.000  

  22886190.01649 120267739.45349    -15056.67649        49.000  

  23107565.63349 121431077.50849     14390.91449        49.000  

 16 04 02 14 09 29.0000000  0  3G09G23G16                                       
  23328286.51649 122590971.90249      9380.21949        50.000  

  22886476.57849 120269245.46949    -15063.52049        49.000  

  23107291.82849 121429638.65649     14386.32849        49.000  

 16 04 02 14 09 29.1000000  0  3G09G23G16                                       
  23328108.06249 122590034.12549      9374.57049        50.000  

  22886763.27349 120270752.07849    -15069.58249        49.000  

  23107018.08649 121428200.16849     14382.52749        49.000  

 16 04 02 14 09 29.2000000  0  3G09G23G16                                       
  23327929.71949 122589096.96949      9368.43049        50.000  

  22887050.10949 120272259.36349    -15076.09049        49.000  

  23106744.43049 121426762.13349     14378.16049        49.000  

 16 04 02 14 09 29.3000000  0  3G09G23G16                                       
  23327751.49249 122588160.37949      9362.62549        50.000  

  22887337.04749 120273767.24649    -15082.31649        49.000  

  23106470.85249 121425324.49249     14374.16049        49.000  

 16 04 02 14 09 29.4000000  0  3G09G23G16                                       
  23327573.36749 122587224.41049      9356.57849        50.000  

  22887624.11749 120275275.80549    -15088.76649        49.000  

  23106197.35249 121423887.27749     14369.97749        49.000  

 16 04 02 14 09 29.5000000  0  3G09G23G16                                       
  23327395.36749 122586289.02349      9350.52049        50.000  

  22887911.30549 120276784.96949    -15095.07849        49.000  

  23105923.93049 121422450.46149     14365.89849        49.000  

 16 04 02 14 09 29.6000000  0  3G09G23G16                                       
  23327217.48449 122585354.30949      9343.86349        50.000  

  22888198.61749 120278294.85549    -15102.39849        49.000  

  23105650.60249 121421014.13749     14360.84049        49.000  

 16 04 02 14 09 29.7000000  0  3G09G23G16                                       
  23327039.72749 122584420.18049      9337.97749        50.000  

  22888486.06249 120279805.35949    -15108.54349        49.000  

  23105377.35249 121419578.21549     14356.87949        49.000  

 16 04 02 14 09 29.8000000  0  3G09G23G16                                       
  23326862.09449 122583486.72349      9331.25849        50.000  

  22888773.61749 120281316.57449    -15115.55949        49.000  

  23105104.20349 121418142.78549     14352.00049        49.000  

 16 04 02 14 09 29.9000000  0  3G09G23G16                                       
  23326684.57049 122582553.82849      9325.57849        50.000  

  22889061.30549 120282828.39549    -15121.68449        49.000  

  23104831.12549 121416707.71949     14348.23849        49.000  

 16 04 02 14 09 30.0000000  0  3G09G23G16                                       
  23326507.17249 122581621.58249      9319.03549        50.000  

  22889349.12549 120284340.89849    -15128.55949        49.000  

  23104558.10249 121415273.11349     14343.82849        49.000  

 16 04 02 14 09 30.1000000  0  3G09G23G16                                       
  23326329.89149 122580689.94149      9313.18849        50.000  

  22889637.07049 120285854.04749    -15134.76249        49.000  

  23104285.18849 121413838.94949     14339.59849        49.000  

 16 04 02 14 09 30.2000000  0  3G09G23G16                                       
  23326152.70349 122579758.87549      9307.47749        50.000  

  22889925.12549 120287367.80149    -15140.94549        49.000  

  23104012.35249 121412405.16449     14335.68849        49.000  

 16 04 02 14 09 30.3000000  0  3G09G23G16                                       
  23325975.66449 122578828.49249      9300.62149        50.000  

  22890213.32849 120288882.28949    -15148.11349        49.000  

  23103739.60949 121410971.88749     14330.57049        49.000  

 16 04 02 14 09 30.4000000  0  3G09G23G16                                       
  23325798.73449 122577898.65649      9294.90649        50.000  

  22890501.66449 120290397.36349    -15154.32049        49.000  

  23103466.94549 121409538.96149     14326.83249        49.000  

 16 04 02 14 09 30.5000000  0  3G09G23G16                                       
  23325621.90649 122576969.44149      9288.97349        50.000  

  22890790.09449 120291913.07849    -15160.47349        49.000  

  23103194.35249 121408106.46949     14322.67649        49.000  

 16 04 02 14 09 30.6000000  0  3G09G23G16                                       
  23325445.18849 122576040.76249      9283.48849        50.000  

  22891078.64149 120293429.40249    -15166.51649        49.000  

  23102921.82049 121406674.35549     14318.96949        49.000  

 16 04 02 14 09 30.7000000  0  3G09G23G16                                       
  23325268.59449 122575112.77349      9276.80549        50.000  

  22891367.32049 120294946.42649    -15173.57449        49.000  

  23102649.39149 121405242.73049     14314.07849        49.000  

 16 04 02 14 09 30.8000000  0  3G09G23G16                                       
  23325092.10949 122574185.33649      9271.06649        50.000  

  22891656.10949 120296464.03549    -15179.53149        49.000  

  23102377.03949 121403811.45749     14310.39549        49.000  

 16 04 02 14 09 30.9000000  0  3G09G23G16                                       
  23324915.74249 122573258.53149      9264.80149        50.000  

  22891945.03149 120297982.33649    -15186.34449        49.000  

  23102104.76649 121402380.64849     14305.94149        49.000  

 16 04 02 14 09 31.0000000  0  3G09G23G16                                       
  23324739.47749 122572332.29349      9259.19949        50.000  

  22892234.06249 120299501.23049    -15192.20749        49.000  

  23101832.57049 121400950.22749     14302.08249        49.000  

 16 04 02 14 09 31.1000000  0  3G09G23G16                                       
  23324563.33649 122571406.64549      9253.35249        50.000  

  22892523.21949 120301020.75449    -15198.44949        49.000  

  23101560.44549 121399520.21549     14298.08249        49.000  

 16 04 02 14 09 31.2000000  0  3G09G23G16                                       
  23324387.28149 122570481.59849      9247.10549        50.000  

  22892812.51649 120302540.91449    -15204.98849        49.000  

  23101288.39149 121398090.59449     14293.94549        49.000  

 16 04 02 14 09 31.3000000  0  3G09G23G16                                       
  23324211.36749 122569557.13349      9241.51649        50.000  

  22893101.90649 120304061.69949    -15211.14849        49.000  

  23101016.42249 121396661.39849     14289.80549        49.000  

 16 04 02 14 09 31.4000000  0  3G09G23G16                                       
  23324035.56249 122568633.34049      9234.74649        50.000  

  22893391.43849 120305583.19949    -15218.29749        49.000  

  23100744.54749 121395232.68049     14284.93449        49.000  

 16 04 02 14 09 31.5000000  0  3G09G23G16                                       
  23323859.87549 122567710.12549      9228.88749        50.000  

  22893681.08649 120307105.30949    -15224.62149        49.000  

  23100472.74249 121393804.34449     14281.00049        49.000  

 16 04 02 14 09 31.6000000  0  3G09G23G16                                       
  23323684.30549 122566787.50049      9223.25049        50.000  

  22893970.85949 120308628.03549    -15230.59849        49.000  

  23100200.99249 121392376.43049     14277.09849        49.000  

 16 04 02 14 09 31.7000000  0  3G09G23G16                                       
  23323508.85949 122565865.50849      9216.44549        50.000  

  22894260.75049 120310151.43849    -15237.46549        49.000  

  23099929.35949 121390948.95749     14272.45749        49.000  

 16 04 02 14 09 31.8000000  0  3G09G23G16                                       
  23323333.51649 122564944.13749      9210.43449        50.000  

  22894550.76649 120311675.50849    -15244.16849        49.000  

  23099657.82049 121389521.93849     14267.89149        49.000  

 16 04 02 14 09 31.9000000  0  3G09G23G16                                       
  23323158.30549 122564023.39849      9203.84449        50.000  

  22894840.91449 120313200.23449    -15250.75449        49.000  

  23099386.35249 121388095.33649     14263.62949        49.000  

 16 04 02 14 09 32.0000000  0  3G09G23G16                                       
  23322983.21149 122563103.26649      9198.12549        50.000  

  22895131.18849 120314725.62149    -15257.20349        49.000  

  23099114.96949 121386669.19549     14259.21949        49.000  

 16 04 02 14 09 32.1000000  0  3G09G23G16                                       
  23322808.21949 122562183.69949      9192.37949        50.000  

  22895421.57049 120316251.60249    -15263.27349        49.000  

  23098843.64849 121385243.40649     14255.52349        49.000  

 16 04 02 14 09 32.2000000  0  3G09G23G16                                       
  23322633.36749 122561264.82049      9185.35549        50.000  

  22895712.07849 120317778.30549    -15270.66849        49.000  

  23098572.43049 121383818.12949     14250.35249        49.000  

 16 04 02 14 09 32.3000000  0  3G09G23G16                                       
  23322458.62549 122560346.57049      9179.19949        50.000  

  22896002.72749 120319305.66849    -15276.85949        49.000  

  23098301.28949 121382393.29349     14246.23049        49.000  

 16 04 02 14 09 32.4000000  0  3G09G23G16                                       
  23322283.99249 122559428.87149      9173.63349        50.000  

  22896293.48449 120320833.63349    -15283.13749        49.000  

  23098030.22749 121380968.83249     14242.27349        49.000  

 16 04 02 14 09 32.5000000  0  3G09G23G16                                       
  23322109.46949 122558511.74649      9168.03949        50.000  

  22896584.35949 120322362.19949    -15289.00849        49.000  

  23097759.23449 121379544.76649     14238.41049        49.000  

 16 04 02 14 09 32.6000000  0  3G09G23G16                                       
  23321935.06249 122557595.23449      9161.88349        50.000  

  22896875.35949 120323891.41849    -15295.59449        49.000  

  23097488.31249 121378121.10949     14234.37549        49.000  

 16 04 02 14 09 32.7000000  0  3G09G23G16                                       
  23321760.78149 122556679.39549      9155.24249        50.000  

  22897166.49249 120325421.33649    -15302.38749        49.000  

  23097217.50049 121376697.94949     14229.51249        49.000  

 16 04 02 14 09 32.8000000  0  3G09G23G16                                       
  23321586.60949 122555764.11749      9149.55549        50.000  

  22897457.74249 120326951.86349    -15308.55949        49.000  

  23096946.73449 121375275.17649     14225.63749        49.000  

 16 04 02 14 09 32.9000000  0  3G09G23G16                                       
  23321412.55549 122554849.46949      9143.17649        50.000  

  22897749.11749 120328483.05949    -15315.36349        49.000  

  23096676.07049 121373852.84049     14221.08649        49.000  

 16 04 02 14 09 33.0000000  0  3G09G23G16                                       
  23321238.61749 122553935.41449      9137.28549        50.000  

  22898040.61749 120330014.88349    -15321.55949        49.000  

  23096405.47749 121372430.91449     14217.07449        49.000  

 16 04 02 14 09 33.1000000  0  3G09G23G16                                       
  23321064.78149 122553021.93049      9131.68849        50.000  

  22898332.22749 120331547.30949    -15327.53549        49.000  

  23096134.96949 121371009.37149     14213.19149        49.000  

 16 04 02 14 09 33.2000000  0  3G09G23G16                                       
  23320891.07049 122552109.05949      9125.52749        50.000  

  22898623.96149 120333080.38749    -15333.94949        49.000  

  23095864.54749 121369588.27049     14208.99649        49.000  

 16 04 02 14 09 33.3000000  0  3G09G23G16                                       
  23320717.47749 122551196.80549      9119.32849        50.000  

  22898915.82049 120334614.12949    -15340.85949        49.000  

  23095594.20349 121368167.59049     14204.29749        49.000  

 16 04 02 14 09 33.4000000  0  3G09G23G16                                       
  23320543.96949 122550285.12149      9113.65649        50.000  

  22899207.77349 120336148.45349    -15346.52049        49.000  

  23095323.93849 121366747.29349     14200.76249        49.000  

 16 04 02 14 09 33.5000000  0  3G09G23G16                                       
  23320370.60949 122549374.10949      9106.76249        50.000  

  22899499.89149 120337683.50849    -15353.89549        49.000  

  23095053.75849 121365327.49249     14195.65249        49.000  

 16 04 02 14 09 33.6000000  0  3G09G23G16                                       
  23320197.36749 122548463.69949      9100.67649        50.000  

  22899792.10949 120339219.18849    -15360.40649        49.000  

  23094783.67249 121363908.10949     14191.40249        49.000  

 16 04 02 14 09 33.7000000  0  3G09G23G16                                       
  23320024.23449 122547553.89549      9094.85949        50.000  

  22900084.46149 120340755.51249    -15366.67249        49.000  

  23094513.65649 121362489.14849     14187.30949        49.000  

 16 04 02 14 09 33.8000000  0  3G09G23G16                                       
  23319851.21149 122546644.68449      9088.96149        50.000  

  22900376.92249 120342292.46549    -15372.80149        49.000  

  23094243.70349 121361070.57849     14183.54749        49.000  

 16 04 02 14 09 33.9000000  0  3G09G23G16                                       
  23319678.31249 122545736.09849      9082.50049        50.000  

  22900669.51649 120343830.07449    -15379.61349        49.000  

  23093973.84449 121359652.48449     14178.66049        49.000  

 16 04 02 14 09 34.0000000  0  3G09G23G16                                       
  23319505.51649 122544828.10249      9076.77349        50.000  

  22900962.24249 120345368.31649    -15385.71949        49.000  

  23093704.06249 121358234.77049     14174.92649        49.000  

 16 04 02 14 09 34.1000000  0  3G09G23G16                                       
  23319332.84449 122543920.70349      9070.76649        50.000  

  22901255.07849 120346907.18049    -15391.98049        49.000  

  23093434.35249 121356817.46149     14170.79349        49.000  

 16 04 02 14 09 34.2000000  0  3G09G23G16                                       
  23319160.28949 122543013.94149      9064.43849        50.000  

  22901548.03949 120348446.72349    -15398.69949        49.000  

  23093164.73449 121355400.61749     14166.23449        49.000  

 16 04 02 14 09 34.3000000  0  3G09G23G16                                       
  23318987.85249 122542107.78549      9058.18849        50.000  

  22901841.12549 120349986.91049    -15405.19149        49.000  

  23092895.20349 121353984.19949     14161.96149        49.000  

 16 04 02 14 09 34.4000000  0  3G09G23G16                                       
  23318815.52349 122541202.16449      9053.10249        50.000  

  22902134.30549 120351527.67249    -15410.79749        49.000  

  23092625.73449 121352568.14849     14158.44549        49.000  

 16 04 02 14 09 34.5000000  0  3G09G23G16                                       
  23318643.30549 122540297.14849      9046.93049        50.000  

  22902427.62549 120353069.06249    -15417.11349        49.000  

  23092356.33649 121351152.47749     14154.56249        49.000  

 16 04 02 14 09 34.6000000  0  3G09G23G16                                       
  23318471.20349 122539392.76249      9040.52749        50.000  

  22902721.07849 120354611.13749    -15424.09849        49.000  

  23092087.04749 121349737.28949     14149.67649        49.000  

 16 04 02 14 09 34.7000000  0  3G09G23G16                                       
  23318299.22749 122538489.01649      9033.97349        50.000  

  22903014.64849 120356153.86749    -15430.75449        49.000  

  23091817.82849 121348322.53949     14145.04349        49.000  

 16 04 02 14 09 34.8000000  0  3G09G23G16                                       
  23318127.37549 122537585.88349      9027.93849        50.000  

  22903308.33649 120357697.24249    -15437.32449        49.000  

  23091548.69549 121346908.20749     14140.80149        49.000  

 16 04 02 14 09 34.9000000  0  3G09G23G16                                       
  23317955.64149 122536683.40249      9021.58249        50.000  

  22903602.16449 120359241.32449    -15444.15649        49.000  

  23091279.64849 121345494.36749     14136.25849        49.000  

 16 04 02 14 09 35.0000000  0  3G09G23G16                                       
  23317784.01649 122535781.49249      9015.73049        50.000  

  22903896.10249 120360785.98849    -15450.15649        49.000  

  23091010.66449 121344080.90649     14132.36749        49.000  

 16 04 02 14 09 35.1000000  0  3G09G23G16                                       
  23317612.49249 122534880.16049      9010.06649        50.000  

  22904190.16449 120362331.27749    -15456.27749        49.000  

  23090741.76649 121342667.83249     14128.45349        49.000  

 16 04 02 14 09 35.2000000  0  3G09G23G16                                       
  23317441.09449 122533979.38749      9004.64149        50.000  

  22904484.33649 120363877.16049    -15461.93449        49.000  

  23090472.91449 121341255.11749     14125.11749        49.000  

 16 04 02 14 09 35.3000000  0  3G09G23G16                                       
  23317269.81249 122533079.30549      8997.38349        50.000  

  22904778.64849 120365423.76649    -15469.53949        49.000  

  23090204.18849 121339842.94549     14119.52749        49.000  

 16 04 02 14 09 35.4000000  0  3G09G23G16                                       
  23317098.65649 122532179.85249      8991.23849        50.000  

  22905073.07849 120366971.03949    -15476.14549        49.000  

  23089935.54749 121338431.19949     14115.13749        49.000  

 16 04 02 14 09 35.5000000  0  3G09G23G16                                       
  23316927.59449 122531280.90249      8986.32849        50.000  

  22905367.61749 120368518.84449    -15481.36349        49.000  

  23089666.96149 121337019.77349     14112.15649        49.000  

 16 04 02 14 09 35.6000000  0  3G09G23G16                                       
  23316756.64849 122530382.60549      8979.67649        50.000  

  22905662.28149 120370067.34449    -15488.27349        49.000  

  23089398.46149 121335608.81249     14107.39149        49.000  

 16 04 02 14 09 35.7000000  0  3G09G23G16                                       
  23316585.81249 122529484.87949      8974.14849        50.000  

  22905957.07049 120371616.44549    -15494.26649        49.000  

  23089130.03949 121334198.24249     14103.57049        49.000  

 16 04 02 14 09 35.8000000  0  3G09G23G16                                       
  23316415.10949 122528587.75849      8968.00049        50.000  

  22906251.96949 120373166.18049    -15500.70749        49.000  

  23088861.70349 121332788.09049     14099.34049        49.000  

 16 04 02 14 09 35.9000000  0  3G09G23G16                                       
  23316244.51649 122527691.28549      8961.60549        50.000  

  22906547.00849 120374716.59849    -15507.43049        49.000  

  23088593.44549 121331378.40249     14094.82849        49.000  

 16 04 02 14 09 36.0000000  0  3G09G23G16                                       
  23316074.02349 122526795.38349      8955.51249        50.000  

  22906842.16449 120376267.62549    -15513.90249        49.000  

  23088325.27349 121329969.10549     14090.47349        49.000  

 16 04 02 14 09 36.1000000  0  3G09G23G16                                       
  23315903.66449 122525900.11749      8949.46549        50.000  

  22907137.44549 120377819.33249    -15520.45749        49.000  

  23088057.18049 121328560.27349     14086.13349        49.000  

 16 04 02 14 09 36.2000000  0  3G09G23G16                                       
  23315733.41449 122525005.47749      8943.03949        50.000  

  22907432.83649 120379371.67649    -15526.87149        49.000  

  23087789.18849 121327151.85549     14081.84449        49.000  

 16 04 02 14 09 36.3000000  0  3G09G23G16                                       
  23315563.28949 122524111.43849      8937.20349        50.000  

  22907728.36749 120380924.66849    -15533.18849        49.000  

  23087521.25049 121325743.86349     14077.74649        49.000  

 16 04 02 14 09 36.4000000  0  3G09G23G16                                       
  23315393.26649 122523218.00849      8930.80549        50.000  

  22908024.00849 120382478.30149    -15539.87549        49.000  

  23087253.39849 121324336.30149     14073.30149        49.000  

 16 04 02 14 09 36.5000000  0  3G09G23G16                                       
  23315223.37549 122522325.21949      8924.51649        50.000  

  22908319.78149 120384032.60949    -15546.57449        49.000  

  23086985.63349 121322929.19149     14068.69949        49.000  

 16 04 02 14 09 36.6000000  0  3G09G23G16                                       
  23315053.59449 122521433.04349      8918.41849        50.000  

  22908615.68049 120385587.55549    -15552.93849        49.000  

  23086717.93849 121321522.51649     14064.48049        49.000  

 16 04 02 14 09 36.7000000  0  3G09G23G16                                       
  23314883.93049 122520541.46549      8912.53149        50.000  

  22908911.69549 120387143.14149    -15559.13749        49.000  

  23086450.32849 121320116.24249     14060.48449        49.000  

 16 04 02 14 09 36.8000000  0  3G09G23G16                                       
  23314714.39149 122519650.49249      8906.30549        50.000  

  22909207.85249 120388699.37149    -15565.77749        49.000  

  23086182.83649 121318710.41049     14056.00849        49.000  

 16 04 02 14 09 36.9000000  0  3G09G23G16                                       
  23314544.96149 122518760.14849      8900.20349        50.000  

  22909504.11749 120390256.25449    -15572.19549        49.000  

  23085915.39149 121317305.00849     14051.70349        49.000  

 16 04 02 14 09 37.0000000  0  3G09G23G16                                       
  23314375.64149 122517870.32449      8895.16049        50.000  

  22909800.46949 120391813.68849    -15577.52749        49.000  

  23085648.00849 121315899.93849     14048.66849        49.000  

 16 04 02 14 09 37.1000000  0  3G09G23G16                                       
  23314206.43049 122516981.13749      8888.85549        50.000  

  22910096.96949 120393371.79349    -15584.16049        49.000  

  23085380.71949 121314495.32849     14044.08649        49.000  

 16 04 02 14 09 37.2000000  0  3G09G23G16                                       
  23314037.34449 122516092.57049      8882.14549        50.000  

  22910393.60249 120394930.56649    -15591.23049        49.000  

  23085113.53149 121313091.15649     14039.23049        49.000  

 16 04 02 14 09 37.3000000  0  3G09G23G16                                       
  23313868.38349 122515204.66049      8875.78549        50.000  

  22910690.35249 120396490.00849    -15597.92249        49.000  

  23084846.41449 121311687.45349     14034.66449        49.000  

 16 04 02 14 09 37.4000000  0  3G09G23G16                                       
  23313699.53149 122514317.34049      8870.02349        50.000  

  22910987.24249 120398050.08649    -15604.05949        49.000  

  23084579.35949 121310284.15249     14030.79749        49.000  

 16 04 02 14 09 37.5000000  0  3G09G23G16                                       
  23313530.78949 122513430.59849      8864.02749        50.000  

  22911284.23449 120399610.77049    -15610.27049        49.000  

  23084312.39849 121308881.24249     14026.68449        49.000  

 16 04 02 14 09 37.6000000  0  3G09G23G16                                       
  23313362.16449 122512544.50449      8857.56249        50.000  

  22911581.35249 120401172.13349    -15616.97349        49.000  

  23084045.52349 121307478.81649     14022.12949        49.000  

 16 04 02 14 09 37.7000000  0  3G09G23G16                                       
  23313193.66449 122511659.01649      8851.57049        50.000  

  22911878.59449 120402734.14149    -15623.48449        49.000  

  23083778.72749 121306076.78549     14018.00049        49.000  

 16 04 02 14 09 37.8000000  0  3G09G23G16                                       
  23313025.28949 122510774.16049      8845.20749        50.000  

  22912175.95349 120404296.79749    -15630.05549        49.000  

  23083512.01649 121304675.21949     14013.31649        49.000  

 16 04 02 14 09 37.9000000  0  3G09G23G16                                       
  23312857.01649 122509889.89149      8839.46149        50.000  

  22912473.43849 120405860.09449    -15636.13749        49.000  

  23083245.38349 121303274.05549     14009.56649        49.000  

 16 04 02 14 09 38.0000000  0  3G09G23G16                                       
  23312688.84449 122509006.18849      8833.82449        50.000  

  22912771.03149 120407423.97749    -15642.15249        49.000  

  23082978.81249 121301873.26249     14005.69149        49.000  

 16 04 02 14 09 38.1000000  0  3G09G23G16                                       
  23312520.79749 122508123.09449      8827.72349        50.000  

  22913068.75049 120408988.49649    -15648.49249        49.000  

  23082712.33649 121300472.89849     14001.48449        49.000  

 16 04 02 14 09 38.2000000  0  3G09G23G16                                       
  23312352.85949 122507240.55149      8822.19949        50.000  

  22913366.59449 120410553.60949    -15654.41049        49.000  

  23082445.91449 121299072.90249     13997.67649        49.000  

 16 04 02 14 09 38.3000000  0  3G09G23G16                                       
  23312185.03149 122506358.59449      8816.31649        50.000  

  22913664.53949 120412119.34449    -15660.63749        49.000  

  23082179.58649 121297673.31649     13993.67249        49.000  

 16 04 02 14 09 38.4000000  0  3G09G23G16                                       
  23312017.31249 122505477.29349      8810.05149        50.000  

  22913962.63349 120413685.75049    -15667.18049        49.000  

  23081913.33649 121296274.18849     13989.29749        49.000  

 16 04 02 14 09 38.5000000  0  3G09G23G16                                       
  23311849.71149 122504596.55949      8803.78949        50.000  

  22914260.82849 120415252.76649    -15673.80549        49.000  

  23081647.16449 121294875.45349     13984.82449        49.000  

 16 04 02 14 09 38.6000000  0  3G09G23G16                                       
  23311682.23449 122503716.47749      8797.51649        50.000  

  22914559.14849 120416820.46549    -15680.33249        49.000  

  23081381.07049 121293477.18049     13980.48849        49.000  

 16 04 02 14 09 38.7000000  0  3G09G23G16                                       
  23311514.87549 122502837.01249      8791.18449        50.000  

  22914857.60249 120418388.80949    -15686.97349        49.000  

  23081115.07049 121292079.33649     13976.02349        49.000  

 16 04 02 14 09 38.8000000  0  3G09G23G16                                       
  23311347.64849 122501958.19549      8784.72749        50.000  

  22915156.18049 120419957.82849    -15693.65649        49.000  

  23080849.16449 121290681.95749     13971.41049        49.000  

 16 04 02 14 09 38.9000000  0  3G09G23G16                                       
  23311180.53149 122501079.99249      8778.77049        50.000  

  22915454.88349 120421527.51649    -15700.19149        49.000  

  23080583.33649 121289285.02349     13967.09849        49.000  

 16 04 02 14 09 39.0000000  0  3G09G23G16                                       
  23311013.52349 122500202.37149      8772.91049        50.000  

  22915753.68849 120423097.78949    -15706.14149        49.000  

  23080317.56249 121287888.47349     13963.21549        49.000  

 16 04 02 14 09 39.1000000  0  3G09G23G16                                       
  23310846.64149 122499325.37149      8766.84849        50.000  

  22916052.62549 120424668.73049    -15712.64149        49.000  

  23080051.89149 121286492.35549     13959.00049        49.000  

 16 04 02 14 09 39.2000000  0  3G09G23G16                                       
  23310679.84449 122498448.93449      8761.04749        50.000  

  22916351.68049 120426240.26249    -15718.81249        49.000  

  23079786.28949 121285096.62149     13955.06649        49.000  

 16 04 02 14 09 39.3000000  0  3G09G23G16                                       
  23310513.18049 122497573.12549      8754.85549        50.000  

  22916650.85949 120427812.44949    -15725.12949        49.000  

  23079520.77349 121283701.33649     13950.66449        49.000  

 16 04 02 14 09 39.4000000  0  3G09G23G16                                       
  23310346.64849 122496697.95749      8748.34849        50.000  

  22916950.16449 120429385.31249    -15732.05149        49.000  

  23079255.34449 121282306.50049     13945.96149        49.000  

 16 04 02 14 09 39.5000000  0  3G09G23G16                                       
  23310180.21149 122495823.32049      8743.16049        50.000  

  22917249.57849 120430958.74249    -15737.62949        49.000  

  23078989.98449 121280912.02349     13942.52749        49.000  

 16 04 02 14 09 39.6000000  0  3G09G23G16                                       
  23310013.89149 122494949.35249      8736.43849        50.000  

  22917549.12549 120432532.85949    -15744.59449        49.000  

  23078724.72749 121279518.00849     13937.93049        49.000  

 16 04 02 14 09 39.7000000  0  3G09G23G16                                       
  23309847.68849 122494075.94549      8730.70749        50.000  

  22917848.78149 120434107.57849    -15750.54749        49.000  

  23078459.53149 121278124.39149     13933.91449        49.000  

 16 04 02 14 09 39.8000000  0  3G09G23G16                                       
  23309681.61749 122493203.20349      8724.16449        50.000  

  22918148.56249 120435682.99249    -15757.43049        49.000  

  23078194.42249 121276731.24249     13929.30549        49.000  

 16 04 02 14 09 39.9000000  0  3G09G23G16                                       
  23309515.65649 122492331.08649      8717.54349        50.000  

  22918448.48449 120437259.05949    -15764.25849        49.000  

  23077929.39849 121275338.53549     13924.51249        49.000  

 16 04 02 14 09 40.0000000  0  3G09G23G16                                       
  23309349.80549 122491459.59849      8711.78549        50.000  

  22918748.52349 120438835.78149    -15770.47349        49.000  

  23077664.45349 121273946.27749     13920.53549        49.000  

 16 04 02 14 09 40.1000000  0  3G09G23G16                                       
  23309184.07049 122490588.67249      8705.85549        50.000  

  22919048.67249 120440413.10549    -15776.77049        49.000  

  23077399.59449 121272554.39149     13916.50449        49.000  

 16 04 02 14 09 40.2000000  0  3G09G23G16                                       
  23309018.46149 122489718.38349      8699.64149        50.000  

  22919348.95349 120441991.09049    -15783.10549        49.000  

  23077134.80549 121271162.96549     13912.08649        49.000  

 16 04 02 14 09 40.3000000  0  3G09G23G16                                       
  23308852.95349 122488848.64149      8694.16449        50.000  

  22919649.34449 120443569.66049    -15789.07849        49.000  

  23076870.09449 121269771.90649     13908.35949        49.000  

 16 04 02 14 09 40.4000000  0  3G09G23G16                                       
  23308687.56249 122487979.51249      8688.03949        50.000  

  22919949.85949 120445148.86349    -15795.33249        49.000  

  23076605.45349 121268381.26249     13904.09049        49.000  

 16 04 02 14 09 40.5000000  0  3G09G23G16                                       
  23308522.28149 122487110.98449      8682.16449        50.000  

  22920250.49249 120446728.70349    -15801.58649        49.000  

  23076340.90649 121266991.03949     13900.09049        49.000  

 16 04 02 14 09 40.6000000  0  3G09G23G16                                       
  23308357.14149 122486243.08249      8675.74249        50.000  

  22920551.25849 120448309.19549    -15808.25049        49.000  

  23076076.43049 121265601.25849     13895.62549        49.000  

 16 04 02 14 09 40.7000000  0  3G09G23G16                                       
  23308192.10949 122485375.81249      8669.28949        50.000  

  22920852.14149 120449890.35549    -15814.98049        49.000  

  23075812.04749 121264211.93049     13890.93849        49.000  

 16 04 02 14 09 40.8000000  0  3G09G23G16                                       
  23308027.19549 122484509.13349      8663.45349        50.000  

  22921153.14849 120451472.13349    -15821.23849        49.000  

  23075547.73449 121262823.00049     13887.02049        49.000  

 16 04 02 14 09 40.9000000  0  3G09G23G16                                       
  23307862.39849 122483643.12149      8656.66049        50.000  

  22921454.28149 120453054.60949    -15828.29749        49.000  

  23075283.52349 121261434.56249     13881.88349        49.000  

 16 04 02 14 09 41.0000000  0  3G09G23G16                                       
  23307697.71949 122482777.73049      8650.53149        50.000  

  22921755.54749 120454637.73849    -15834.73049        49.000  

  23075019.40649 121260046.55149     13877.71949        49.000  

 16 04 02 14 09 41.1000000  0  3G09G23G16                                       
  23307533.15649 122481912.94549      8644.53949        50.000  

  22922056.92249 120456221.49649    -15841.06249        49.000  

  23074755.35949 121258658.96949     13873.54749        49.000  

 16 04 02 14 09 41.2000000  0  3G09G23G16                                       
  23307368.70349 122481048.72349      8639.05949        50.000  

  22922358.40649 120457805.85249    -15846.79749        49.000  

  23074491.37549 121257271.75449     13869.86749        49.000  

 16 04 02 14 09 41.3000000  0  3G09G23G16                                       
  23307204.36749 122480185.15249      8632.39549        50.000  

  22922660.03149 120459390.89149    -15853.76649        49.000  

  23074227.49249 121255885.01649     13865.18449        49.000  

 16 04 02 14 09 41.4000000  0  3G09G23G16                                       
  23307040.15649 122479322.22749      8626.00849        50.000  

  22922961.78149 120460976.59049    -15860.42649        49.000  

  23073963.68049 121254498.74249     13860.47349        49.000  

 16 04 02 14 09 41.5000000  0  3G09G23G16                                       
  23306876.05549 122478459.87949      8620.14149        50.000  

  22923263.64849 120462562.91449    -15866.64149        49.000  

  23073699.95349 121253112.84849     13856.68449        49.000  

 16 04 02 14 09 41.6000000  0  3G09G23G16                                       
  23306712.07049 122477598.12949      8614.39849        50.000  

  22923565.63349 120464149.85249    -15872.52349        49.000  

  23073436.30549 121251727.37949     13852.62549        49.000  

 16 04 02 14 09 41.7000000  0  3G09G23G16                                       
  23306548.20349 122476737.01249      8607.77749        50.000  

  22923867.74249 120465737.45349    -15879.33249        49.000  

  23073172.75049 121250342.35549     13847.84449        49.000  

 16 04 02 14 09 41.8000000  0  3G09G23G16                                       
  23306384.45349 122475876.48049      8602.15649        50.000  

  22924169.96149 120467325.68049    -15885.59849        49.000  

  23072909.25049 121248957.73049     13844.01649        49.000  

 16 04 02 14 09 41.9000000  0  3G09G23G16                                       
  23306220.81249 122475016.57849      8595.75449        50.000  

  22924472.32049 120468914.56249    -15892.16049        49.000  

  23072645.85249 121247573.55149     13839.50449        49.000  

 16 04 02 14 09 42.0000000  0  3G09G23G16                                       
  23306057.29749 122474157.30149      8589.38349        50.000  

  22924774.79749 120470504.09049    -15898.78549        49.000  

  23072382.52349 121246189.82049     13834.92649        49.000  

 16 04 02 14 09 42.1000000  0  3G09G23G16                                       
  23305893.89849 122473298.61749      8583.60549        50.000  

  22925077.39149 120472094.23449    -15904.70749        49.000  

  23072119.28149 121244806.47749     13831.18849        49.000  

 16 04 02 14 09 42.2000000  0  3G09G23G16                                       
  23305730.61749 122472440.55949      8577.32049        50.000  

  22925380.10949 120473685.05549    -15911.42249        49.000  

  23071856.13349 121243423.59849     13826.68849        49.000  

 16 04 02 14 09 42.3000000  0  3G09G23G16                                       
  23305567.46149 122471583.14849      8570.79749        50.000  

  22925682.96149 120475276.53949    -15918.30149        49.000  

  23071593.06249 121242041.17249     13821.93049        49.000  

 16 04 02 14 09 42.4000000  0  3G09G23G16                                       
  23305404.42249 122470726.36349      8564.42649        50.000  

  22925985.93849 120476868.68849    -15924.86349        49.000  

  23071330.08649 121240659.18849     13817.47349        49.000  

 16 04 02 14 09 42.5000000  0  3G09G23G16                                       
  23305241.48449 122469870.12149      8559.03549        50.000  

  22926289.02349 120478461.39149    -15930.55549        49.000  

  23071067.16449 121239277.55549     13813.98049        49.000  

 16 04 02 14 09 42.6000000  0  3G09G23G16                                       
  23305078.67249 122469014.53549      8552.80949        50.000  

  22926592.23449 120480054.78549    -15937.15249        49.000  

  23070804.34449 121237896.40649     13809.50449        49.000  

 16 04 02 14 09 42.7000000  0  3G09G23G16                                       
  23304915.96949 122468159.51649      8546.73849        50.000  

  22926895.56249 120481648.77749    -15943.41449        49.000  

  23070541.59449 121236515.63349     13805.35549        49.000  

 16 04 02 14 09 42.8000000  0  3G09G23G16                                       
  23304753.39849 122467305.15649      8540.39849        50.000  

  22927199.03149 120483243.45349    -15950.00049        49.000  

  23070278.91449 121235135.33649     13800.86349        49.000  

 16 04 02 14 09 42.9000000  0  3G09G23G16                                       
  23304590.92249 122466451.32449      8535.03549        50.000  

  22927502.59449 120484838.69149    -15955.68049        49.000  

  23070016.32049 121233755.38749     13797.18049        49.000  

 16 04 02 14 09 43.0000000  0  3G09G23G16                                       
  23304428.57049 122465598.13349      8528.84049        50.000  

  22927806.28149 120486434.59049    -15962.10549        49.000  

  23069753.80549 121232375.88349     13793.02749        49.000  

 16 04 02 14 09 43.1000000  0  3G09G23G16                                       
  23304266.32049 122464745.50849      8522.82449        50.000  

  22928110.08649 120488031.09449    -15968.46949        49.000  

  23069491.36749 121230996.76649     13788.81249        49.000  

 16 04 02 14 09 43.2000000  0  3G09G23G16                                       
  23304104.20349 122463893.57449      8516.12949        50.000  

  22928414.02349 120489628.30549    -15975.41049        49.000  

  23069229.01649 121229618.16049     13783.84849        49.000  

 16 04 02 14 09 43.3000000  0  3G09G23G16                                       
  23303942.18849 122463042.19549      8510.35249        50.000  

  22928718.07849 120491226.10949    -15981.59449        49.000  

  23068966.74249 121228239.92249     13779.91449        49.000  

 16 04 02 14 09 43.4000000  0  3G09G23G16                                       
  23303780.29749 122462191.43449      8504.39149        50.000  

  22929022.25049 120492824.55949    -15987.77749        49.000  

  23068704.55549 121226862.11749     13775.88349        49.000  

 16 04 02 14 09 43.5000000  0  3G09G23G16                                       
  23303618.51649 122461341.28149      8498.33249        50.000  

  22929326.54749 120494423.64149    -15994.19549        49.000  

  23068442.45349 121225484.73849     13771.59049        49.000  

 16 04 02 14 09 43.6000000  0  3G09G23G16                                       
  23303456.83649 122460491.72349      8492.25049        50.000  

  22929630.95349 120496023.34049    -16000.36349        49.000  

  23068180.42249 121224107.76249     13767.46149        49.000  

 16 04 02 14 09 43.7000000  0  3G09G23G16                                       
  23303295.29749 122459642.82049      8485.67249        50.000  

  22929935.50049 120497623.72349    -16007.12949        49.000  

  23067918.48449 121222731.26249     13762.74649        49.000  

 16 04 02 14 09 43.8000000  0  3G09G23G16                                       
  23303133.87549 122458794.52049      8479.66849        50.000  

  22930240.16449 120499224.75049    -16013.62149        49.000  

  23067656.62549 121221355.18049     13758.48849        49.000  

 16 04 02 14 09 43.9000000  0  3G09G23G16                                       
  23302972.56249 122457946.81249      8473.69949        50.000  

  22930544.94549 120500826.37549    -16019.72749        49.000  

  23067394.84449 121219979.50449     13754.44149        49.000  

 16 04 02 14 09 44.0000000  0  3G09G23G16                                       
  23302811.35949 122457099.71549      8467.71149        50.000  

  22930849.84449 120502428.65249    -16026.07049        49.000  

  23067133.14149 121218604.25449     13750.23049        49.000  

 16 04 02 14 09 44.1000000  0  3G09G23G16                                       
  23302650.27349 122456253.20349      8461.79349        50.000  

  22931154.86749 120504031.53949    -16032.25449        49.000  

  23066871.51649 121217229.40649     13746.16449        49.000  

 16 04 02 14 09 44.2000000  0  3G09G23G16                                       
  23302489.31249 122455407.34849      8455.17649        50.000  

  22931460.00849 120505635.10549    -16039.12149        49.000  

  23066609.98449 121215855.02749     13741.43049        49.000  

 16 04 02 14 09 44.3000000  0  3G09G23G16                                       
  23302328.47749 122454562.12549      8448.85549        50.000  

  22931765.28149 120507239.34049    -16045.71549        49.000  

  23066348.53149 121214481.10249     13737.00849        49.000  

 16 04 02 14 09 44.4000000  0  3G09G23G16                                       
  23302167.75049 122453717.45349      8443.39849        50.000  

  22932070.67249 120508844.14549    -16051.43449        49.000  

  23066087.15649 121213107.54349     13733.24649        49.000  

 16 04 02 14 09 44.5000000  0  3G09G23G16                                       
  23302007.14149 122452873.47349      8436.32449        50.000  

  22932376.19549 120510449.67249    -16058.70749        49.000  

  23065825.87549 121211734.47749     13728.27749        49.000  

 16 04 02 14 09 44.6000000  0  3G09G23G16                                       
  23301846.65649 122452030.11749      8430.15649        50.000  

  22932681.84449 120512055.85949    -16065.37149        49.000  

  23065564.68049 121210361.87549     13723.67249        49.000  

 16 04 02 14 09 44.7000000  0  3G09G23G16                                       
  23301686.28149 122451187.34049      8424.42649        50.000  

  22932987.60249 120513662.63749    -16071.05949        49.000  

  23065303.55549 121208989.65249     13719.85949        49.000  

 16 04 02 14 09 44.8000000  0  3G09G23G16                                       
  23301526.01649 122450345.14849      8418.49249        50.000  

  22933293.46149 120515270.03149    -16077.45349        49.000  

  23065042.49249 121207617.82849     13715.83649        49.000  

 16 04 02 14 09 44.9000000  0  3G09G23G16                                       
  23301365.88349 122449503.64849      8411.96949        50.000  

  22933599.47749 120516878.14849    -16084.18849        49.000  

  23064781.53949 121206246.51249     13711.28149        49.000  

 16 04 02 14 09 45.0000000  0  3G09G23G16                                       
  23301205.85249 122448662.65249      8406.73849        50.000  

  22933905.58649 120518486.78949    -16089.71949        49.000  

  23064520.64849 121204875.52749     13707.61349        49.000  

