     2.10           OBSERVATION DATA    G (GPS)             RINEX VERSION / TYPE
Convert v1.8.0                          07-Jun-2016 18:55   PGM / RUN BY / DATE 
Signal Strength values S1,S2 are in dBHz                    COMMENT             
                                                            MARKER NAME         
                                                            MARKER NUMBER       
                                                            OBSERVER / AGENCY   
                    NovAtel GPSCard                         REC # / TYPE / VERS 
                                                            ANT # / TYPE        
0.0000        0.0000        0.0000                          APPROX POSITION XYZ 
        0.0000        0.0000        0.0000                  ANTENNA: DELTA H/E/N
     1     1                                                WAVELENGTH FACT L1/2
     1     1     5   G17   G18   G19   G24   G28            WAVELENGTH FACT L1/2
                                                            COMMENT             
                                                            COMMENT             
                                                            COMMENT             
                                                            COMMENT             
                                                            COMMENT             
                                                            COMMENT             
     8    C1    L1    D1    S1    P2    L2    D2    S2      # / TYPES OF OBSERV 
     0.100                                                  INTERVAL            
  2016    04    02    13    26     6.6000000    GPS         TIME OF FIRST OBS   
  2016    04    02    13    30    27.6000000    GPS         TIME OF LAST OBS    
Leap Seconds Unknown                                        COMMENT             
                                                            END OF HEADER       
 16 04 02 13 26  6.6000000  0  1G24                                             
  21215531.78149 111488371.08259      2883.21949        49.000  

 16 04 02 13 26  6.7000000  0  2G18G24                                          
  24936338.88349 131041345.13359     -2362.73049        48.000  

  21215476.97749 111488083.06649      2877.58249        49.000  

 16 04 02 13 26  6.8000000  0  3G17G18G24                                       
  22321524.28949 117300400.93459      2901.09449        49.000  

  24936383.88349 131041581.60249     -2366.60249        48.000  

  21215422.27349 111487795.62549      2871.66449        49.000  

 16 04 02 13 26  6.9000000  0  3G17G18G24                                       
  22321469.11749 117300111.03149      2897.39549        49.000  

  24936428.97749 131041818.50049     -2370.64549        48.000  

  21215367.69549 111487508.82849      2865.39549        49.000  

 16 04 02 13 26  7.0000000  0  3G17G18G24                                       
  22321414.01649 117299821.38749      2894.84449        49.000  

  24936474.10949 131042055.67249     -2373.48849        48.000  

  21215313.22749 111487222.51649      2860.46149        49.000  

 16 04 02 13 26  7.1000000  0  3G17G18G24                                       
  22321358.96949 117299532.12549      2891.00049        49.000  

  24936519.32049 131042293.25049     -2377.52349        48.000  

  21215258.86749 111486936.83649      2854.23849        49.000  

 16 04 02 13 26  7.2000000  0  3G17G18G24                                       
  22321303.99249 117299243.23849      2887.14549        49.000  

  24936564.60949 131042531.23449     -2381.58649        48.000  

  21215204.62549 111486651.76649      2847.99649        49.000  

 16 04 02 13 26  7.3000000  0  3G17G18G24                                       
  22321249.07049 117298954.62549      2884.32449        49.000  

  24936609.96149 131042769.52049     -2384.82449        48.000  

  21215150.47749 111486367.21949      2842.71949        49.000  

 16 04 02 13 26  7.4000000  0  3G17G18G24                                       
  22321194.21149 117298666.39849      2880.40649        49.000  

  24936655.38349 131043008.21949     -2388.82049        48.000  

  21215096.44549 111486083.29349      2836.51649        49.000  

 16 04 02 13 26  7.5000000  0  3G17G18G24                                       
  22321139.42249 117298378.47349      2877.72749        49.000  

  24936700.88349 131043247.25049     -2391.86349        48.000  

  21215042.52349 111485799.92649      2831.19549        49.000  

 16 04 02 13 26  7.6000000  0  3G17G18G24                                       
  22321084.68049 117298090.84449      2874.55549        49.000  

  24936746.43049 131043486.60249     -2395.40649        48.000  

  21214988.69549 111485517.08249      2825.71549        49.000  

 16 04 02 13 26  7.7000000  0  3G17G18G24                                       
  22321030.01649 117297803.59849      2870.61349        49.000  

  24936792.04749 131043726.37149     -2399.68449        48.000  

  21214934.99249 111485234.87949      2819.25049        49.000  

 16 04 02 13 26  7.8000000  0  3G17G18G24                                       
  22320975.43849 117297516.75449      2866.57049        49.000  

  24936837.75049 131043966.54749     -2403.68049        48.000  

  21214881.41449 111484953.30549      2812.87549        49.000  

 16 04 02 13 26  7.9000000  0  3G17G18G24                                       
  22320920.90649 117297230.22349      2863.47749        49.000  

  24936883.53149 131044207.09449     -2407.39849        48.000  

  21214827.93849 111484672.28949      2807.24249        49.000  

 16 04 02 13 26  8.0000000  0  3G17G18G24                                       
  22320866.45349 117296944.04349      2860.01649        50.000  

  24936929.37549 131044448.00049     -2410.98449        48.000  

  21214774.57049 111484391.86349      2801.46949        49.000  

 16 04 02 13 26  8.1000000  0  3G17G18G24                                       
  22320812.05549 117296658.21149      2856.52749        50.000  

  24936975.27349 131044689.27749     -2414.75449        48.000  

  21214721.32049 111484112.03949      2795.48449        49.000  

 16 04 02 13 26  8.2000000  0  3G17G18G24                                       
  22320757.72749 117296372.70749      2853.40249        50.000  

  24937021.25849 131044930.92249     -2418.19949        48.000  

  21214668.19549 111483832.78149      2789.90649        49.000  

 16 04 02 13 26  8.3000000  0  3G17G18G24                                       
  22320703.46149 117296087.55549      2849.92649        50.000  

  24937067.29749 131045172.94149     -2421.95349        48.000  

  21214615.16449 111483554.10249      2784.25049        49.000  

 16 04 02 13 26  8.4000000  0  3G17G18G24                                       
  22320649.26649 117295802.71549      2846.68449        50.000  

  24937113.41449 131045415.29749     -2425.35249        48.000  

  21214562.24249 111483276.00449      2778.34049        49.000  

 16 04 02 13 26  8.5000000  0  3G17G18G24                                       
  22320595.13349 117295518.24249      2842.91849        49.000  

  24937159.60949 131045658.04349     -2429.36349        48.000  

  21214509.43049 111482998.49249      2772.33249        49.000  

 16 04 02 13 26  8.6000000  0  3G17G18G24                                       
  22320541.07849 117295234.13349      2839.21949        50.000  

  24937205.88349 131045901.18449     -2433.24249        48.000  

  21214456.73449 111482721.59449      2766.15249        49.000  

 16 04 02 13 26  8.7000000  0  3G17G18G24                                       
  22320487.07849 117294950.34849      2836.13749        49.000  

  24937252.21149 131046144.68449     -2436.85549        48.000  

  21214404.15649 111482445.27049      2760.55949        49.000  

 16 04 02 13 26  8.8000000  0  3G17G18G24                                       
  22320433.13349 117294666.87549      2832.93449        49.000  

  24937298.60949 131046388.51649     -2440.19549        48.000  

  21214351.67249 111482169.49649      2754.94949        49.000  

 16 04 02 13 26  8.9000000  0  3G17G18G24                                       
  22320379.25849 117294383.75849      2829.64549        49.000  

  24937345.07049 131046632.73449     -2443.94949        48.000  

  21214299.31249 111481894.32049      2749.04749        49.000  

 16 04 02 13 26  9.0000000  0  3G17G18G24                                       
  22320325.43049 117294100.97749      2826.19149        49.000  

  24937391.60949 131046877.30949     -2447.42249        48.000  

  21214247.06249 111481619.72349      2743.29349        49.000  

 16 04 02 13 26  9.1000000  0  3G17G18G24                                       
  22320271.68049 117293818.50449      2822.98849        49.000  

  24937438.21949 131047122.22749     -2451.05149        48.000  

  21214194.90649 111481345.66049      2737.87549        49.000  

 16 04 02 13 26  9.2000000  0  3G17G18G24                                       
  22320217.98449 117293536.36349      2819.75449        49.000  

  24937484.89149 131047367.50049     -2454.54349        48.000  

  21214142.87549 111481072.19949      2732.02049        49.000  

 16 04 02 13 26  9.3000000  0  3G17G18G24                                       
  22320164.35949 117293254.57849      2816.24649        49.000  

  24937531.62549 131047613.14849     -2458.21549        48.000  

  21214090.94549 111480799.30949      2726.22749        49.000  

 16 04 02 13 26  9.4000000  0  3G17G18G24                                       
  22320110.82049 117292973.14149      2812.59449        49.000  

  24937578.44549 131047859.18449     -2462.21549        48.000  

  21214039.12549 111480527.03149      2720.03949        49.000  

 16 04 02 13 26  9.5000000  0  3G17G18G24                                       
  22320057.32849 117292692.03149      2809.40649        49.000  

  24937625.34449 131048105.56249     -2465.64549        48.000  

  21213987.42249 111480255.30949      2714.52349        49.000  

 16 04 02 13 26  9.6000000  0  3G17G18G24                                       
  22320003.89149 117292411.23849      2806.38349        49.000  

  24937672.29749 131048352.29349     -2468.91449        48.000  

  21213935.82049 111479984.16049      2708.92649        49.000  

 16 04 02 13 26  9.7000000  0  3G17G18G24                                       
  22319950.52349 117292130.80549      2802.68449        49.000  

  24937719.32849 131048599.41449     -2472.91049        48.000  

  21213884.32849 111479713.59849      2702.93849        49.000  

 16 04 02 13 26  9.8000000  0  3G17G18G24                                       
  22319897.24249 117291850.77049      2798.56249        49.000  

  24937766.43049 131048846.94549     -2477.25049        48.000  

  21213832.97749 111479443.68049      2696.43049        49.000  

 16 04 02 13 26  9.9000000  0  3G17G18G24                                       
  22319844.03149 117291571.12549      2794.50849        49.000  

  24937813.59449 131049094.90249     -2481.53949        48.000  

  21213781.73449 111479174.40649      2689.84049        49.000  

 16 04 02 13 26 10.0000000  0  3G17G18G24                                       
  22319790.87549 117291291.79749      2791.57049        49.000  

  24937860.84449 131049343.20349     -2484.77349        48.000  

  21213730.60249 111478905.68049      2684.50449        49.000  

 16 04 02 13 26 10.1000000  0  3G17G18G24                                       
  22319737.77349 117291012.76249      2788.56649        49.000  

  24937908.14849 131049591.81249     -2487.86349        48.000  

  21213679.56249 111478637.48449      2679.21149        49.000  

 16 04 02 13 26 10.2000000  0  3G17G18G24                                       
  22319684.75849 117290734.13349      2784.44149        49.000  

  24937955.54749 131049840.87549     -2492.43049        48.000  

  21213628.66449 111478369.94949      2672.63749        49.000  

 16 04 02 13 26 10.3000000  0  3G17G18G24                                       
  22319631.80549 117290455.86349      2780.86749        49.000  

  24938003.00049 131050090.33249     -2496.50049        48.000  

  21213577.86749 111478103.02349      2666.46949        49.000  

 16 04 02 13 26 10.4000000  0  3G17G18G24                                       
  22319578.92249 117290177.93849      2777.50449        50.000  

  24938050.53949 131050340.12549     -2499.78949        48.000  

  21213527.18049 111477836.65249      2660.91049        49.000  

 16 04 02 13 26 10.5000000  0  3G17G18G24                                       
  22319526.08649 117289900.30549      2774.44149        50.000  

  24938098.12549 131050590.25849     -2503.26249        48.000  

  21213476.60249 111477570.84849      2655.25049        49.000  

 16 04 02 13 26 10.6000000  0  3G17G18G24                                       
  22319473.32849 117289623.07449      2770.67249        50.000  

  24938145.80549 131050840.81249     -2507.19549        48.000  

  21213426.14149 111477305.67649      2649.08249        49.000  

 16 04 02 13 26 10.7000000  0  3G17G18G24                                       
  22319420.64149 117289346.20349      2766.67249        49.000  

  24938193.56249 131051091.77049     -2511.65649        48.000  

  21213375.79749 111477041.10949      2642.61749        49.000  

 16 04 02 13 26 10.8000000  0  3G17G18G24                                       
  22319368.03149 117289069.71149      2763.20749        49.000  

  24938241.39149 131051343.10549     -2515.27749        48.000  

  21213325.57849 111476777.15649      2636.80549        49.000  

 16 04 02 13 26 10.9000000  0  3G17G18G24                                       
  22319315.47749 117288793.54349      2759.73049        49.000  

  24938289.30549 131051594.82049     -2519.08249        48.000  

  21213275.46149 111476513.78149      2630.81249        49.000  

 16 04 02 13 26 11.0000000  0  3G17G18G24                                       
  22319262.98449 117288517.72749      2756.55949        50.000  

  24938337.27349 131051846.89849     -2522.64149        48.000  

  21213225.45349 111476250.99249      2625.26649        49.000  

 16 04 02 13 26 11.1000000  0  3G17G18G24                                       
  22319210.54749 117288242.15649      2753.87949        50.000  

  24938385.29749 131052099.25449     -2525.52049        48.000  

  21213175.53949 111475988.69149      2620.21149        49.000  

 16 04 02 13 26 11.2000000  0  3G17G18G24                                       
  22319158.18049 117287966.99649      2749.86749        49.000  

  24938433.39849 131052352.03949     -2529.71549        48.000  

  21213125.75049 111475727.04749      2613.69549        49.000  

 16 04 02 13 26 11.3000000  0  3G17G18G24                                       
  22319105.89149 117287692.18849      2746.40249        49.000  

  24938481.57849 131052605.20749     -2533.48849        48.000  

  21213076.07049 111475465.99249      2607.80949        49.000  

 16 04 02 13 26 11.4000000  0  3G17G18G24                                       
  22319053.64849 117287417.65649      2743.41049        49.000  

  24938529.82049 131052858.69149     -2536.76249        48.000  

  21213026.48449 111475205.46549      2602.50849        49.000  

 16 04 02 13 26 11.5000000  0  3G17G18G24                                       
  22319001.47749 117287143.48849      2740.07449        49.000  

  24938578.13349 131053112.55549     -2540.50049        48.000  

  21212977.02349 111474945.55549      2596.39849        49.000  

 16 04 02 13 26 11.6000000  0  3G17G18G24                                       
  22318949.38349 117286869.73049      2736.03549        49.000  

  24938626.51649 131053366.83249     -2544.47349        48.000  

  21212927.67249 111474686.26649      2590.15249        49.000  

 16 04 02 13 26 11.7000000  0  3G17G18G24                                       
  22318897.33649 117286596.24249      2733.16849        49.000  

  24938674.98449 131053621.43449     -2547.79749        48.000  

  21212878.43049 111474427.49649      2584.93449        49.000  

 16 04 02 13 26 11.8000000  0  3G17G18G24                                       
  22318845.36749 117286323.13749      2729.44949        49.000  

  24938723.50849 131053876.44549     -2551.85549        48.000  

  21212829.30549 111474169.36749      2578.70749        49.000  

 16 04 02 13 26 11.9000000  0  3G17G18G24                                       
  22318793.45349 117286050.32449      2726.35249        50.000  

  24938772.09449 131054131.75849     -2554.93449        48.000  

  21212780.28949 111473911.76649      2573.28549        49.000  

 16 04 02 13 26 12.0000000  0  3G17G18G24                                       
  22318741.60249 117285777.84049      2723.27349        50.000  

  24938820.75049 131054387.43849     -2558.48849        48.000  

  21212731.39149 111473654.73049      2567.73049        49.000  

 16 04 02 13 26 12.1000000  0  3G17G18G24                                       
  22318689.82849 117285505.76649      2718.80149        49.000  

  24938869.50049 131054643.56649     -2563.28149        48.000  

  21212682.60949 111473398.36749      2560.80149        49.000  

 16 04 02 13 26 12.2000000  0  3G17G18G24                                       
  22318638.13349 117285234.04349      2715.53149        50.000  

  24938918.31249 131054900.04749     -2566.65249        48.000  

  21212633.93049 111473142.57449      2555.15249        49.000  

 16 04 02 13 26 12.3000000  0  3G17G18G24                                       
  22318586.47749 117284962.59849      2712.66449        50.000  

  24938967.18049 131055156.85249     -2569.90649        48.000  

  21212585.35949 111472887.31249      2549.88749        49.000  

 16 04 02 13 26 12.4000000  0  3G17G18G24                                       
  22318534.89849 117284691.52049      2709.23849        50.000  

  24939016.12549 131055414.03949     -2573.60549        48.000  

  21212536.89149 111472632.66049      2544.04349        49.000  

 16 04 02 13 26 12.5000000  0  3G17G18G24                                       
  22318483.37549 117284420.79349      2705.55549        50.000  

  24939065.14149 131055671.60549     -2577.29749        48.000  

  21212488.54749 111472378.60549      2537.86349        49.000  

 16 04 02 13 26 12.6000000  0  3G17G18G24                                       
  22318431.93849 117284150.41449      2702.02749        50.000  

  24939114.22749 131055929.54749     -2581.16849        48.000  

  21212440.31249 111472125.12549      2532.05149        49.000  

 16 04 02 13 26 12.7000000  0  3G17G18G24                                       
  22318380.54749 117283880.35949      2698.84849        50.000  

  24939163.37549 131056187.85249     -2584.84049        48.000  

  21212392.19549 111471872.23449      2526.17649        49.000  

 16 04 02 13 26 12.8000000  0  3G17G18G24                                       
  22318329.21949 117283610.62549      2695.65649        49.000  

  24939212.59449 131056446.48449     -2588.11749        48.000  

  21212344.17249 111471619.89549      2520.64849        49.000  

 16 04 02 13 26 12.9000000  0  3G17G18G24                                       
  22318277.96149 117283341.26649      2691.73449        49.000  

  24939261.89149 131056705.53149     -2592.24249        48.000  

  21212296.27349 111471368.17249      2514.44149        49.000  

 16 04 02 13 26 13.0000000  0  3G17G18G24                                       
  22318226.77349 117283072.23049      2688.72349        49.000  

  24939311.25049 131056964.91449     -2595.50849        48.000  

  21212248.47749 111471117.01649      2508.91849        49.000  

 16 04 02 13 26 13.1000000  0  3G17G18G24                                       
  22318175.64149 117282803.53549      2685.02349        49.000  

  24939360.68049 131057224.68449     -2599.60249        48.000  

  21212200.79749 111470866.44149      2502.82449        49.000  

 16 04 02 13 26 13.2000000  0  3G17G18G24                                       
  22318124.59449 117282535.26649      2680.92649        49.000  

  24939410.19549 131057484.89849     -2603.94149        48.000  

  21212153.23449 111470616.54749      2496.28149        49.000  

 16 04 02 13 26 13.3000000  0  3G17G18G24                                       
  22318073.59449 117282267.25449      2678.39149        49.000  

  24939459.77349 131057745.39549     -2606.71949        48.000  

  21212105.77349 111470367.14149      2491.28149        49.000  

 16 04 02 13 26 13.4000000  0  3G17G18G24                                       
  22318022.66449 117281999.60249      2674.83649        49.000  

  24939509.42249 131058006.27049     -2610.54749        48.000  

  21212058.44549 111470118.34049      2485.33649        49.000  

 16 04 02 13 26 13.5000000  0  3G17G18G24                                       
  22317971.81249 117281732.34449      2670.78949        49.000  

  24939559.14849 131058267.57449     -2614.93049        48.000  

  21212011.21949 111469870.17249      2478.86349        49.000  

 16 04 02 13 26 13.6000000  0  3G17G18G24                                       
  22317921.00849 117281465.37149      2667.94949        49.000  

  24939608.93049 131058529.18849     -2617.99249        48.000  

  21211964.09449 111469622.53549      2473.55149        49.000  

 16 04 02 13 26 13.7000000  0  3G17G18G24                                       
  22317870.28149 117281198.78949      2663.98449        49.000  

  24939658.79749 131058791.22349     -2622.25849        48.000  

  21211917.09449 111469375.53949      2467.18849        49.000  

 16 04 02 13 26 13.8000000  0  3G17G18G24                                       
  22317819.61749 117280932.54349      2660.53149        49.000  

  24939708.72749 131059053.62149     -2625.98849        48.000  

  21211870.19549 111469129.11349      2461.28949        49.000  

 16 04 02 13 26 13.9000000  0  3G17G18G24                                       
  22317769.01649 117280666.64849      2657.16849        49.000  

  24939758.72749 131059316.39549     -2629.68049        48.000  

  21211823.41449 111468883.28549      2455.59049        49.000  

 16 04 02 13 26 14.0000000  0  3G17G18G24                                       
  22317718.47749 117280401.09849      2653.85549        49.000  

  24939808.80549 131059579.53149     -2633.13749        48.000  

  21211776.75849 111468638.04749      2449.65649        49.000  

 16 04 02 13 26 14.1000000  0  3G17G18G24                                       
  22317668.00849 117280135.85549      2650.69549        49.000  

  24939858.93849 131059843.00849     -2636.50049        48.000  

  21211730.19549 111468393.35549      2444.15249        49.000  

 16 04 02 13 26 14.2000000  0  3G17G18G24                                       
  22317617.59449 117279870.92649      2647.83649        49.000  

  24939909.14149 131060106.82049     -2639.72349        48.000  

  21211683.73449 111468149.22749      2438.67649        49.000  

 16 04 02 13 26 14.3000000  0  3G17G18G24                                       
  22317567.24249 117279606.34849      2643.87949        49.000  

  24939959.41449 131060371.02349     -2643.90649        48.000  

  21211637.39149 111467905.68049      2432.59049        49.000  

 16 04 02 13 26 14.4000000  0  3G17G18G24                                       
  22317516.97749 117279342.16049      2640.23449        49.000  

  24940009.76649 131060635.62549     -2647.85949        48.000  

  21211591.16449 111467662.77049      2426.35249        49.000  

 16 04 02 13 26 14.5000000  0  3G17G18G24                                       
  22317466.77349 117279078.30549      2636.73049        49.000  

  24940060.19549 131060900.59449     -2651.53949        48.000  

  21211545.04749 111467420.43449      2420.49249        49.000  

 16 04 02 13 26 14.6000000  0  3G17G18G24                                       
  22317416.64149 117278814.85949      2632.50049        49.000  

  24940110.70349 131061166.00449     -2656.05549        48.000  

  21211499.05549 111467178.75449      2413.90249        49.000  

 16 04 02 13 26 14.7000000  0  3G17G18G24                                       
  22317366.56249 117278551.69949      2629.83249        49.000  

  24940161.26649 131061431.71149     -2658.91049        48.000  

  21211453.16449 111466937.60549      2408.77049        49.000  

 16 04 02 13 26 14.8000000  0  3G17G18G24                                       
  22317316.54749 117278288.90649      2626.17249        49.000  

  24940211.90649 131061697.82049     -2662.87149        48.000  

  21211407.39849 111466697.05949      2402.71949        49.000  

 16 04 02 13 26 14.9000000  0  3G17G18G24                                       
  22317266.60249 117278026.44949      2622.96949        49.000  

  24940262.60949 131061964.29749     -2666.42649        48.000  

  21211361.73449 111466457.09849      2397.02749        49.000  

 16 04 02 13 26 15.0000000  0  3G17G18G24                                       
  22317216.72749 117277764.28549      2620.13349        49.000  

  24940313.38349 131062231.09049     -2669.57049        48.000  

  21211316.16449 111466217.66449      2391.70749        49.000  

 16 04 02 13 26 15.1000000  0  3G17G18G24                                       
  22317166.89849 117277502.45349      2616.68049        49.000  

  24940364.19549 131062498.23849     -2673.14549        48.000  

  21211270.71949 111465978.82049      2385.80149        49.000  

 16 04 02 13 26 15.2000000  0  3G17G18G24                                       
  22317117.14149 117277240.96149      2613.35949        49.000  

  24940415.10949 131062765.75849     -2676.85949        48.000  

  21211225.37549 111465740.54749      2380.07449        49.000  

 16 04 02 13 26 15.3000000  0  3G17G18G24                                       
  22317067.43849 117276979.77349      2610.30949        49.000  

  24940466.07049 131063033.60549     -2680.27049        48.000  

  21211180.13349 111465502.81649      2374.63349        49.000  

 16 04 02 13 26 15.4000000  0  3G17G18G24                                       
  22317017.81249 117276719.03149      2605.63349        49.000  

  24940517.13349 131063301.92249     -2685.01649        48.000  

  21211135.02349 111465265.79749      2367.46549        49.000  

 16 04 02 13 26 15.5000000  0  3G17G18G24                                       
  22316968.25049 117276458.62149      2602.26249        49.000  

  24940568.25849 131063570.60249     -2688.75449        48.000  

  21211090.02349 111465029.32049      2361.85249        49.000  

 16 04 02 13 26 15.6000000  0  3G17G18G24                                       
  22316918.76649 117276198.56649      2598.71949        49.000  

  24940619.46149 131063839.65249     -2692.42249        48.000  

  21211045.14849 111464793.46949      2355.75049        49.000  

 16 04 02 13 26 15.7000000  0  3G17G18G24                                       
  22316869.33649 117275938.80149      2596.07449        49.000  

  24940670.72749 131064109.02749     -2695.39549        48.000  

  21211000.36749 111464558.14149      2350.63749        49.000  

 16 04 02 13 26 15.8000000  0  3G17G18G24                                       
  22316819.96949 117275679.35949      2592.64849        49.000  

  24940722.05549 131064378.75849     -2699.09849        48.000  

  21210955.69549 111464323.37149      2344.96549        49.000  

 16 04 02 13 26 15.9000000  0  3G17G18G24                                       
  22316770.68049 117275420.33249      2588.59049        49.000  

  24940773.46949 131064648.91449     -2703.34449        48.000  

  21210911.14849 111464089.27349      2338.30549        49.000  

 16 04 02 13 26 16.0000000  0  3G17G18G24                                       
  22316721.43849 117275161.59049      2585.68849        49.000  

  24940824.93849 131064919.39549     -2706.69949        48.000  

  21210866.70349 111463855.69149      2333.05149        49.000  

 16 04 02 13 26 16.1000000  0  3G17G18G24                                       
  22316672.27349 117274903.21549      2582.02049        49.000  

  24940876.46949 131065190.25849     -2710.50449        48.000  

  21210822.36749 111463622.72749      2326.96549        49.000  

 16 04 02 13 26 16.2000000  0  3G17G18G24                                       
  22316623.18849 117274645.22749      2578.18449        49.000  

  24940928.09449 131065461.53549     -2714.50849        48.000  

  21210778.15649 111463390.39149      2320.65649        49.000  

 16 04 02 13 26 16.3000000  0  3G17G18G24                                       
  22316574.14849 117274387.53549      2575.16449        49.000  

  24940979.78149 131065733.14549     -2717.93849        48.000  

  21210734.04749 111463158.59049      2315.19149        49.000  

 16 04 02 13 26 16.4000000  0  3G17G18G24                                       
  22316525.17249 117274130.18049      2571.82849        49.000  

  24941031.53149 131066005.10949     -2721.48049        48.000  

  21210690.04749 111462927.37949      2309.39849        49.000  

 16 04 02 13 26 16.5000000  0  3G17G18G24                                       
  22316476.25849 117273873.15249      2568.46149        49.000  

  24941083.35249 131066277.43049     -2725.10249        48.000  

  21210646.15649 111462696.73049      2303.61349        49.000  

 16 04 02 13 26 16.6000000  0  3G17G18G24                                       
  22316427.43049 117273616.54349      2564.36749        49.000  

  24941135.25849 131066550.19149     -2729.48449        48.000  

  21210602.39149 111462466.75049      2297.04749        49.000  

 16 04 02 13 26 16.7000000  0  3G17G18G24                                       
  22316378.67249 117273360.28949      2560.68849        49.000  

  24941187.24249 131066823.33649     -2733.45749        48.000  

  21210558.73449 111462237.35249      2291.16849        49.000  

 16 04 02 13 26 16.8000000  0  3G17G18G24                                       
  22316329.96149 117273104.32449      2557.87949        49.000  

  24941239.28149 131067096.80549     -2736.47349        48.000  

  21210515.18849 111462008.50849      2285.70349        49.000  

 16 04 02 13 26 16.9000000  0  3G17G18G24                                       
  22316281.32049 117272848.70749      2554.49649        49.000  

  24941291.39149 131067370.62549     -2740.02049        48.000  

  21210471.75049 111461780.23849      2279.95349        49.000  

 16 04 02 13 26 17.0000000  0  3G17G18G24                                       
  22316232.73449 117272593.45349      2550.72749        49.000  

  24941343.57049 131067644.84849     -2744.11749        48.000  

  21210428.43049 111461552.57449      2273.88749        49.000  

 16 04 02 13 26 17.1000000  0  3G17G18G24                                       
  22316184.23449 117272338.56249      2547.16849        49.000  

  24941395.84449 131067919.46149     -2747.85249        48.000  

  21210385.22749 111461325.52049      2267.86749        49.000  

 16 04 02 13 26 17.2000000  0  3G17G18G24                                       
  22316135.78949 117272083.99249      2543.84449        49.000  

  24941448.16449 131068194.43049     -2751.53549        48.000  

  21210342.12549 111461099.04349      2261.91049        49.000  

 16 04 02 13 26 17.3000000  0  3G17G18G24                                       
  22316087.42249 117271829.83249      2539.89549        49.000  

  24941500.57049 131068469.82449     -2755.77049        48.000  

  21210299.14849 111460873.19949      2255.69149        49.000  

 16 04 02 13 26 17.4000000  0  3G17G18G24                                       
  22316039.12549 117271576.01249      2536.25849        49.000  

  24941553.04749 131068745.57449     -2759.52749        48.000  

  21210256.28949 111460647.95349      2249.50849        49.000  

 16 04 02 13 26 17.5000000  0  3G17G18G24                                       
  22315990.89849 117271322.55549      2532.66049        49.000  

  24941605.59449 131069021.74249     -2763.71949        48.000  

  21210213.53949 111460423.29349      2243.67249        49.000  

 16 04 02 13 26 17.6000000  0  3G17G18G24                                       
  22315942.71149 117271069.42249      2529.54349        49.000  

  24941658.21149 131069298.21949     -2766.77749        48.000  

  21210170.89149 111460199.23049      2237.92249        49.000  

 16 04 02 13 26 17.7000000  0  3G17G18G24                                       
  22315894.60949 117270816.61349      2526.53149        49.000  

  24941710.89849 131069575.06649     -2770.10949        48.000  

  21210128.35949 111459975.71549      2232.53149        49.000  

 16 04 02 13 26 17.8000000  0  3G17G18G24                                       
  22315846.54749 117270564.12149      2523.32049        49.000  

  24941763.64849 131069852.27749     -2773.69149        48.000  

  21210085.92249 111459752.76249      2226.87549        49.000  

 16 04 02 13 26 17.9000000  0  3G17G18G24                                       
  22315798.57049 117270311.98049      2519.61349        49.000  

  24941816.47749 131070129.83649     -2777.52349        48.000  

  21210043.60949 111459530.39849      2220.83649        49.000  

 16 04 02 13 26 18.0000000  0  3G17G18G24                                       
  22315750.66449 117270060.23049      2515.69149        49.000  

  24941869.37549 131070407.82449     -2781.69949        48.000  

  21210001.42249 111459308.68049      2214.43849        49.000  

 16 04 02 13 26 18.1000000  0  3G17G18G24                                       
  22315702.81249 117269808.80149      2512.45749        49.000  

  24941922.33649 131070686.16049     -2785.31649        48.000  

  21209959.33649 111459087.52049      2208.71949        49.000  

 16 04 02 13 26 18.2000000  0  3G17G18G24                                       
  22315655.03149 117269557.72749      2509.22349        49.000  

  24941975.36749 131070964.87549     -2788.68049        48.000  

  21209917.35249 111458866.96149      2203.03549        49.000  

 16 04 02 13 26 18.3000000  0  3G17G18G24                                       
  22315607.30549 117269306.93849      2506.20749        49.000  

  24942028.46949 131071243.90649     -2792.00849        48.000  

  21209875.47749 111458646.92649      2197.62949        49.000  

 16 04 02 13 26 18.4000000  0  3G17G18G24                                       
  22315559.64849 117269056.47749      2502.91849        49.000  

  24942081.63349 131071523.28549     -2795.57849        48.000  

  21209833.71949 111458427.46549      2191.96549        49.000  

 16 04 02 13 26 18.5000000  0  3G17G18G24                                       
  22315512.06249 117268806.42249      2498.86749        49.000  

  24942134.87549 131071803.09049     -2799.83649        48.000  

  21209792.07849 111458208.65249      2185.40249        49.000  

 16 04 02 13 26 18.6000000  0  3G17G18G24                                       
  22315464.53949 117268556.66849      2495.84449        49.000  

  24942188.18849 131072083.22349     -2803.19549        48.000  

  21209750.53949 111457990.37949      2180.00049        49.000  

 16 04 02 13 26 18.7000000  0  3G17G18G24                                       
  22315417.07049 117268307.21949      2492.77749        49.000  

  24942241.55549 131072363.68449     -2806.35949        48.000  

  21209709.10949 111457772.66849      2174.39549        49.000  

 16 04 02 13 26 18.8000000  0  3G17G18G24                                       
  22315369.67249 117268058.10549      2489.46949        49.000  

  24942295.00049 131072644.52749     -2810.01249        48.000  

  21209667.78949 111457555.50849      2168.98449        49.000  

 16 04 02 13 26 18.9000000  0  3G17G18G24                                       
  22315322.32849 117267809.34049      2485.91849        49.000  

  24942348.50049 131072925.72349     -2813.85949        48.000  

  21209626.58649 111457338.96949      2162.75849        49.000  

 16 04 02 13 26 19.0000000  0  3G17G18G24                                       
  22315275.04749 117267560.89549      2482.72749        49.000  

  24942402.07849 131073207.27349     -2817.21949        48.000  

  21209585.47749 111457122.98449      2157.12549        49.000  

 16 04 02 13 26 19.1000000  0  3G17G18G24                                       
  22315227.82849 117267312.72749      2479.94949        49.000  

  24942455.71149 131073489.12549     -2820.25449        48.000  

  21209544.47749 111456907.52049      2152.03149        49.000  

 16 04 02 13 26 19.2000000  0  3G17G18G24                                       
  22315180.68849 117267064.97749      2475.96549        49.000  

  24942509.43049 131073771.42649     -2824.70749        48.000  

  21209503.60249 111456692.70749      2145.53549        49.000  

 16 04 02 13 26 19.3000000  0  3G17G18G24                                       
  22315133.59449 117266817.51249      2472.84049        49.000  

  24942563.20349 131074054.03149     -2827.89549        48.000  

  21209462.82849 111456478.43449      2139.99249        49.000  

 16 04 02 13 26 19.4000000  0  3G17G18G24                                       
  22315086.57049 117266570.44549      2468.94549        49.000  

  24942617.05549 131074337.05549     -2831.93849        48.000  

  21209422.17249 111456264.80949      2133.53949        49.000  

 16 04 02 13 26 19.5000000  0  4G17G18G19G24                                    
  22315039.61749 117266323.69949      2465.63749        49.000  

  24942670.98449 131074620.43849     -2835.63349        48.000  

  22413180.46949 117782057.44559    -17222.19549        50.000  

  21209381.62549 111456051.72349      2128.00049        49.000  

 16 04 02 13 26 19.6000000  0  4G17G18G19G24                                    
  22314992.71949 117266077.27349      2462.53949        49.000  

  24942724.96949 131074904.15249     -2838.98049        48.000  

  22413508.21949 117783779.78949    -17224.80149        50.000  

  21209341.18849 111455839.22349      2122.28149        49.000  

 16 04 02 13 26 19.7000000  0  4G17G18G19G24                                    
  22314945.89149 117265831.18049      2459.21949        49.000  

  24942779.03949 131075188.23449     -2842.63349        48.000  

  22413836.02349 117785502.37949    -17227.45749        50.000  

  21209300.85949 111455627.28549      2116.62949        49.000  

 16 04 02 13 26 19.8000000  0  4G17G18G19G24                                    
  22314899.13349 117265585.43849      2455.85549        49.000  

  24942833.16449 131075472.68849     -2846.23049        48.000  

  22414163.88349 117787225.28549    -17230.28549        50.000  

  21209260.64149 111455415.95349      2110.69149        49.000  

 16 04 02 13 26 19.9000000  0  4G17G18G19G24                                    
  22314852.43049 117265340.02349      2452.42649        49.000  

  24942887.35949 131075757.50849     -2849.96949        48.000  

  22414491.77349 117788948.43449    -17232.90649        50.000  

  21209220.53949 111455205.18449      2104.95349        49.000  

 16 04 02 13 26 20.0000000  0  4G17G18G19G24                                    
  22314805.82049 117265095.05549      2447.76249        49.000  

  24942941.64849 131076042.78549     -2854.73049        48.000  

  22414819.75849 117790671.97749    -17237.04749        50.000  

  21209180.56249 111454995.10949      2097.86749        49.000  

 16 04 02 13 26 20.1000000  0  4G17G18G19G24                                    
  22314759.25049 117264850.34449      2445.50049        49.000  

  24942995.99249 131076328.35249     -2857.29749        48.000  

  22415147.78949 117792395.71149    -17238.63349        50.000  

  21209140.68049 111454785.52749      2093.19949        49.000  

 16 04 02 13 26 20.2000000  0  4G17G18G19G24                                    
  22314712.73449 117264605.88749      2442.98049        49.000  

  24943050.38349 131076614.19549     -2860.12949        48.000  

  22415475.84449 117794119.63749    -17240.50449        50.000  

  21209100.89849 111454576.44549      2088.24649        49.000  

 16 04 02 13 26 20.3000000  0  4G17G18G19G24                                    
  22314666.30549 117264361.91449      2438.14849        49.000  

  24943104.87549 131076900.54749     -2865.21949        48.000  

  22415803.97749 117795843.98449    -17244.77349        50.000  

  21209061.25049 111454368.10249      2080.84449        49.000  

 16 04 02 13 26 20.4000000  0  4G17G18G19G24                                    
  22314619.92249 117264118.21549      2435.01249        49.000  

  24943159.42249 131077187.20349     -2868.52749        48.000  

  22416132.14849 117797568.53549    -17247.16049        50.000  

  21209021.69549 111454160.25049      2075.54749        49.000  

 16 04 02 13 26 20.5000000  0  4G17G18G19G24                                    
  22314573.61749 117263874.88749      2431.57449        49.000  

  24943214.04749 131077474.24649     -2872.18849        48.000  

  22416460.39849 117799293.40249    -17249.95749        50.000  

  21208982.26649 111453953.04349      2069.44549        49.000  

 16 04 02 13 26 20.6000000  0  4G17G18G19G24                                    
  22314527.37549 117263631.85549      2428.61349        50.000  

  24943268.73449 131077761.62949     -2875.60949        48.000  

  22416788.67249 117801018.51649    -17252.45749        50.000  

  21208942.93849 111453746.36749      2064.00849        49.000  

 16 04 02 13 26 20.7000000  0  4G17G18G19G24                                    
  22314481.19549 117263389.19949      2424.85949        49.000  

  24943323.50049 131078049.39549     -2879.50049        48.000  

  22417117.00849 117802743.91849    -17255.43849        50.000  

  21208903.71949 111453540.29349      2057.97749        49.000  

 16 04 02 13 26 20.8000000  0  4G17G18G19G24                                    
  22314435.08649 117263146.87949      2421.41849        49.000  

  24943378.32849 131078337.53549     -2883.27049        48.000  

  22417445.39849 117804469.60949    -17258.34449        50.000  

  21208864.61749 111453334.81649      2052.02349        49.000  

 16 04 02 13 26 20.9000000  0  4G17G18G19G24                                    
  22314389.03949 117262904.92649      2417.95749        49.000  

  24943433.23449 131078626.05949     -2886.85949        48.000  

  22417773.85249 117806195.59849    -17261.16849        50.000  

  21208825.63349 111453129.94549      2046.09049        49.000  

 16 04 02 13 26 21.0000000  0  4G17G18G19G24                                    
  22314343.05549 117262663.27349      2414.64549        49.000  

  24943488.19549 131078914.91049     -2890.46549        48.000  

  22418102.34449 117807921.82849    -17263.94549        50.000  

  21208786.74249 111452925.61349      2040.47749        49.000  

 16 04 02 13 27  6.5000000  0  1G17                                             
  23623748.29749 124143634.25059       917.31649        50.000  

 16 04 02 13 27  6.6000000  0  1G17                                             
  23623730.89149 124143542.72349       913.73449        50.000  

 16 04 02 13 27  6.7000000  0  2G17G24                                          
  23623713.53149 124143451.48449       910.43449        50.000  

  22526271.12549 118376353.28559      -583.24649        50.000  

 16 04 02 13 27  6.8000000  0  2G17G24                                          
  23623696.24249 124143360.60249       907.16049        50.000  

  22526282.28149 118376411.89849      -588.94949        50.000  

 16 04 02 13 27  6.9000000  0  2G17G24                                          
  23623679.00849 124143270.00049       904.14849        50.000  

  22526293.53949 118376471.04749      -594.42249        50.000  

 16 04 02 13 27  7.0000000  0  3G17G24G18                                       
  23623661.83649 124143179.75449       900.71949        50.000  

  22526304.91449 118376530.79749      -600.43049        50.000  

  26299712.95349 138205923.46559     -4507.30549        48.000  

 16 04 02 13 27  7.1000000  0  3G17G24G18                                       
  23623644.71949 124143089.79749       897.78149        50.000  

  22526316.38349 118376591.07049      -605.67249        50.000  

  26299798.74249 138206374.31649     -4510.39849        48.000  

 16 04 02 13 27  7.2000000  0  3G17G24G18                                       
  23623627.66449 124143000.15649       894.77349        50.000  

  22526327.96149 118376651.91449      -611.12949        50.000  

  26299884.60249 138206825.50849     -4513.58649        48.000  

 16 04 02 13 27  7.3000000  0  3G17G24G18                                       
  23623610.66449 124142910.82449       891.45749        50.000  

  22526339.64849 118376713.32449      -617.05149        50.000  

  26299970.52349 138207277.03549     -4517.17649        48.000  

 16 04 02 13 27  7.4000000  0  3G17G24G18                                       
  23623593.71949 124142821.83649       887.97749        50.000  

  22526351.43849 118376775.30949      -622.92649        50.000  

  26300056.50849 138207728.91049     -4520.79349        48.000  

 16 04 02 13 27  7.5000000  0  3G17G24G18                                       
  23623576.85249 124142733.20749       884.52749        50.000  

  22526363.35249 118376837.90649      -628.88349        50.000  

  26300142.57049 138208181.16849     -4524.44149        48.000  

 16 04 02 13 27  7.6000000  0  3G17G24G18                                       
  23623560.03949 124142644.86749       881.64149        50.000  

  22526375.35949 118376901.03549      -634.24249        50.000  

  26300228.69549 138208633.73449     -4527.55549        48.000  

 16 04 02 13 27  7.7000000  0  3G17G24G18                                       
  23623543.29749 124142556.86349       878.19949        50.000  

  22526387.49249 118376964.74649      -640.03949        50.000  

  26300314.88349 138209086.65249     -4531.13749        48.000  

 16 04 02 13 27  7.8000000  0  3G17G24G18                                       
  23623526.60249 124142469.20749       874.63349        50.000  

  22526399.73449 118377029.05549      -646.12149        50.000  

  26300401.14149 138209539.94949     -4534.89149        48.000  

 16 04 02 13 27  7.9000000  0  3G17G24G18                                       
  23623509.98449 124142381.88349       871.37949        50.000  

  22526412.08649 118377093.93049      -651.80949        50.000  

  26300487.46149 138209993.59049     -4538.33249        48.000  

 16 04 02 13 27  8.0000000  0  3G17G24G18                                       
  23623493.41449 124142294.83249       868.73849        50.000  

  22526424.53949 118377159.34449      -657.09449        50.000  

  26300573.84449 138210447.52049     -4541.16449        48.000  

 16 04 02 13 27  8.1000000  0  3G17G24G18                                       
  23623476.92249 124142208.14549       865.04349        50.000  

  22526437.09449 118377225.35249      -663.03549        50.000  

  26300660.29749 138210901.84449     -4545.10949        48.000  

 16 04 02 13 27  8.2000000  0  3G17G24G18                                       
  23623460.47749 124142121.78549       861.81649        50.000  

  22526449.76649 118377291.93849      -668.80549        50.000  

  26300746.81249 138211356.48849     -4548.30149        48.000  

 16 04 02 13 27  8.3000000  0  3G17G24G18                                       
  23623444.09449 124142035.69149       859.33649        50.000  

  22526462.54749 118377359.03949      -673.82449        50.000  

  26300833.39149 138211811.44949     -4551.08649        49.000  

 16 04 02 13 27  8.4000000  0  3G17G24G18                                       
  23623427.78149 124141949.89149       856.19149        50.000  

  22526475.41449 118377426.68049      -679.27049        50.000  

  26300920.03149 138212266.71549     -4554.52349        48.000  

 16 04 02 13 27  8.5000000  0  3G17G24G18                                       
  23623411.51649 124141864.43449       852.75849        50.000  

  22526488.40649 118377494.90649      -685.19149        50.000  

  26301006.73449 138212722.32449     -4558.02749        48.000  

 16 04 02 13 27  8.6000000  0  3G17G24G18                                       
  23623395.31249 124141779.30949       849.54749        50.000  

  22526501.50049 118377563.70749      -690.88749        50.000  

  26301093.49249 138213178.30149     -4561.46149        48.000  

 16 04 02 13 27  8.7000000  0  3G17G24G18                                       
  23623379.17249 124141694.48849       846.25449        50.000  

  22526514.70349 118377633.06649      -696.62549        50.000  

  26301180.32049 138213634.59849     -4564.99249        48.000  

 16 04 02 13 27  8.8000000  0  3G17G24G18                                       
  23623363.10249 124141610.06649       842.34449        50.000  

  22526528.02349 118377703.06649      -702.94949        50.000  

  26301267.21949 138214091.31649     -4569.07849        48.000  

 16 04 02 13 27  8.9000000  0  3G17G24G18                                       
  23623347.09449 124141525.95349       839.32449        50.000  

  22526541.46149 118377773.62549      -708.52749        50.000  

  26301354.18849 138214548.35249     -4572.27049        48.000  

 16 04 02 13 27  9.0000000  0  3G17G24G18                                       
  23623331.14149 124141442.09849       837.05949        50.000  

  22526554.98449 118377844.68449      -713.20749        50.000  

  26301441.21149 138215005.67649     -4574.73849        48.000  

 16 04 02 13 27  9.1000000  0  3G17G24G18                                       
  23623315.25049 124141358.60549       833.21949        50.000  

  22526568.61749 118377916.36349      -719.55549        50.000  

  26301528.31249 138215463.38349     -4578.83649        48.000  

 16 04 02 13 27  9.2000000  0  3G17G24G18                                       
  23623299.42249 124141275.40649       830.06249        50.000  

  22526582.35949 118377988.56649      -725.18049        50.000  

  26301615.47749 138215921.38749     -4582.13349        48.000  

 16 04 02 13 27  9.3000000  0  3G17G24G18                                       
  23623283.66449 124141192.60249       826.28549        50.000  

  22526596.21949 118378061.41849      -731.50449        50.000  

  26301702.71149 138216379.80949     -4586.12149        48.000  

 16 04 02 13 27  9.4000000  0  3G17G24G18                                       
  23623267.96949 124141110.10549       823.30949        50.000  

  22526610.18849 118378134.82049      -736.81649        50.000  

  26301790.00849 138216838.55949     -4589.18849        48.000  

 16 04 02 13 27  9.5000000  0  3G17G24G18                                       
  23623252.31249 124141027.86749       820.37949        50.000  

  22526624.25049 118378208.73049      -742.17249        50.000  

  26301877.35949 138217297.59849     -4592.38349        48.000  

 16 04 02 13 27  9.6000000  0  3G17G24G18                                       
  23623236.75049 124140946.03149       816.64149        50.000  

  22526638.43849 118378283.28949      -748.45349        50.000  

  26301964.78949 138217757.05149     -4596.34449        48.000  

 16 04 02 13 27  9.7000000  0  3G17G24G18                                       
  23623221.22749 124140864.48049       813.59449        50.000  

  22526652.72749 118378358.37149      -753.93449        50.000  

  26302052.27349 138218216.79749     -4599.53549        48.000  

 16 04 02 13 27  9.8000000  0  3G17G24G18                                       
  23623205.75849 124140783.21949       811.02049        50.000  

  22526667.11749 118378433.99649      -758.99649        50.000  

  26302139.82849 138218676.85949     -4602.21549        48.000  

 16 04 02 13 27  9.9000000  0  3G17G24G18                                       
  23623190.35949 124140702.28549       807.57849        50.000  

  22526681.61749 118378510.19149      -764.76649        50.000  

  26302227.44549 138219137.26649     -4605.94949        48.000  

 16 04 02 13 27 10.0000000  0  3G17G24G18                                       
  23623175.01649 124140621.66849       804.50049        50.000  

  22526696.22749 118378586.94949      -770.34849        50.000  

  26302315.12549 138219598.01249     -4609.16049        49.000  

 16 04 02 13 27 10.1000000  0  3G17G24G18                                       
  23623159.74249 124140541.40249       800.84449        50.000  

  22526710.94549 118378664.31249      -776.54749        50.000  

  26302402.86749 138220059.12549     -4613.03949        49.000  

 16 04 02 13 27 10.2000000  0  3G17G24G18                                       
  23623144.51649 124140461.41449       798.14549        50.000  

  22526725.76649 118378742.19949      -781.88349        50.000  

  26302490.68049 138220520.53949     -4616.03149        49.000  

 16 04 02 13 27 10.3000000  0  3G17G24G18                                       
  23623129.36749 124140381.77749       794.68049        50.000  

  22526740.70349 118378820.67649      -787.73449        50.000  

  26302578.55549 138220982.32049     -4619.58649        49.000  

 16 04 02 13 27 10.4000000  0  3G17G24G18                                       
  23623114.27349 124140302.46149       791.41849        50.000  

  22526755.74249 118378899.71549      -793.28949        50.000  

  26302666.49249 138221444.43449     -4622.99249        48.000  

 16 04 02 13 27 10.5000000  0  3G17G24G18                                       
  23623099.23449 124140223.41049       788.69949        50.000  

  22526770.88349 118378979.27749      -798.54749        50.000  

  26302754.48449 138221906.84849     -4626.00449        48.000  

 16 04 02 13 27 10.6000000  0  3G17G24G18                                       
  23623084.25049 124140144.69149       785.55549        50.000  

  22526786.13349 118379059.41849      -804.19949        50.000  

  26302842.55549 138222369.60249     -4629.23849        49.000  

 16 04 02 13 27 10.7000000  0  3G17G24G18                                       
  23623069.33649 124140066.32049       781.96949        50.000  

  22526801.49249 118379140.14149      -810.17649        50.000  

  26302930.68849 138222832.72749     -4633.01249        48.000  

 16 04 02 13 27 10.8000000  0  3G17G24G18                                       
  23623054.47749 124139988.23449       778.90649        50.000  

  22526816.96149 118379221.41049      -815.61749        50.000  

  26303018.86749 138223296.14549     -4636.18449        48.000  

 16 04 02 13 27 10.9000000  0  3G17G24G18                                       
  23623039.70349 124139910.57849       774.82049        50.000  

  22526832.55549 118379303.34049      -822.25849        50.000  

  26303107.14149 138223760.02349     -4640.60249        48.000  

 16 04 02 13 27 11.0000000  0  3G17G24G18                                       
  23623025.00049 124139833.23049       771.64849        50.000  

  22526848.25049 118379385.83649      -827.84449        50.000  

  26303195.49249 138224224.21949     -4643.81649        48.000  

 16 04 02 13 27 11.1000000  0  3G17G24G18                                       
  23623010.32849 124139756.13749       769.26249        50.000  

  22526864.04749 118379468.82849      -832.77349        50.000  

  26303283.87549 138224688.68849     -4646.43849        49.000  

 16 04 02 13 27 11.2000000  0  3G17G24G18                                       
  23622995.74249 124139679.40649       765.52349        50.000  

  22526879.96149 118379552.43449      -838.97749        50.000  

  26303372.35249 138225153.55549     -4650.45349        49.000  

 16 04 02 13 27 11.3000000  0  3G17G24G18                                       
  23622981.20349 124139603.01249       762.08249        50.000  

  22526895.97749 118379636.60249      -844.77049        50.000  

  26303460.87549 138225618.75049     -4653.93049        48.000  

 16 04 02 13 27 11.4000000  0  3G17G24G18                                       
  23622966.72749 124139526.91449       759.14849        50.000  

  22526912.10249 118379721.34049      -850.25449        50.000  

  26303549.45349 138226084.28149     -4657.08649        49.000  

 16 04 02 13 27 11.5000000  0  3G17G24G18                                       
  23622952.29749 124139451.10549       756.56649        50.000  

  22526928.31249 118379806.59849      -855.31649        50.000  

  26303638.10249 138226550.11749     -4660.10249        49.000  

 16 04 02 13 27 11.6000000  0  3G17G24G18                                       
  23622937.94549 124139375.64149       752.86749        50.000  

  22526944.64849 118379892.44949      -861.39549        50.000  

  26303726.81249 138227016.30949     -4663.74649        49.000  

 16 04 02 13 27 11.7000000  0  3G17G24G18                                       
  23622923.64849 124139300.51649       749.62949        50.000  

  22526961.10249 118379978.89549      -867.16449        50.000  

  26303815.59449 138227482.86349     -4667.24649        49.000  

 16 04 02 13 27 11.8000000  0  3G17G24G18                                       
  23622909.43049 124139225.73449       746.01649        50.000  

  22526977.66449 118380065.91449      -873.21949        50.000  

  26303904.46949 138227949.77749     -4671.06249        48.000  

 16 04 02 13 27 11.9000000  0  3G17G24G18                                       
  23622895.24249 124139151.18849       743.82049        50.000  

  22526994.33649 118380153.43049      -877.94549        50.000  

  26303993.36749 138228416.95749     -4673.43049        48.000  

 16 04 02 13 27 12.0000000  0  3G17G24G18                                       
  23622881.12549 124139076.96549       740.64549        50.000  

  22527011.09449 118380241.50449      -883.46549        50.000  

  26304082.32849 138228884.44549     -4676.60549        48.000  

 16 04 02 13 27 12.1000000  0  3G17G24G18                                       
  23622867.05549 124139003.06249       737.48049        50.000  

  22527027.96149 118380330.15649      -889.22749        50.000  

  26304171.35949 138229352.31249     -4680.16849        48.000  

 16 04 02 13 27 12.2000000  0  3G17G24G18                                       
  23622853.05549 124138929.52749       733.42649        50.000  

  22527044.94549 118380419.41049      -895.58249        50.000  

  26304260.46149 138229820.53949     -4684.33249        48.000  

 16 04 02 13 27 12.3000000  0  3G17G24G18                                       
  23622839.12549 124138856.35249       729.81249        50.000  

  22527062.04749 118380509.27049      -901.62149        50.000  

  26304349.63349 138230289.14849     -4688.04349        48.000  

 16 04 02 13 27 12.4000000  0  3G17G24G18                                       
  23622825.26649 124138783.49249       726.73049        50.000  

  22527079.25849 118380599.69949      -907.31649        50.000  

  26304438.85949 138230758.10249     -4691.37549        48.000  

 16 04 02 13 27 12.5000000  0  3G17G24G18                                       
  23622811.46149 124138710.96549       723.59849        50.000  

  22527096.57849 118380690.71149      -912.94549        50.000  

  26304528.16449 138231227.39149     -4694.67249        48.000  

 16 04 02 13 27 12.6000000  0  3G17G24G18                                       
  23622797.71149 124138638.66049       721.25049        50.000  

  22527113.98449 118380782.18049      -917.53549        50.000  

  26304617.53149 138231696.93449     -4697.22349        48.000  

 16 04 02 13 27 12.7000000  0  3G17G24G18                                       
  23622784.02349 124138566.71949       717.74649        50.000  

  22527131.50849 118380874.27049      -923.69949        50.000  

  26304706.95349 138232166.85949     -4700.96149        48.000  

 16 04 02 13 27 12.8000000  0  3G17G24G18                                       
  23622770.39849 124138495.12949       714.00449        50.000  

  22527149.14849 118380966.95349      -929.91049        50.000  

  26304796.43049 138232637.15249     -4704.87549        48.000  

 16 04 02 13 27 12.9000000  0  3G17G24G18                                       
  23622756.83649 124138423.86749       710.78149        50.000  

  22527166.89149 118381060.20749      -935.50849        50.000  

  26304885.99249 138233107.79349     -4708.27749        48.000  

 16 04 02 13 27 13.0000000  0  3G17G24G18                                       
  23622743.32849 124138352.87949       708.14149        50.000  

  22527184.73449 118381153.97749      -940.57449        50.000  

  26304975.60949 138233578.71149     -4710.95349        48.000  

 16 04 02 13 27 13.1000000  0  3G17G24G18                                       
  23622729.88349 124138282.25849       704.54349        50.000  

  22527202.69549 118381248.37949      -946.90649        50.000  

  26305065.29749 138234050.03949     -4715.05149        48.000  

 16 04 02 13 27 13.2000000  0  3G17G24G18                                       
  23622716.51649 124138211.98449       700.72749        50.000  

  22527220.76649 118381343.35249      -952.82049        50.000  

  26305155.05549 138234521.71149     -4718.85949        48.000  

 16 04 02 13 27 13.3000000  0  3G17G24G18                                       
  23622703.21149 124138142.05949       697.39549        50.000  

  22527238.95349 118381438.93449      -958.77349        50.000  

  26305244.88349 138234993.75049     -4722.26649        49.000  

 16 04 02 13 27 13.4000000  0  3G17G24G18                                       
  23622689.95349 124138072.39549       694.82049        50.000  

  22527257.24249 118381535.03149      -963.91849        50.000  

  26305334.75849 138235466.07849     -4725.18049        48.000  

 16 04 02 13 27 13.5000000  0  3G17G24G18                                       
  23622676.76649 124138003.06649       691.73849        50.000  

  22527275.63349 118381631.68849      -969.30549        50.000  

  26305424.71149 138235938.76249     -4728.43849        49.000  

 16 04 02 13 27 13.6000000  0  3G17G24G18                                       
  23622663.64149 124137934.09849       687.78949        50.000  

  22527294.14149 118381728.96549      -975.89549        50.000  

  26305514.73449 138236411.81649     -4732.48449        49.000  

 16 04 02 13 27 13.7000000  0  3G17G24G18                                       
  23622650.57049 124137865.44149       684.77749        50.000  

  22527312.75849 118381826.78949      -981.23849        50.000  

  26305604.82049 138236885.20749     -4735.73449        49.000  

 16 04 02 13 27 13.8000000  0  3G17G24G18                                       
  23622637.55549 124137797.09049       681.56649        50.000  

  22527331.47749 118381925.17649      -986.94149        50.000  

  26305694.96949 138237358.91849     -4739.14849        48.000  

 16 04 02 13 27 13.9000000  0  3G17G24G18                                       
  23622624.61749 124137729.12549       677.95749        50.000  

  22527350.32849 118382024.19149      -993.17649        50.000  

  26305785.18849 138237833.03549     -4743.02049        48.000  

 16 04 02 13 27 14.0000000  0  3G17G24G18                                       
  23622611.74249 124137661.43049       675.14549        50.000  

  22527369.26649 118382123.72349      -998.20349        50.000  

  26305875.46149 138238307.44149     -4745.82849        49.000  

 16 04 02 13 27 14.1000000  0  3G17G24G18                                       
  23622598.91449 124137594.00049       672.60549        50.000  

  22527388.30549 118382223.75849     -1003.22349        50.000  

  26305965.78949 138238782.12549     -4748.67649        48.000  

 16 04 02 13 27 14.2000000  0  3G17G24G18                                       
  23622586.14149 124137526.90249       669.24249        50.000  

  22527407.45349 118382324.39149     -1009.13749        50.000  

  26306056.19549 138239257.16449     -4752.18449        48.000  

 16 04 02 13 27 14.3000000  0  3G17G24G18                                       
  23622573.43849 124137460.14549       665.80949        50.000  

  22527426.71149 118382425.59049     -1014.90249        50.000  

  26306146.65649 138239732.55549     -4755.75049        48.000  

 16 04 02 13 27 14.4000000  0  3G17G24G18                                       
  23622560.78949 124137393.68449       662.75849        50.000  

  22527446.07849 118382527.34849     -1020.43049        50.000  

  26306237.18849 138240208.27349     -4759.03949        48.000  

 16 04 02 13 27 14.5000000  0  3G17G24G18                                       
  23622548.21949 124137327.62149       658.70349        50.000  

  22527465.56249 118382629.74249     -1026.96549        50.000  

  26306327.78949 138240684.40249     -4763.22349        48.000  

 16 04 02 13 27 14.6000000  0  3G17G24G18                                       
  23622535.71149 124137261.82449       656.38349        50.000  

  22527485.14849 118382732.65249     -1031.86749        50.000  

  26306418.44549 138241160.81249     -4765.84049        48.000  

 16 04 02 13 27 14.7000000  0  3G17G24G18                                       
  23622523.25049 124137196.34449       652.85549        50.000  

  22527504.83649 118382836.11749     -1037.69549        50.000  

  26306509.16449 138241637.55149     -4769.43049        48.000  

 16 04 02 13 27 14.8000000  0  3G17G24G18                                       
  23622510.84449 124137131.16449       650.06249        50.000  

  22527524.63349 118382940.14549     -1043.23449        50.000  

  26306599.96149 138242114.62549     -4772.51249        48.000  

 16 04 02 13 27 14.9000000  0  3G17G24G18                                       
  23622498.50849 124137066.34849       646.31249        50.000  

  22527544.53949 118383044.77049     -1049.30149        50.000  

  26306690.81249 138242592.06649     -4776.40249        48.000  

 16 04 02 13 27 15.0000000  0  3G17G24G18                                       
  23622486.25049 124137001.92649       642.53549        50.000  

  22527564.57049 118383150.03149     -1055.55149        50.000  

  26306781.73449 138243069.91049     -4780.28149        48.000  

 16 04 02 13 27 15.1000000  0  3G17G24G18                                       
  23622474.03149 124136937.71149       640.45349        50.000  

  22527584.68849 118383255.76249     -1060.17249        50.000  

  26306872.71149 138243548.00049     -4782.53149        48.000  

 16 04 02 13 27 15.2000000  0  3G17G24G18                                       
  23622461.85949 124136873.76249       637.86349        50.000  

  22527604.90649 118383361.98449     -1065.14549        50.000  

  26306963.74249 138244026.37149     -4785.35549        48.000  

 16 04 02 13 27 15.3000000  0  3G17G24G18                                       
  23622449.76649 124136810.19149       633.91449        50.000  

  22527625.22749 118383468.84449     -1071.43849        50.000  

  26307054.84449 138244505.12949     -4789.37949        48.000  

 16 04 02 13 27 15.4000000  0  3G17G24G18                                       
  23622437.73449 124136746.96549       630.56649        50.000  

  22527645.68049 118383576.29749     -1077.38749        50.000  

  26307146.02349 138244984.25849     -4792.99649        48.000  

 16 04 02 13 27 15.5000000  0  3G17G24G18                                       
  23622425.75849 124136684.04349       627.16849        50.000  

  22527666.22749 118383684.29749     -1083.10549        50.000  

  26307237.26649 138245463.70749     -4796.55149        48.000  

 16 04 02 13 27 15.6000000  0  3G17G24G18                                       
  23622413.84449 124136621.46949       624.00849        50.000  

  22527686.89149 118383792.88749     -1088.84449        50.000  

  26307328.56249 138245943.52049     -4799.94549        48.000  

 16 04 02 13 27 15.7000000  0  3G17G24G18                                       
  23622401.99249 124136559.19949       620.96549        50.000  

  22527707.65649 118383902.03549     -1094.31249        50.000  

  26307419.93049 138246423.66049     -4803.25449        48.000  

 16 04 02 13 27 15.8000000  0  3G17G24G18                                       
  23622390.20349 124136497.24649       617.79749        50.000  

  22527728.53149 118384011.74249     -1099.92649        50.000  

  26307511.35949 138246904.12549     -4806.42649        48.000  

 16 04 02 13 27 15.9000000  0  3G17G24G18                                       
  23622378.49249 124136435.68049       613.75449        50.000  

  22527749.53149 118384122.08249     -1106.40649        50.000  

  26307602.85949 138247384.99249     -4810.59449        48.000  

 16 04 02 13 27 16.0000000  0  3G17G24G18                                       
  23622366.83649 124136374.44149       610.37149        50.000  

  22527770.64149 118384233.00049     -1112.32449        50.000  

  26307694.44549 138247866.22749     -4814.34449        48.000  

 16 04 02 13 27 16.1000000  0  3G17G24G18                                       
  23622355.23449 124136313.48849       607.78149        50.000  

  22527791.84449 118384344.44949     -1117.49649        50.000  

  26307786.07849 138248347.75449     -4817.26649        48.000  

 16 04 02 13 27 16.2000000  0  3G17G24G18                                       
  23622343.70349 124136252.85249       604.55949        50.000  

  22527813.15649 118384456.44949     -1123.00849        50.000  

  26307877.77349 138248829.59849     -4820.28949        48.000  

 16 04 02 13 27 16.3000000  0  3G17G24G18                                       
  23622332.22749 124136192.56249       601.12149        50.000  

  22527834.57849 118384569.05549     -1128.98849        50.000  

  26307969.53949 138249311.82849     -4824.07049        48.000  

 16 04 02 13 27 16.4000000  0  3G17G24G18                                       
  23622320.82849 124136132.61349       597.80549        50.000  

  22527856.11749 118384682.24249     -1134.72749        50.000  

  26308061.36749 138249794.41449     -4827.65649        48.000  

 16 04 02 13 27 16.5000000  0  3G17G24G18                                       
  23622309.47749 124136072.96949       594.46949        50.000  

  22527877.76649 118384795.97749     -1140.35549        50.000  

  26308153.26649 138250277.30949     -4830.94949        48.000  

 16 04 02 13 27 16.6000000  0  3G17G24G18                                       
  23622298.18849 124136013.64149       591.64849        50.000  

  22527899.51649 118384910.28949     -1145.87549        50.000  

  26308245.21949 138250760.54349     -4834.02049        48.000  

 16 04 02 13 27 16.7000000  0  3G17G24G18                                       
  23622286.96149 124135954.64849       588.18449        50.000  

  22527921.38349 118385025.17649     -1151.75849        50.000  

  26308337.24249 138251244.14149     -4837.72349        48.000  

 16 04 02 13 27 16.8000000  0  3G17G24G18                                       
  23622275.78949 124135895.98049       584.75849        50.000  

  22527943.35249 118385140.63349     -1157.58249        50.000  

  26308429.32849 138251728.07449     -4841.23849        48.000  

 16 04 02 13 27 16.9000000  0  3G17G24G18                                       
  23622264.68849 124135837.64149       581.52049        50.000  

  22527965.43049 118385256.66849     -1163.33249        50.000  

  26308521.48449 138252212.36349     -4844.72349        48.000  

 16 04 02 13 27 17.0000000  0  3G17G24G18                                       
  23622253.64149 124135779.60249       578.55549        50.000  

  22527987.61749 118385373.24249     -1168.71149        50.000  

  26308613.68849 138252696.95749     -4847.76249        48.000  

 16 04 02 13 27 17.1000000  0  3G17G24G18                                       
  23622242.67249 124135721.96549       574.68449        50.000  

  22528009.92249 118385490.46149     -1175.06249        50.000  

  26308705.98449 138253181.97349     -4851.96549        48.000  

 16 04 02 13 27 17.2000000  0  3G17G24G18                                       
  23622231.75849 124135664.57449       572.03549        50.000  

  22528032.32049 118385608.18049     -1180.18049        50.000  

  26308798.32849 138253667.24649     -4854.73449        48.000  

 16 04 02 13 27 17.3000000  0  3G17G24G18                                       
  23622220.89149 124135607.49649       568.85549        50.000  

  22528054.83649 118385726.47349     -1185.89549        50.000  

  26308890.74249 138254152.86749     -4858.08249        48.000  

 16 04 02 13 27 17.4000000  0  3G17G24G18                                       
  23622210.10249 124135550.79349       565.27049        50.000  

  22528077.45349 118385845.36349     -1191.89549        50.000  

  26308983.21949 138254638.87149     -4861.91049        48.000  

 16 04 02 13 27 17.5000000  0  3G17G24G18                                       
  23622199.37549 124135494.41049       562.06249        50.000  

  22528100.20349 118385964.83249     -1197.62149        50.000  

  26309075.76649 138255125.21549     -4865.37149        48.000  

 16 04 02 13 27 17.6000000  0  3G17G24G18                                       
  23622188.70349 124135438.34049       559.00049        50.000  

  22528123.03949 118386084.85249     -1203.08649        50.000  

  26309168.36749 138255611.87949     -4868.46549        48.000  

 16 04 02 13 27 17.7000000  0  3G17G24G18                                       
  23622178.08649 124135382.54749       556.25449        50.000  

  22528145.98449 118386205.39549     -1208.32449        50.000  

  26309261.03949 138256098.84449     -4871.35549        48.000  

 16 04 02 13 27 17.8000000  0  3G17G24G18                                       
  23622167.53949 124135327.07449       552.99249        50.000  

  22528169.03149 118386326.51249     -1214.09849        50.000  

  26309353.77349 138256586.15249     -4874.80949        48.000  

 16 04 02 13 27 17.9000000  0  3G17G24G18                                       
  23622157.05549 124135272.00049       548.95749        50.000  

  22528192.20349 118386448.27349     -1220.52349        50.000  

  26309446.58649 138257073.87549     -4879.15649        48.000  

 16 04 02 13 27 18.0000000  0  3G17G24G18                                       
  23622146.62549 124135217.17649       546.21149        50.000  

  22528215.46949 118386570.53149     -1225.67249        50.000  

  26309539.44549 138257561.86749     -4881.93049        48.000  

 16 04 02 13 27 18.1000000  0  3G17G24G18                                       
  23622136.26649 124135162.73049       542.69949        50.000  

  22528238.85249 118386693.41049     -1231.62949        50.000  

  26309632.37549 138258050.25049     -4885.65249        48.000  

 16 04 02 13 27 18.2000000  0  3G17G24G18                                       
  23622125.94549 124135108.57449       539.92649        50.000  

  22528262.34449 118386816.84049     -1237.24649        50.000  

  26309725.36749 138258538.94949     -4888.79349        48.000  

 16 04 02 13 27 18.3000000  0  3G17G24G18                                       
  23622115.71149 124135054.77049       536.14549        50.000  

  22528285.94549 118386940.84449     -1243.10549        50.000  

  26309818.43049 138259028.00849     -4892.61749        48.000  

 16 04 02 13 27 18.4000000  0  3G17G24G18                                       
  23622105.53949 124135001.33249       532.64849        50.000  

  22528309.65649 118387065.46549     -1249.03149        50.000  

  26309911.56249 138259517.44949     -4896.10949        48.000  

 16 04 02 13 27 18.5000000  0  3G17G24G18                                       
  23622095.42249 124134948.15249       530.13349        50.000  

  22528333.46949 118387190.61749     -1254.30149        50.000  

  26310004.75049 138260007.18049     -4899.05949        48.000  

 16 04 02 13 27 18.6000000  0  3G17G24G18                                       
  23622085.36749 124134895.29749       526.61749        50.000  

  22528357.39149 118387316.30549     -1259.90249        50.000  

  26310097.99249 138260497.22749     -4902.41049        48.000  

 16 04 02 13 27 18.7000000  0  3G17G24G18                                       
  23622075.36749 124134842.76649       523.59449        50.000  

  22528381.41449 118387442.59049     -1265.75449        50.000  

  26310191.32049 138260987.64849     -4905.98049        48.000  

 16 04 02 13 27 18.8000000  0  3G17G24G18                                       
  23622065.44549 124134790.62149       519.42249        50.000  

  22528405.55549 118387569.47749     -1271.99249        50.000  

  26310284.71149 138261478.44149     -4909.93049        48.000  

 16 04 02 13 27 18.9000000  0  3G17G24G18                                       
  23622055.57849 124134738.74249       516.99649        50.000  

  22528429.80549 118387696.91849     -1277.30949        50.000  

  26310378.17249 138261969.55149     -4912.99649        48.000  

 16 04 02 13 27 19.0000000  0  3G17G24G18                                       
  23622045.76649 124134687.16449       514.34849        50.000  

  22528454.15649 118387824.87549     -1282.19549        50.000  

  26310471.68049 138262460.95349     -4915.50049        48.000  

 16 04 02 13 27 19.1000000  0  3G17G24G18                                       
  23622036.00849 124134635.89549       510.86349        50.000  

  22528478.61749 118387953.39549     -1288.12149        50.000  

  26310565.25049 138262952.68049     -4919.09849        48.000  

 16 04 02 13 27 19.2000000  0  3G17G24G18                                       
  23622026.31249 124134584.97349       507.27349        50.000  

  22528503.18849 118388082.51249     -1294.20349        50.000  

  26310658.90649 138263444.79349     -4923.02749        48.000  

 16 04 02 13 27 19.3000000  0  3G17G24G18                                       
  23622016.68849 124134534.37949       503.92249        50.000  

  22528527.85949 118388212.20349     -1299.96949        50.000  

  26310752.60949 138263937.23849     -4926.47349        48.000  

 16 04 02 13 27 19.4000000  0  3G17G24G18                                       
  23622007.13349 124134484.15649       500.52049        50.000  

  22528552.65649 118388342.50449     -1305.94949        50.000  

  26310846.39849 138264430.07449     -4930.31649        48.000  

 16 04 02 13 27 19.5000000  0  3G17G24G18                                       
  23621997.62549 124134434.21949       497.47349        50.000  

  22528577.55549 118388473.34849     -1311.49249        50.000  

  26310940.24249 138264923.20749     -4933.35949        48.000  

 16 04 02 13 27 19.6000000  0  3G17G24G18                                       
  23621988.18849 124134384.61349       494.30149        50.000  

  22528602.56249 118388604.76249     -1317.07849        50.000  

  26311034.14849 138265416.69549     -4936.70349        48.000  

 16 04 02 13 27 19.7000000  0  3G17G24G18                                       
  23621978.81249 124134335.36349       490.51249        50.000  

  22528627.68049 118388736.77749     -1323.18449        50.000  

  26311128.12549 138265910.55549     -4940.60549        48.000  

 16 04 02 13 27 19.8000000  0  3G17G24G18                                       
  23621969.50049 124134286.40249       487.77749        50.000  

  22528652.90649 118388869.33649     -1328.44549        50.000  

  26311222.17249 138266404.72349     -4943.48449        48.000  

 16 04 02 13 27 19.9000000  0  3G17G24G18                                       
  23621960.24249 124134237.75049       484.76249        50.000  

  22528678.22749 118389002.45349     -1334.00449        50.000  

  26311316.26649 138266899.21949     -4946.82049        48.000  

 16 04 02 13 27 20.0000000  0  3G17G24G18                                       
  23621951.05549 124134189.46549       481.30949        50.000  

  22528703.68049 118389136.16849     -1339.94949        50.000  

  26311410.43849 138267394.09049     -4950.33649        48.000  

 16 04 02 13 27 20.1000000  0  3G17G24G18                                       
  23621941.91449 124134141.43049       478.64849        50.000  

  22528729.21949 118389270.38349     -1344.96949        50.000  

  26311504.65649 138267889.22749     -4953.16849        48.000  

 16 04 02 13 27 20.2000000  0  3G17G24G18                                       
  23621932.83649 124134093.72349       475.31649        50.000  

  22528754.86749 118389405.18449     -1350.91049        50.000  

  26311598.95349 138268384.73049     -4956.82049        48.000  

 16 04 02 13 27 20.3000000  0  3G17G24G18                                       
  23621923.82849 124134046.39149       471.43449        50.000  

  22528780.63349 118389540.59049     -1357.06649        50.000  

  26311693.30549 138268880.59049     -4960.60249        48.000  

 16 04 02 13 27 20.4000000  0  3G17G24G18                                       
  23621914.88349 124133999.37149       468.32449        50.000  

  22528806.50849 118389676.57849     -1362.80949        50.000  

  26311787.73449 138269376.81649     -4964.01649        48.000  

 16 04 02 13 27 20.5000000  0  3G17G24G18                                       
  23621905.99249 124133952.62549       465.68849        50.000  

  22528832.47749 118389813.06649     -1367.84049        50.000  

  26311882.21949 138269873.31649     -4966.88349        48.000  

 16 04 02 13 27 20.6000000  0  3G17G24G18                                       
  23621897.16449 124133906.18049       462.98049        50.000  

  22528858.55549 118389950.10949     -1373.00049        50.000  

  26311976.75849 138270370.13349     -4969.67649        48.000  

 16 04 02 13 27 20.7000000  0  3G17G24G18                                       
  23621888.40649 124133860.18449       457.73449        50.000  

  22528884.77349 118390087.83249     -1380.50049        50.000  

  26312071.39149 138270867.41049     -4975.09849        48.000  

 16 04 02 13 27 20.8000000  0  3G17G24G18                                       
  23621879.72749 124133814.51249       454.93049        50.000  

  22528911.09449 118390226.15649     -1386.12549        50.000  

  26312166.08649 138271365.04749     -4978.24649        48.000  

 16 04 02 13 27 20.9000000  0  3G17G24G18                                       
  23621871.09449 124133769.12549       452.05549        50.000  

  22528937.50849 118390364.98449     -1391.27049        50.000  

  26312260.83649 138271862.96949     -4981.03149        48.000  

 16 04 02 13 27 21.0000000  0  3G17G24G18                                       
  23621862.50849 124133723.98849       449.59849        50.000  

  22528964.02349 118390504.33249     -1396.36349        50.000  

  26312355.64149 138272361.17649     -4983.81249        48.000  

 16 04 02 13 27 21.1000000  0  3G17G24G18                                       
  23621853.98449 124133679.19949       446.27049        50.000  

  22528990.64849 118390644.25849     -1402.04349        50.000  

  26312450.51649 138272859.74649     -4987.41849        48.000  

 16 04 02 13 27 21.2000000  0  3G17G24G18                                       
  23621845.52349 124133634.73049       442.76649        50.000  

  22529017.38349 118390784.75049     -1407.93849        50.000  

  26312545.45349 138273358.62549     -4990.88349        48.000  

 16 04 02 13 27 21.3000000  0  3G17G24G18                                       
  23621837.11749 124133590.57849       439.79349        50.000  

  22529044.21949 118390925.81649     -1413.50449        50.000  

  26312640.45349 138273857.85949     -4994.12549        48.000  

 16 04 02 13 27 21.4000000  0  3G17G24G18                                       
  23621828.78149 124133546.76249       436.28549        50.000  

  22529071.18049 118391067.46549     -1419.53149        50.000  

  26312735.52349 138274357.45349     -4997.84049        48.000  

 16 04 02 13 27 21.5000000  0  3G17G24G18                                       
  23621820.50049 124133503.24649       433.37149        50.000  

  22529098.23449 118391209.65249     -1424.79349        50.000  

  26312830.65649 138274857.35949     -5000.85949        48.000  

 16 04 02 13 27 21.6000000  0  3G17G24G18                                       
  23621812.28949 124133460.09849       429.74649        50.000  

  22529125.40649 118391352.44149     -1430.76649        50.000  

  26312925.85949 138275357.64149     -5004.60249        48.000  

 16 04 02 13 27 21.7000000  0  3G17G24G18                                       
  23621804.13349 124133417.22349       427.07849        50.000  

  22529152.68049 118391495.76649     -1436.01249        50.000  

  26313021.10949 138275858.20749     -5007.32449        48.000  

 16 04 02 13 27 21.8000000  0  3G17G24G18                                       
  23621796.03149 124133374.64549       423.95749        50.000  

  22529180.06249 118391639.64149     -1441.64849        50.000  

  26313116.43049 138276359.10949     -5010.79749        48.000  

 16 04 02 13 27 21.9000000  0  3G17G24G18                                       
  23621788.00849 124133332.46549       419.98049        50.000  

  22529207.55549 118391784.14149     -1447.99249        50.000  

  26313211.82849 138276860.42249     -5015.05949        48.000  

 16 04 02 13 27 22.0000000  0  3G17G24G18                                       
  23621780.03949 124133290.57849       417.01649        50.000  

  22529235.16449 118391929.20749     -1453.66049        50.000  

  26313307.28949 138277362.03949     -5018.16449        48.000  

 16 04 02 13 27 22.1000000  0  3G17G24G18                                       
  23621772.13349 124133249.03549       413.85549        50.000  

  22529262.87549 118392074.83649     -1459.19949        50.000  

  26313402.81249 138277864.01649     -5021.50049        48.000  

 16 04 02 13 27 22.2000000  0  3G17G24G18                                       
  23621764.28149 124133207.80149       410.51249        50.000  

  22529290.69549 118392221.03149     -1464.94149        50.000  

  26313498.38349 138278366.32049     -5024.96149        48.000  

 16 04 02 13 27 22.3000000  0  3G17G24G18                                       
  23621756.49249 124133166.87949       407.39149        50.000  

  22529318.61749 118392367.78149     -1470.46949        50.000  

  26313594.03149 138278868.95749     -5028.15249        48.000  

 16 04 02 13 27 22.4000000  0  3G17G24G18                                       
  23621748.76649 124133126.29349       404.33249        50.000  

  22529346.65649 118392515.11749     -1476.09849        50.000  

  26313689.74249 138279371.93449     -5031.40649        48.000  

 16 04 02 13 27 22.5000000  0  3G17G24G18                                       
  23621741.09449 124133085.99649       401.09849        50.000  

  22529374.79749 118392663.00049     -1481.77349        50.000  

  26313785.52349 138279875.23849     -5034.99249        48.000  

 16 04 02 13 27 22.6000000  0  3G17G24G18                                       
  23621733.49249 124133046.05149       397.69949        50.000  

  22529403.04749 118392811.46149     -1487.55149        50.000  

  26313881.36749 138280378.87949     -5038.28149        48.000  

 16 04 02 13 27 22.7000000  0  3G17G24G18                                       
  23621725.96149 124133006.45749       393.96949        50.000  

  22529431.40649 118392960.53149     -1493.71949        50.000  

  26313977.28149 138280882.92249     -5042.30149        48.000  

 16 04 02 13 27 22.8000000  0  3G17G24G18                                       
  23621718.46949 124132967.15649       391.14149        50.000  

  22529459.87549 118393110.13749     -1499.03549        50.000  

  26314073.24249 138281387.25049     -5045.34449        48.000  

 16 04 02 13 27 22.9000000  0  3G17G24G18                                       
  23621711.05549 124132928.19149       387.95349        50.000  

  22529488.45349 118393260.32849     -1504.74249        50.000  

  26314169.28149 138281891.95349     -5048.66049        48.000  

 16 04 02 13 27 23.0000000  0  3G17G24G18                                       
  23621703.68049 124132889.47349       385.36349        50.000  

  22529517.12549 118393411.01249     -1509.80949        49.000  

  26314265.37549 138282396.89149     -5051.31249        48.000  

 16 04 02 13 27 23.1000000  0  3G17G24G18                                       
  23621696.37549 124132851.08649       382.22749        50.000  

  22529545.91449 118393562.28549     -1515.48449        50.000  

  26314361.53149 138282902.20749     -5054.78549        48.000  

 16 04 02 13 27 23.2000000  0  3G17G24G18                                       
  23621689.14149 124132813.07049       378.49649        50.000  

  22529574.80549 118393714.14149     -1521.42649        50.000  

  26314457.75849 138283407.89549     -5058.69149        48.000  

 16 04 02 13 27 23.3000000  0  3G17G24G18                                       
  23621681.96949 124132775.37949       374.92249        50.000  

  22529603.82049 118393866.60249     -1527.57049        50.000  

  26314554.04749 138283913.92249     -5062.32049        48.000  

 16 04 02 13 27 23.4000000  0  3G17G24G18                                       
  23621674.85249 124132737.99249       372.05949        50.000  

  22529632.93849 118394019.60249     -1532.97749        50.000  

  26314650.41449 138284420.27749     -5065.41449        48.000  

 16 04 02 13 27 23.5000000  0  3G17G24G18                                       
  23621667.79749 124132700.94949       368.66449        50.000  

  22529662.15649 118394173.18449     -1538.81649        50.000  

  26314746.83649 138284926.98449     -5068.93049        48.000  

 16 04 02 13 27 23.6000000  0  3G17G24G18                                       
  23621660.81249 124132664.23849       365.30149        50.000  

  22529691.49249 118394327.35249     -1544.59049        50.000  

  26314843.33649 138285434.05149     -5072.39849        48.000  

 16 04 02 13 27 23.7000000  0  3G17G24G18                                       
  23621653.87549 124132627.79349       362.78949        50.000  

  22529720.92249 118394482.03949     -1549.68449        50.000  

  26314939.87549 138285941.39149     -5075.18049        48.000  

 16 04 02 13 27 23.8000000  0  3G17G24G18                                       
  23621647.00849 124132591.68049       359.21549        50.000  

  22529750.46949 118394637.30549     -1555.72349        50.000  

  26315036.50049 138286449.09849     -5078.95349        48.000  

 16 04 02 13 27 23.9000000  0  3G17G24G18                                       
  23621640.20349 124132555.91049       355.84849        50.000  

  22529780.13349 118394793.14849     -1561.37549        49.000  

  26315133.18049 138286957.14549     -5082.41849        48.000  

 16 04 02 13 27 24.0000000  0  3G17G24G18                                       
  23621633.46149 124132520.47349       352.86349        50.000  

  22529809.89849 118394949.57849     -1567.09849        49.000  

  26315229.93049 138287465.55549     -5085.77049        48.000  

 16 04 02 13 27 24.1000000  0  3G17G24G18                                       
  23621626.78149 124132485.34849       349.48049        50.000  

  22529839.76649 118395106.55949     -1572.82849        49.000  

  26315326.73449 138287974.27349     -5089.10249        48.000  

 16 04 02 13 27 24.2000000  0  3G17G24G18                                       
  23621620.14849 124132450.51249       346.53949        50.000  

  22529869.74249 118395264.08249     -1578.20349        49.000  

  26315423.60249 138288483.31649     -5092.29349        48.000  

 16 04 02 13 27 24.3000000  0  3G17G24G18                                       
  23621613.59449 124132416.05549       342.72749        50.000  

  22529899.83649 118395422.23449     -1584.44549        49.000  

  26315520.54749 138288992.75049     -5096.22749        48.000  

 16 04 02 13 27 24.4000000  0  3G17G24G18                                       
  23621607.08649 124132381.91049       339.74649        50.000  

  22529930.03949 118395580.93849     -1589.90249        49.000  

  26315617.54749 138289502.50849     -5099.39549        48.000  

 16 04 02 13 27 24.5000000  0  3G17G24G18                                       
  23621600.63349 124132348.01649       337.19549        50.000  

  22529960.32849 118395740.13749     -1594.80549        49.000  

  26315714.60949 138290012.53949     -5102.10949        48.000  

 16 04 02 13 27 24.6000000  0  3G17G24G18                                       
  23621594.25049 124132314.44149       333.93449        50.000  

  22529990.73449 118395899.92649     -1600.84049        49.000  

  26315811.73449 138290522.91449     -5105.61349        48.000  

 16 04 02 13 27 24.7000000  0  3G17G24G18                                       
  23621587.93049 124132281.24249       330.01249        50.000  

  22530021.25849 118396060.30949     -1607.02349        49.000  

  26315908.93049 138291033.66049     -5109.57449        48.000  

 16 04 02 13 27 24.8000000  0  3G17G24G18                                       
  23621581.68049 124132248.35949       327.14149        50.000  

  22530051.88349 118396221.25849     -1612.35249        49.000  

  26316006.18049 138291544.75849     -5112.81249        48.000  

 16 04 02 13 27 24.9000000  0  3G17G24G18                                       
  23621575.48449 124132215.81249       323.63349        50.000  

  22530082.62549 118396382.79349     -1618.19549        49.000  

  26316103.50849 138292056.19149     -5116.28149        48.000  

 16 04 02 13 27 25.0000000  0  3G17G24G18                                       
  23621569.35249 124132183.55549       320.80949        50.000  

  22530113.46949 118396544.87549     -1623.79349        49.000  

  26316200.89149 138292567.94549     -5119.35249        48.000  

 16 04 02 13 27 25.1000000  0  3G17G24G18                                       
  23621563.28149 124132151.65649       317.23849        50.000  

  22530144.42249 118396707.55149     -1629.62949        49.000  

  26316298.34449 138293080.06649     -5122.95349        48.000  

 16 04 02 13 27 25.2000000  0  3G17G24G18                                       
  23621557.26649 124132120.04749       314.46149        50.000  

  22530175.48449 118396870.76249     -1634.87149        49.000  

  26316395.85249 138293592.49249     -5125.90649        48.000  

 16 04 02 13 27 25.3000000  0  3G17G24G18                                       
  23621551.30549 124132088.72749       311.35249        50.000  

  22530206.64149 118397034.51649     -1640.57049        49.000  

  26316493.43049 138294105.23849     -5129.32049        48.000  

 16 04 02 13 27 25.4000000  0  3G17G24G18                                       
  23621545.40649 124132057.73049       308.45749        50.000  

  22530237.91449 118397198.84849     -1646.07449        49.000  

  26316591.07049 138294618.32049     -5132.52349        48.000  

 16 04 02 13 27 25.5000000  0  3G17G24G18                                       
  23621539.57049 124132027.05549       304.91449        50.000  

  22530269.28149 118397363.71149     -1651.64549        49.000  

  26316688.76649 138295131.71949     -5135.94549        48.000  

 16 04 02 13 27 25.6000000  0  3G17G24G18                                       
  23621533.79749 124131996.73049       301.43049        50.000  

  22530300.77349 118397529.20749     -1657.92249        49.000  

  26316786.53149 138295645.50449     -5139.81249        48.000  

 16 04 02 13 27 25.7000000  0  3G17G24G18                                       
  23621528.08649 124131966.68849       298.79749        50.000  

  22530332.36749 118397695.22749     -1663.09049        49.000  

  26316884.35949 138296159.59049     -5142.58649        48.000  

 16 04 02 13 27 25.8000000  0  3G17G24G18                                       
  23621522.44549 124131937.02749       294.75849        50.000  

  22530364.07849 118397861.85549     -1669.28949        49.000  

  26316982.25849 138296674.05549     -5146.60549        48.000  

 16 04 02 13 27 25.9000000  0  3G17G24G18                                       
  23621516.85249 124131907.65249       291.93849        50.000  

  22530395.88349 118398029.03149     -1674.66849        49.000  

  26317080.21949 138297188.84049     -5149.68449        48.000  

 16 04 02 13 27 26.0000000  0  3G17G24G18                                       
  23621511.31249 124131878.57049       289.02349        50.000  

  22530427.79749 118398196.75449     -1680.07849        49.000  

  26317178.24249 138297703.93449     -5152.88349        48.000  

 16 04 02 13 27 26.1000000  0  3G17G24G18                                       
  23621505.85249 124131849.86349       285.30149        50.000  

  22530459.82849 118398365.08649     -1686.28149        49.000  

  26317276.32849 138298219.41049     -5156.63749        48.000  

 16 04 02 13 27 26.2000000  0  3G17G24G18                                       
  23621500.44549 124131821.44549       282.48449        50.000  

  22530491.96149 118398533.94949     -1691.54349        49.000  

  26317374.48449 138298735.19149     -5159.71949        48.000  

 16 04 02 13 27 26.3000000  0  3G17G24G18                                       
  23621495.10249 124131793.37949       278.91449        50.000  

  22530524.21949 118398703.41449     -1697.56649        49.000  

  26317472.70349 138299251.33649     -5163.32049        48.000  

 16 04 02 13 27 26.4000000  0  3G17G24G18                                       
  23621489.82049 124131765.64849       275.34049        50.000  

  22530556.57849 118398873.46549     -1703.56649        50.000  

  26317571.00049 138299767.85249     -5167.04349        48.000  

 16 04 02 13 27 26.5000000  0  3G17G24G18                                       
  23621484.61749 124131738.28549       271.73049        50.000  

  22530589.04749 118399044.12949     -1709.67649        49.000  

  26317669.36749 138300284.73849     -5170.78549        48.000  

 16 04 02 13 27 26.6000000  0  3G17G24G18                                       
  23621479.45349 124131711.17649       269.29349        50.000  

  22530621.61749 118399215.30149     -1714.68049        49.000  

  26317767.77349 138300801.89849     -5173.43849        48.000  

 16 04 02 13 27 26.7000000  0  3G17G24G18                                       
  23621474.36749 124131684.43449       265.59849        50.000  

  22530654.30549 118399387.07049     -1720.70749        50.000  

  26317866.25849 138301319.44949     -5177.38349        48.000  

 16 04 02 13 27 26.8000000  0  3G17G24G18                                       
  23621469.33649 124131658.00449       262.60949        50.000  

  22530687.10249 118399559.41049     -1726.25449        49.000  

  26317964.80549 138301837.30949     -5180.45749        48.000  

 16 04 02 13 27 26.9000000  0  3G17G24G18                                       
  23621464.35949 124131631.86749       259.62549        50.000  

  22530720.00049 118399732.29749     -1731.77749        50.000  

  26318063.41449 138302355.49649     -5183.60249        48.000  

 16 04 02 13 27 27.0000000  0  3G17G24G18                                       
  23621459.44549 124131606.07049       256.23049        50.000  

  22530753.00849 118399905.75049     -1737.39549        50.000  

  26318162.08649 138302874.02349     -5187.07849        48.000  

 16 04 02 13 27 27.1000000  0  3G17G24G18                                       
  23621454.60249 124131580.62549       252.41849        50.000  

  22530786.13349 118400079.82049     -1743.75449        50.000  

  26318260.82849 138303392.93049     -5191.03149        48.000  

 16 04 02 13 27 27.2000000  0  3G17G24G18                                       
  23621449.83649 124131555.50849       249.41049        50.000  

  22530819.35949 118400254.43849     -1749.04749        49.000  

  26318359.64149 138303912.17649     -5194.23849        48.000  

 16 04 02 13 27 27.3000000  0  3G17G24G18                                       
  23621445.11749 124131530.69949       246.11749        50.000  

  22530852.70349 118400429.62949     -1754.88349        49.000  

  26318458.51649 138304431.74649     -5197.62149        48.000  

 16 04 02 13 27 27.4000000  0  3G17G24G18                                       
  23621440.45349 124131506.21949       243.27749        50.000  

  22530886.14849 118400605.41049     -1760.52349        49.000  

  26318557.44549 138304951.66849     -5200.87549        48.000  

 16 04 02 13 27 27.5000000  0  3G17G24G18                                       
  23621435.85949 124131482.06649       239.59449        50.000  

  22530919.71149 118400781.75049     -1766.30949        49.000  

  26318656.45349 138305471.94149     -5204.57049        48.000  

 16 04 02 13 27 27.6000000  0  3G17G24G18                                       
  23621431.33649 124131458.23849       236.67649        50.000  

  22530953.37549 118400958.65649     -1771.95749        49.000  

  26318755.52349 138305992.53549     -5207.72749        48.000  

 16 04 02 13 27 27.7000000  0  3G17G24G18                                       
  23621426.85249 124131434.68449       233.91049        50.000  

  22530987.13349 118401136.08649     -1777.24249        49.000  

  26318854.64149 138306513.42249     -5210.69549        48.000  

 16 04 02 13 27 27.8000000  0  3G17G24G18                                       
  23621422.43849 124131411.46949       230.27049        50.000  

  22531021.01649 118401314.10949     -1783.22749        50.000  

  26318953.83649 138307034.68049     -5214.46149        48.000  

 16 04 02 13 27 27.9000000  0  3G17G24G18                                       
  23621418.08649 124131388.59849       227.03149        50.000  

  22531054.99249 118401492.70749     -1788.82449        50.000  

  26319053.09449 138307556.28549     -5217.85549        48.000  

 16 04 02 13 27 28.0000000  0  3G17G24G18                                       
  23621413.78949 124131366.01649       223.89549        50.000  

  22531089.08649 118401671.85949     -1794.57049        50.000  

  26319152.41449 138308078.19949     -5221.14149        48.000  

 16 04 02 13 27 28.1000000  0  3G17G24G18                                       
  23621409.55549 124131343.77349       220.64549        50.000  

  22531123.28949 118401851.59049     -1800.21149        50.000  

  26319251.79749 138308600.46549     -5224.43049        48.000  

 16 04 02 13 27 28.2000000  0  3G17G24G18                                       
  23621405.38349 124131321.80949       218.07449        50.000  

  22531157.58649 118402031.83249     -1805.18849        50.000  

  26319351.23449 138309123.02749     -5227.30949        48.000  

 16 04 02 13 27 28.3000000  0  3G17G24G18                                       
  23621401.25849 124131300.14549       214.95349        50.000  

  22531191.99249 118402212.63749     -1810.85249        50.000  

  26319450.73449 138309645.91449     -5230.60549        48.000  

 16 04 02 13 27 28.4000000  0  3G17G24G18                                       
  23621397.20349 124131278.80149       211.71549        50.000  

  22531226.50849 118402394.01249     -1816.60249        50.000  

  26319550.30549 138310169.12149     -5233.84449        48.000  

 16 04 02 13 27 28.5000000  0  3G17G24G18                                       
  23621393.20349 124131257.79349       208.40649        50.000  

  22531261.12549 118402575.94949     -1822.23849        50.000  

  26319649.93049 138310692.68849     -5237.48449        48.000  

 16 04 02 13 27 28.6000000  0  3G17G24G18                                       
  23621389.27349 124131237.09449       205.25849        50.000  

  22531295.85949 118402758.46549     -1827.95349        50.000  

  26319749.63349 138311216.57449     -5240.59849        48.000  

 16 04 02 13 27 28.7000000  0  3G17G24G18                                       
  23621385.39849 124131216.70749       202.04349        50.000  

  22531330.69549 118402941.53149     -1833.61749        50.000  

  26319849.39149 138311740.80149     -5244.09049        48.000  

 16 04 02 13 27 28.8000000  0  3G17G24G18                                       
  23621381.58649 124131196.66449       198.66849        50.000  

  22531365.64849 118403125.17649     -1839.42249        50.000  

  26319949.21149 138312265.38349     -5247.54349        48.000  

 16 04 02 13 27 28.9000000  0  3G17G24G18                                       
  23621377.82849 124131176.91449       195.67649        50.000  

  22531400.69549 118403309.37549     -1844.94949        50.000  

  26320049.09449 138312790.26649     -5250.70749        48.000  

 16 04 02 13 27 29.0000000  0  3G17G24G18                                       
  23621374.14149 124131157.51649       192.19949        50.000  

  22531435.85949 118403494.16049     -1850.80949        50.000  

  26320149.05549 138313315.52749     -5254.41849        48.000  

 16 04 02 13 27 29.1000000  0  3G17G24G18                                       
  23621370.50049 124131138.39149       189.57849        50.000  

  22531471.11749 118403679.47749     -1855.95349        50.000  

  26320249.06249 138313841.07049     -5257.21949        48.000  

 16 04 02 13 27 29.2000000  0  3G17G24G18                                       
  23621366.92249 124131119.61749       185.97749        50.000  

  22531506.50049 118403865.37949     -1861.93449        50.000  

  26320349.13349 138314366.98049     -5260.90649        48.000  

 16 04 02 13 27 29.3000000  0  3G17G24G18                                       
  23621363.41449 124131101.18449       182.56649        50.000  

  22531541.98449 118404051.88749     -1868.00849        50.000  

  26320449.28149 138314893.25449     -5264.63349        48.000  

 16 04 02 13 27 29.4000000  0  3G17G24G18                                       
  23621359.97749 124131083.14549       178.46149        50.000  

  22531577.60249 118404239.01649     -1874.46549        50.000  

  26320549.50849 138315419.93049     -5268.75449        48.000  

 16 04 02 13 27 29.5000000  0  3G17G24G18                                       
  23621356.60249 124131065.37949       175.87949        50.000  

  22531613.30549 118404426.66849     -1879.45349        50.000  

  26320649.78949 138315946.89549     -5271.39849        48.000  

 16 04 02 13 27 29.6000000  0  3G17G24G18                                       
  23621353.28149 124131047.94949       172.32449        50.000  

  22531649.12549 118404614.91049     -1885.44549        50.000  

  26320750.13349 138316474.21949     -5275.32849        48.000  

 16 04 02 13 27 29.7000000  0  3G17G24G18                                       
  23621350.03949 124131030.87949       169.05149        50.000  

  22531685.06249 118404803.75849     -1891.25849        50.000  

  26320850.55549 138317001.91449     -5278.68449        48.000  

 16 04 02 13 27 29.8000000  0  3G17G24G18                                       
  23621346.83649 124131014.07049       166.24249        50.000  

  22531721.09449 118404993.10949     -1896.43049        50.000  

  26320951.01649 138317529.88749     -5281.58649        48.000  

 16 04 02 13 27 29.9000000  0  3G17G24G18                                       
  23621343.71949 124130997.67649       162.06249        50.000  

  22531757.25049 118405183.12149     -1903.15249        50.000  

  26321051.57049 138318058.29749     -5286.00049        48.000  

 16 04 02 13 27 30.0000000  0  3G17G24G18                                       
  23621340.65649 124130981.58249       159.09049        50.000  

  22531793.51649 118405373.68849     -1908.63349        50.000  

  26321152.18849 138318587.01649     -5289.13749        48.000  

 16 04 02 13 27 30.1000000  0  3G17G24G18                                       
  23621337.64849 124130965.78549       156.30549        50.000  

  22531829.87549 118405564.78949     -1913.82049        49.000  

  26321252.85949 138319116.04349     -5292.07849        48.000  

 16 04 02 13 27 30.2000000  0  3G17G24G18                                       
  23621334.70349 124130950.27349       153.49649        50.000  

  22531866.34449 118405756.43049     -1919.17649        50.000  

  26321353.58649 138319645.37949     -5295.06249        48.000  

 16 04 02 13 27 30.3000000  0  3G17G24G18                                       
  23621331.81249 124130935.10249       150.14549        50.000  

  22531902.93049 118405948.65249     -1925.00449        50.000  

  26321454.38349 138320175.06249     -5298.48049        48.000  

 16 04 02 13 27 30.4000000  0  3G17G24G18                                       
  23621328.99249 124130920.24249       146.89149        50.000  

  22531939.60949 118406141.44149     -1930.81249        50.000  

  26321555.24249 138320705.09449     -5302.15649        48.000  

 16 04 02 13 27 30.5000000  0  3G17G24G18                                       
  23621326.22749 124130905.74649       143.11349        50.000  

  22531976.40649 118406334.82849     -1936.91849        50.000  

  26321656.17249 138321235.47349     -5305.88349        48.000  

 16 04 02 13 27 30.6000000  0  3G17G24G18                                       
  23621323.53949 124130891.59849       139.68449        50.000  

  22532013.32049 118406528.80149     -1942.75049        50.000  

  26321757.17249 138321766.23449     -5309.52049        48.000  

 16 04 02 13 27 30.7000000  0  3G17G24G18                                       
  23621320.90649 124130877.75849       136.57849        50.000  

  22532050.34449 118406723.34849     -1948.38349        50.000  

  26321858.23449 138322297.31649     -5312.67649        48.000  

 16 04 02 13 27 30.8000000  0  3G17G24G18                                       
  23621318.33649 124130864.28149       132.90649        50.000  

  22532087.47749 118406918.50049     -1954.52349        50.000  

  26321959.36749 138322828.77749     -5316.51249        48.000  

 16 04 02 13 27 30.9000000  0  3G17G24G18                                       
  23621315.82849 124130851.08249       130.51249        50.000  

  22532124.71149 118407114.17249     -1959.39549        50.000  

  26322060.55549 138323360.53949     -5319.22349        48.000  

 16 04 02 13 27 31.0000000  0  3G17G24G18                                       
  23621313.36749 124130838.16449       127.30149        50.000  

  22532162.04749 118407310.37949     -1965.09449        50.000  

  26322161.80549 138323892.59049     -5322.39149        48.000  

 16 04 02 13 27 31.1000000  0  3G17G24G18                                       
  23621310.99249 124130825.67649       123.27349        50.000  

  22532199.50849 118407507.25449     -1971.64849        50.000  

  26322263.13349 138324425.07849     -5326.47349        48.000  

 16 04 02 13 27 31.2000000  0  3G17G24G18                                       
  23621308.65649 124130813.44949       120.22349        50.000  

  22532237.07049 118407704.64149     -1977.08249        50.000  

  26322364.52349 138324957.85949     -5329.90249        48.000  

 16 04 02 13 27 31.3000000  0  3G17G24G18                                       
  23621306.40649 124130801.59449       116.78549        50.000  

  22532274.75049 118407902.64549     -1982.96149        50.000  

  26322465.98449 138325491.02349     -5333.51649        48.000  

 16 04 02 13 27 31.4000000  0  3G17G24G18                                       
  23621304.20349 124130790.01249       114.05149        50.000  

  22532312.53149 118408101.17249     -1988.23849        50.000  

  26322567.49249 138326024.47349     -5336.37149        48.000  

 16 04 02 13 27 31.5000000  0  3G17G24G18                                       
  23621302.07049 124130778.78949       110.72349        50.000  

  22532350.42249 118408300.29749     -1993.88349        50.000  

  26322669.07849 138326558.29749     -5339.74249        48.000  

 16 04 02 13 27 31.6000000  0  3G17G24G18                                       
  23621299.97749 124130767.81249       107.97749        50.000  

  22532388.41449 118408499.92249     -1999.19949        49.000  

  26322770.71149 138327092.37549     -5342.64849        48.000  

 16 04 02 13 27 31.7000000  0  3G17G24G18                                       
  23621297.95349 124130757.19149       104.53949        50.000  

  22532426.50849 118408700.15249     -2005.10549        49.000  

  26322872.41449 138327626.84849     -5346.50849        48.000  

 16 04 02 13 27 31.8000000  0  3G17G24G18                                       
  23621295.99249 124130746.87549       101.55549        50.000  

  22532464.71949 118408900.92249     -2010.47349        50.000  

  26322974.17249 138328161.62149     -5349.39849        48.000  

 16 04 02 13 27 31.9000000  0  3G17G24G18                                       
  23621294.09449 124130736.88749        97.91449        50.000  

  22532503.03149 118409102.27049     -2016.59049        50.000  

  26323076.00849 138328696.73449     -5353.25049        48.000  

 16 04 02 13 27 32.0000000  0  3G17G24G18                                       
  23621292.27349 124130727.28549        94.21549        50.000  

  22532541.46949 118409304.26249     -2022.78549        50.000  

  26323177.91449 138329232.26249     -5356.99649        48.000  

 16 04 02 13 27 32.1000000  0  3G17G24G18                                       
  23621290.50049 124130717.97749        91.13349        50.000  

  22532580.01649 118409506.78549     -2028.38749        50.000  

  26323279.88349 138329768.11349     -5360.47349        48.000  

 16 04 02 13 27 32.2000000  0  3G17G24G18                                       
  23621288.78949 124130709.01649        87.90249        50.000  

  22532618.66449 118409709.89549     -2033.93849        49.000  

  26323381.91449 138330304.28149     -5363.53949        48.000  

 16 04 02 13 27 32.3000000  0  3G17G24G18                                       
  23621287.14849 124130700.39849        84.28549        50.000  

  22532657.43049 118409913.60549     -2040.07449        49.000  

  26323484.01649 138330840.84049     -5367.39149        48.000  

 16 04 02 13 27 32.4000000  0  3G17G24G18                                       
  23621285.57849 124130692.11349        81.30149        50.000  

  22532696.30549 118410117.88749     -2045.58249        49.000  

  26323586.18849 138331377.74649     -5370.61349        48.000  

 16 04 02 13 27 32.5000000  0  3G17G24G18                                       
  23621284.05549 124130684.11349        78.02749        50.000  

  22532735.28149 118410322.71949     -2051.43449        49.000  

  26323688.41449 138331914.95349     -5374.07049        48.000  

 16 04 02 13 27 32.6000000  0  3G17G24G18                                       
  23621282.59449 124130676.42649        75.12949        50.000  

  22532774.35949 118410528.08249     -2056.53149        49.000  

  26323790.69549 138332452.48449     -5377.11749        48.000  

 16 04 02 13 27 32.7000000  0  3G17G24G18                                       
  23621281.19549 124130669.07449        71.78549        50.000  

  22532813.55549 118410734.04349     -2062.46949        50.000  

  26323893.04749 138332990.36349     -5380.62149        48.000  

 16 04 02 13 27 32.8000000  0  3G17G24G18                                       
  23621279.85949 124130662.05149        68.39849        50.000  

  22532852.85949 118410940.59449     -2068.48849        50.000  

  26323995.46949 138333528.59849     -5384.14849        48.000  

 16 04 02 13 27 32.9000000  0  3G17G24G18                                       
  23621278.58649 124130655.34449        65.35249        50.000  

  22532892.26649 118411147.67649     -2073.86749        49.000  

  26324097.95349 138334067.14549     -5387.34049        48.000  

 16 04 02 13 27 33.0000000  0  3G17G24G18                                       
  23621277.36749 124130648.96549        62.01249        50.000  

  22532931.78149 118411355.35549     -2079.67649        49.000  

  26324200.50049 138334606.04749     -5390.78949        48.000  

 16 04 02 13 27 33.1000000  0  3G17G24G18                                       
  23621276.21149 124130642.89149        58.97749        50.000  

  22532971.40649 118411563.56249     -2085.06249        49.000  

  26324303.10949 138335145.26249     -5394.01649        48.000  

 16 04 02 13 27 33.2000000  0  3G17G24G18                                       
  23621275.12549 124130637.17249        55.00049        50.000  

  22533011.14849 118411772.39149     -2091.41049        49.000  

  26324405.79749 138335684.85949     -5398.05149        48.000  

 16 04 02 13 27 33.3000000  0  3G17G24G18                                       
  23621274.10949 124130631.85249        51.41049        50.000  

  22533051.00849 118411981.86349     -2097.66449        49.000  

  26324508.55549 138336224.85949     -5401.90649        48.000  

 16 04 02 13 27 33.4000000  0  3G17G24G18                                       
  23621273.14149 124130626.79749        48.80549        50.000  

  22533090.96149 118412191.84849     -2102.73049        49.000  

  26324611.35949 138336765.14549     -5404.68849        48.000  

 16 04 02 13 27 33.5000000  0  3G17G24G18                                       
  23621272.24249 124130622.05549        45.69549        50.000  

  22533131.02349 118412402.38349     -2108.27749        49.000  

  26324714.23449 138337305.75449     -5407.83249        48.000  

 16 04 02 13 27 33.6000000  0  3G17G24G18                                       
  23621271.39849 124130617.63749        42.66849        50.000  

  22533171.20349 118412613.50449     -2113.89849        49.000  

  26324817.17249 138337846.71549     -5411.07449        48.000  

 16 04 02 13 27 33.7000000  0  3G17G24G18                                       
  23621270.62549 124130613.58249        38.69149        50.000  

  22533211.49249 118412825.22349     -2120.25449        49.000  

  26324920.18849 138338388.05549     -5415.23049        48.000  

 16 04 02 13 27 33.8000000  0  3G17G24G18                                       
  23621269.91449 124130609.82849        35.84449        50.000  

  22533251.88349 118413037.49649     -2125.59849        49.000  

  26325023.25849 138338929.69949     -5418.30949        48.000  

 16 04 02 13 27 33.9000000  0  3G17G24G18                                       
  23621269.25049 124130606.33649        33.26249        50.000  

  22533292.37549 118413250.26649     -2130.46949        49.000  

  26325126.38349 138339471.62149     -5420.93049        48.000  

 16 04 02 13 27 34.0000000  0  3G17G24G18                                       
  23621268.64849 124130603.20749        29.53549        50.000  

  22533332.98449 118413463.65649     -2136.89849        49.000  

  26325229.57849 138340013.92649     -5424.85249        48.000  

 16 04 02 13 27 34.1000000  0  3G17G24G18                                       
  23621268.12549 124130600.43849        26.11749        50.000  

  22533373.71149 118413677.65249     -2142.74249        49.000  

  26325332.84449 138340556.59449     -5428.36349        48.000  

 16 04 02 13 27 34.2000000  0  3G17G24G18                                       
  23621267.65649 124130597.94549        23.01649        50.000  

  22533414.53149 118413892.16049     -2148.18049        49.000  

  26325436.17249 138341099.56249     -5431.71549        48.000  

 16 04 02 13 27 34.3000000  0  3G17G24G18                                       
  23621267.25049 124130595.79749        19.66849        50.000  

  22533455.46149 118414107.26649     -2153.91049        49.000  

  26325539.56249 138341642.89849     -5435.09049        48.000  

 16 04 02 13 27 34.4000000  0  3G17G24G18                                       
  23621266.90649 124130593.97349        16.49249        50.000  

  22533496.50049 118414322.94149     -2159.60949        49.000  

  26325643.01649 138342186.55549     -5438.32049        48.000  

 16 04 02 13 27 34.5000000  0  3G17G24G18                                       
  23621266.62549 124130592.51249        12.65249        49.000  

  22533537.65649 118414539.23449     -2166.06649        49.000  

  26325746.54749 138342730.61749     -5442.66049        48.000  

 16 04 02 13 27 34.6000000  0  3G17G24G18                                       
  23621266.40649 124130591.35249         9.49649        49.000  

  22533578.92249 118414756.06249     -2171.54349        49.000  

  26325850.13349 138343274.96949     -5445.67249        48.000  

 16 04 02 13 27 34.7000000  0  3G17G24G18                                       
  23621266.25849 124130590.57449         6.06249        49.000  

  22533620.30549 118414973.53149     -2177.54749        49.000  

  26325953.80549 138343819.73449     -5449.47749        48.000  

 16 04 02 13 27 34.8000000  0  3G17G24G18                                       
  23621266.17249 124130590.13749         2.37549        49.000  

  22533661.79749 118415191.59449     -2183.77749        49.000  

  26326057.53149 138344364.84849     -5453.23849        48.000  

 16 04 02 13 27 34.9000000  0  3G17G24G18                                       
  23621266.14849 124130590.03149        -0.70349        49.000  

  22533703.39149 118415410.20749     -2189.19949        49.000  

  26326161.32849 138344910.30149     -5456.31649        48.000  

 16 04 02 13 27 35.0000000  0  3G17G24G18                                       
  23621266.18049 124130590.16849        -2.96149        50.000  

  22533745.09449 118415629.32849     -2194.06649        49.000  

  26326265.18049 138345456.02349     -5458.95749        48.000  

 16 04 02 13 27 35.1000000  0  3G17G24G18                                       
  23621266.27349 124130590.65649        -6.78549        49.000  

  22533786.89149 118415849.03549     -2200.14849        49.000  

  26326369.09449 138346002.11349     -5462.77349        48.000  

 16 04 02 13 27 35.2000000  0  3G17G24G18                                       
  23621266.43049 124130591.44949        -9.49649        49.000  

  22533828.81249 118416069.31249     -2205.46149        49.000  

  26326473.07049 138346548.51649     -5465.67249        48.000  

 16 04 02 13 27 35.3000000  0  3G17G24G18                                       
  23621266.64149 124130592.57849       -13.13749        50.000  

  22533870.83649 118416290.16049     -2211.50849        49.000  

  26326577.11749 138347095.27749     -5469.43849        48.000  

 16 04 02 13 27 35.4000000  0  3G17G24G18                                       
  23621266.92249 124130594.05549       -16.48049        50.000  

  22533912.97749 118416511.60549     -2217.27349        49.000  

  26326681.23449 138347642.40249     -5473.10549        48.000  

 16 04 02 13 27 35.5000000  0  3G17G24G18                                       
  23621267.26649 124130595.84849       -19.58249        50.000  

  22533955.21949 118416733.61749     -2222.96949        49.000  

  26326785.40649 138348189.84049     -5476.14849        48.000  

 16 04 02 13 27 35.6000000  0  3G17G24G18                                       
  23621267.67249 124130597.94149       -22.69149        50.000  

  22533997.57049 118416956.16449     -2228.38349        49.000  

  26326889.64849 138348737.61349     -5479.48049        48.000  

 16 04 02 13 27 35.7000000  0  3G17G24G18                                       
  23621268.12549 124130600.34849       -25.79749        50.000  

  22534040.02349 118417179.26649     -2233.87549        49.000  

  26326993.94549 138349285.69149     -5482.57049        48.000  

 16 04 02 13 27 35.8000000  0  3G17G24G18                                       
  23621268.65649 124130603.09849       -29.37949        50.000  

  22534082.59449 118417402.98049     -2240.06249        49.000  

  26327098.32049 138349834.15649     -5486.43449        48.000  

 16 04 02 13 27 35.9000000  0  3G17G24G18                                       
  23621269.24249 124130606.19149       -32.45349        50.000  

  22534125.27349 118417627.26649     -2245.55549        49.000  

  26327202.75049 138350382.96949     -5489.84449        48.000  

 16 04 02 13 27 36.0000000  0  3G17G24G18                                       
  23621269.89149 124130609.59449       -36.03149        50.000  

  22534168.06249 118417852.11349     -2251.53949        49.000  

  26327307.24249 138350932.10249     -5493.41049        48.000  

 16 04 02 13 27 36.1000000  0  3G17G24G18                                       
  23621270.60249 124130613.33249       -39.36749        50.000  

  22534210.96149 118418077.55549     -2257.47749        49.000  

  26327411.80549 138351481.58249     -5496.82449        48.000  

 16 04 02 13 27 36.2000000  0  3G17G24G18                                       
  23621271.37549 124130617.41849       -42.69149        50.000  

  22534253.96949 118418303.57449     -2263.13349        49.000  

  26327516.43849 138352031.42649     -5500.34049        48.000  

 16 04 02 13 27 36.3000000  0  3G17G24G18                                       
  23621272.19549 124130621.74649       -44.96549        50.000  

  22534297.07849 118418530.08249     -2268.03149        49.000  

  26327621.11749 138352581.52749     -5502.77349        48.000  

 16 04 02 13 27 36.4000000  0  3G17G24G18                                       
  23621273.08649 124130626.40249       -48.17649        50.000  

  22534340.28949 118418757.17649     -2273.66449        49.000  

  26327725.86749 138353131.98449     -5506.10949        48.000  

 16 04 02 13 27 36.5000000  0  3G17G24G18                                       
  23621274.03149 124130631.35249       -51.05549        50.000  

  22534383.60249 118418984.80149     -2278.98449        49.000  

  26327830.67249 138353682.73449     -5509.25849        48.000  

 16 04 02 13 27 36.6000000  0  3G17G24G18                                       
  23621275.04749 124130636.68049       -55.27749        50.000  

  22534427.03949 118419213.05149     -2285.50049        49.000  

  26327935.54749 138354233.88349     -5513.35949        48.000  

 16 04 02 13 27 36.7000000  0  3G17G24G18                                       
  23621276.13349 124130642.36749       -58.61349        50.000  

  22534470.58649 118419441.91049     -2291.48449        49.000  

  26328040.50049 138354785.40249     -5517.05149        48.000  

 16 04 02 13 27 36.8000000  0  3G17G24G18                                       
  23621277.26649 124130648.35249       -61.97349        50.000  

  22534514.24249 118419671.31649     -2297.18849        49.000  

  26328145.50849 138355337.24649     -5520.44149        48.000  

 16 04 02 13 27 36.9000000  0  3G17G24G18                                       
  23621278.46949 124130654.68449       -65.02049        50.000  

  22534558.00849 118419901.32049     -2302.91049        49.000  

  26328250.58649 138355889.44149     -5523.88749        48.000  

 16 04 02 13 27 37.0000000  0  3G17G24G18                                       
  23621279.72749 124130661.29349       -67.86349        50.000  

  22534601.87549 118420131.84849     -2308.25049        49.000  

  26328355.72749 138356441.92649     -5526.69949        48.000  

 16 04 02 13 27 37.1000000  0  3G17G24G18                                       
  23621281.05549 124130668.25449       -71.23449        50.000  

  22534645.85249 118420362.94549     -2313.79749        49.000  

  26328460.93049 138356994.77349     -5530.04749        48.000  

 16 04 02 13 27 37.2000000  0  3G17G24G18                                       
  23621282.43049 124130675.50849       -74.35949        50.000  

  22534689.93849 118420594.61749     -2319.64549        49.000  

  26328566.19549 138357547.94949     -5533.56649        48.000  

 16 04 02 13 27 37.3000000  0  3G17G24G18                                       
  23621283.87549 124130683.10949       -77.75849        50.000  

  22534734.13349 118420826.86349     -2325.42649        49.000  

  26328671.52349 138358101.46949     -5537.07849        48.000  

 16 04 02 13 27 37.4000000  0  3G17G24G18                                       
  23621285.38349 124130691.04349       -81.26249        50.000  

  22534778.43849 118421059.69949     -2331.50849        49.000  

  26328776.92249 138358655.34849     -5540.75449        48.000  

 16 04 02 13 27 37.5000000  0  3G17G24G18                                       
  23621286.95349 124130699.28149       -84.07849        50.000  

  22534822.84449 118421293.07449     -2336.68049        49.000  

  26328882.38349 138359209.53149     -5543.70349        48.000  

 16 04 02 13 27 37.6000000  0  3G17G24G18                                       
  23621288.58649 124130707.87949       -87.88749        50.000  

  22534867.36749 118421527.06649     -2342.97349        49.000  

  26328987.91449 138359764.09849     -5547.57449        48.000  

 16 04 02 13 27 37.7000000  0  3G17G24G18                                       
  23621290.28149 124130716.77749       -90.60249        50.000  

  22534912.00049 118421761.59449     -2348.07849        49.000  

  26329093.50049 138360318.97349     -5550.41449        48.000  

 16 04 02 13 27 37.8000000  0  3G17G24G18                                       
  23621292.03949 124130726.01249       -94.18849        50.000  

  22534956.74249 118421996.71149     -2354.06249        49.000  

  26329199.16449 138360874.21549     -5554.27749        48.000  

 16 04 02 13 27 37.9000000  0  3G17G24G18                                       
  23621293.86749 124130735.60549       -97.94549        50.000  

  22535001.60249 118422232.43849     -2360.34849        49.000  

  26329304.89149 138361429.81249     -5558.14849        48.000  

 16 04 02 13 27 38.0000000  0  3G17G24G18                                       
  23621295.75049 124130745.51649      -100.76249        50.000  

  22535046.56249 118422468.73049     -2365.78549        49.000  

  26329410.68849 138361985.75049     -5561.12949        48.000  

 16 04 02 13 27 38.1000000  0  3G17G24G18                                       
  23621297.69549 124130755.70349      -103.59849        50.000  

  22535091.62549 118422705.53549     -2370.86749        49.000  

  26329516.53149 138362541.98049     -5563.94949        48.000  

 16 04 02 13 27 38.2000000  0  3G17G24G18                                       
  23621299.69549 124130766.20749      -106.60249        50.000  

  22535136.78949 118422942.90649     -2376.50849        49.000  

  26329622.44549 138363098.53149     -5567.17649        48.000  

 16 04 02 13 27 38.3000000  0  3G17G24G18                                       
  23621301.75049 124130777.01649      -109.93849        50.000  

  22535182.06249 118423180.82849     -2382.15249        49.000  

  26329728.41449 138363655.41049     -5570.70349        48.000  

 16 04 02 13 27 38.4000000  0  3G17G24G18                                       
  23621303.85949 124130788.09849      -112.55549        50.000  

  22535227.43849 118423419.26649     -2387.21149        49.000  

  26329834.43849 138364212.57449     -5573.37949        48.000  

 16 04 02 13 27 38.5000000  0  3G17G24G18                                       
  23621306.02349 124130799.47349      -115.55149        50.000  

  22535272.92249 118423658.26649     -2392.89149        49.000  

  26329940.52349 138364770.05549     -5576.67249        48.000  

 16 04 02 13 27 38.6000000  0  3G17G24G18                                       
  23621308.25849 124130811.23449      -119.28549        50.000  

  22535318.51649 118423897.87549     -2398.92249        49.000  

  26330046.68049 138365327.92249     -5580.32849        48.000  

 16 04 02 13 27 38.7000000  0  3G17G24G18                                       
  23621310.54749 124130823.24649      -121.92649        50.000  

  22535364.21149 118424137.99649     -2404.14149        49.000  

  26330152.89149 138365886.07049     -5583.34849        48.000  

 16 04 02 13 27 38.8000000  0  3G17G24G18                                       
  23621312.89849 124130835.63749      -125.58649        50.000  

  22535410.02349 118424378.72349     -2410.09449        49.000  

  26330259.18849 138366444.60249     -5586.94149        48.000  

 16 04 02 13 27 38.9000000  0  3G17G24G18                                       
  23621315.31249 124130848.31649      -128.76249        50.000  

  22535455.93049 118424620.00449     -2415.87549        49.000  

  26330365.53149 138367003.43049     -5590.30949        48.000  

 16 04 02 13 27 39.0000000  0  3G17G24G18                                       
  23621317.80549 124130861.37549      -132.34449        50.000  

  22535501.96149 118424861.89849     -2421.89549        49.000  

  26330471.94549 138367562.66449     -5594.14149        48.000  

 16 04 02 13 27 39.1000000  0  3G17G24G18                                       
  23621320.35249 124130874.77049      -135.86349        50.000  

  22535548.11749 118425104.38749     -2427.85949        49.000  

  26330578.43049 138368122.24649     -5597.77349        48.000  

 16 04 02 13 27 39.2000000  0  3G17G24G18                                       
  23621322.96149 124130888.48849      -138.95349        50.000  

  22535594.36749 118425347.43449     -2433.39149        49.000  

  26330684.98449 138368682.16449     -5600.94149        48.000  

 16 04 02 13 27 39.3000000  0  3G17G24G18                                       
  23621325.62549 124130902.50449      -141.85249        50.000  

  22535640.71149 118425591.03149     -2438.73849        49.000  

  26330791.58649 138369242.39149     -5604.03949        48.000  

 16 04 02 13 27 39.4000000  0  3G17G24G18                                       
  23621328.35249 124130916.82849      -144.94549        50.000  

  22535687.17249 118425835.18049     -2444.41849        49.000  

  26330898.25849 138369802.93849     -5607.22749        48.000  

 16 04 02 13 27 39.5000000  0  3G17G24G18                                       
  23621331.14149 124130931.48449      -148.45749        50.000  

  22535733.74249 118426079.91049     -2450.23849        49.000  

  26331004.99249 138370363.84049     -5610.95349        48.000  

 16 04 02 13 27 39.6000000  0  3G17G24G18                                       
  23621334.00849 124130946.52049      -152.35249        50.000  

  22535780.43049 118426325.27049     -2456.69549        49.000  

  26331111.81249 138370925.13349     -5614.96549        48.000  

 16 04 02 13 27 39.7000000  0  3G17G24G18                                       
  23621336.93049 124130961.87549      -155.23049        50.000  

  22535827.22749 118426571.19149     -2462.10949        49.000  

  26331218.68049 138371486.75449     -5618.02749        48.000  

 16 04 02 13 27 39.8000000  0  3G17G24G18                                       
  23621339.90649 124130977.49649      -158.06249        50.000  

  22535874.12549 118426817.62149     -2467.24249        49.000  

  26331325.60249 138372048.65249     -5620.92649        48.000  

 16 04 02 13 27 39.9000000  0  3G17G24G18                                       
  23621342.94549 124130993.46149      -161.39849        50.000  

  22535921.13349 118427064.65249     -2473.07449        49.000  

  26331432.60249 138372610.93049     -5624.45349        48.000  

 16 04 02 13 27 40.0000000  0  3G17G24G18                                       
  23621346.04749 124131009.75849      -164.73849        50.000  

  22535968.25049 118427312.25449     -2478.91049        49.000  

  26331539.66449 138373173.53149     -5627.85249        48.000  

 16 04 02 13 27 40.1000000  0  3G17G24G18                                       
  23621349.21149 124131026.39549      -168.02349        50.000  

  22536015.48449 118427560.44549     -2484.72749        49.000  

  26331646.79749 138373736.50049     -5631.30149        48.000  

 16 04 02 13 27 40.2000000  0  3G17G24G18                                       
  23621352.43049 124131043.29349      -170.70349        50.000  

  22536062.80549 118427809.14149     -2489.77049        49.000  

  26331753.97749 138374299.74249     -5634.12149        48.000  

 16 04 02 13 27 40.3000000  0  3G17G24G18                                       
  23621355.71149 124131060.53949      -174.11349        50.000  

  22536110.24249 118428058.43049     -2495.69549        49.000  

  26331861.22749 138374863.34449     -5637.73049        48.000  

 16 04 02 13 27 40.4000000  0  3G17G24G18                                       
  23621359.05549 124131078.10949      -177.40249        50.000  

  22536157.78949 118428308.29349     -2501.46949        49.000  

  26331968.54749 138375427.28149     -5641.10949        48.000  

 16 04 02 13 27 40.5000000  0  3G17G24G18                                       
  23621362.45349 124131095.97749      -180.58249        50.000  

  22536205.44549 118428558.70349     -2507.11749        49.000  

  26332075.92249 138375991.53549     -5644.31249        48.000  

 16 04 02 13 27 40.6000000  0  3G17G24G18                                       
  23621365.92249 124131114.20349      -183.96949        50.000  

  22536253.21149 118428809.69949     -2512.89849        49.000  

  26332183.36749 138376556.15249     -5647.97749        48.000  

 16 04 02 13 27 40.7000000  0  3G17G24G18                                       
  23621369.45349 124131132.73049      -187.16449        50.000  

  22536301.07849 118429061.26649     -2518.66849        49.000  

  26332290.86749 138377121.10549     -5651.35949        48.000  

 16 04 02 13 27 40.8000000  0  3G17G24G18                                       
  23621373.03949 124131151.58249      -190.22349        50.000  

  22536349.06249 118429313.40649     -2524.26649        49.000  

  26332398.44549 138377686.39549     -5654.69549        48.000  

 16 04 02 13 27 40.9000000  0  3G17G24G18                                       
  23621376.69549 124131170.78949      -193.99649        50.000  

  22536397.15649 118429566.12949     -2530.28549        49.000  

  26332506.07849 138378252.03149     -5658.34449        48.000  

 16 04 02 13 27 41.0000000  0  3G17G24G18                                       
  23621380.43049 124131190.40649      -197.93049        50.000  

  22536445.37549 118429819.52349     -2536.91449        49.000  

  26332613.80549 138378818.10949     -5662.62949        48.000  

 16 04 02 13 27 41.1000000  0  3G17G24G18                                       
  23621384.20349 124131210.25449      -200.35549        50.000  

  22536493.68049 118430073.37549     -2541.59049        49.000  

  26332721.56249 138379384.40649     -5664.94949        48.000  

 16 04 02 13 27 41.2000000  0  3G17G24G18                                       
  23621388.05549 124131230.46549      -203.68049        50.000  

  22536542.10949 118430327.86349     -2547.54749        49.000  

  26332829.40649 138379951.11749     -5668.71149        48.000  

 16 04 02 13 27 41.3000000  0  3G17G24G18                                       
  23621391.96949 124131251.03149      -207.59449        50.000  

  22536590.64849 118430582.93849     -2553.77049        49.000  

  26332937.31249 138380518.18049     -5672.51249        48.000  

 16 04 02 13 27 41.4000000  0  3G17G24G18                                       
  23621395.93849 124131271.89849      -210.33649        50.000  

  22536639.29749 118430838.56249     -2559.14549        49.000  

  26333045.28149 138381085.55549     -5675.60949        48.000  

 16 04 02 13 27 41.5000000  0  3G17G24G18                                       
  23621399.96949 124131293.07049      -213.36749        50.000  

  22536688.04749 118431094.73449     -2564.57049        49.000  

  26333153.31249 138381653.25049     -5678.66049        48.000  

 16 04 02 13 27 41.6000000  0  3G17G24G18                                       
  23621404.06249 124131314.57449      -216.68049        50.000  

  22536736.90649 118431351.49649     -2570.38749        49.000  

  26333261.40649 138382221.29749     -5682.11749        48.000  

 16 04 02 13 27 41.7000000  0  3G17G24G18                                       
  23621408.21149 124131336.37949      -219.64549        50.000  

  22536785.86749 118431608.78949     -2575.70749        49.000  

  26333369.56249 138382789.64849     -5685.25449        48.000  

 16 04 02 13 27 41.8000000  0  3G17G24G18                                       
  23621412.42249 124131358.49649      -223.08249        50.000  

  22536834.93849 118431866.64149     -2581.55949        50.000  

  26333477.78149 138383358.33249     -5688.79749        48.000  

 16 04 02 13 27 41.9000000  0  3G17G24G18                                       
  23621416.69549 124131380.97749      -226.42649        50.000  

  22536884.11749 118432125.12149     -2587.48449        49.000  

  26333586.07049 138383927.39549     -5692.32049        48.000  

 16 04 02 13 27 42.0000000  0  3G17G24G18                                       
  23621421.03149 124131403.77049      -229.75049        50.000  

  22536933.41449 118432384.14849     -2593.23049        50.000  

  26333694.42249 138384496.78149     -5695.63349        48.000  

 16 04 02 13 27 42.1000000  0  3G17G24G18                                       
  23621425.43049 124131426.85249      -232.50849        50.000  

  22536982.80549 118432643.71949     -2598.54749        49.000  

  26333802.83649 138385066.48049     -5698.71549        48.000  

 16 04 02 13 27 42.2000000  0  3G17G24G18                                       
  23621429.87549 124131450.24649      -235.61749        50.000  

  22537032.30549 118432903.83249     -2604.12549        49.000  

  26333911.30549 138385636.49649     -5701.94149        48.000  

 16 04 02 13 27 42.3000000  0  3G17G24G18                                       
  23621434.39849 124131473.99649      -239.23449        50.000  

  22537081.91449 118433164.55949     -2610.16049        49.000  

  26334019.84449 138386206.87949     -5705.59449        48.000  

 16 04 02 13 27 42.4000000  0  3G17G24G18                                       
  23621438.97749 124131498.05949      -242.51649        50.000  

  22537131.63349 118433425.84049     -2615.80549        50.000  

  26334128.43849 138386777.59449     -5709.09849        48.000  

 16 04 02 13 27 42.5000000  0  3G17G24G18                                       
  23621443.62549 124131522.47349      -246.01649        50.000  

  22537181.46949 118433687.71949     -2621.69549        50.000  

  26334237.10949 138387348.67649     -5712.66849        48.000  

 16 04 02 13 27 42.6000000  0  3G17G24G18                                       
  23621448.33649 124131547.23449      -249.45349        50.000  

  22537231.41449 118433950.20349     -2627.84049        50.000  

  26334345.85249 138387920.10949     -5716.23849        48.000  

 16 04 02 13 27 42.7000000  0  3G17G24G18                                       
  23621453.10949 124131572.33249      -252.67649        50.000  

  22537281.46949 118434213.25449     -2633.40649        49.000  

  26334454.65649 138388491.89849     -5719.60549        48.000  

 16 04 02 13 27 42.8000000  0  3G17G24G18                                       
  23621457.93849 124131597.68449      -255.35549        50.000  

  22537331.62549 118434476.82449     -2638.62549        49.000  

  26334563.51649 138389063.95349     -5722.30549        48.000  

 16 04 02 13 27 42.9000000  0  3G17G24G18                                       
  23621462.82849 124131623.39549      -258.79749        50.000  

  22537381.89849 118434740.98849     -2644.50449        49.000  

  26334672.44549 138389636.39549     -5726.03549        48.000  

 16 04 02 13 27 43.0000000  0  3G17G24G18                                       
  23621467.78149 124131649.42249      -261.92649        50.000  

  22537432.27349 118435005.71149     -2650.05149        49.000  

  26334781.43849 138390209.15649     -5729.33649        48.000  

 16 04 02 13 27 43.1000000  0  3G17G24G18                                       
  23621472.78949 124131675.74249      -265.08249        50.000  

  22537482.75049 118435270.98049     -2655.67249        49.000  

  26334890.49249 138390782.21549     -5732.55949        48.000  

 16 04 02 13 27 43.2000000  0  3G17G24G18                                       
  23621477.86749 124131702.41049      -268.29349        50.000  

  22537533.34449 118435536.84049     -2661.37549        49.000  

  26334999.61749 138391355.65249     -5736.03149        48.000  

 16 04 02 13 27 43.3000000  0  3G17G24G18                                       
  23621482.99249 124131729.34049      -271.11749        50.000  

  22537584.03949 118435803.21149     -2666.64549        49.000  

  26335108.78949 138391929.35949     -5739.02349        48.000  

 16 04 02 13 27 43.4000000  0  3G17G24G18                                       
  23621488.18849 124131756.62149      -274.66449        50.000  

  22537634.83649 118436070.17649     -2672.61349        49.000  

  26335218.02349 138392503.42649     -5742.56249        48.000  

 16 04 02 13 27 43.5000000  0  3G17G24G18                                       
  23621493.45349 124131784.30949      -278.49649        50.000  

  22537685.76649 118436337.80549     -2679.05949        49.000  

  26335327.35249 138393077.91049     -5746.50849        48.000  

 16 04 02 13 27 43.6000000  0  3G17G24G18                                       
  23621498.77349 124131812.27349      -281.52049        50.000  

  22537736.78949 118436605.93849     -2684.48849        50.000  

  26335436.72749 138393652.69549     -5749.71949        48.000  

 16 04 02 13 27 43.7000000  0  3G17G24G18                                       
  23621504.14849 124131840.52049      -284.07849        50.000  

  22537787.91449 118436874.61349     -2689.50449        50.000  

  26335546.16449 138394227.76649     -5752.46149        48.000  

 16 04 02 13 27 43.8000000  0  3G17G24G18                                       
  23621509.58649 124131869.11749      -287.93849        50.000  

  22537839.15649 118437143.88749     -2695.77749        50.000  

  26335655.67249 138394803.21149     -5756.36349        48.000  

 16 04 02 13 27 43.9000000  0  4G28G17G24G18                                    
  24820866.18849 130434531.37159     14029.65649        50.000  

  23621515.10249 124131898.10549      -291.65249        50.000  

  22537890.51649 118437413.79749     -2702.06249        50.000  

  26335765.25049 138395379.05549     -5760.28549        48.000  

 16 04 02 13 27 44.0000000  0  4G28G17G24G18                                    
  24820599.22749 130433128.45349     14027.79749        50.000  

  23621520.67249 124131927.35249      -294.26249        50.000  

  22537941.97749 118437684.20349     -2707.09049        50.000  

  26335874.89149 138395955.17249     -5763.12949        48.000  

 16 04 02 13 27 44.1000000  0  4G28G17G24G18                                    
  24820332.30549 130431725.79349     14025.28149        50.000  

  23621526.29749 124131956.89849      -297.26249        50.000  

  22537993.53149 118437955.16049     -2712.55149        49.000  

  26335984.57849 138396531.60249     -5766.00449        48.000  

 16 04 02 13 27 44.2000000  0  4G28G17G24G18                                    
  24820065.44549 130430323.45749     14022.06249        50.000  

  23621531.99249 124131986.84049      -301.13349        50.000  

  22538045.21149 118438226.75849     -2718.80149        49.000  

  26336094.34449 138397108.43849     -5770.13349        48.000  

 16 04 02 13 27 44.3000000  0  4G28G17G24G18                                    
  24819798.62549 130428921.40249     14019.00849        50.000  

  23621537.75849 124132017.10949      -304.62149        50.000  

  22538097.00849 118438498.93449     -2724.90249        50.000  

  26336204.18049 138397685.61749     -5773.79749        48.000  

 16 04 02 13 27 44.4000000  0  4G28G17G24G18                                    
  24819531.87549 130427519.62549     14016.35549        50.000  

  23621543.57849 124132047.70749      -307.77349        50.000  

  22538148.90649 118438771.68449     -2730.50049        50.000  

  26336314.07849 138398263.14849     -5777.15649        48.000  

 16 04 02 13 27 44.5000000  0  4G28G17G24G18                                    
  24819265.16449 130426118.09449     14013.93449        50.000  

  23621549.46149 124132078.61749      -310.89849        50.000  

  22538200.92249 118439044.98849     -2736.03549        50.000  

  26336424.03949 138398841.00049     -5780.39849        48.000  

 16 04 02 13 27 44.6000000  0  4G28G17G24G18                                    
  24818998.50849 130424716.83649     14011.25849        50.000  

  23621555.40649 124132109.84449      -314.06649        50.000  

  22538253.03149 118439318.85949     -2741.64149        49.000  

  26336534.05549 138399419.16849     -5783.64849        48.000  

 16 04 02 13 27 44.7000000  0  4G28G17G24G18                                    
  24818731.95349 130423315.89149     14008.10249        50.000  

  23621561.42249 124132141.44549      -317.76649        50.000  

  22538305.26649 118439593.35549     -2747.90249        50.000  

  26336644.15649 138399997.74649     -5787.59049        48.000  

 16 04 02 13 27 44.8000000  0  4G28G17G24G18                                    
  24818465.41449 130421915.21149     14005.54349        50.000  

  23621567.50049 124132173.35949      -320.97349        50.000  

  22538357.60949 118439868.40249     -2753.44549        49.000  

  26336754.32049 138400576.63749     -5790.69149        48.000  

 16 04 02 13 27 44.9000000  0  4G28G17G24G18                                    
  24818198.92249 130420514.79349     14002.73049        50.000  

  23621573.63349 124132205.60949      -324.28949        50.000  

  22538410.05549 118440144.02749     -2759.16049        49.000  

  26336864.54749 138401155.87149     -5794.15249        48.000  

 16 04 02 13 27 45.0000000  0  4G28G17G24G18                                    
  24817932.47749 130419114.57849     14000.80149        50.000  

  23621579.82049 124132238.09449      -326.77349        50.000  

  22538462.60249 118440420.14849     -2764.20349        49.000  

  26336974.82049 138401735.36349     -5796.85949        48.000  

 16 04 02 13 27 45.1000000  0  4G28G17G24G18                                    
  24817666.04749 130417714.67249     13997.93449        50.000  

  23621586.07849 124132270.95749      -330.11349        50.000  

  22538515.25849 118440696.88349     -2769.98049        49.000  

  26337085.17249 138402315.25049     -5800.34849        48.000  

 16 04 02 13 27 45.2000000  0  4G28G17G24G18                                    
  24817399.69549 130416314.98849     13995.50049        50.000  

  23621592.38349 124132304.09849      -333.28949        50.000  

  22538568.02349 118440974.14849     -2775.55949        50.000  

  26337195.57049 138402895.42249     -5803.63349        48.000  

 16 04 02 13 27 45.3000000  0  4G28G17G24G18                                    
  24817133.43849 130414915.66049     13991.91449        50.000  

  23621598.77349 124132337.64549      -337.33649        50.000  

  22538620.90649 118441252.06249     -2782.16849        50.000  

  26337306.04749 138403476.00449     -5807.76649        48.000  

 16 04 02 13 27 45.4000000  0  4G28G17G24G18                                    
  24816867.20349 130413516.56249     13989.52349        50.000  

  23621605.21149 124132371.48049      -340.29749        50.000  

  22538673.89849 118441530.52349     -2787.67649        50.000  

  26337416.59449 138404056.91449     -5811.02749        48.000  

 16 04 02 13 27 45.5000000  0  4G28G17G24G18                                    
  24816601.02349 130412117.73849     13986.92249        50.000  

  23621611.71149 124132405.63749      -343.36349        50.000  

  22538726.99249 118441809.53149     -2792.99649        50.000  

  26337527.20349 138404638.14849     -5814.15649        48.000  

 16 04 02 13 27 45.6000000  0  4G28G17G24G18                                    
  24816334.89149 130410719.20349     13983.96149        50.000  

  23621618.28149 124132440.15649      -346.77749        50.000  

  22538780.20349 118442089.16049     -2799.16049        50.000  

  26337637.87549 138405219.74249     -5817.73449        48.000  

 16 04 02 13 27 45.7000000  0  4G28G17G24G18                                    
  24816068.78949 130409320.90249     13981.68849        50.000  

  23621624.89849 124132474.94949      -349.77349        50.000  

  22538833.51649 118442369.30949     -2804.53549        50.000  

  26337748.60249 138405801.63349     -5820.82449        48.000  

 16 04 02 13 27 45.8000000  0  4G28G17G24G18                                    
  24815802.75849 130407922.86749     13979.12149        50.000  

  23621631.57849 124132510.05949      -352.91449        50.000  

  22538886.93049 118442650.01249     -2809.94549        50.000  

  26337859.39849 138406383.85549     -5824.00449        48.000  

 16 04 02 13 27 45.9000000  0  4G28G17G24G18                                    
  24815536.76649 130406525.10549     13976.35549        50.000  

  23621638.32049 124132545.50449      -356.07049        50.000  

  22538940.46149 118442931.30949     -2815.74249        50.000  

  26337970.26649 138406966.43849     -5827.44149        48.000  

 16 04 02 13 27 46.0000000  0  4G28G17G24G18                                    
  24815270.83649 130405127.61749     13973.56649        50.000  

  23621645.13349 124132581.27749      -359.55149        50.000  

  22538994.09449 118443213.17649     -2821.62149        50.000  

  26338081.18849 138407549.33649     -5830.84449        48.000  

 16 04 02 13 27 46.1000000  0  4G28G17G24G18                                    
  24815004.96149 130403730.45749     13970.15249        50.000  

  23621652.01649 124132617.43849      -363.48049        50.000  

  22539047.85949 118443495.68049     -2828.02049        50.000  

  26338192.18849 138408132.66049     -5835.16049        48.000  

 16 04 02 13 27 46.2000000  0  4G28G17G24G18                                    
  24814739.14149 130402333.55149     13967.68849        50.000  

  23621658.95349 124132653.90249      -366.50049        50.000  

  22539101.71949 118443778.72349     -2833.46949        50.000  

  26338303.25849 138408716.30149     -5838.36349        48.000  

 16 04 02 13 27 46.3000000  0  4G28G17G24G18                                    
  24814473.35249 130400936.89849     13965.39849        50.000  

  23621665.95349 124132690.67249      -369.25849        50.000  

  22539155.68849 118444062.34449     -2838.82049        49.000  

  26338414.37549 138409300.23449     -5841.03949        48.000  

 16 04 02 13 27 46.4000000  0  4G28G17G24G18                                    
  24814207.61749 130399540.48049     13963.07449        50.000  

  23621673.00849 124132727.73449      -372.11349        50.000  

  22539209.75849 118444346.47749     -2844.05549        49.000  

  26338525.55549 138409884.49649     -5844.18449        48.000  

 16 04 02 13 27 46.5000000  0  4G28G17G24G18                                    
  24813941.95349 130398144.32049     13960.25849        50.000  

  23621680.11749 124132765.11349      -375.58649        50.000  

  22539263.93049 118444631.17249     -2849.91449        49.000  

  26338636.79749 138410469.08249     -5847.75849        48.000  

 16 04 02 13 27 46.6000000  0  4G28G17G24G18                                    
  24813676.33649 130396748.50849     13956.71949        50.000  

  23621687.30549 124132802.89149      -379.67249        50.000  

  22539318.23449 118444916.52749     -2856.58249        49.000  

  26338748.11749 138411054.07049     -5851.80149        48.000  

 16 04 02 13 27 46.7000000  0  4G28G17G24G18                                    
  24813410.77349 130395352.94949     13954.22749        50.000  

  23621694.55549 124132840.97349      -382.66849        50.000  

  22539372.64149 118445202.43049     -2861.99249        49.000  

  26338859.50049 138411639.39549     -5855.15249        48.000  

 16 04 02 13 27 46.8000000  0  4G28G17G24G18                                    
  24813145.25049 130393957.61349     13952.07049        50.000  

  23621701.85249 124132879.34049      -385.31249        50.000  

  22539427.14849 118445488.85949     -2867.11749        49.000  

  26338970.94549 138412225.00049     -5857.77049        48.000  

 16 04 02 13 27 46.9000000  0  4G28G17G24G18                                    
  24812879.75849 130392562.50049     13949.77749        50.000  

  23621709.21149 124132917.98049      -388.21949        50.000  

  22539481.75049 118445775.80549     -2872.39849        49.000  

  26339082.43849 138412810.90249     -5860.82849        48.000  

 16 04 02 13 27 47.0000000  0  4G28G17G24G18                                    
  24812614.35249 130391167.78549     13945.66049        50.000  

  23621716.64849 124132957.07449      -392.89849        50.000  

  22539536.49249 118446063.47749     -2879.82449        49.000  

  26339194.01649 138413397.27749     -5865.75449        48.000  

 16 04 02 13 27 47.1000000  0  4G28G17G24G18                                    
  24812348.99249 130389773.34449     13943.14849        50.000  

  23621724.14849 124132996.50049      -395.88349        50.000  

  22539591.34449 118446351.69549     -2885.12149        49.000  

  26339305.66449 138413983.98449     -5868.78949        48.000  

 16 04 02 13 27 47.2000000  0  4G28G17G24G18                                    
  24812083.66449 130388379.03549     13941.76649        50.000  

  23621731.68849 124133036.11349      -397.93049        50.000  

  22539646.27349 118446640.35949     -2889.53549        49.000  

  26339417.35249 138414570.88749     -5870.95349        48.000  

 16 04 02 13 27 47.3000000  0  4G28G17G24G18                                    
  24811818.41449 130386985.11349     13938.12949        50.000  

  23621739.31249 124133076.16849      -402.15249        50.000  

  22539701.33649 118446929.71149     -2896.32449        49.000  

  26339529.12549 138415158.25449     -5875.26249        48.000  

 16 04 02 13 27 47.4000000  0  4G28G17G24G18                                    
  24811553.20349 130385591.41449     13935.73049        50.000  

  23621746.98449 124133116.49249      -404.96549        50.000  

  22539756.49249 118447219.57449     -2901.48849        49.000  

  26339640.94549 138415745.90249     -5878.25849        48.000  

 16 04 02 13 27 47.5000000  0  4G28G17G24G18                                    
  24811288.04749 130384197.95349     13933.18049        50.000  

  23621754.71949 124133157.11749      -408.07849        50.000  

  22539811.75849 118447509.99649     -2907.14149        49.000  

  26339752.82849 138416333.87549     -5881.53549        48.000  

 16 04 02 13 27 47.6000000  0  4G28G17G24G18                                    
  24811022.94549 130382804.80149     13930.14149        50.000  

  23621762.51649 124133198.10249      -411.66849        50.000  

  22539867.14149 118447801.01249     -2913.11349        49.000  

  26339864.78949 138416922.19949     -5885.14149        48.000  

 16 04 02 13 27 47.7000000  0  4G28G17G24G18                                    
  24810757.87549 130381411.94149     13927.10549        50.000  

  23621770.38349 124133239.43449      -415.28949        50.000  

  22539922.62549 118448092.62949     -2919.25049        49.000  

  26339976.81249 138417510.90249     -5888.98449        48.000  

 16 04 02 13 27 47.8000000  0  4G28G17G24G18                                    
  24810492.88349 130380019.37549     13924.24249        50.000  

  23621778.32049 124133281.12949      -418.85249        50.000  

  22539978.23449 118448384.85249     -2925.27749        50.000  

  26340088.90649 138418099.97749     -5892.61749        48.000  

 16 04 02 13 27 47.9000000  0  4G28G17G24G18                                    
  24810227.94549 130378627.08249     13921.66049        50.000  

  23621786.31249 124133323.12149      -421.71949        50.000  

  22540033.94549 118448677.62549     -2930.64549        50.000  

  26340201.06249 138418689.35549     -5895.71149        48.000  

 16 04 02 13 27 48.0000000  0  4G28G17G24G18                                    
  24809963.03949 130377235.02049     13919.33649        50.000  

  23621794.35949 124133365.42649      -424.82849        50.000  

  22540089.76649 118448970.94149     -2936.09449        50.000  

  26340313.27349 138419279.05149     -5898.78549        48.000  

 16 04 02 13 27 48.1000000  0  4G28G17G24G18                                    
  24809698.20349 130375843.25849     13916.42249        50.000  

  23621802.47749 124133408.06649      -428.08649        50.000  

  22540145.69549 118449264.85949     -2941.97749        50.000  

  26340425.56249 138419869.11749     -5902.39849        48.000  

 16 04 02 13 27 48.2000000  0  4G28G17G24G18                                    
  24809433.40649 130374451.74249     13913.96549        50.000  

  23621810.64849 124133451.02049      -431.19949        50.000  

  22540201.73449 118449559.32849     -2947.45749        50.000  

  26340537.90649 138420459.50449     -5905.52749        48.000  

 16 04 02 13 27 48.3000000  0  4G28G17G24G18                                    
  24809168.66449 130373060.49249     13911.23049        50.000  

  23621818.88349 124133494.29349      -434.44949        50.000  

  22540257.87549 118449854.35549     -2953.16049        49.000  

  26340650.31249 138421050.20749     -5908.75449        48.000  

 16 04 02 13 27 48.4000000  0  4G28G17G24G18                                    
  24808903.97749 130371669.52349     13908.27349        50.000  

  23621827.17249 124133537.90249      -438.02349        50.000  

  22540314.12549 118450149.96949     -2959.19949        49.000  

  26340762.79749 138421641.28149     -5912.66449        48.000  

 16 04 02 13 27 48.5000000  0  4G28G17G24G18                                    
  24808639.34449 130370278.86749     13905.13749        50.000  

  23621835.54749 124133581.87149      -441.58249        50.000  

  22540370.49249 118450446.19549     -2965.26649        50.000  

  26340875.34449 138422232.71149     -5916.17649        48.000  

 16 04 02 13 27 48.6000000  0  4G28G17G24G18                                    
  24808374.76649 130368888.46949     13902.52049        50.000  

  23621843.96949 124133626.15649      -444.82049        50.000  

  22540426.96949 118450742.98849     -2971.05149        50.000  

  26340987.96149 138422824.48449     -5919.73049        48.000  

 16 04 02 13 27 48.7000000  0  4G28G17G24G18                                    
  24808110.22749 130367498.40249     13899.35949        50.000  

  23621852.46949 124133670.81649      -448.40249        50.000  

  22540483.56249 118451040.39849     -2977.03549        50.000  

  26341100.64849 138423416.64149     -5923.46549        48.000  

 16 04 02 13 27 48.8000000  0  4G28G17G24G18                                    
  24807845.73449 130366108.46949     13898.12549        50.000  

  23621861.00849 124133715.67649      -450.08249        50.000  

  22540540.24249 118451338.25049     -2981.29349        49.000  

  26341213.37549 138424009.00049     -5925.04349        48.000  

 16 04 02 13 27 48.9000000  0  4G28G17G24G18                                    
  24807581.26649 130364718.78949     13895.46549        50.000  

  23621869.60249 124133760.85949      -453.51249        50.000  

  22540597.02349 118451636.66449     -2987.05549        49.000  

  26341326.15649 138424601.69949     -5928.64549        48.000  

 16 04 02 13 27 49.0000000  0  4G28G17G24G18                                    
  24807316.88349 130363329.44949     13892.23049        50.000  

  23621878.27349 124133806.41849      -457.28149        50.000  

  22540653.93049 118451935.70749     -2993.31249        49.000  

  26341439.02349 138425194.79349     -5932.71149        48.000  

 16 04 02 13 27 49.1000000  0  4G28G17G24G18                                    
  24807052.55549 130361940.30949     13890.00449        49.000  

  23621886.99249 124133852.23849      -459.98449        50.000  

  22540710.93849 118452235.25849     -2998.41449        49.000  

  26341551.93849 138425788.15249     -5935.42249        48.000  

 16 04 02 13 27 49.2000000  0  4G28G17G24G18                                    
  24806788.26649 130360551.44949     13887.29349        50.000  

  23621895.77349 124133898.37949      -463.26649        50.000  

  22540768.04749 118452535.38349     -3004.16449        49.000  

  26341664.91449 138426381.85549     -5938.77349        48.000  

 16 04 02 13 27 49.3000000  0  4G28G17G24G18                                    
  24806524.00049 130359162.87949     13884.42649        50.000  

  23621904.62549 124133944.87949      -466.71549        50.000  

  22540825.28149 118452836.10949     -3010.14849        49.000  

  26341777.96149 138426975.92649     -5942.37149        48.000  

 16 04 02 13 27 49.4000000  0  4G28G17G24G18                                    
  24806259.81249 130357774.56649     13881.64149        50.000  

  23621913.53149 124133991.68049      -469.83249        50.000  

  22540882.60949 118453137.38349     -3015.83249        49.000  

  26341891.07849 138427570.32049     -5945.88349        48.000  

 16 04 02 13 27 49.5000000  0  4G28G17G24G18                                    
  24805995.68049 130356386.50449     13879.34049        50.000  

  23621922.50049 124134038.80949      -472.87549        50.000  

  22540940.04749 118453439.21549     -3021.19149        49.000  

  26342004.24249 138428165.03149     -5948.87949        48.000  

 16 04 02 13 27 49.6000000  0  4G28G17G24G18                                    
  24805731.59449 130354998.69549     13876.83649        49.000  

  23621931.51649 124134086.21149      -475.95749        50.000  

  22540997.59449 118453741.60249     -3026.80549        50.000  

  26342117.47749 138428760.04349     -5951.96149        48.000  

 16 04 02 13 27 49.7000000  0  4G28G17G24G18                                    
  24805467.55549 130353611.18049     13873.91849        50.000  

  23621940.60249 124134133.98849      -479.39849        50.000  

  22541055.25049 118454044.57449     -3032.65249        49.000  

  26342230.77349 138429355.44149     -5955.62149        48.000  

 16 04 02 13 27 49.8000000  0  4G28G17G24G18                                    
  24805203.57049 130352223.93049     13871.18049        50.000  

  23621949.75849 124134182.07049      -482.61749        50.000  

  22541113.00849 118454348.12149     -3038.40249        49.000  

  26342344.14149 138429951.16049     -5959.06649        48.000  

 16 04 02 13 27 49.9000000  0  4G28G17G24G18                                    
  24804939.63349 130350836.96149     13868.39549        50.000  

  23621958.96949 124134230.48849      -485.97749        50.000  

  22541170.88349 118454652.24649     -3044.23049        49.000  

  26342457.57049 138430547.23449     -5962.48849        48.000  

 16 04 02 13 27 50.0000000  0  4G28G17G24G18                                    
  24804675.75049 130349450.23449     13865.91049        50.000  

  23621968.23449 124134279.21149      -489.03949        50.000  

  22541228.85949 118454956.90249     -3049.50049        49.000  

  26342571.05549 138431143.60249     -5965.52749        48.000  

 16 04 02 13 27 50.1000000  0  4G28G17G24G18                                    
  24804411.92249 130348063.73849     13863.85549        50.000  

  23621977.56249 124134328.21549      -491.49249        50.000  

  22541286.93849 118455262.11349     -3054.73049        49.000  

  26342684.60249 138431740.28949     -5968.47749        48.000  

 16 04 02 13 27 50.2000000  0  4G28G17G24G18                                    
  24804148.14149 130346677.56649     13860.46149        50.000  

  23621986.96149 124134377.59449      -495.65649        50.000  

  22541345.13349 118455567.93449     -3061.12549        50.000  

  26342798.21949 138432337.35549     -5972.51649        48.000  

 16 04 02 13 27 50.3000000  0  4G28G17G24G18                                    
  24803884.42249 130345291.64849     13857.85949        50.000  

  23621996.41449 124134427.28949      -498.73449        50.000  

  22541403.43849 118455874.30949     -3066.70749        50.000  

  26342911.89849 138432934.73849     -5975.70749        48.000  

 16 04 02 13 27 50.4000000  0  4G28G17G24G18                                    
  24803620.73449 130343905.99649     13855.30549        50.000  

  23622005.93049 124134477.29749      -501.79349        50.000  

  22541461.85249 118456181.25049     -3072.22349        50.000  

  26343025.64149 138433532.45349     -5978.78549        48.000  

 16 04 02 13 27 50.5000000  0  4G28G17G24G18                                    
  24803357.10249 130342520.61349     13852.46149        50.000  

  23622015.50849 124134527.62949      -505.24649        50.000  

  22541520.36749 118456488.77049     -3078.12149        49.000  

  26343139.44549 138434130.51649     -5982.58649        48.000  

 16 04 02 13 27 50.6000000  0  4G28G17G24G18                                    
  24803093.52349 130341135.49649     13849.97749        50.000  

  23622025.14849 124134578.28949      -508.32849        50.000  

  22541578.99249 118456796.85249     -3083.67649        49.000  

  26343253.31249 138434728.91049     -5985.65649        48.000  

 16 04 02 13 27 50.7000000  0  4G28G17G24G18                                    
  24802829.98449 130339750.66849     13846.98849        50.000  

  23622034.85249 124134629.27349      -511.69549        50.000  

  22541637.72749 118457105.52049     -3089.57449        50.000  

  26343367.25049 138435327.64849     -5989.24249        48.000  

 16 04 02 13 27 50.8000000  0  4G28G17G24G18                                    
  24802566.50849 130338366.09049     13844.41849        50.000  

  23622044.60949 124134680.57049      -514.79749        50.000  

  22541696.57049 118457414.73049     -3095.05949        50.000  

  26343481.25049 138435926.69949     -5992.37549        48.000  

 16 04 02 13 27 50.9000000  0  4G28G17G24G18                                    
  24802303.07849 130336981.75849     13842.15649        50.000  

  23622054.43849 124134732.18449      -517.69549        50.000  

  22541755.52349 118457724.51649     -3100.55549        49.000  

  26343595.30549 138436526.07849     -5995.32849        48.000  

 16 04 02 13 27 51.0000000  0  4G28G17G24G18                                    
  24802039.69549 130335597.68449     13839.48049        50.000  

  23622064.31249 124134784.09049      -520.71549        50.000  

  22541814.57849 118458034.82449     -3105.91849        49.000  

  26343709.43049 138437125.77349     -5998.68849        48.000  

 16 04 02 13 27 51.1000000  0  4G28G17G24G18                                    
  24801776.35949 130334213.81249     13837.41049        49.000  

  23622074.24249 124134836.27049      -523.51649        50.000  

  22541873.72749 118458345.67649     -3111.41449        49.000  

  26343823.59449 138437725.74649     -6001.47749        48.000  

 16 04 02 13 27 51.2000000  0  4G28G17G24G18                                    
  24801513.07849 130332830.27049     13834.07449        49.000  

  23622084.24249 124134888.81249      -527.40649        50.000  

  22541932.99249 118458657.12549     -3117.55549        49.000  

  26343937.84449 138438326.11349     -6005.55149        48.000  

 16 04 02 13 27 51.3000000  0  4G28G17G24G18                                    
  24801249.85949 130331447.05549     13830.83649        50.000  

  23622094.31249 124134941.75049      -531.05549        50.000  

  22541992.38349 118458969.20749     -3123.80149        49.000  

  26344052.16449 138438926.86749     -6009.36349        48.000  

 16 04 02 13 27 51.4000000  0  4G28G17G24G18                                    
  24800986.69549 130330064.08649     13828.16449        49.000  

  23622104.44549 124134994.98449      -534.35549        50.000  

  22542051.87549 118459281.84849     -3129.56249        49.000  

  26344166.55549 138439527.94549     -6012.90249        48.000  

 16 04 02 13 27 51.5000000  0  4G28G17G24G18                                    
  24800723.54749 130328681.40249     13825.61349        50.000  

  23622114.64149 124135048.55949      -537.44949        50.000  

  22542111.47749 118459595.06249     -3135.08249        50.000  

  26344281.00049 138440129.35949     -6015.94949        48.000  

 16 04 02 13 27 51.6000000  0  4G28G17G24G18                                    
  24800460.48449 130327299.00449     13822.53949        50.000  

  23622124.89849 124135102.46149      -540.85949        50.000  

  22542171.18849 118459908.85549     -3140.98849        49.000  

  26344395.51649 138440731.12549     -6019.53949        48.000  

 16 04 02 13 27 51.7000000  0  4G28G17G24G18                                    
  24800197.47749 130325916.86749     13819.94549        50.000  

  23622135.21949 124135156.69549      -543.96549        50.000  

  22542231.00849 118460223.22349     -3146.57849        49.000  

  26344510.08649 138441333.23049     -6022.75449        48.000  

 16 04 02 13 27 51.8000000  0  4G28G17G24G18                                    
  24799934.50849 130324534.93049     13818.09049        49.000  

  23622145.58649 124135211.17649      -546.59849        50.000  

  22542290.93049 118460538.08649     -3151.59049        49.000  

  26344624.71949 138441935.59849     -6025.59849        48.000  

 16 04 02 13 27 51.9000000  0  4G28G17G24G18                                    
  24799671.59449 130323153.33249     13814.72349        50.000  

  23622156.02349 124135266.04749      -550.45749        50.000  

  22542350.96149 118460853.59049     -3157.96549        49.000  

  26344739.42249 138442538.37149     -6029.46549        48.000  

 16 04 02 13 27 52.0000000  0  4G28G17G24G18                                    
  24799408.72749 130321771.97749     13812.26249        49.000  

  23622166.53149 124135321.22349      -553.56649        50.000  

  22542411.10949 118461169.64149     -3163.27349        49.000  

  26344854.18049 138443141.44549     -6032.48849        48.000  

 16 04 02 13 27 52.1000000  0  4G28G17G24G18                                    
  24799145.91449 130320390.91449     13809.22349        49.000  

  23622177.09449 124135376.73449      -556.84449        50.000  

  22542471.35949 118461486.27749     -3169.29749        49.000  

  26344969.00849 138443744.88749     -6036.19149        48.000  

 16 04 02 13 27 52.2000000  0  4G28G17G24G18                                    
  24798883.14849 130319010.09049     13806.88749        50.000  

  23622187.71149 124135432.55149      -559.92249        50.000  

  22542531.71949 118461803.46549     -3174.85949        49.000  

  26345083.90649 138444348.64149     -6039.35949        48.000  

 16 04 02 13 27 52.3000000  0  4G28G17G24G18                                    
  24798620.44549 130317629.56649     13803.88349        50.000  

  23622198.39849 124135488.71549      -563.55149        50.000  

  22542592.19549 118462121.24649     -3180.82049        49.000  

  26345198.85949 138444952.74649     -6043.00049        48.000  

 16 04 02 13 27 52.4000000  0  4G28G17G24G18                                    
  24798357.78949 130316249.30949     13801.30949        50.000  

  23622209.14849 124135545.19549      -566.63349        50.000  

  22542652.76649 118462439.57849     -3186.29749        49.000  

  26345313.88349 138445557.18849     -6046.28549        48.000  

 16 04 02 13 27 52.5000000  0  4G28G17G24G18                                    
  24798095.20349 130314869.36349     13798.02749        50.000  

  23622219.96949 124135602.05149      -570.49249        50.000  

  22542713.46149 118462758.54749     -3192.66449        49.000  

  26345428.97749 138446162.00449     -6050.03549        48.000  

 16 04 02 13 27 52.6000000  0  4G28G17G24G18                                    
  24797832.64849 130313489.65649     13795.78149        50.000  

  23622230.84449 124135659.19149      -573.15649        50.000  

  22542774.25849 118463078.04349     -3197.94949        49.000  

  26345544.12549 138446767.13749     -6053.05549        48.000  

 16 04 02 13 27 52.7000000  0  4G28G17G24G18                                    
  24797570.14849 130312110.19149     13793.42249        49.000  

  23622241.77349 124135716.62549      -575.98849        50.000  

  22542835.15649 118463398.06649     -3203.05549        49.000  

  26345659.33649 138447372.57049     -6056.02049        48.000  

 16 04 02 13 27 52.8000000  0  4G28G17G24G18                                    
  24797307.68849 130310730.94549     13791.16449        50.000  

  23622252.75849 124135774.34049      -578.91449        50.000  

  22542896.16449 118463718.64149     -3208.66849        49.000  

  26345774.60249 138447978.28949     -6058.89549        48.000  

 16 04 02 13 27 52.9000000  0  4G28G17G24G18                                    
  24797045.28149 130309351.98049     13788.42649        50.000  

  23622263.80549 124135832.38349      -582.20349        50.000  

  22542957.26649 118464039.77349     -3214.26249        49.000  

  26345889.93049 138448584.35549     -6062.41849        48.000  

 16 04 02 13 27 53.0000000  0  4G28G17G24G18                                    
  24796782.93849 130307973.34849     13784.89849        50.000  

  23622274.93049 124135890.82049      -586.29749        50.000  

  22543018.50049 118464361.54349     -3220.71949        49.000  

  26346005.33649 138449190.82049     -6066.60549        48.000  

 16 04 02 13 27 53.1000000  0  4G28G17G24G18                                    
  24796520.65649 130306595.02349     13781.77349        49.000  

  23622286.10949 124135949.60549      -589.84449        50.000  

  22543079.84449 118464683.91849     -3226.84849        49.000  

  26346120.81249 138449797.65649     -6070.27349        48.000  

 16 04 02 13 27 53.2000000  0  4G28G17G24G18                                    
  24796258.40649 130305216.87549     13780.23449        49.000  

  23622297.35249 124136008.63749      -592.07449        49.000  

  22543141.28149 118465006.78549     -3231.59849        49.000  

  26346236.34449 138450404.74249     -6072.59449        48.000  

 16 04 02 13 27 53.3000000  0  4G28G17G24G18                                    
  24795996.20349 130303839.01249     13777.43449        49.000  

  23622308.64149 124136067.98449      -595.19549        49.000  

  22543202.82049 118465330.21149     -3237.10949        49.000  

  26346351.93049 138451012.17249     -6075.99249        48.000  

 16 04 02 13 27 53.4000000  0  4G28G17G24G18                                    
  24795734.06249 130302461.43449     13774.31649        49.000  

  23622320.00849 124136127.69149      -598.94149        49.000  

  22543264.48449 118465654.23849     -3243.36349        49.000  

  26346467.58649 138451619.95349     -6079.87149        48.000  

 16 04 02 13 27 53.5000000  0  4G28G17G24G18                                    
  24795471.97749 130301084.11349     13771.87149        49.000    24795477.59441
 101533335.17251     10731.32841        20.000  
  23622331.43049 124136187.71549      -601.94949        50.000  

  22543326.25049 118465978.84049     -3248.95349        49.000  

  26346583.30549 138452228.07049     -6082.96549        48.000  

 16 04 02 13 27 53.6000000  0  4G28G17G24G18                                    
  24795209.94549 130299707.12949     13768.55549        49.000    24795215.56241
 101532262.21941     10728.74241        20.000  
  23622342.92249 124136248.10249      -605.65649        50.000  

  22543388.13349 118466304.02749     -3255.03149        49.000  

  26346699.10249 138452836.55949     -6086.75849        48.000  

 16 04 02 13 27 53.7000000  0  4G28G17G24G18                                    
  24794947.94549 130298330.39549     13765.81649        49.000    24794950.10941
 101531189.46541     10726.60941        20.000  
  23622354.46949 124136308.80949      -609.08249        49.000  

  22543450.13349 118466629.81249     -3260.92649        49.000  

  26346814.96149 138453445.39549     -6090.38749        48.000  

 16 04 02 13 27 53.8000000  0  4G28G17G24G18                                    
  24794686.02349 130296953.98049     13762.87949        49.000    24794688.18841
 101530116.95741     10724.32041        20.000  
  23622366.09449 124136369.89149      -612.45349        49.000  

  22543512.24249 118466956.20749     -3266.80549        49.000  

  26346930.88349 138454054.60249     -6093.75849        48.000  

 16 04 02 13 27 53.9000000  0  4G28G17G24G18                                    
  24794424.14149 130295577.82049     13760.07049        49.000    24794422.41441
 101529044.64541     10722.13341        21.000  
  23622377.78149 124136431.28149      -615.87949        50.000  

  22543574.45349 118467283.12949     -3272.44549        49.000  

  26347046.87549 138454664.12549     -6097.27049        48.000  

 16 04 02 13 27 54.0000000  0  4G28G17G24G18                                    
  24794162.32849 130294201.98049     13756.97749        49.000    24794160.60941
 101527972.57841     10719.72341        20.000  
  23622389.52349 124136493.03549      -619.41449        50.000  

  22543636.78949 118467610.70349     -3278.69949        49.000  

  26347162.93049 138455274.03949     -6100.98849        48.000  

 16 04 02 13 27 54.1000000  0  4G28G17G24G18                                    
  24793900.56249 130292826.35949     13754.92649        49.000    24793894.93841
 101526900.68441     10718.12541        20.000  
  23622401.33649 124136555.07049      -622.19949        50.000  

  22543699.21949 118467938.78149     -3283.78549        49.000  

  26347279.04749 138455884.23849     -6103.75049        48.000  

 16 04 02 13 27 54.2000000  0  4G28G17G24G18                                    
  24793638.85249 130291451.04749     13751.92249        49.000    24793633.22741
 101525829.03541     10715.78141        20.000  
  23622413.21149 124136617.46549      -625.55149        50.000  

  22543761.76649 118468267.47349     -3289.71549        49.000  

  26347395.24249 138456494.81249     -6107.34049        48.000  

 16 04 02 13 27 54.3000000  0  4G28G17G24G18                                    
  24793377.17249 130290075.91449     13750.03549        49.000    24793374.21141
 101524757.52041     10714.31241        20.000  
  23622425.12549 124136680.08649      -627.88349        50.000  

  22543824.39849 118468596.62949     -3294.39549        49.000  

  26347511.47749 138457105.61749     -6109.75049        48.000  

 16 04 02 13 27 54.4000000  0  4G28G17G24G18                                    
  24793115.54749 130288701.03949     13747.46549        49.000    24793112.57841
 101523686.18441     10712.31241        20.000  
  23622437.10249 124136743.03149      -631.27049        50.000  

  22543887.14849 118468926.37949     -3300.41449        49.000  

  26347627.78149 138457716.77349     -6113.42249        48.000  

 16 04 02 13 27 54.5000000  0  4G28G17G24G18                                    
  24792853.98449 130287326.55949     13743.53549        49.000    24792851.00041
 101522615.14541     10709.25041        20.000  
  23622449.16449 124136806.41449      -635.41849        50.000  

  22543950.02349 118469256.77749     -3306.88749        49.000  

  26347744.16449 138458328.37149     -6117.70749        48.000  

 16 04 02 13 27 54.6000000  0  4G28G17G24G18                                    
  24792592.46949 130285952.29749     13740.93849        49.000    24792589.48441
 101521544.27741     10707.22741        20.000  
  23622461.27349 124136870.07849      -638.75049        50.000  

  22544013.00049 118469587.71949     -3312.59449        49.000  

  26347860.60249 138458940.25049     -6121.01649        48.000  

 16 04 02 13 27 54.7000000  0  4G28G17G24G18                                    
  24792331.00849 130284578.28149     13739.00049        49.000    24792324.11741
 101520473.60241     10705.71541        20.000  
  23622473.45349 124136934.04349      -641.28949        50.000  

  22544076.08649 118469919.21549     -3317.81649        49.000  

  26347977.10249 138459552.46149     -6123.82049        48.000  

 16 04 02 13 27 54.8000000  0  4G28G17G24G18                                    
  24792069.59449 130283204.55149     13736.12549        49.000    24792062.69541
 101519403.14841     10703.47741        20.000  
  23622485.68849 124136998.33249      -644.55949        50.000  

  22544139.27349 118470251.27349     -3323.37549        49.000  

  26348093.65649 138460165.00049     -6127.04749        48.000  

 16 04 02 13 27 54.9000000  0  4G28G17G24G18                                    
  24791808.24249 130281831.11349     13733.04349        49.000  

  23622497.98449 124137062.98049      -648.27749        50.000  

  22544202.57849 118470583.94149     -3329.58249        49.000  

  26348210.28949 138460777.91049     -6130.97749        48.000  

 16 04 02 13 27 55.0000000  0  4G28G17G24G18                                    
  24791546.93849 130280457.94549     13730.24649        49.000  

  23622510.35249 124137127.94149      -651.44949        50.000  

  22544265.99249 118470917.17249     -3335.38749        49.000  

  26348326.98449 138461391.14149     -6134.21549        48.000  

 16 04 02 13 27 55.1000000  0  4G28G17G24G18                                    
  24791285.68049 130279085.05149     13727.65249        49.000  

  23622522.77349 124137193.23849      -654.63749        50.000  

  22544329.50849 118471250.97749     -3340.98449        49.000  

  26348443.74249 138462004.71949     -6137.36749        48.000  

 16 04 02 13 27 55.2000000  0  4G28G17G24G18                                    
  24791024.46949 130277712.36349     13725.58249        49.000  

  23622535.25049 124137258.78949      -657.23449        49.000  

  22544393.12549 118471585.28949     -3346.05949        49.000  

  26348560.55549 138462618.57849     -6140.30149        48.000  

 16 04 02 13 27 55.3000000  0  4G28G17G24G18                                    
  24790763.30549 130276339.93449     13723.31649        49.000  

  23622547.78149 124137324.65649      -660.03949        50.000  

  22544456.85249 118471920.15649     -3351.23049        49.000  

  26348677.43049 138463232.75049     -6143.09449        48.000  

 16 04 02 13 27 55.4000000  0  4G28G17G24G18                                    
  24790502.18849 130274967.75849     13720.50049        49.000  

  23622560.37549 124137390.82449      -663.48849        50.000  

  22544520.68049 118472255.57849     -3357.09849        49.000  

  26348794.35949 138463847.25049     -6146.77049        48.000  

 16 04 02 13 27 55.5000000  0  4G28G17G24G18                                    
  24790241.13349 130273595.85549     13717.83249        49.000    24790226.94541
 101511833.99651     10689.21941        20.000  
  23622573.02349 124137457.32449      -666.65249        50.000  

  22544584.60949 118472591.57449     -3362.75049        49.000  

  26348911.35949 138464462.08249     -6150.06649        48.000  

 16 04 02 13 27 55.6000000  0  4G28G17G24G18                                    
  24789980.12549 130272224.24249     13714.77749        49.000    24789965.93841
 101510765.21141     10686.84041        20.000  
  23622585.75049 124137524.17249      -670.34049        50.000  

  22544648.66449 118472928.15249     -3368.85249        49.000  

  26349028.43049 138465077.26649     -6153.79749        48.000  

 16 04 02 13 27 55.7000000  0  4G28G17G24G18                                    
  24789719.16449 130270852.94149     13711.63349        49.000    24789704.89841
 101509696.66841     10684.39141        20.000  
  23622598.53149 124137591.36749      -673.81249        50.000  

  22544712.82849 118473265.34049     -3374.77349        49.000  

  26349145.56249 138465692.81649     -6157.37149        48.000  

 16 04 02 13 27 55.8000000  0  4G28G17G24G18                                    
  24789458.25049 130269481.84849     13709.39549        49.000    24789443.98441
 101508628.28941     10682.64541        22.000  
  23622611.37549 124137658.84449      -676.64849        50.000  

  22544777.09449 118473603.05149     -3380.16049        49.000  

  26349262.75849 138466308.66849     -6160.44949        48.000  

 16 04 02 13 27 55.9000000  0  4G28G17G24G18                                    
  24789197.38349 130268111.05149     13706.60949        49.000  

  23622624.28149 124137726.65649      -679.96149        50.000  

  22544841.46949 118473941.34449     -3385.90249        49.000  

  26349380.01649 138466924.85549     -6163.77349        48.000  

 16 04 02 13 27 56.0000000  0  4G28G17G24G18                                    
  24788936.57049 130266740.45349     13704.72349        49.000  

  23622637.23449 124137794.72349      -682.37549        50.000  

  22544905.93849 118474280.13349     -3390.72749        49.000  

  26349497.32849 138467541.32049     -6166.30949        48.000  

 16 04 02 13 27 56.1000000  0  4G28G17G24G18                                    
  24788675.81249 130265370.16049     13701.75049        49.000  

  23622650.25049 124137863.15249      -686.00049        50.000  

  22544970.52349 118474619.53949     -3396.81249        49.000  

  26349614.70349 138468158.15249     -6170.14549        48.000  

 16 04 02 13 27 56.2000000  0  4G28G17G24G18                                    
  24788415.12549 130264000.23449     13697.76249        49.000  

  23622663.35949 124137932.00049      -690.56249        50.000  

  22545035.24249 118474959.60549     -3403.85949        49.000  

  26349732.16449 138468775.40649     -6174.64549        48.000  

 16 04 02 13 27 56.3000000  0  4G28G17G24G18                                    
  24788154.48449 130262630.58249     13695.08649        49.000  

  23622676.52349 124138001.17649      -693.65249        50.000  

  22545100.06249 118475300.25049     -3409.45749        49.000  

  26349849.68849 138469393.01249     -6177.92649        48.000  

 16 04 02 13 27 56.4000000  0  4G28G17G24G18                                    
  24787893.89149 130261261.14149     13693.09449        49.000  

  23622689.73449 124138070.61349      -696.18449        50.000  

  22545164.97749 118475641.39849     -3414.41449        49.000  

  26349967.26649 138470010.88749     -6180.61749        48.000  

 16 04 02 13 27 56.5000000  0  4G28G17G24G18                                    
  24787633.36749 130259892.00049     13690.08649        49.000  

  23622703.01649 124138140.41049      -699.83649        50.000  

  22545230.00849 118475983.14549     -3420.37549        49.000  

  26350084.91449 138470629.14149     -6184.32049        48.000  

 16 04 02 13 27 56.6000000  0  4G28G17G24G18                                    
  24787372.87549 130258523.12149     13687.57849        49.000  

  23622716.35949 124138210.50849      -702.62149        50.000  

  22545295.14849 118476325.45749     -3425.91449        49.000  

  26350202.61749 138471247.69949     -6187.29349        48.000  

 16 04 02 13 27 56.7000000  0  4G28G17G24G18                                    
  24787112.43049 130257154.49249     13684.93449        49.000  

  23622729.75849 124138280.92649      -706.05549        50.000  

  22545360.39149 118476668.32049     -3431.64549        49.000  

  26350320.39149 138471866.59049     -6190.84049        48.000  

 16 04 02 13 27 56.8000000  0  4G28G17G24G18                                    
  24786852.04749 130255786.15649     13682.13749        49.000  

  23622743.21949 124138351.67649      -709.19549        50.000  

  22545425.75049 118477011.77049     -3437.25049        49.000  

  26350438.22749 138472485.82049     -6194.04749        48.000  

 16 04 02 13 27 56.9000000  0  4G28G17G24G18                                    
  24786591.69549 130254418.05149     13679.73049        49.000  

  23622756.73449 124138422.71949      -712.19949        50.000  

  22545491.21149 118477355.75449     -3442.80549        49.000  

  26350556.11749 138473105.36749     -6197.20749        48.000  

 16 04 02 13 27 57.0000000  0  4G28G17G24G18                                    
  24786331.40649 130253050.24249     13676.77049        49.000  

  23622770.32049 124138494.09849      -715.61349        50.000  

  22545556.77349 118477700.32449     -3448.61349        49.000  

  26350674.07849 138473725.25849     -6200.78149        48.000  

 16 04 02 13 27 57.1000000  0  4G28G17G24G18                                    
  24786071.19549 130251682.74249     13673.67249        49.000  

  23622783.97749 124138565.85549      -719.32449        50.000  

  22545622.46949 118478045.51249     -3454.78949        49.000  

  26350792.11749 138474345.52749     -6204.47349        48.000  

 16 04 02 13 27 57.2000000  0  4G28G17G24G18                                    
  24785811.00849 130250315.47349     13671.29349        49.000  

  23622797.68049 124138637.88349      -722.10949        50.000  

  22545688.25049 118478391.22349     -3460.11749        49.000  

  26350910.20349 138474966.09049     -6207.54349        48.000  

 16 04 02 13 27 57.3000000  0  4G28G17G24G18                                    
  24785550.88349 130248948.55949     13667.73049        49.000  

  23622811.46949 124138710.33249      -726.27749        50.000  

  22545754.17249 118478737.59449     -3466.68849        49.000  

  26351028.37549 138475587.07449     -6211.64149        48.000  

 16 04 02 13 27 57.4000000  0  4G28G17G24G18                                    
  24785290.81249 130247581.88749     13665.23449        49.000  

  23622825.30549 124138783.05949      -729.23849        50.000  

  22545820.18049 118479084.50449     -3472.17249        49.000  

  26351146.60249 138476208.36749     -6214.91049        48.000  

 16 04 02 13 27 57.5000000  0  4G28G17G24G18                                    
  24785030.78949 130246215.49649     13662.69149        49.000  

  23622839.21149 124138856.13749      -732.49249        50.000  

  22545886.31249 118479431.99649     -3477.74649        49.000  

  26351264.89849 138476830.00849     -6218.19549        48.000  

 16 04 02 13 27 57.6000000  0  4G28G17G24G18                                    
  24784770.82849 130244849.37549     13659.86749        50.000  

  23622853.17249 124138929.53549      -735.75849        50.000  

  22545952.54749 118479780.05949     -3483.53549        49.000  

  26351383.25849 138477451.97749     -6221.54749        48.000  

 16 04 02 13 27 57.7000000  0  4G28G17G24G18                                    
  24784510.91449 130243483.51249     13657.29349        49.000  

  23622867.20349 124139003.23449      -738.89549        50.000  

  22546018.88349 118480128.68049     -3489.23449        49.000  

  26351501.67249 138478074.27049     -6224.77049        48.000  

 16 04 02 13 27 57.8000000  0  4G28G17G24G18                                    
  24784251.06249 130242117.96549     13654.10249        49.000  

  23622881.29749 124139077.31249      -742.64549        50.000  

  22546085.33649 118480477.91049     -3495.29349        49.000  

  26351620.16449 138478696.95749     -6228.78949        48.000  

 16 04 02 13 27 57.9000000  0  4G28G17G24G18                                    
  24783991.25849 130240752.69549     13651.44949        49.000  

  23622895.45349 124139151.71949      -745.78149        50.000  

  22546151.90649 118480827.71949     -3501.00049        49.000  

  26351738.72749 138479319.97349     -6231.92249        48.000  

 16 04 02 13 27 58.0000000  0  4G28G17G24G18                                    
  24783731.50049 130239387.69149     13648.73449        49.000  

  23622909.67249 124139226.44149      -749.05949        50.000  

  22546218.57849 118481178.09449     -3506.71549        49.000  

  26351857.33649 138479943.31249     -6235.39149        48.000  

 16 04 02 13 27 58.1000000  0  4G28G17G24G18                                    
  24783471.79749 130238022.94549     13646.29349        49.000  

  23622923.95349 124139301.47749      -752.07049        50.000  

  22546285.35949 118481529.02049     -3512.06249        49.000  

  26351976.01649 138480566.97349     -6238.37949        48.000  

 16 04 02 13 27 58.2000000  0  4G28G17G24G18                                    
  24783212.14149 130236658.44949     13643.66449        50.000  

  23622938.28949 124139376.79749      -754.94149        50.000  

  22546352.24249 118481880.49249     -3517.54749        49.000  

  26352094.75849 138481190.95349     -6241.55149        48.000  

 16 04 02 13 27 58.3000000  0  4G28G17G24G18                                    
  24782952.52349 130235294.21949     13640.90249        50.000  

  23622952.68849 124139452.46149      -758.30149        50.000  

  22546419.23449 118482232.53949     -3523.42249        49.000  

  26352213.56249 138481815.26649     -6244.83249        48.000  

 16 04 02 13 27 58.4000000  0  4G28G17G24G18                                    
  24782692.96949 130233930.23849     13638.54349        49.000  

  23622967.14149 124139528.41449      -761.32849        50.000  

  22546486.33649 118482585.13749     -3528.91049        49.000  

  26352332.42249 138482439.90649     -6248.34449        48.000  

 16 04 02 13 27 58.5000000  0  4G28G17G24G18                                    
  24782433.47749 130232566.57449     13635.37149        50.000  

  23622981.66449 124139604.75049      -765.15249        50.000  

  22546553.54749 118482938.34449     -3535.03949        49.000  

  26352451.35949 138483064.90649     -6251.94549        48.000  

 16 04 02 13 27 58.6000000  0  4G28G17G24G18                                    
  24782174.03949 130231203.22349     13632.18049        49.000  

  23622996.25849 124139681.43449      -768.62149        50.000  

  22546620.87549 118483292.16049     -3541.13349        49.000  

  26352570.36749 138483690.28149     -6255.50449        48.000  

 16 04 02 13 27 58.7000000  0  4G28G17G24G18                                    
  24781914.64149 130229840.06249     13630.31249        49.000  

  23623010.89849 124139758.37549      -771.21549        50.000  

  22546688.29749 118483646.46549     -3545.96149        49.000  

  26352689.42249 138484315.91849     -6258.18449        48.000  

 16 04 02 13 27 58.8000000  0  4G28G17G24G18                                    
  24781655.29749 130228477.19549     13627.53149        49.000  

  23623025.60249 124139835.65649      -774.46149        50.000  

  22546755.83649 118484001.37949     -3551.93849        49.000  

  26352808.54749 138484941.92249     -6261.76649        48.000  

 16 04 02 13 27 58.9000000  0  4G28G17G24G18                                    
  24781395.99249 130227114.58649     13624.85949        49.000  

  23623040.36749 124139913.23449      -777.48849        50.000  

  22546823.46949 118484356.82049     -3557.22349        49.000  

  26352927.72749 138485568.23449     -6264.82049        48.000  

 16 04 02 13 27 59.0000000  0  4G28G17G24G18                                    
  24781136.73449 130225752.19149     13622.81649        50.000  

  23623055.18049 124139991.09849      -780.16049        50.000  

  22546891.21149 118484712.78949     -3562.37949        49.000  

  26353046.96149 138486194.82049     -6267.38349        48.000  

 16 04 02 13 27 59.1000000  0  4G28G17G24G18                                    
  24780877.53949 130224390.12149     13619.33249        49.000  

  23623070.07049 124140069.33249      -784.19949        49.000  

  22546959.07049 118485069.38749     -3568.97749        49.000  

  26353166.27349 138486821.82049     -6271.79749        48.000  

 16 04 02 13 27 59.2000000  0  4G28G17G24G18                                    
  24780618.39849 130223028.34049     13616.40249        49.000  

  23623085.01649 124140147.91449      -787.57449        50.000  

  22547027.03949 118485426.56649     -3574.76649        49.000  

  26353285.65649 138487449.14849     -6275.17649        48.000  

 16 04 02 13 27 59.3000000  0  4G28G17G24G18                                    
  24780359.28949 130221666.79349     13614.12949        49.000  

  23623100.02349 124140226.77349      -790.46549        50.000  

  22547095.10949 118485784.28149     -3580.16849        49.000  

  26353405.08649 138488076.78149     -6278.19949        48.000  

 16 04 02 13 27 59.4000000  0  4G28G17G24G18                                    
  24780100.25049 130220305.53149     13611.40249        49.000  

  23623115.10249 124140305.98049      -793.77049        50.000  

  22547163.28949 118486142.58249     -3585.80949        49.000  

  26353524.59449 138488704.77049     -6281.59849        48.000  

 16 04 02 13 27 59.5000000  0  4G28G17G24G18                                    
  24779841.26649 130218944.57449     13608.12949        49.000  

  23623130.23449 124140385.53949      -797.53149        50.000  

  22547231.58649 118486501.48449     -3592.13749        49.000  

  26353644.16449 138489333.12549     -6285.56649        48.000  

 16 04 02 13 27 59.6000000  0  4G28G17G24G18                                    
  24779582.33649 130217583.88749     13605.54749        49.000  

  23623145.43849 124140465.41449      -800.49249        50.000  

  22547299.99249 118486860.95349     -3597.62149        49.000  

  26353763.79749 138489961.79349     -6288.49649        48.000  

 16 04 02 13 27 59.7000000  0  4G28G17G24G18                                    
  24779323.46149 130216223.44149     13603.17249        49.000  

  23623160.69549 124140545.59849      -803.65649        50.000  

  22547368.50849 118487220.96549     -3603.08649        49.000  

  26353883.49249 138490590.79749     -6291.83249        48.000  

 16 04 02 13 27 59.8000000  0  4G28G17G24G18                                    
  24779064.63349 130214863.30149     13600.21949        49.000  

  23623176.02349 124140626.12149      -806.95349        50.000  

  22547437.12549 118487581.57849     -3608.89549        49.000  

  26354003.25849 138491220.15649     -6295.25049        48.000  

 16 04 02 13 27 59.9000000  0  4G28G17G24G18                                    
  24778805.84449 130213503.41449     13597.43449        49.000  

  23623191.40649 124140706.96949      -810.34849        50.000  

  22547505.85949 118487942.75049     -3614.78549        49.000  

  26354123.08649 138491849.83249     -6298.78549        48.000  

 16 04 02 13 28  0.0000000  0  4G28G17G24G18                                    
  24778547.11749 130212143.79749     13594.84849        49.000  

  23623206.85249 124140788.11749      -813.39849        50.000  

  22547574.68849 118488304.47749     -3620.21949        49.000  

  26354242.97749 138492479.83649     -6301.79749        48.000  

 16 04 02 13 28  0.1000000  0  4G28G17G24G18                                    
  24778288.42249 130210784.41849     13592.66449        49.000  

  23623222.35249 124140869.57849      -816.10949        50.000  

  22547643.62549 118488666.75449     -3625.49649        49.000  

  26354362.92249 138493110.15249     -6304.82449        48.000  

 16 04 02 13 28  0.2000000  0  4G28G17G24G18                                    
  24778029.78949 130209425.28949     13590.13349        49.000  

  23623237.90649 124140951.32849      -819.21549        50.000  

  22547712.67249 118489029.56649     -3630.94549        49.000  

  26354482.92249 138493740.77049     -6307.80949        48.000  

 16 04 02 13 28  0.3000000  0  4G28G17G24G18                                    
  24777771.21149 130208066.50449     13586.51249        49.000  

  23623253.53949 124141033.47749      -823.21549        50.000  

  22547781.83649 118489393.02749     -3637.53549        49.000  

  26354603.00049 138494371.80549     -6312.13749        48.000  

 16 04 02 13 28  0.4000000  0  4G28G17G24G18                                    
  24777512.69549 130206707.96949     13583.84449        49.000  

  23623269.22749 124141115.93849      -826.59049        50.000  

  22547851.10249 118489757.04749     -3643.29349        49.000  

  26354723.14849 138495003.15249     -6315.44549        48.000  

 16 04 02 13 28  0.5000000  0  4G28G17G24G18                                    
  24777254.22749 130205349.76249     13580.66449        49.000  

  23623284.99249 124141198.77049      -830.30149        50.000  

  22547920.49249 118490121.67649     -3649.40649        49.000  

  26354843.36749 138495634.88749     -6319.35949        48.000  

 16 04 02 13 28  0.6000000  0  4G28G17G24G18                                    
  24776995.82849 130203991.83249     13577.84049        49.000  

  23623300.81249 124141281.93049      -833.55549        50.000  

  22547989.98449 118490486.89149     -3655.17649        49.000  

  26354963.64849 138496266.96549     -6322.64549        48.000  

 16 04 02 13 28  0.7000000  0  4G28G17G24G18                                    
  24776737.46149 130202634.16449     13575.34449        49.000  

  23623316.70349 124141365.40649      -836.46949        50.000  

  22548059.59449 118490852.66049     -3660.66449        49.000  

  26355083.99249 138496899.37549     -6325.91449        48.000  

 16 04 02 13 28  0.8000000  0  4G28G17G24G18                                    
  24776479.15649 130201276.77749     13572.50049        49.000  

  23623332.64849 124141449.21949      -839.86749        50.000  

  22548129.30549 118491219.01649     -3666.43049        49.000  

  26355204.39849 138497532.11749     -6329.15649        48.000  

 16 04 02 13 28  0.9000000  0  4G28G17G24G18                                    
  24776220.89149 130199919.62549     13570.29749        49.000  

  23623348.64849 124141533.31249      -842.66849        50.000  

  22548199.12549 118491585.90249     -3671.74649        49.000  

  26355324.86749 138498165.16049     -6332.16449        48.000  

 16 04 02 13 28  1.0000000  0  4G28G17G24G18                                    
  24775962.68849 130198562.75849     13567.46549        50.000  

  23623364.71149 124141617.73849      -845.92649        50.000  

  22548269.05549 118491953.37149     -3677.47749        49.000  

  26355445.39849 138498798.55549     -6335.71949        48.000  

 16 04 02 13 28  1.1000000  0  4G28G17G24G18                                    
  24775704.53149 130197206.19149     13564.34849        50.000  

  23623380.85249 124141702.53949      -849.73849        50.000  

  22548339.08649 118492321.43049     -3683.57849        49.000  

  26355565.99249 138499432.31249     -6339.41449        48.000  

 16 04 02 13 28  1.2000000  0  4G28G17G24G18                                    
  24775446.43049 130195849.84049     13562.15649        49.000  

  23623397.03149 124141787.59449      -852.20349        50.000  

  22548409.22749 118492690.01649     -3688.62149        49.000  

  26355686.64849 138500066.35549     -6342.15249        48.000  

 16 04 02 13 28  1.3000000  0  4G28G17G24G18                                    
  24775188.37549 130194493.78149     13559.28949        49.000  

  23623413.28149 124141872.98849      -855.75049        50.000  

  22548479.47749 118493059.19149     -3694.63349        49.000  

  26355807.36749 138500700.73049     -6345.59049        48.000  

 16 04 02 13 28  1.4000000  0  4G28G17G24G18                                    
  24774930.37549 130193137.98449     13556.61349        50.000  

  23623429.59449 124141958.70749      -858.93449        50.000  

  22548549.83649 118493428.92249     -3700.30549        49.000  

  26355928.14849 138501335.45349     -6349.02349        48.000  

 16 04 02 13 28  1.5000000  0  4G28G17G24G18                                    
  24774672.43049 130191782.49649     13553.63349        49.000  

  23623445.97749 124142044.77749      -862.35949        50.000  

  22548620.30549 118493799.26649     -3706.18049        49.000  

  26356049.00849 138501970.54349     -6352.55549        48.000  

 16 04 02 13 28  1.6000000  0  4G28G17G24G18                                    
  24774414.52349 130190427.21149     13551.38349        49.000  

  23623462.39849 124142131.11349      -865.31249        50.000  

  22548690.87549 118494170.10249     -3711.49249        49.000  

  26356169.90649 138502605.89549     -6355.59849        48.000  

 16 04 02 13 28  1.7000000  0  4G28G17G24G18                                    
  24774156.68849 130189072.24249     13548.33649        49.000  

  23623478.89849 124142217.80149      -868.64849        50.000  

  22548761.55549 118494541.55949     -3717.50449        49.000  

  26356290.88349 138503241.63349     -6359.16849        48.000  

 16 04 02 13 28  1.8000000  0  4G28G17G24G18                                    
  24773898.89149 130187717.52049     13545.93849        50.000  

  23623495.45349 124142304.80549      -871.76649        50.000  

  22548832.34449 118494913.55149     -3722.83649        49.000  

  26356411.92249 138503877.67649     -6362.16449        48.000  

 16 04 02 13 28  1.9000000  0  4G28G17G24G18                                    
  24773641.15649 130186363.10949     13542.80949        50.000  

  23623512.07849 124142392.16049      -875.29349        50.000  

  22548903.25049 118495286.16049     -3729.02349        49.000  

  26356533.02349 138504514.08249     -6365.87549        48.000  

 16 04 02 13 28  2.0000000  0  4G28G17G24G18                                    
  24773383.46149 130185008.93449     13540.30149        50.000  

  23623528.75849 124142479.81249      -878.35249        50.000  

  22548974.25849 118495659.30549     -3734.53149        49.000  

  26356654.18849 138505150.80949     -6369.02349        48.000  

 16 04 02 13 28  2.1000000  0  4G28G17G24G18                                    
  24773125.82849 130183655.02049     13537.86749        50.000  

  23623545.49249 124142567.77049      -881.24649        50.000  

  22549045.36749 118496033.00449     -3739.81649        49.000  

  26356775.40649 138505787.84049     -6372.02349        48.000  

 16 04 02 13 28  2.2000000  0  4G28G17G24G18                                    
  24772868.22749 130182301.30949     13535.93449        50.000    24772881.42241
 101440806.73451     10547.48041        20.000  
  23623562.28149 124142655.99249      -883.73449        50.000  

  22549116.57849 118496407.21549     -3744.84049        49.000  

  26356896.68049 138506425.14149     -6374.66849        48.000  

 16 04 02 13 28  2.3000000  0  4G28G17G24G18                                    
  24772610.68849 130180947.92249     13532.51649        50.000    24772623.88341
 101439752.16041     10544.81641        20.000  
  23623579.14149 124142744.58649      -887.79349        50.000  

  22549187.89849 118496782.03549     -3751.15249        49.000  

  26357018.03149 138507062.84049     -6378.70749        48.000  

 16 04 02 13 28  2.4000000  0  4G28G17G24G18                                    
  24772353.18849 130179594.77049     13530.35249        49.000    24772366.39841
 101438697.76241     10543.12941        20.000  
  23623596.04749 124142833.46149      -890.35949        50.000  

  22549259.32849 118497157.39549     -3756.41449        49.000  

  26357139.43849 138507700.83249     -6381.63349        48.000  

 16 04 02 13 28  2.5000000  0  4G28G17G24G18                                    
  24772095.74249 130178241.84849     13527.78549        49.000    24772108.95341
 101437643.55141     10541.13341        20.000  
  23623613.01649 124142922.61749      -893.53149        50.000  

  22549330.85949 118497533.27349     -3761.80149        49.000  

  26357260.89849 138508339.12149     -6384.86349        48.000  

 16 04 02 13 28  2.6000000  0  4G28G17G24G18                                    
  24771838.35249 130176889.28149     13524.37949        49.000  

  23623630.06249 124143012.19549      -897.50849        50.000  

  22549402.50849 118497909.82449     -3768.44549        49.000  

  26357382.43849 138508977.80949     -6388.83649        48.000  

 16 04 02 13 28  2.7000000  0  4G28G17G24G18                                    
  24771581.00849 130175536.96949     13521.78149        49.000  

  23623647.16449 124143102.06249      -900.53949        50.000  

  22549474.27349 118498286.90649     -3773.77049        49.000  

  26357504.03949 138509616.81649     -6391.91049        48.000  

 16 04 02 13 28  2.8000000  0  4G28G17G24G18                                    
  24771323.72749 130174184.92649     13519.23849        50.000  

  23623664.32849 124143192.26249      -903.56649        50.000  

  22549546.14149 118498664.56249     -3779.32049        49.000  

  26357625.70349 138510256.17249     -6395.06649        48.000  

 16 04 02 13 28  2.9000000  0  4G28G17G24G18                                    
  24771066.50049 130172833.16849     13516.23849        50.000  

  23623681.56249 124143282.80549      -907.22749        50.000  

  22549618.11749 118499042.82049     -3785.52749        50.000  

  26357747.43849 138510895.88749     -6398.94949        48.000  

 16 04 02 13 28  3.0000000  0  4G28G17G24G18                                    
  24770809.32849 130171481.69149     13513.48049        50.000  

  23623698.85249 124143373.65649      -910.32049        50.000  

  22549690.20349 118499421.63749     -3791.16849        49.000  

  26357869.22749 138511535.91449     -6402.12549        48.000  

 16 04 02 13 28  3.1000000  0  4G28G17G24G18                                    
  24770552.20349 130170130.49249     13510.55949        50.000  

  23623716.20349 124143464.85549      -913.91049        50.000  

  22549762.39849 118499801.03149     -3797.05549        50.000  

  26357991.09449 138512176.29749     -6405.75449        48.000  

 16 04 02 13 28  3.2000000  0  4G28G17G24G18                                    
  24770295.12549 130168779.53949     13508.25049        50.000  

  23623733.61749 124143556.35249      -916.69149        50.000  

  22549834.69549 118500180.96949     -3802.26649        50.000  

  26358113.00849 138512816.98849     -6408.69549        48.000  

 16 04 02 13 28  3.3000000  0  4G28G17G24G18                                    
  24770038.10949 130167428.89849     13505.21149        50.000  

  23623751.10249 124143648.20749      -920.26249        50.000  

  22549907.10949 118500561.51649     -3808.33249        50.000  

  26358235.00049 138513458.04749     -6412.37949        48.000  

 16 04 02 13 28  3.4000000  0  4G28G17G24G18                                    
  24769781.15649 130166078.56249     13501.91449        50.000  

  23623768.64849 124143740.41849      -924.01249        50.000  

  22549979.64149 118500942.67649     -3814.70349        50.000  

  26358357.05549 138514099.47349     -6416.19549        48.000  

 16 04 02 13 28  3.5000000  0  4G28G17G24G18                                    
  24769524.24249 130164728.50049     13499.23049        50.000  

  23623786.25849 124143832.95349      -927.12949        50.000  

  22550052.28149 118501324.39149     -3820.20349        50.000  

  26358479.18049 138514741.23849     -6419.43849        48.000  

 16 04 02 13 28  3.6000000  0  4G28G17G24G18                                    
  24769267.37549 130163378.66049     13496.98849        50.000  

  23623803.92249 124143925.77349      -930.01249        50.000  

  22550125.02349 118501706.64149     -3825.50049        50.000  

  26358601.35949 138515383.29349     -6422.36349        48.000  

 16 04 02 13 28  3.7000000  0  4G28G17G24G18                                    
  24769010.56249 130162029.10549     13494.42249        50.000  

  23623821.64849 124144018.93049      -933.08649        50.000  

  22550197.87549 118502089.46149     -3830.95749        50.000  

  26358723.60249 138516025.68849     -6425.47349        48.000  

 16 04 02 13 28  3.8000000  0  4G28G17G24G18                                    
  24768753.79749 130160679.81249     13491.60249        50.000  

  23623839.43049 124144112.39849      -936.40249        50.000  

  22550270.82849 118502472.85949     -3836.98849        50.000  

  26358845.91449 138516668.41449     -6429.05149        48.000  

 16 04 02 13 28  3.9000000  0  4G28G17G24G18                                    
  24768497.07849 130159330.78149     13489.01249        50.000  

  23623857.27349 124144206.17249      -939.57049        50.000  

  22550343.89149 118502856.80149     -3842.34849        50.000  

  26358968.28149 138517311.46549     -6432.36349        48.000  

 16 04 02 13 28  4.0000000  0  4G28G17G24G18                                    
  24768240.42249 130157982.04749     13486.06649        50.000  

  23623875.18849 124144300.29749      -943.03149        50.000  

  22550417.07049 118503241.34449     -3848.33249        50.000  

  26359090.71149 138517954.87149     -6435.90649        48.000  

 16 04 02 13 28  4.1000000  0  4G28G17G24G18                                    
  24767983.79749 130156633.55549     13483.77749        50.000  

  23623893.14849 124144394.70749      -945.67249        50.000  

  22550490.35249 118503626.42249     -3853.60249        50.000  

  26359213.20349 138518598.57849     -6438.77749        48.000  

 16 04 02 13 28  4.2000000  0  4G28G17G24G18                                    
  24767727.23449 130155285.30549     13481.10949        50.000  

  23623911.18049 124144489.42649      -949.00849        50.000  

  22550563.72749 118504012.04749     -3859.24249        49.000  

  26359335.75849 138519242.59049     -6442.01249        48.000  

 16 04 02 13 28  4.3000000  0  4G28G17G24G18                                    
  24767470.73449 130153937.36749     13478.10549        50.000  

  23623929.27349 124144584.50849      -952.38349        50.000  

  22550637.22749 118504398.27349     -3865.07849        50.000  

  26359458.38349 138519886.97349     -6445.38349        48.000  

 16 04 02 13 28  4.4000000  0  4G28G17G24G18                                    
  24767214.27349 130152589.65649     13475.69549        50.000  

  23623947.41449 124144679.85949      -955.47349        50.000  

  22550710.82049 118504785.02749     -3870.53949        50.000  

  26359581.05549 138520531.66049     -6448.81249        48.000  

 16 04 02 13 28  4.5000000  0  4G28G17G24G18                                    
  24766957.87549 130151242.27349     13472.56249        50.000  

  23623965.63349 124144775.60549      -959.18449        50.000  

  22550784.53949 118505172.40649     -3876.61749        50.000  

  26359703.81249 138521176.73449     -6452.56249        48.000  

 16 04 02 13 28  4.6000000  0  4G28G17G24G18                                    
  24766701.53149 130149895.16449     13469.94549        50.000  

  23623983.91449 124144871.65649      -962.15249        50.000  

  22550858.36749 118505560.36349     -3882.33649        49.000  

  26359826.62549 138521822.12549     -6455.54749        48.000  

 16 04 02 13 28  4.7000000  0  4G28G17G24G18                                    
  24766445.21949 130148548.29349     13467.28549        50.000  

  23624002.24249 124144968.00849      -965.38749        50.000  

  22550932.28949 118505948.84449     -3887.84849        49.000  

  26359949.50049 138522467.83649     -6459.03549        48.000  

 16 04 02 13 28  4.8000000  0  4G28G17G24G18                                    
  24766188.96949 130147201.68849     13464.72349        50.000  

  23624020.64149 124145064.68049      -968.54349        50.000  

  22551006.32849 118506337.89549     -3893.40649        49.000  

  26360072.43849 138523113.86749     -6462.26249        48.000  

 16 04 02 13 28  4.9000000  0  4G28G17G24G18                                    
  24765932.77349 130145855.37949     13461.79749        50.000  

  23624039.10249 124145161.69549      -971.85249        50.000  

  22551080.47749 118506727.54349     -3899.32049        49.000  

  26360195.43849 138523760.23449     -6465.42249        48.000  

 16 04 02 13 28  5.0000000  0  4G28G17G24G18                                    
  24765676.61749 130144509.29749     13459.56649        50.000  

  23624057.61749 124145258.98849      -974.62949        50.000  

  22551154.72749 118507117.71149     -3904.51249        49.000  

  26360318.50049 138524406.92649     -6468.49649        48.000  

 16 04 02 13 28  5.1000000  0  4G28G17G24G18                                    
  24765420.51649 130143163.44949     13457.12549        50.000  

  23624076.18849 124145356.57049      -977.61749        50.000  

  22551229.07049 118507508.40649     -3910.02049        50.000  

  26360441.61749 138525053.90249     -6471.67249        48.000  

 16 04 02 13 28  5.2000000  0  4G28G17G24G18                                    
  24765164.46949 130141817.94949     13453.73449        50.000  

  23624094.82849 124145454.55549      -981.53549        50.000  

  22551303.53949 118507899.75049     -3916.27349        50.000  

  26360564.81249 138525701.29349     -6475.61349        48.000  

 16 04 02 13 28  5.3000000  0  4G28G17G24G18                                    
  24764908.48449 130140472.71949     13450.90249        50.000  

  23624113.53949 124145552.85549      -984.94149        50.000  

  22551378.12549 118508291.67249     -3922.16849        50.000  

  26360688.06249 138526349.00049     -6478.96549        48.000  

 16 04 02 13 28  5.4000000  0  4G28G17G24G18                                    
  24764652.55549 130139127.78949     13447.93049        50.000  

  23624132.31249 124145651.50849      -988.19949        50.000  

  22551452.81249 118508684.17649     -3927.96549        50.000  

  26360811.39149 138526997.07849     -6482.44549        48.000  

 16 04 02 13 28  5.5000000  0  4G28G17G24G18                                    
  24764396.66449 130137783.11349     13445.36349        50.000  

  23624151.14149 124145750.47349      -991.54749        50.000  

  22551527.60949 118509077.25049     -3933.73049        50.000  

  26360934.77349 138527645.47349     -6485.93049        48.000  

 16 04 02 13 28  5.6000000  0  4G28G17G24G18                                    
  24764140.83649 130136438.73849     13442.37549        50.000  

  23624170.03949 124145849.77349      -994.96549        50.000  

  22551602.52349 118509470.90249     -3939.60949        50.000  

  26361058.23449 138528294.22349     -6489.34049        48.000  

 16 04 02 13 28  5.7000000  0  4G28G17G24G18                                    
  24763885.06249 130135094.64149     13439.59449        50.000  

  23624189.00049 124145949.41049      -998.05949        50.000  

  22551677.54749 118509865.14149     -3945.28949        50.000  

  26361181.75049 138528943.32049     -6492.60949        48.000  

 16 04 02 13 28  5.8000000  0  4G28G17G24G18                                    
  24763629.32849 130133750.74249     13437.73849        50.000    24763639.53941
 101402963.46951     10470.96541        20.000  
  23624208.00849 124146049.29349     -1000.37149        50.000  

  22551752.65649 118510259.85949     -3950.00049        50.000  

  26361305.31249 138529592.66849     -6495.07449        48.000  

 16 04 02 13 28  5.9000000  0  4G28G17G24G18                                    
  24763373.64149 130132407.09049     13435.10249        50.000    24763379.94541
 101401916.46541     10468.91041        20.000  
  23624227.07049 124146149.49249     -1003.84049        50.000  

  22551827.87549 118510655.13749     -3955.68049        50.000  

  26361428.93849 138530242.34049     -6498.64549        48.000  

 16 04 02 13 28  6.0000000  0  4G28G17G24G18                                    
  24763118.00849 130131063.75049     13432.40249        50.000    24763124.31241
 101400869.70341     10466.80941        20.000  
  23624246.20349 124146250.04749     -1006.87549        50.000  

  22551903.21149 118511051.02749     -3961.46149        50.000  

  26361552.64149 138530892.37149     -6501.77349        48.000  

 16 04 02 13 28  6.1000000  0  4G28G17G24G18                                    
  24762862.42249 130129720.63349     13429.66049        50.000    24762866.42241
 101399823.11341     10464.67241        20.000  
  23624265.39149 124146350.86349     -1010.27049        50.000  

  22551978.64849 118511447.43049     -3967.18049        50.000  

  26361676.39149 138531542.69149     -6505.25449        48.000  

 16 04 02 13 28  6.2000000  0  4G28G17G24G18                                    
  24762606.90649 130128377.86749     13426.31649        50.000  

  23624284.64849 124146452.09449     -1014.04749        50.000  

  22552054.20349 118511844.48849     -3973.55949        50.000  

  26361800.21949 138532193.43049     -6509.12949        48.000  

 16 04 02 13 28  6.3000000  0  4G28G17G24G18                                    
  24762351.43049 130127035.35249     13423.78149        50.000  

  23624303.96949 124146553.61749     -1017.02349        50.000  

  22552129.86749 118512242.08649     -3978.93049        49.000  

  26361924.10949 138532844.47349     -6512.24249        48.000  

 16 04 02 13 28  6.4000000  0  4G28G17G24G18                                    
  24762096.00049 130125693.05149     13421.73449        50.000  

  23624323.33649 124146655.41449     -1019.57849        50.000  

  22552205.62549 118512640.19149     -3983.88349        49.000  

  26362048.05549 138533495.80149     -6515.03149        48.000  

 16 04 02 13 28  6.5000000  0  4G28G17G24G18                                    
  24761840.62549 130124351.06249     13418.60249        50.000  

  23624342.78149 124146757.57449     -1023.30149        50.000  

  22552281.50049 118513038.91449     -3990.04349        50.000  

  26362172.06249 138534147.49249     -6518.79349        48.000  

 16 04 02 13 28  6.6000000  0  4G28G17G24G18                                    
  24761585.31249 130123009.35249     13415.70749        50.000  

  23624362.28149 124146860.06249     -1026.85249        50.000  

  22552357.48449 118513438.21149     -3995.87549        50.000  

  26362296.14149 138534799.52349     -6522.23449        48.000  

 16 04 02 13 28  6.7000000  0  4G28G17G24G18                                    
  24761330.03149 130121667.88349     13413.30149        50.000  

  23624381.84449 124146962.84849     -1029.56649        50.000  

  22552433.56249 118513838.04749     -4001.22349        50.000  

  26362420.27349 138535451.85249     -6524.95349        48.000  

 16 04 02 13 28  6.8000000  0  4G28G17G24G18                                    
  24761074.82049 130120326.73049     13410.16849        50.000  

  23624401.46949 124147065.98849     -1033.37149        50.000  

  22552509.76649 118514238.49249     -4007.41449        50.000  

  26362544.48449 138536104.57449     -6529.08249        48.000  

 16 04 02 13 28  6.9000000  0  4G28G17G24G18                                    
  24760819.66449 130118985.89549     13406.96549        50.000  

  23624421.16449 124147169.51249     -1036.91449        50.000  

  22552586.08649 118514639.55549     -4013.51249        50.000  

  26362668.76649 138536757.66849     -6532.75849        48.000  

 16 04 02 13 28  7.0000000  0  4G28G17G24G18                                    
  24760564.55549 130117645.29749     13404.43049        50.000  

  23624440.92249 124147273.31649     -1040.11749        50.000  

  22552662.50849 118515041.15649     -4019.19149        50.000  

  26362793.10249 138537411.04749     -6535.94549        48.000  

 16 04 02 13 28  7.1000000  0  4G28G17G24G18                                    
  24760309.51649 130116305.03549     13401.17649        50.000  

  23624460.75049 124147377.51249     -1043.80949        50.000  

  22552739.05549 118515443.39149     -4025.37949        50.000  

  26362917.51649 138538064.85549     -6539.94149        48.000  

 16 04 02 13 28  7.2000000  0  4G28G17G24G18                                    
  24760054.51649 130114964.98049     13399.25049        50.000  

  23624480.62549 124147481.96149     -1046.31249        50.000  

  22552815.69549 118515846.12549     -4030.25449        50.000  

  26363041.97749 138538718.89549     -6542.37149        48.000  

 16 04 02 13 28  7.3000000  0  4G28G17G24G18                                    
  24759799.56249 130113625.25049     13396.05949        50.000  

  23624500.57049 124147586.78149     -1049.87949        50.000  

  22552892.44549 118516249.47749     -4036.35549        49.000  

  26363166.50849 138539373.33649     -6546.06249        48.000  

 16 04 02 13 28  7.4000000  0  4G28G17G24G18                                    
  24759544.66449 130112285.74649     13393.68449        50.000  

  23624520.57049 124147691.89149     -1052.93849        50.000  

  22552969.30549 118516653.35549     -4041.77349        49.000  

  26363291.10249 138540028.07449     -6549.23849        48.000  

 16 04 02 13 28  7.5000000  0  4G28G17G24G18                                    
  24759289.82849 130110946.58249     13390.34449        50.000  

  23624540.64849 124147797.39149     -1056.65649        50.000  

  22553046.28149 118517057.87949     -4048.14849        50.000  

  26363415.77349 138540683.21949     -6553.25049        48.000  

 16 04 02 13 28  7.6000000  0  4G28G17G24G18                                    
  24759035.03949 130109607.66849     13387.70349        50.000  

  23624560.78149 124147903.17249     -1059.80549        50.000  

  22553123.36749 118517462.94549     -4053.79349        50.000  

  26363540.50049 138541338.65649     -6556.46149        48.000  

 16 04 02 13 28  7.7000000  0  4G28G17G24G18                                    
  24758780.30549 130108269.00449     13385.51249        50.000  

  23624580.96949 124148009.27049     -1062.54349        50.000  

  22553200.54749 118517868.54349     -4058.67249        50.000  

  26363665.28149 138541994.39149     -6559.07449        48.000  

 16 04 02 13 28  7.8000000  0  4G28G17G24G18                                    
  24758525.62549 130106930.65249     13382.02049        50.000  

  23624601.22749 124148115.74249     -1066.66049        50.000  

  22553277.85249 118518274.76649     -4065.26249        50.000  

  26363790.14149 138542650.52749     -6563.28549        48.000  

 16 04 02 13 28  7.9000000  0  4G28G17G24G18                                    
  24758271.00849 130105592.59849     13379.28549        50.000  

  23624621.54749 124148222.54349     -1069.76649        50.000  

  22553355.26649 118518681.58649     -4071.18049        50.000  

  26363915.06249 138543307.01249     -6566.74649        48.000  

 16 04 02 13 28  8.0000000  0  4G28G17G24G18                                    
  24758016.43049 130104254.77749     13376.94549        50.000  

  23624641.93049 124148329.64849     -1072.74649        50.000  

  22553432.78149 118519088.93049     -4076.34849        50.000  

  26364040.04749 138543963.79349     -6569.67249        48.000  

 16 04 02 13 28  8.1000000  0  4G28G17G24G18                                    
  24757761.89849 130102917.21549     13374.39149        50.000  

  23624662.36749 124148437.03549     -1075.75849        50.000  

  22553510.39849 118519496.81649     -4081.83649        50.000  

  26364165.08649 138544620.88349     -6572.75849        48.000  

 16 04 02 13 28  8.2000000  0  4G28G17G24G18                                    
  24757507.43849 130101579.99249     13370.91849        50.000  

  23624682.88349 124148544.84049     -1079.94149        50.000  

  22553588.14149 118519905.35249     -4088.24249        50.000  

  26364290.20349 138545278.37549     -6576.71549        48.000  

 16 04 02 13 28  8.3000000  0  4G28G17G24G18                                    
  24757253.02349 130100243.02749     13368.37149        50.000  

  23624703.45349 124148652.94149     -1082.69549        50.000  

  22553665.98449 118520314.43449     -4093.59849        50.000  

  26364415.38349 138545936.19949     -6579.89149        48.000  

 16 04 02 13 28  8.4000000  0  4G28G17G24G18                                    
  24756998.65649 130098906.32049     13365.57449        50.000  

  23624724.08649 124148761.34049     -1085.97749        50.000  

  22553743.94549 118520724.09849     -4099.70749        50.000  

  26364540.62549 138546594.33649     -6583.37949        48.000  

 16 04 02 13 28  8.5000000  0  4G28G17G24G18                                    
  24756744.35249 130097569.91049     13362.79749        50.000  

  23624744.78949 124148870.10549     -1089.43449        50.000  

  22553822.00849 118521134.32449     -4105.09049        50.000  

  26364665.93049 138547252.81249     -6586.50049        48.000  

 16 04 02 13 28  8.6000000  0  4G28G17G24G18                                    
  24756490.08649 130096233.75449     13360.15649        50.000  

  23624765.53949 124148979.16849     -1092.40649        50.000  

  22553900.18049 118521545.11749     -4110.97349        50.000  

  26364791.29749 138547911.62949     -6590.03149        48.000  

 16 04 02 13 28  8.7000000  0  4G28G17G24G18                                    
  24756235.88349 130094897.87949     13357.49249        50.000  

  23624786.35949 124149088.57049     -1095.79349        50.000  

  22553978.46149 118521956.48849     -4116.62149        49.000  

  26364916.73449 138548570.78549     -6593.36349        48.000  

 16 04 02 13 28  8.8000000  0  4G28G17G24G18                                    
  24755981.72749 130093562.30549     13354.46949        50.000  

  23624807.24249 124149198.30949     -1099.10249        50.000  

  22554056.85249 118522368.44149     -4122.49249        50.000  

  26365042.23449 138549230.28149     -6596.82849        48.000  

 16 04 02 13 28  8.9000000  0  4G28G17G24G18                                    
  24755727.62549 130092226.99649     13351.65249        50.000  

  23624828.18849 124149308.37149     -1102.43449        50.000  

  22554135.35949 118522780.97349     -4128.28949        50.000  

  26365167.78949 138549890.11349     -6600.18849        48.000  

 16 04 02 13 28  9.0000000  0  4G28G17G24G18                                    
  24755473.57849 130090891.94549     13349.27749        50.000  

  23624849.19549 124149418.74249     -1105.39849        50.000  

  22554213.96149 118523194.04749     -4133.65249        49.000  

  26365293.42249 138550550.27749     -6603.41049        48.000  

 16 04 02 13 28  9.1000000  0  4G28G17G24G18                                    
  24755219.57049 130089557.15649     13346.71949        50.000  

  23624870.25849 124149529.42649     -1108.44149        50.000  

  22554292.67249 118523607.68849     -4139.16849        50.000  

  26365419.10249 138551210.74649     -6606.35249        48.000  

 16 04 02 13 28  9.2000000  0  4G28G17G24G18                                    
  24754965.63349 130088222.69149     13343.25849        50.000  

  23624891.39149 124149640.48849     -1112.52049        50.000  

  22554371.50049 118524021.93849     -4145.53149        50.000  

  26365544.86749 138551871.60949     -6610.43849        48.000  

 16 04 02 13 28  9.3000000  0  4G28G17G24G18                                    
  24754711.73449 130086888.44949     13341.00449        50.000  

  23624912.57049 124149751.82049     -1115.21949        50.000  

  22554450.43049 118524436.71949     -4150.73049        50.000  

  26365670.67249 138552532.75049     -6613.19549        48.000  

 16 04 02 13 28  9.4000000  0  4G28G17G24G18                                    
  24754457.88349 130085554.43849     13338.90649        50.000  

  23624933.81249 124149863.43449     -1117.73449        50.000  

  22554529.46149 118524852.02749     -4155.81249        50.000  

  26365796.53949 138553194.18849     -6616.05149        48.000  

 16 04 02 13 28  9.5000000  0  4G28G17G24G18                                    
  24754204.07049 130084220.70349     13335.99249        50.000  

  23624955.11749 124149975.37149     -1121.19949        50.000  

  22554608.60249 118525267.90249     -4161.71949        49.000  

  26365922.46949 138553855.94949     -6619.57449        48.000  

 16 04 02 13 28  9.6000000  0  4G28G17G24G18                                    
  24753950.32049 130082887.24249     13333.35549        50.000  

  23624976.48449 124150087.64549     -1124.46949        50.000  

  22554687.85249 118525684.35549     -4167.39849        50.000  

  26366048.46149 138554518.05949     -6622.78149        48.000  

 16 04 02 13 28  9.7000000  0  4G28G17G24G18                                    
  24753696.61749 130081554.04749     13330.46949        50.000  

  23624997.90649 124150200.23049     -1127.80549        50.000  

  22554767.21149 118526101.36749     -4173.16449        50.000  

  26366174.52349 138555180.49649     -6626.34049        48.000  

 16 04 02 13 28  9.8000000  0  4G28G17G24G18                                    
  24753442.98449 130080221.21549     13326.96949        50.000  

  23625019.40649 124150313.21949     -1131.78549        50.000  

  22554846.68849 118526519.03549     -4179.74249        50.000  

  26366300.65649 138555843.34849     -6630.31249        48.000  

 16 04 02 13 28  9.9000000  0  4G28G17G24G18                                    
  24753189.41449 130078888.64549     13324.26649        50.000  

  23625040.96949 124150426.53149     -1135.03149        50.000  

  22554926.27349 118526937.27049     -4185.38749        49.000  

  26366426.85249 138556506.53149     -6633.75449        48.000  

 16 04 02 13 28 10.0000000  0  4G28G17G24G18                                    
  24752935.87549 130077556.30949     13322.17649        50.000  

  23625062.58649 124150540.12149     -1137.46949        50.000  

  22555005.96149 118527356.01649     -4190.26249        49.000  

  26366553.10249 138557169.98849     -6636.27349        48.000  

 16 04 02 13 28 36.8000000  0  1G17                                             
  22331771.85949 117354252.55159     -2004.77049        49.000  

 16 04 02 13 28 36.9000000  0  1G17                                             
  22331810.03949 117354453.17249     -2007.91049        49.000  

 16 04 02 13 28 37.0000000  0  1G17                                             
  22331848.26649 117354654.10549     -2010.86349        49.000  

 16 04 02 13 28 37.1000000  0  1G17                                             
  22331886.55549 117354855.28149     -2013.25049        49.000  

 16 04 02 13 28 37.2000000  0  1G17                                             
  22331924.88349 117355056.74249     -2015.89549        49.000  

 16 04 02 13 28 37.3000000  0  1G17                                             
  22331963.28149 117355258.53149     -2019.37949        49.000  

 16 04 02 13 28 37.4000000  0  1G17                                             
  22332001.72749 117355460.66049     -2022.85549        49.000  

 16 04 02 13 28 37.5000000  0  1G17                                             
  22332040.25049 117355663.09449     -2025.98849        49.000  

 16 04 02 13 28 37.6000000  0  1G17                                             
  22332078.82849 117355865.85249     -2029.09849        49.000  

 16 04 02 13 28 37.7000000  0  1G17                                             
  22332117.47749 117356068.92649     -2032.37949        49.000  

 16 04 02 13 28 37.8000000  0  1G17                                             
  22332156.19549 117356272.35549     -2035.88349        49.000  

 16 04 02 13 28 37.9000000  0  1G17                                             
  22332194.96149 117356476.08649     -2038.93849        49.000  

 16 04 02 13 28 38.0000000  0  1G17                                             
  22332233.79749 117356680.14849     -2042.20749        49.000  

 16 04 02 13 28 38.1000000  0  1G17                                             
  22332272.68849 117356884.50449     -2045.02049        49.000  

 16 04 02 13 28 38.2000000  0  1G17                                             
  22332311.62549 117357089.15649     -2048.02749        49.000  

 16 04 02 13 28 38.3000000  0  1G17                                             
  22332350.62549 117357294.11749     -2051.13349        49.000  

 16 04 02 13 28 38.4000000  0  1G17                                             
  22332389.70349 117357499.37149     -2054.07449        49.000  

 16 04 02 13 28 38.5000000  0  1G17                                             
  22332428.82849 117357704.97749     -2057.68449        49.000  

 16 04 02 13 28 38.6000000  0  1G17                                             
  22332468.01649 117357910.89849     -2060.82049        49.000  

 16 04 02 13 28 38.7000000  0  1G17                                             
  22332507.25849 117358117.09849     -2063.64849        49.000  

 16 04 02 13 28 38.8000000  0  1G17                                             
  22332546.58649 117358323.75849     -2068.39149        49.000  

 16 04 02 13 28 38.9000000  0  1G17                                             
  22332585.96149 117358530.69549     -2071.11749        49.000  

 16 04 02 13 28 39.0000000  0  1G17                                             
  22332625.39849 117358737.95349     -2074.31649        49.000  

 16 04 02 13 28 39.1000000  0  1G17                                             
  22332664.89149 117358945.50449     -2077.13349        49.000  

 16 04 02 13 28 39.2000000  0  1G17                                             
  22332704.45349 117359153.41049     -2080.83249        49.000  

 16 04 02 13 28 39.3000000  0  1G17                                             
  22332744.08649 117359361.67649     -2084.22349        49.000  

 16 04 02 13 28 39.4000000  0  1G17                                             
  22332783.77349 117359570.23449     -2087.34449        49.000  

 16 04 02 13 28 39.5000000  0  1G17                                             
  22332823.53149 117359779.15249     -2090.91849        49.000  

 16 04 02 13 28 39.6000000  0  1G17                                             
  22332863.34449 117359988.39849     -2094.17649        49.000  

 16 04 02 13 28 39.7000000  0  1G17                                             
  22332903.21949 117360197.94549     -2097.03549        49.000  

 16 04 02 13 28 39.8000000  0  1G17                                             
  22332943.16449 117360407.78549     -2099.95349        49.000  

 16 04 02 13 28 39.9000000  0  1G17                                             
  22332983.14849 117360617.89849     -2102.72349        49.000  

 16 04 02 13 28 40.0000000  0  1G17                                             
  22333023.20349 117360828.39149     -2106.51249        49.000  

 16 04 02 13 28 40.1000000  0  1G17                                             
  22333063.31249 117361039.17649     -2109.57849        49.000  

 16 04 02 13 28 40.2000000  0  1G17                                             
  22333103.48449 117361250.30549     -2112.80549        49.000  

 16 04 02 13 28 40.3000000  0  1G17                                             
  22333143.71949 117361461.72749     -2115.84449        49.000  

 16 04 02 13 28 40.4000000  0  1G17                                             
  22333184.00049 117361673.42249     -2118.53549        49.000  

 16 04 02 13 28 40.5000000  0  1G17                                             
  22333224.35249 117361885.47749     -2122.11349        49.000  

 16 04 02 13 28 40.6000000  0  1G17                                             
  22333264.78149 117362097.92249     -2126.20749        49.000  

 16 04 02 13 28 40.7000000  0  1G17                                             
  22333305.26649 117362310.68049     -2129.33649        49.000  

 16 04 02 13 28 40.8000000  0  1G17                                             
  22333345.81249 117362523.75449     -2132.46149        49.000  

 16 04 02 13 28 40.9000000  0  1G17                                             
  22333386.41449 117362737.13749     -2135.38749        49.000  

 16 04 02 13 28 41.0000000  0  1G17                                             
  22333427.08649 117362950.81649     -2138.36749        49.000  

 16 04 02 13 28 41.1000000  0  1G17                                             
  22333467.81249 117363164.82849     -2141.69149        49.000  

 16 04 02 13 28 41.2000000  0  1G17                                             
  22333508.60249 117363379.22349     -2145.79349        49.000  

 16 04 02 13 28 41.3000000  0  1G17                                             
  22333549.46949 117363593.96949     -2149.35549        49.000  

 16 04 02 13 28 41.4000000  0  1G17                                             
  22333590.39849 117363809.03549     -2152.36749        49.000  

 16 04 02 13 28 41.5000000  0  1G17                                             
  22333631.39149 117364024.42249     -2155.57449        49.000  

 16 04 02 13 28 41.6000000  0  1G17                                             
  22333672.43049 117364240.12549     -2158.59449        49.000  

 16 04 02 13 28 41.7000000  0  1G17                                             
  22333713.53949 117364456.15249     -2161.95349        49.000  

 16 04 02 13 28 41.8000000  0  1G17                                             
  22333754.73449 117364672.55149     -2165.64549        49.000  

 16 04 02 13 28 41.9000000  0  1G17                                             
  22333795.96149 117364889.20749     -2168.23849        49.000  

 16 04 02 13 28 42.0000000  0  1G17                                             
  22333837.25049 117365106.20749     -2171.43849        49.000  

 16 04 02 13 28 42.1000000  0  1G17                                             
  22333878.60949 117365323.51249     -2174.80949        49.000  

 16 04 02 13 28 42.2000000  0  1G17                                             
  22333920.03149 117365541.16049     -2178.04349        49.000  

 16 04 02 13 28 42.3000000  0  1G17                                             
  22333961.50849 117365759.13749     -2181.51649        49.000  

 16 04 02 13 28 42.4000000  0  1G17                                             
  22334003.03949 117365977.45349     -2184.73849        49.000  

 16 04 02 13 28 42.5000000  0  1G17                                             
  22334044.64849 117366196.11349     -2188.22349        49.000  

 16 04 02 13 28 42.6000000  0  1G17                                             
  22334086.31249 117366415.06649     -2191.32049        49.000  

 16 04 02 13 28 42.7000000  0  1G17                                             
  22334128.04749 117366634.37549     -2194.80149        49.000  

 16 04 02 13 28 42.8000000  0  1G17                                             
  22334169.85249 117366854.04349     -2198.11749        49.000  

 16 04 02 13 28 42.9000000  0  1G17                                             
  22334211.70349 117367073.97749     -2201.11349        49.000  

 16 04 02 13 28 43.0000000  0  1G17                                             
  22334253.61749 117367294.21949     -2203.91849        49.000  

 16 04 02 13 28 43.1000000  0  1G17                                             
  22334295.59449 117367514.84049     -2207.96149        49.000  

 16 04 02 13 28 43.2000000  0  1G17                                             
  22334337.63349 117367735.74249     -2210.65249        49.000  

 16 04 02 13 28 43.3000000  0  1G17                                             
  22334379.71949 117367956.91449     -2213.39549        49.000  

 16 04 02 13 28 43.4000000  0  1G17                                             
  22334421.87549 117368178.49249     -2217.27049        49.000  

 16 04 02 13 28 43.5000000  0  1G17                                             
  22334464.08649 117368400.31249     -2219.76649        49.000  

 16 04 02 13 28 43.6000000  0  1G17                                             
  22334506.37549 117368622.50849     -2223.54749        49.000  

 16 04 02 13 28 43.7000000  0  2G24G17                                          
  21286721.83649 111862477.48459     -6104.32049        49.000  

  22334548.71149 117368844.99649     -2226.66049        49.000  

 16 04 02 13 28 43.8000000  0  2G24G17                                          
  21286838.04749 111863088.18049     -6109.59849        49.000  

  22334591.10249 117369067.78149     -2229.44949        49.000  

 16 04 02 13 28 43.9000000  0  2G24G17                                          
  21286954.40649 111863699.53549     -6116.23449        49.000  

  22334633.57049 117369290.97749     -2233.53149        49.000  

 16 04 02 13 28 44.0000000  0  2G24G17                                          
  21287070.84449 111864311.43049     -6121.93449        49.000  

  22334676.09449 117369514.48449     -2236.96549        49.000  

 16 04 02 13 28 44.1000000  0  2G24G17                                          
  21287187.40649 111864923.93849     -6127.70349        49.000  

  22334718.69549 117369738.34849     -2240.27349        49.000  

 16 04 02 13 28 44.2000000  0  2G24G17                                          
  21287304.07049 111865537.03949     -6133.87549        49.000  

  22334761.37549 117369962.55949     -2243.97349        49.000  

 16 04 02 13 28 44.3000000  0  2G24G17                                          
  21287420.83649 111866150.65649     -6138.80149        49.000  

  22334804.09449 117370187.06249     -2246.65249        49.000  

 16 04 02 13 28 44.4000000  0  2G24G17                                          
  21287537.71149 111866764.83649     -6144.39149        49.000  

  22334846.87549 117370411.85549     -2249.55549        49.000  

 16 04 02 13 28 44.5000000  0  2G24G17                                          
  21287654.68849 111867379.62949     -6150.72749        49.000  

  22334889.72749 117370637.04349     -2253.55949        49.000  

 16 04 02 13 28 44.6000000  0  2G24G17                                          
  21287771.78149 111867994.95749     -6155.91049        49.000  

  22334932.64149 117370862.50849     -2256.23449        49.000  

 16 04 02 13 28 44.7000000  0  2G24G17                                          
  21287888.99249 111868610.87149     -6161.97349        49.000  

  22334975.60949 117371088.31649     -2259.92649        49.000  

 16 04 02 13 28 44.8000000  0  2G24G17                                          
  21288006.30549 111869227.35949     -6167.48849        49.000  

  22335018.64849 117371314.46149     -2262.94549        49.000  

 16 04 02 13 28 44.9000000  0  2G24G17                                          
  21288123.75849 111869844.35949     -6172.69949        49.000  

  22335061.73449 117371540.87149     -2265.81649        49.000  

 16 04 02 13 28 45.0000000  0  2G24G17                                          
  21288241.28949 111870462.00849     -6179.10549        49.000  

  22335104.89149 117371767.68449     -2269.78949        49.000  

 16 04 02 13 28 45.1000000  0  2G24G17                                          
  21288358.92249 111871080.17249     -6184.39549        49.000  

  22335148.10249 117371994.77349     -2272.55549        49.000  

 16 04 02 13 28 45.2000000  0  2G24G17                                          
  21288476.64849 111871698.82049     -6189.10949        49.000  

  22335191.35249 117372222.09449     -2274.68049        49.000  

 16 04 02 13 28 45.3000000  0  2G24G17                                          
  21288594.49249 111872318.15649     -6196.13349        49.000  

  22335234.69549 117372449.87149     -2279.44949        49.000  

 16 04 02 13 28 45.4000000  0  2G24G17                                          
  21288712.46149 111872938.07049     -6201.92649        49.000  

  22335278.10249 117372677.98849     -2282.90249        49.000  

 16 04 02 13 28 45.5000000  0  2G24G17                                          
  21288830.54749 111873558.49249     -6207.05149        49.000  

  22335321.55549 117372906.35549     -2285.45749        49.000  

 16 04 02 13 28 45.6000000  0  2G24G17                                          
  21288948.71949 111874179.51649     -6212.98449        49.000  

  22335365.09449 117373135.09049     -2288.97349        49.000  

 16 04 02 13 28 45.7000000  0  2G24G17                                          
  21289066.99249 111874801.10549     -6218.51649        49.000  

  22335408.68049 117373364.14149     -2292.07449        49.000  

 16 04 02 13 28 45.8000000  0  2G24G17                                          
  21289185.37549 111875423.23049     -6223.86349        49.000  

  22335452.31249 117373593.49249     -2295.11349        49.000  

 16 04 02 13 28 45.9000000  0  2G24G17                                          
  21289303.87549 111876045.92649     -6229.59449        49.000  

  22335496.01649 117373823.16049     -2298.32449        49.000  

 16 04 02 13 28 46.0000000  0  2G24G17                                          
  21289422.47749 111876669.17649     -6235.11749        49.000  

  22335539.79749 117374053.14149     -2301.45349        49.000  

 16 04 02 13 28 46.1000000  0  2G24G17                                          
  21289541.18049 111877292.98849     -6240.86749        49.000  

  22335583.61749 117374283.44549     -2304.87549        49.000  

 16 04 02 13 28 46.2000000  0  2G24G17                                          
  21289660.00049 111877917.39849     -6246.78949        49.000  

  22335627.50849 117374514.09849     -2308.27749        49.000  

 16 04 02 13 28 46.3000000  0  2G24G17                                          
  21289778.93049 111878542.30949     -6251.68449        49.000  

  22335671.44549 117374745.00449     -2310.60949        49.000  

 16 04 02 13 28 46.4000000  0  2G24G17                                          
  21289897.96949 111879167.87949     -6258.42649        49.000  

  22335715.45349 117374976.33649     -2315.01649        49.000  

 16 04 02 13 28 46.5000000  0  2G24G17                                          
  21290017.12549 111879794.00049     -6264.00449        49.000  

  22335759.53949 117375207.96949     -2318.05549        49.000  

 16 04 02 13 28 46.6000000  0  2G24G17                                          
  21290136.36749 111880420.65249     -6269.19949        49.000  

  22335803.65649 117375439.89849     -2320.86349        49.000  

 16 04 02 13 28 46.7000000  0  2G24G17                                          
  21290255.71949 111881047.87149     -6274.85549        49.000  

  22335847.85249 117375672.14149     -2324.11749        49.000  

 16 04 02 13 28 46.8000000  0  2G24G17                                          
  21290375.19549 111881675.71949     -6281.19949        49.000  

  22335892.12549 117375904.78149     -2328.17249        49.000  

 16 04 02 13 28 46.9000000  0  2G24G17                                          
  21290494.77349 111882304.10949     -6286.72749        49.000  

  22335936.44549 117376137.71149     -2331.04749        49.000  

 16 04 02 13 28 47.0000000  0  2G24G17                                          
  21290614.46149 111882933.05949     -6292.15249        49.000  

  22335980.83649 117376370.95749     -2334.05149        49.000  

 16 04 02 13 28 47.1000000  0  2G24G17                                          
  21290734.25049 111883562.48849     -6296.93849        49.000  

  22336025.26649 117376604.45349     -2336.58649        49.000  

 16 04 02 13 28 47.2000000  0  2G24G17                                          
  21290854.15649 111884192.59849     -6303.76649        49.000  

  22336069.76649 117376838.35949     -2340.86349        49.000  

 16 04 02 13 28 47.3000000  0  2G24G17                                          
  21290974.18849 111884823.26649     -6309.46549        49.000  

  22336114.33649 117377072.60249     -2344.10949        49.000  

 16 04 02 13 28 47.4000000  0  2G24G17                                          
  21291094.30549 111885454.48449     -6315.02049        49.000  

  22336158.96949 117377307.15249     -2347.19149        49.000  

 16 04 02 13 28 47.5000000  0  2G24G17                                          
  21291214.55549 111886086.29749     -6320.71549        49.000  

  22336203.67249 117377542.05149     -2350.57049        49.000  

 16 04 02 13 28 47.6000000  0  2G24G17                                          
  21291334.89149 111886718.65249     -6326.09449        49.000  

  22336248.42249 117377777.23849     -2353.43049        49.000  

 16 04 02 13 28 47.7000000  0  2G24G17                                          
  21291455.32849 111887351.53949     -6331.41449        49.000  

  22336293.22749 117378012.71949     -2356.26249        49.000  

 16 04 02 13 28 47.8000000  0  2G24G17                                          
  21291575.88349 111887985.04349     -6337.86749        49.000  

  22336338.10949 117378248.58249     -2360.36749        49.000  

 16 04 02 13 28 47.9000000  0  2G24G17                                          
  21291696.55549 111888619.17649     -6344.03949        49.000  

  22336383.07049 117378484.82449     -2364.13749        49.000  

 16 04 02 13 28 48.0000000  0  2G24G17                                          
  21291817.31249 111889253.78549     -6348.51249        49.000  

  22336428.06249 117378721.30149     -2366.13749        49.000  

 16 04 02 13 28 48.1000000  0  2G24G17                                          
  21291938.20349 111889888.92249     -6354.05149        49.000  

  22336473.10949 117378958.05549     -2369.12549        49.000  

 16 04 02 13 28 48.2000000  0  2G24G17                                          
  21292059.18049 111890524.62149     -6359.60249        49.000  

  22336518.21949 117379195.13749     -2372.41449        49.000  

 16 04 02 13 28 48.3000000  0  2G24G17                                          
  21292180.28149 111891160.92649     -6365.75049        49.000  

  22336563.40649 117379432.57449     -2376.10549        49.000  

 16 04 02 13 28 48.4000000  0  2G24G17                                          
  21292301.47749 111891797.84849     -6371.97749        49.000  

  22336608.65649 117379670.38749     -2379.86749        49.000  

 16 04 02 13 28 48.5000000  0  2G24G17                                          
  21292422.76649 111892435.27049     -6377.13349        49.000  

  22336653.96149 117379908.46149     -2382.53549        49.000  

 16 04 02 13 28 48.6000000  0  2G24G17                                          
  21292544.18049 111893073.30549     -6382.87149        49.000  

  22336699.32049 117380146.91049     -2386.12149        49.000  

 16 04 02 13 28 48.7000000  0  2G24G17                                          
  21292665.68049 111893711.81649     -6387.74249        49.000  

  22336744.74249 117380385.58649     -2388.21949        49.000  

 16 04 02 13 28 48.8000000  0  2G24G17                                          
  21292787.30549 111894350.99649     -6394.44549        49.000  

  22336790.25049 117380624.68049     -2392.57049        49.000  

 16 04 02 13 28 48.9000000  0  2G24G17                                          
  21292909.04749 111894990.71549     -6399.98849        49.000  

  22336835.80549 117380864.07849     -2395.57049        49.000  

 16 04 02 13 28 49.0000000  0  2G24G17                                          
  21293030.89149 111895631.00849     -6405.66049        49.000  

  22336881.43049 117381103.80949     -2399.12149        49.000  

 16 04 02 13 28 49.1000000  0  2G24G17                                          
  21293152.83649 111896271.88749     -6411.40649        49.000  

  22336927.11749 117381343.87549     -2402.27349        49.000  

 16 04 02 13 28 49.2000000  0  2G24G17                                          
  21293274.89149 111896913.28549     -6416.68849        49.000  

  22336972.84449 117381584.21949     -2405.16049        49.000  

 16 04 02 13 28 49.3000000  0  2G24G17                                          
  21293397.07049 111897555.27349     -6422.44949        49.000  

  22337018.64149 117381824.91449     -2408.47349        49.000  

 16 04 02 13 28 49.4000000  0  2G24G17                                          
  21293519.34449 111898197.85949     -6428.72349        49.000  

  22337064.51649 117382065.96149     -2412.37549        49.000  

 16 04 02 13 28 49.5000000  0  2G24G17                                          
  21293641.75049 111898841.02349     -6434.43049        49.000  

  22337110.45349 117382307.34849     -2415.61349        49.000  

 16 04 02 13 28 49.6000000  0  2G24G17                                          
  21293764.25049 111899484.75849     -6440.07449        49.000  

  22337156.44549 117382549.05549     -2418.81249        49.000  

 16 04 02 13 28 49.7000000  0  2G24G17                                          
  21293886.85949 111900129.00049     -6444.96949        49.000  

  22337202.49249 117382791.02349     -2421.19949        49.000  

 16 04 02 13 28 49.8000000  0  2G24G17                                          
  21294009.57049 111900773.85549     -6451.09449        49.000  

  22337248.60249 117383033.37949     -2424.96149        49.000  

 16 04 02 13 28 49.9000000  0  2G24G17                                          
  21294132.38349 111901419.21549     -6456.24249        49.000  

  22337294.76649 117383275.98049     -2427.64849        49.000  

 16 04 02 13 28 50.0000000  0  2G24G17                                          
  21294255.30549 111902065.17649     -6462.21149        49.000  

  22337341.00049 117383518.94549     -2431.22349        49.000  

 16 04 02 13 28 50.1000000  0  2G24G17                                          
  21294378.34449 111902711.69549     -6467.73449        49.000  

  22337387.29749 117383762.22749     -2434.31649        49.000  

 16 04 02 13 28 50.2000000  0  2G24G17                                          
  21294501.47749 111903358.75449     -6473.18449        49.000  

  22337433.64849 117384005.79749     -2437.39549        49.000  

 16 04 02 13 28 50.3000000  0  2G24G17                                          
  21294624.70349 111904006.40249     -6479.26649        49.000  

  22337480.06249 117384249.72349     -2441.04349        49.000  

 16 04 02 13 28 50.4000000  0  2G24G17                                          
  21294748.06249 111904654.65249     -6485.12149        49.000  

  22337526.55549 117384494.00049     -2444.35949        49.000  

 16 04 02 13 28 50.5000000  0  2G24G17                                          
  21294871.53149 111905303.44149     -6490.66049        49.000  

  22337573.09449 117384738.57849     -2447.61749        49.000  

 16 04 02 13 28 50.6000000  0  2G24G17                                          
  21294995.10949 111905952.84449     -6496.65249        49.000  

  22337619.71149 117384983.51649     -2450.87549        49.000  

 16 04 02 13 28 50.7000000  0  2G24G17                                          
  21295118.78949 111906602.75049     -6501.85249        49.000  

  22337666.37549 117385228.73449     -2453.88749        49.000  

 16 04 02 13 28 50.8000000  0  2G24G17                                          
  21295242.57849 111907253.26649     -6507.70749        49.000  

  22337713.10949 117385474.30949     -2457.26249        49.000  

 16 04 02 13 28 50.9000000  0  2G24G17                                          
  21295366.48449 111907904.39549     -6514.08649        49.000  

  22337759.91449 117385720.25049     -2461.27049        49.000  

 16 04 02 13 28 51.0000000  0  2G24G17                                          
  21295490.50049 111908556.12949     -6520.14849        49.000  

  22337806.77349 117385966.55949     -2464.90649        49.000  

 16 04 02 13 28 51.1000000  0  2G24G17                                          
  21295614.60949 111909208.40249     -6525.35249        49.000  

  22337853.70349 117386213.15649     -2467.55549        49.000  

 16 04 02 13 28 51.2000000  0  2G24G17                                          
  21295738.82849 111909861.16049     -6530.18849        49.000  

  22337900.66449 117386460.00849     -2470.05149        49.000  

 16 04 02 13 28 51.3000000  0  2G24G17                                          
  21295863.14849 111910514.51249     -6536.05949        49.000  

  22337947.70349 117386707.18849     -2473.34449        49.000  

 16 04 02 13 28 51.4000000  0  2G24G17                                          
  21295987.58649 111911168.43049     -6541.77349        49.000  

  22337994.80549 117386954.73449     -2476.93449        49.000  

 16 04 02 13 28 51.5000000  0  2G24G17                                          
  21296112.14149 111911822.90649     -6547.41049        49.000  

  22338041.96149 117387202.55949     -2479.97349        49.000  

 16 04 02 13 28 51.6000000  0  2G24G17                                          
  21296236.79749 111912477.96949     -6553.29349        49.000  

  22338089.18849 117387450.73449     -2483.50449        49.000  

 16 04 02 13 28 51.7000000  0  2G24G17                                          
  21296361.54749 111913133.56649     -6558.51649        49.000  

  22338136.46949 117387699.20749     -2486.24649        49.000  

 16 04 02 13 28 51.8000000  0  2G24G17                                          
  21296486.40649 111913789.72349     -6564.18049        49.000  

  22338183.80549 117387948.00049     -2489.55949        49.000  

 16 04 02 13 28 51.9000000  0  2G24G17                                          
  21296611.35949 111914446.41049     -6569.46149        49.000  

  22338231.20349 117388197.07049     -2492.37149        49.000  

 16 04 02 13 28 52.0000000  0  2G24G17                                          
  21296736.43849 111915103.70349     -6575.41849        49.000  

  22338278.66449 117388446.50449     -2495.81249        49.000  

 16 04 02 13 28 52.1000000  0  2G24G17                                          
  21296861.64149 111915761.56249     -6581.39849        49.000  

  22338326.19549 117388696.25849     -2499.31649        49.000  

 16 04 02 13 28 52.2000000  0  2G24G17                                          
  21296986.93849 111916420.00049     -6587.13749        49.000  

  22338373.78149 117388946.35549     -2502.62149        49.000  

 16 04 02 13 28 52.3000000  0  2G24G17                                          
  21297112.34449 111917079.05149     -6593.28149        49.000  

  22338421.44549 117389196.82449     -2506.45349        49.000  

 16 04 02 13 28 52.4000000  0  2G24G17                                          
  21297237.86749 111917738.64849     -6598.71149        49.000  

  22338469.15649 117389447.58249     -2509.23049        49.000  

 16 04 02 13 28 52.5000000  0  2G24G17                                          
  21297363.50049 111918398.78549     -6604.15249        49.000  

  22338516.93849 117389698.66049     -2512.46949        49.000  

 16 04 02 13 28 52.6000000  0  2G24G17                                          
  21297489.24249 111919059.57449     -6610.43449        49.000  

  22338564.78949 117389950.13349     -2516.35549        49.000  

 16 04 02 13 28 52.7000000  0  2G24G17                                          
  21297615.07049 111919720.84449     -6615.41449        49.000  

  22338612.68849 117390201.83649     -2518.67649        49.000  

 16 04 02 13 28 52.8000000  0  2G24G17                                          
  21297741.00849 111920382.67249     -6620.72349        49.000  

  22338660.64849 117390453.86749     -2521.65249        49.000  

 16 04 02 13 28 52.9000000  0  2G24G17                                          
  21297867.07049 111921045.09849     -6626.90249        49.000  

  22338708.67249 117390706.26649     -2525.64149        49.000  

 16 04 02 13 28 53.0000000  0  2G24G17                                          
  21297993.24249 111921708.10549     -6632.71949        49.000  

  22338756.76649 117390958.98849     -2528.90649        49.000  

 16 04 02 13 28 53.1000000  0  2G24G17                                          
  21298119.50849 111922371.63349     -6637.96149        49.000  

  22338804.90649 117391211.98049     -2531.62549        49.000  

 16 04 02 13 28 53.2000000  0  2G24G17                                          
  21298245.89149 111923035.77349     -6644.08649        49.000  

  22338853.12549 117391465.35549     -2535.44949        49.000  

 16 04 02 13 28 53.3000000  0  2G24G17                                          
  21298372.37549 111923700.45749     -6649.63749        49.000  

  22338901.39849 117391719.02349     -2538.46949        49.000  

 16 04 02 13 28 53.4000000  0  2G24G17                                          
  21298498.96149 111924365.67649     -6654.76649        49.000  

  22338949.71949 117391972.98849     -2541.22749        49.000  

 16 04 02 13 28 53.5000000  0  2G24G17                                          
  21298625.65649 111925031.48049     -6660.72349        49.000  

  22338998.10949 117392227.29349     -2544.71949        49.000  

 16 04 02 13 28 53.6000000  0  2G24G17                                          
  21298752.46149 111925697.83249     -6666.16049        49.000  

  22339046.54749 117392481.90249     -2547.66049        49.000  

 16 04 02 13 28 53.7000000  0  2G24G17                                          
  21298879.38349 111926364.79349     -6672.38349        49.000  

  22339095.06249 117392736.87949     -2551.57849        49.000  

 16 04 02 13 28 53.8000000  0  2G24G17                                          
  21299006.41449 111927032.36749     -6678.47349        49.000  

  22339143.66449 117392992.23049     -2555.18049        49.000  

 16 04 02 13 28 53.9000000  0  2G24G17                                          
  21299133.54749 111927700.43049     -6683.34449        49.000  

  22339192.30549 117393247.82449     -2557.59849        49.000  

 16 04 02 13 28 54.0000000  0  2G24G17                                          
  21299260.78949 111928369.09849     -6689.34049        49.000  

  22339241.00849 117393503.77349     -2561.06649        49.000  

 16 04 02 13 28 54.1000000  0  2G24G17                                          
  21299388.13349 111929038.35549     -6695.37949        49.000  

  22339289.78149 117393760.08249     -2564.92649        49.000  

 16 04 02 13 28 54.2000000  0  2G24G17                                          
  21299515.60249 111929708.19949     -6701.00849        49.000  

  22339338.62549 117394016.72349     -2567.88349        49.000  

 16 04 02 13 28 54.3000000  0  2G24G17                                          
  21299643.18849 111930378.61349     -6706.91049        49.000  

  22339387.52349 117394273.69549     -2571.50849        49.000  

 16 04 02 13 28 54.4000000  0  2G24G17                                          
  21299770.87549 111931049.63749     -6713.12949        49.000  

  22339436.49249 117394531.03549     -2575.22349        49.000  

 16 04 02 13 28 54.5000000  0  2G24G17                                          
  21299898.66449 111931721.14849     -6717.82049        49.000  

  22339485.50849 117394788.62149     -2577.44149        49.000  

 16 04 02 13 28 54.6000000  0  2G24G17                                          
  21300026.55549 111932393.19549     -6722.91449        49.000  

  22339534.59449 117395046.50849     -2580.24249        49.000  

 16 04 02 13 28 54.7000000  0  2G24G17                                          
  21300154.57049 111933065.85549     -6729.39849        49.000  

  22339583.73449 117395304.74649     -2584.20349        49.000  

 16 04 02 13 28 54.8000000  0  2G24G17                                          
  21300282.68849 111933739.10249     -6735.03149        49.000  

  22339632.94549 117395563.35249     -2587.53149        49.000  

 16 04 02 13 28 54.9000000  0  2G24G17                                          
  21300410.89149 111934412.85949     -6740.24249        49.000  

  22339682.20349 117395822.20749     -2590.24649        49.000  

 16 04 02 13 28 55.0000000  0  2G24G17                                          
  21300539.21149 111935087.20749     -6746.08249        49.000  

  22339731.53949 117396081.41449     -2593.62949        49.000  

 16 04 02 13 28 55.1000000  0  2G24G17                                          
  21300667.63349 111935762.12149     -6751.80949        49.000  

  22339780.92249 117396340.95349     -2597.04349        49.000  

 16 04 02 13 28 55.2000000  0  2G24G17                                          
  21300796.17249 111936437.60249     -6757.51649        49.000  

  22339830.35949 117396600.79349     -2600.05949        49.000  

 16 04 02 13 28 55.3000000  0  2G24G17                                          
  21300924.79749 111937113.60549     -6762.64149        49.000  

  22339879.86749 117396860.94949     -2603.05949        49.000  

 16 04 02 13 28 55.4000000  0  2G24G17                                          
  21301053.54749 111937790.16849     -6768.32449        49.000  

  22339929.43849 117397121.39849     -2606.25849        49.000  

 16 04 02 13 28 55.5000000  0  2G24G17                                          
  21301182.40649 111938467.37149     -6774.59849        49.000  

  22339979.07049 117397382.25449     -2610.07449        49.000  

 16 04 02 13 28 55.6000000  0  2G24G17                                          
  21301311.36749 111939145.07849     -6779.73449        49.000  

  22340028.76649 117397643.36349     -2612.79349        49.000  

 16 04 02 13 28 55.7000000  0  2G24G17                                          
  21301440.43849 111939823.33649     -6785.13749        49.000  

  22340078.50849 117397904.78149     -2615.75049        49.000  

 16 04 02 13 28 55.8000000  0  2G24G17                                          
  21301569.62549 111940502.21949     -6791.52049        49.000  

  22340128.33649 117398166.59049     -2619.75449        49.000  

 16 04 02 13 28 55.9000000  0  2G24G17                                          
  21301698.91449 111941181.65649     -6797.03549        49.000  

  22340178.21149 117398428.69949     -2622.74249        49.000  

 16 04 02 13 28 56.0000000  0  2G24G17                                          
  21301828.31249 111941861.62549     -6802.31249        49.000  

  22340228.14849 117398691.10549     -2625.64849        49.000  

 16 04 02 13 28 56.1000000  0  2G24G17                                          
  21301957.80549 111942542.14149     -6807.82449        49.000  

  22340278.14149 117398953.81249     -2628.67649        49.000  

 16 04 02 13 28 56.2000000  0  2G24G17                                          
  21302087.43049 111943223.29349     -6814.34449        49.000  

  22340328.20349 117399216.92249     -2632.88749        49.000  

 16 04 02 13 28 56.3000000  0  2G24G17                                          
  21302217.13349 111943904.94949     -6819.25849        49.000  

  22340378.32049 117399480.28149     -2635.26249        49.000  

 16 04 02 13 28 56.4000000  0  2G24G17                                          
  21302346.96149 111944587.16849     -6824.86349        49.000  

  22340428.49249 117399743.97349     -2638.64149        49.000  

 16 04 02 13 28 56.5000000  0  2G24G17                                          
  21302476.91449 111945270.00049     -6830.83649        49.000  

  22340478.74249 117400008.02349     -2642.04749        49.000  

 16 04 02 13 28 56.6000000  0  2G24G17                                          
  21302606.94549 111945953.33249     -6835.98449        49.000  

  22340529.04749 117400272.33649     -2644.74649        49.000  

 16 04 02 13 28 56.7000000  0  2G24G17                                          
  21302737.07849 111946637.25849     -6841.78549        49.000  

  22340579.41449 117400537.00449     -2648.13349        49.000  

 16 04 02 13 28 56.8000000  0  2G24G17                                          
  21302867.32849 111947321.76249     -6847.88749        49.000  

  22340629.83649 117400802.00449     -2651.97349        49.000  

 16 04 02 13 28 56.9000000  0  2G24G17                                          
  21302997.71949 111948006.92649     -6854.44549        49.000  

  22340680.34449 117401067.41849     -2655.86749        49.000  

 16 04 02 13 28 57.0000000  0  2G24G17                                          
  21303128.19549 111948692.59449     -6859.35949        49.000  

  22340730.89849 117401333.09849     -2658.38749        50.000  

 16 04 02 13 28 57.1000000  0  2G24G17                                          
  21303258.78949 111949378.78949     -6864.66849        49.000  

  22340781.50849 117401599.05949     -2661.31249        49.000  

 16 04 02 13 28 57.2000000  0  2G24G17                                          
  21303389.48449 111950065.60949     -6870.69949        49.000  

  22340832.20349 117401865.41449     -2665.06249        49.000  

 16 04 02 13 28 57.3000000  0  2G24G17                                          
  21303520.28149 111950752.93849     -6875.85249        49.000  

  22340882.93849 117402132.02349     -2667.71149        49.000  

 16 04 02 13 28 57.4000000  0  2G24G17                                          
  21303651.18049 111951440.84049     -6881.53549        49.000  

  22340933.73449 117402398.96149     -2670.91049        50.000  

 16 04 02 13 28 57.5000000  0  2G24G17                                          
  21303782.21149 111952129.36749     -6887.74649        49.000  

  22340984.60949 117402666.28149     -2674.63349        50.000  

 16 04 02 13 28 57.6000000  0  2G24G17                                          
  21303913.33649 111952818.41049     -6893.31249        49.000  

  22341035.52349 117402933.89549     -2677.94949        50.000  

 16 04 02 13 28 57.7000000  0  2G24G17                                          
  21304044.56249 111953508.06649     -6899.24649        49.000  

  22341086.51649 117403201.85949     -2681.31649        50.000  

 16 04 02 13 28 57.8000000  0  2G24G17                                          
  21304175.89849 111954198.24249     -6904.31649        49.000  

  22341137.56249 117403470.10249     -2683.97349        50.000  

 16 04 02 13 28 57.9000000  0  2G24G17                                          
  21304307.34449 111954888.98849     -6910.13349        49.000  

  22341188.67249 117403738.68449     -2687.43849        50.000  

 16 04 02 13 28 58.0000000  0  2G24G17                                          
  21304438.89149 111955580.27749     -6915.62549        49.000  

  22341239.85249 117404007.56649     -2690.52049        50.000  

 16 04 02 13 28 58.1000000  0  2G24G17                                          
  21304570.54749 111956272.18449     -6921.61349        49.000  

  22341291.08649 117404276.81249     -2694.02049        50.000  

 16 04 02 13 28 58.2000000  0  2G24G17                                          
  21304702.31249 111956964.61349     -6926.87149        49.000  

  22341342.37549 117404546.34449     -2696.90249        49.000  

 16 04 02 13 28 58.3000000  0  2G24G17                                          
  21304834.18049 111957657.57849     -6932.37949        49.000  

  22341393.72749 117404816.17249     -2699.99249        49.000  

 16 04 02 13 28 58.4000000  0  2G24G17                                          
  21304966.16449 111958351.16049     -6938.46949        49.000  

  22341445.13349 117405086.36349     -2703.50049        49.000  

 16 04 02 13 28 58.5000000  0  2G24G17                                          
  21305098.25049 111959045.25849     -6943.68049        49.000  

  22341496.60949 117405356.84449     -2706.42649        49.000  

 16 04 02 13 28 58.6000000  0  2G24G17                                          
  21305230.43849 111959739.91449     -6949.12549        49.000  

  22341548.13349 117405627.62949     -2709.35549        49.000  

 16 04 02 13 28 58.7000000  0  2G24G17                                          
  21305362.75049 111960435.21149     -6955.55949        49.000  

  22341599.73449 117405898.82449     -2713.41849        49.000  

 16 04 02 13 28 58.8000000  0  2G24G17                                          
  21305495.17249 111961131.09449     -6961.80549        49.000  

  22341651.40649 117406170.35949     -2717.29749        49.000  

 16 04 02 13 28 58.9000000  0  2G24G17                                          
  21305627.70349 111961827.55149     -6967.41849        49.000  

  22341703.14149 117406442.21949     -2720.44549        49.000  

 16 04 02 13 28 59.0000000  0  2G24G17                                          
  21305760.34449 111962524.56649     -6972.93849        49.000  

  22341754.93849 117406714.39849     -2723.46949        49.000  

 16 04 02 13 28 59.1000000  0  2G24G17                                          
  21305893.07849 111963222.10549     -6978.04349        49.000  

  22341806.78149 117406986.87149     -2726.32049        49.000  

 16 04 02 13 28 59.2000000  0  2G24G17                                          
  21306025.93049 111963920.23449     -6983.80949        49.000  

  22341858.68849 117407259.67249     -2729.58249        49.000  

 16 04 02 13 28 59.3000000  0  2G24G17                                          
  21306158.88349 111964618.90249     -6989.28149        49.000  

  22341910.65649 117407532.77749     -2732.53949        50.000  

 16 04 02 13 28 59.4000000  0  2G24G17                                          
  21306291.94549 111965318.14849     -6995.03549        49.000  

  22341962.68849 117407806.22749     -2735.99249        49.000  

 16 04 02 13 28 59.5000000  0  2G24G17                                          
  21306425.10949 111966017.97749     -7000.89549        49.000  

  22342014.78949 117408080.00849     -2739.52049        49.000  

 16 04 02 13 28 59.6000000  0  2G24G17                                          
  21306558.40649 111966718.44549     -7007.47349        49.000  

  22342066.96949 117408354.18849     -2743.57049        49.000  

 16 04 02 13 28 59.7000000  0  2G24G17                                          
  21306691.80549 111967419.44549     -7012.78949        49.000  

  22342119.19549 117408628.65249     -2746.53549        49.000  

 16 04 02 13 28 59.8000000  0  2G24G17                                          
  21306825.31249 111968121.04749     -7018.70349        49.000  

  22342171.48449 117408903.47749     -2749.87149        50.000  

 16 04 02 13 28 59.9000000  0  2G24G17                                          
  21306958.91449 111968823.16049     -7023.80549        49.000  

  22342223.84449 117409178.60249     -2752.85249        50.000  

 16 04 02 13 29  0.0000000  0  2G24G17                                          
  21307092.64149 111969525.87149     -7029.63749        49.000  

  22342276.25049 117409454.03949     -2755.99249        50.000  

 16 04 02 13 29  0.1000000  0  2G24G17                                          
  21307226.46949 111970229.09449     -7034.81649        49.000  

  22342328.71949 117409729.75449     -2758.78149        50.000  

 16 04 02 13 29  0.2000000  0  2G24G17                                          
  21307360.41449 111970932.98849     -7041.67649        49.000  

  22342381.27349 117410005.91849     -2763.16449        50.000  

 16 04 02 13 29  0.3000000  0  2G24G17                                          
  21307494.45349 111971637.37949     -7046.78549        49.000  

  22342433.87549 117410282.32849     -2765.99649        50.000  

 16 04 02 13 29  0.4000000  0  2G24G17                                          
  21307628.60949 111972342.36749     -7052.59049        49.000  

  22342486.53949 117410559.07849     -2769.15249        50.000  

 16 04 02 13 29  0.5000000  0  2G24G17                                          
  21307762.85949 111973047.86749     -7057.54749        49.000  

  22342539.25849 117410836.12549     -2772.03149        50.000  

 16 04 02 13 29  0.6000000  0  2G24G17                                          
  21307897.23449 111973753.98849     -7063.69549        49.000  

  22342592.04749 117411113.53549     -2775.60249        50.000  

 16 04 02 13 29  0.7000000  0  2G24G17                                          
  21308031.70349 111974460.66449     -7069.47749        49.000  

  22342644.89849 117411391.25849     -2778.92649        50.000  

 16 04 02 13 29  0.8000000  0  2G24G17                                          
  21308166.28149 111975167.88749     -7074.82849        49.000  

  22342697.79749 117411669.28949     -2781.78949        50.000  

 16 04 02 13 29  0.9000000  0  2G24G17                                          
  21308300.96149 111975875.60949     -7079.88749        49.000  

  22342750.75049 117411947.58249     -2784.58249        50.000  

 16 04 02 13 29  1.0000000  0  2G24G17                                          
  21308435.75849 111976583.96949     -7086.04349        49.000  

  22342803.79749 117412226.25449     -2788.24649        50.000  

 16 04 02 13 29  1.1000000  0  2G24G17                                          
  21308570.67249 111977292.91049     -7092.13349        49.000  

  22342856.89149 117412505.28549     -2792.07449        50.000  

 16 04 02 13 29  1.2000000  0  2G24G17                                          
  21308705.68849 111978002.41849     -7097.68449        49.000  

  22342910.04749 117412784.62149     -2794.86749        50.000  

 16 04 02 13 29  1.3000000  0  2G24G17                                          
  21308840.80549 111978712.48849     -7103.38749        49.000  

  22342963.26649 117413064.28549     -2798.19549        50.000  

 16 04 02 13 29  1.4000000  0  2G24G17                                          
  21308976.03149 111979423.07849     -7108.53949        49.000  

  22343016.53949 117413344.24649     -2801.13749        50.000  

 16 04 02 13 29  1.5000000  0  2G24G17                                          
  21309111.37549 111980134.29749     -7114.82449        49.000  

  22343069.88349 117413624.56249     -2804.83649        50.000  

 16 04 02 13 29  1.6000000  0  2G24G17                                          
  21309246.82049 111980846.06249     -7120.22749        49.000  

  22343123.27349 117413905.20349     -2807.94949        50.000  

 16 04 02 13 29  1.7000000  0  2G24G17                                          
  21309382.35949 111981558.32849     -7125.29349        49.000  

  22343176.72749 117414186.09849     -2810.53549        50.000  

 16 04 02 13 29  1.8000000  0  2G24G17                                          
  21309518.01649 111982271.21149     -7131.39549        49.000  

  22343230.24249 117414467.37149     -2814.29749        50.000  

 16 04 02 13 29  1.9000000  0  2G24G17                                          
  21309653.78949 111982984.68049     -7137.44549        49.000  

  22343283.83649 117414748.98849     -2817.88749        50.000  

 16 04 02 13 29  2.0000000  0  2G24G17                                          
  21309789.66449 111983698.69149     -7142.88349        49.000  

  22343337.48449 117415030.90249     -2820.90249        50.000  

 16 04 02 13 29  2.1000000  0  2G24G17                                          
  21309925.64149 111984413.26249     -7148.43849        49.000  

  22343391.18849 117415313.12149     -2823.94149        50.000  

 16 04 02 13 29  2.2000000  0  2G24G17                                          
  21310061.72749 111985128.41849     -7154.24249        49.000  

  22343444.95349 117415595.71149     -2827.50849        50.000  

 16 04 02 13 29  2.3000000  0  2G24G17                                          
  21310197.93849 111985844.12549     -7159.79749        49.000  

  22343498.78949 117415878.59049     -2830.48849        50.000  

 16 04 02 13 29  2.4000000  0  2G24G17                                          
  21310334.22749 111986560.35949     -7165.00049        49.000  

  22343552.66449 117416161.76249     -2833.39549        50.000  

 16 04 02 13 29  2.5000000  0  2G24G17                                          
  21310470.65649 111987277.28149     -7171.90649        49.000  

  22343606.63349 117416445.37549     -2837.81649        50.000  

 16 04 02 13 29  2.6000000  0  2G24G17                                          
  21310607.18849 111987994.75449     -7177.56649        49.000  

  22343660.66449 117416729.30549     -2841.10949        50.000  

 16 04 02 13 29  2.7000000  0  2G24G17                                          
  21310743.82049 111988712.71549     -7182.24249        49.000  

  22343714.74249 117417013.47749     -2843.28949        50.000  

 16 04 02 13 29  2.8000000  0  2G24G17                                          
  21310880.54749 111989431.22349     -7187.73449        49.000  

  22343768.86749 117417297.94549     -2846.40249        50.000  

 16 04 02 13 29  2.9000000  0  2G24G17                                          
  21311017.40649 111990150.38749     -7194.33249        49.000  

  22343823.07849 117417582.84049     -2850.57849        50.000  

 16 04 02 13 29  3.0000000  0  2G24G17                                          
  21311154.35949 111990870.09049     -7199.71149        49.000  

  22343877.35249 117417868.02749     -2853.47349        50.000  

 16 04 02 13 29  3.1000000  0  2G24G17                                          
  21311291.40649 111991590.28549     -7204.61349        49.000  

  22343931.66449 117418153.46949     -2856.09849        50.000  

 16 04 02 13 29  3.2000000  0  2G24G17                                          
  21311428.57049 111992311.08649     -7210.57849        49.000  

  22343986.04749 117418439.26249     -2859.41449        50.000  

 16 04 02 13 29  3.3000000  0  2G24G17                                          
  21311565.85249 111993032.44549     -7216.19549        49.000  

  22344040.49249 117418725.38349     -2862.78549        50.000  

 16 04 02 13 29  3.4000000  0  2G24G17                                          
  21311703.21949 111993754.34849     -7221.66849        49.000  

  22344095.00049 117419011.80949     -2865.91449        50.000  

 16 04 02 13 29  3.5000000  0  2G24G17                                          
  21311840.71149 111994476.86349     -7227.86349        49.000  

  22344149.57049 117419298.59849     -2869.63349        50.000  

 16 04 02 13 29  3.6000000  0  2G24G17                                          
  21311978.31249 111995199.96149     -7233.77049        49.000  

  22344204.20349 117419585.72749     -2873.14849        50.000  

 16 04 02 13 29  3.7000000  0  2G24G17                                          
  21312116.01649 111995923.57049     -7238.65649        49.000  

  22344258.89849 117419873.12949     -2875.52749        50.000  

 16 04 02 13 29  3.8000000  0  2G24G17                                          
  21312253.83649 111996647.79749     -7245.00049        49.000  

  22344313.66449 117420160.90649     -2879.50049        50.000  

 16 04 02 13 29  3.9000000  0  2G24G17                                          
  21312391.75849 111997372.57849     -7250.60949        49.000  

  22344368.49249 117420449.00449     -2882.68449        50.000  

