     2.10           OBSERVATION DATA    G (GPS)             RINEX VERSION / TYPE
Convert v1.8.0                          07-Jun-2016 18:55   PGM / RUN BY / DATE 
Signal Strength values S1,S2 are in dBHz                    COMMENT             
                                                            MARKER NAME         
                                                            MARKER NUMBER       
                                                            OBSERVER / AGENCY   
                    NovAtel GPSCard                         REC # / TYPE / VERS 
                                                            ANT # / TYPE        
0.0000        0.0000        0.0000                          APPROX POSITION XYZ 
        0.0000        0.0000        0.0000                  ANTENNA: DELTA H/E/N
     1     1                                                WAVELENGTH FACT L1/2
     1     1     7   G02   G05   G06   G12   G13   G19   G20WAVELENGTH FACT L1/2
     1     1     4   G24   G25   G29   G30                  WAVELENGTH FACT L1/2
                                                            COMMENT             
                                                            COMMENT             
                                                            COMMENT             
                                                            COMMENT             
                                                            COMMENT             
     8    C1    L1    D1    S1    P2    L2    D2    S2      # / TYPES OF OBSERV 
     0.100                                                  INTERVAL            
  2016    04    02    13    06     7.0000000    GPS         TIME OF FIRST OBS   
  2016    04    02    13    10    27.5000000    GPS         TIME OF LAST OBS    
Leap Seconds Unknown                                        COMMENT             
                                                            END OF HEADER       
 16 04 02 13 06  7.0000000  0  1G20                                             
  22346537.24249 117431845.37549      4774.49249        50.000  

 16 04 02 13 06  7.1000000  0  1G20                                             
  22346446.43049 117431368.15649      4769.71549        50.000  

 16 04 02 13 06  7.2000000  0  1G20                                             
  22346355.71949 117430891.46149      4764.62549        50.000  

 16 04 02 13 06  7.3000000  0  2G25G20                                          
  23601094.50049 124024587.71159     -6862.23849        49.000  

  22346265.09449 117430415.22749      4759.81649        50.000  

 16 04 02 13 06  7.4000000  0  2G25G20                                          
  23601225.10249 124025274.03149     -6864.12149        49.000  

  22346174.57049 117429939.48849      4754.95349        50.000  

 16 04 02 13 06  7.5000000  0  2G25G20                                          
  23601355.71949 124025960.50049     -6865.52749        49.000  

  22346084.12549 117429464.19549      4750.56649        50.000  

 16 04 02 13 06  7.6000000  0  2G25G20                                          
  23601486.38349 124026647.14849     -6867.42649        49.000  

  22345993.78149 117428989.40649      4745.50849        50.000  

 16 04 02 13 06  7.7000000  0  2G25G20                                          
  23601617.07849 124027333.98049     -6869.28549        49.000  

  22345903.52349 117428515.09849      4740.58649        50.000  

 16 04 02 13 06  7.8000000  0  2G25G20                                          
  23601747.82049 124028021.03149     -6871.48049        49.000  

  22345813.35949 117428041.30549      4735.41849        50.000  

 16 04 02 13 06  7.9000000  0  2G25G20                                          
  23601878.59449 124028708.24649     -6873.21549        49.000  

  22345723.28949 117427567.99649      4730.59849        50.000  

 16 04 02 13 06  8.0000000  0  2G25G20                                          
  23602009.39149 124029395.60249     -6874.64149        49.000  

  22345633.31249 117427095.12149      4726.23449        50.000  

 16 04 02 13 06  8.1000000  0  2G25G20                                          
  23602140.24249 124030083.17649     -6876.55949        49.000  

  22345543.42249 117426622.76649      4721.22349        50.000  

 16 04 02 13 06  8.2000000  0  2G25G20                                          
  23602271.11749 124030770.94549     -6878.82049        49.000  

  22345453.65649 117426150.92649      4715.81649        50.000  

 16 04 02 13 06  8.3000000  0  2G25G20                                          
  23602402.03149 124031458.93449     -6880.76249        49.000  

  22345363.96149 117425679.58649      4710.93049        50.000  

 16 04 02 13 06  8.4000000  0  2G25G20                                          
  23602532.96949 124032147.02749     -6882.10949        49.000  

  22345274.35949 117425208.68449      4706.44549        50.000  

 16 04 02 13 06  8.5000000  0  2G25G20                                          
  23602663.95349 124032835.29749     -6883.48849        49.000  

  22345184.83649 117424738.24249      4702.15249        50.000  

 16 04 02 13 06  8.6000000  0  2G25G20                                          
  23602794.96949 124033523.78549     -6885.94149        49.000  

  22345095.41449 117424268.33649      4696.63349        50.000  

 16 04 02 13 06  8.7000000  0  2G25G20                                          
  23602926.02349 124034212.51249     -6888.40249        49.000  

  22345006.10249 117423798.97749      4691.17249        50.000  

 16 04 02 13 06  8.8000000  0  2G25G20                                          
  23603057.10949 124034901.37149     -6889.57449        49.000  

  22344916.86749 117423330.03549      4686.93449        50.000  

 16 04 02 13 06  8.9000000  0  2G25G20                                          
  23603188.22749 124035590.38349     -6891.05149        49.000  

  22344827.71949 117422861.57449      4682.21949        50.000  

 16 04 02 13 06  9.0000000  0  2G25G20                                          
  23603319.37549 124036279.58249     -6892.86749        49.000  

  22344738.66449 117422393.59849      4677.39149        50.000  

 16 04 02 13 06  9.1000000  0  2G25G20                                          
  23603450.57849 124036969.00049     -6895.19149        49.000  

  22344649.71149 117421926.14849      4672.04349        50.000  

 16 04 02 13 06  9.2000000  0  2G25G20                                          
  23603581.81249 124037658.64149     -6897.41849        49.000  

  22344560.85249 117421459.21149      4666.85949        50.000  

 16 04 02 13 06  9.3000000  0  2G25G20                                          
  23603713.06249 124038348.41449     -6898.81249        49.000  

  22344472.07849 117420992.72749      4662.28949        50.000  

 16 04 02 13 06  9.4000000  0  2G25G20                                          
  23603844.35249 124039038.34449     -6900.43049        49.000  

  22344383.39849 117420526.69949      4657.75449        50.000  

 16 04 02 13 06  9.5000000  0  2G25G20                                          
  23603975.69549 124039728.52049     -6902.55949        49.000  

  22344294.82049 117420061.22349      4652.43449        50.000  

 16 04 02 13 06  9.6000000  0  2G25G20                                          
  23604107.05549 124040418.82049     -6903.95749        49.000  

  22344206.32849 117419596.19549      4647.84449        50.000  

 16 04 02 13 06  9.7000000  0  2G25G20                                          
  23604238.46149 124041109.34049     -6906.13349        49.000  

  22344117.93049 117419131.66849      4642.75049        50.000  

 16 04 02 13 06  9.8000000  0  2G25G20                                          
  23604369.88349 124041799.99249     -6907.41449        49.000  

  22344029.62549 117418667.58249      4638.56249        50.000  

 16 04 02 13 06  9.9000000  0  2G25G20                                          
  23604501.33649 124042490.80149     -6908.84849        49.000  

  22343941.39849 117418203.96149      4634.02049        50.000  

 16 04 02 13 06 10.0000000  0  2G25G20                                          
  23604632.82849 124043181.78949     -6910.75849        49.000  

  22343853.25849 117417740.81249      4629.09049        50.000  

 16 04 02 13 06 10.1000000  0  2G25G20                                          
  23604764.35249 124043872.94549     -6912.52049        49.000  

  22343765.21149 117417278.16849      4624.07049        50.000  

 16 04 02 13 06 10.2000000  0  2G25G20                                          
  23604895.91449 124044564.31649     -6914.67249        49.000  

  22343677.27349 117416816.02049      4619.03549        50.000  

 16 04 02 13 06 10.3000000  0  2G25G20                                          
  23605027.50049 124045255.84849     -6916.46149        49.000  

  22343589.42249 117416354.33249      4614.27349        50.000  

 16 04 02 13 06 10.4000000  0  2G25G20                                          
  23605159.12549 124045947.53949     -6917.88749        49.000  

  22343501.65649 117415893.13349      4609.63349        50.000  

 16 04 02 13 06 10.5000000  0  2G25G20                                          
  23605290.78149 124046639.45349     -6920.14549        49.000  

  22343413.99249 117415432.44549      4604.41049        50.000  

 16 04 02 13 06 10.6000000  0  2G25G20                                          
  23605422.48449 124047331.53149     -6921.78949        49.000  

  22343326.40649 117414972.23449      4599.64549        50.000  

 16 04 02 13 06 10.7000000  0  2G25G20                                          
  23605554.21949 124048023.79349     -6923.79349        49.000  

  22343238.93049 117414512.52049      4594.56649        50.000  

 16 04 02 13 06 10.8000000  0  2G25G20                                          
  23605686.00849 124048716.34049     -6926.61749        49.000  

  22343151.56249 117414053.37949      4588.83249        50.000  

 16 04 02 13 06 10.9000000  0  2G25G20                                          
  23605817.83649 124049409.04749     -6928.18449        49.000  

  22343064.28149 117413594.71549      4584.12949        50.000  

 16 04 02 13 06 11.0000000  0  2G25G20                                          
  23605949.68049 124050101.88749     -6929.53549        49.000  

  22342977.06249 117413136.50049      4579.62949        50.000  

 16 04 02 13 06 11.1000000  0  2G25G20                                          
  23606081.54749 124050794.87149     -6930.48849        49.000  

  22342889.94549 117412678.70349      4575.68449        50.000  

 16 04 02 13 06 11.2000000  0  2G25G20                                          
  23606213.45349 124051488.01249     -6932.20749        49.000  

  22342802.91449 117412221.39549      4570.83649        50.000  

 16 04 02 13 06 11.3000000  0  2G25G20                                          
  23606345.39149 124052181.35549     -6934.35249        49.000  

  22342715.99249 117411764.59449      4565.68849        50.000  

 16 04 02 13 06 11.4000000  0  2G25G20                                          
  23606477.35949 124052874.88749     -6936.42249        49.000  

  22342629.17249 117411308.28149      4560.63349        50.000  

 16 04 02 13 06 11.5000000  0  2G25G20                                          
  23606609.38349 124053568.61349     -6938.27349        49.000  

  22342542.43049 117410852.46549      4555.57449        50.000  

 16 04 02 13 06 11.6000000  0  2G25G20                                          
  23606741.43049 124054262.50449     -6939.95349        49.000  

  22342455.78949 117410397.12549      4550.80149        50.000  

 16 04 02 13 06 11.7000000  0  2G25G20                                          
  23606873.49249 124054956.55949     -6941.30149        49.000  

  22342369.22749 117409942.23849      4546.62549        50.000  

 16 04 02 13 06 11.8000000  0  2G25G20                                          
  23607005.60249 124055650.78549     -6943.10249        49.000  

  22342282.75049 117409487.85549      4541.48849        50.000  

 16 04 02 13 06 11.9000000  0  2G25G20                                          
  23607137.75049 124056345.18849     -6945.02749        49.000  

  22342196.37549 117409033.94549      4536.56249        50.000  

 16 04 02 13 06 12.0000000  0  2G25G20                                          
  23607269.93049 124057039.79349     -6947.11749        49.000  

  22342110.08649 117408580.53949      4531.46149        50.000  

 16 04 02 13 06 12.1000000  0  2G25G20                                          
  23607402.14149 124057734.59449     -6948.90249        49.000  

  22342023.90649 117408127.62949      4526.71949        50.000  

 16 04 02 13 06 12.2000000  0  2G25G20                                          
  23607534.37549 124058429.49649     -6950.02749        49.000  

  22341937.79749 117407675.14149      4522.47349        50.000  

 16 04 02 13 06 12.3000000  0  2G25G20                                          
  23607666.66449 124059124.61749     -6952.31249        49.000  

  22341851.78949 117407223.18449      4517.12149        50.000  

 16 04 02 13 06 12.4000000  0  2G25G20                                          
  23607798.97749 124059819.91449     -6953.87549        49.000  

  22341765.86749 117406771.68049      4512.65249        50.000  

 16 04 02 13 06 12.5000000  0  2G25G20                                          
  23607931.32849 124060515.41449     -6956.18449        49.000  

  22341680.05549 117406320.70749      4507.16849        50.000  

 16 04 02 13 06 12.6000000  0  2G25G20                                          
  23608063.71149 124061211.08249     -6957.63749        49.000  

  22341594.32849 117405870.21149      4502.55949        50.000  

 16 04 02 13 06 12.7000000  0  2G25G20                                          
  23608196.13349 124061906.94549     -6959.68049        49.000  

  22341508.68849 117405420.18849      4497.57049        50.000  

 16 04 02 13 06 12.8000000  0  2G25G20                                          
  23608328.59449 124062603.00049     -6961.34449        49.000  

  22341423.14849 117404970.68449      4492.72749        50.000  

 16 04 02 13 06 12.9000000  0  2G25G20                                          
  23608461.07049 124063299.16449     -6962.75049        49.000  

  22341337.69549 117404521.60549      4488.37549        50.000  

 16 04 02 13 06 13.0000000  0  2G25G20                                          
  23608593.57849 124063995.53149     -6964.54749        49.000  

  22341252.33649 117404073.02749      4483.39849        50.000  

 16 04 02 13 06 13.1000000  0  2G25G20                                          
  23608726.13349 124064692.07849     -6966.66449        49.000  

  22341167.06249 117403624.93449      4478.32049        50.000  

 16 04 02 13 06 13.2000000  0  2G25G20                                          
  23608858.71949 124065388.82449     -6968.41449        49.000  

  22341081.89149 117403177.34049      4473.52349        50.000  

 16 04 02 13 06 13.3000000  0  2G25G20                                          
  23608991.32849 124066085.76649     -6970.55149        49.000  

  22340996.81249 117402730.25049      4468.22349        50.000  

 16 04 02 13 06 13.4000000  0  2G25G20                                          
  23609123.97749 124066782.82449     -6971.37549        49.000  

  22340911.81249 117402283.59049      4464.32049        50.000  

 16 04 02 13 06 13.5000000  0  2G25G20                                          
  23609256.65649 124067480.04349     -6973.25049        49.000  

  22340826.90649 117401837.39149      4459.57449        50.000  

 16 04 02 13 06 13.6000000  0  2G25G20                                          
  23609389.38349 124068177.52349     -6975.62149        49.000  

  22340742.10249 117401391.76249      4453.95349        50.000  

 16 04 02 13 06 13.7000000  0  2G25G20                                          
  23609522.13349 124068875.14149     -6977.05549        49.000  

  22340657.39149 117400946.57449      4449.44949        50.000  

 16 04 02 13 06 13.8000000  0  2G25G20                                          
  23609654.91449 124069572.91049     -6978.83249        49.000  

  22340572.75849 117400501.85549      4444.63749        50.000  

 16 04 02 13 06 13.9000000  0  2G25G20                                          
  23609787.72749 124070270.88749     -6980.68449        49.000  

  22340488.23449 117400057.64849      4439.73049        50.000  

 16 04 02 13 06 14.0000000  0  2G25G20                                          
  23609920.57849 124070969.04349     -6982.41449        49.000  

  22340403.78949 117399613.91449      4434.91449        50.000  

 16 04 02 13 06 14.1000000  0  2G25G20                                          
  23610053.46149 124071667.29349     -6983.35249        49.000  

  22340319.42249 117399170.58249      4431.02349        50.000  

 16 04 02 13 06 14.2000000  0  2G25G20                                          
  23610186.37549 124072365.77749     -6985.93449        49.000  

  22340235.17249 117398727.80149      4425.38349        50.000  

 16 04 02 13 06 14.3000000  0  2G25G20                                          
  23610319.34449 124073064.45749     -6988.09849        49.000  

  22340151.00049 117398285.50849      4420.23449        50.000  

 16 04 02 13 06 14.4000000  0  2G25G20                                          
  23610452.33649 124073763.34449     -6989.77349        49.000  

  22340066.93849 117397843.74649      4415.29349        50.000  

 16 04 02 13 06 14.5000000  0  2G25G20                                          
  23610585.36749 124074462.32849     -6991.09049        49.000  

  22339982.95349 117397402.38749      4410.96949        50.000  

 16 04 02 13 06 14.6000000  0  2G25G20                                          
  23610718.43049 124075161.60249     -6993.61349        49.000  

  22339899.08649 117396961.60549      4405.43849        50.000  

 16 04 02 13 06 14.7000000  0  2G25G20                                          
  23610851.53149 124075860.98049     -6994.98049        49.000  

  22339815.28949 117396521.25449      4400.89549        50.000  

 16 04 02 13 06 14.8000000  0  2G25G20                                          
  23610984.64849 124076560.53149     -6996.25849        49.000  

  22339731.57849 117396081.38349      4396.47349        50.000  

 16 04 02 13 06 14.9000000  0  2G25G20                                          
  23611117.81249 124077260.27349     -6998.40249        49.000  

  22339647.96949 117395641.98449      4391.48049        50.000  

 16 04 02 13 06 15.0000000  0  2G25G20                                          
  23611251.00849 124077960.23049     -7000.55949        49.000  

  22339564.44549 117395203.13749      4386.02749        50.000  

 16 04 02 13 06 15.1000000  0  2G25G20                                          
  23611384.24249 124078660.35549     -7002.29349        49.000  

  22339481.02349 117394764.74649      4381.30549        50.000  

 16 04 02 13 06 15.2000000  0  2G25G20                                          
  23611517.50849 124079360.69949     -7004.52049        49.000  

  22339397.70349 117394326.88349      4376.08649        50.000  

 16 04 02 13 06 15.3000000  0  2G25G20                                          
  23611650.80549 124080061.13349     -7005.23049        49.000  

  22339314.45349 117393889.41849      4372.32049        50.000  

 16 04 02 13 06 15.4000000  0  2G25G20                                          
  23611784.11749 124080761.68849     -7006.68449        49.000  

  22339231.29749 117393452.39849      4367.73049        50.000  

 16 04 02 13 06 15.5000000  0  2G25G20                                          
  23611917.48449 124081462.52749     -7009.33249        49.000  

  22339148.24249 117393015.95349      4362.04349        50.000  

 16 04 02 13 06 15.6000000  0  2G25G20                                          
  23612050.88349 124082163.52349     -7011.06249        49.000  

  22339065.28149 117392579.97749      4357.11349        50.000  

 16 04 02 13 06 15.7000000  0  2G25G20                                          
  23612184.32049 124082864.69549     -7012.50849        49.000  

  22338982.41449 117392144.48449      4352.57849        50.000  

 16 04 02 13 06 15.8000000  0  2G25G20                                          
  23612317.78149 124083566.03149     -7014.30549        49.000  

  22338899.63349 117391709.44949      4347.91049        50.000  

 16 04 02 13 06 15.9000000  0  2G25G20                                          
  23612451.28949 124084267.58649     -7016.63749        49.000  

  22338816.95349 117391274.95749      4342.32449        50.000  

 16 04 02 13 06 16.0000000  0  2G25G20                                          
  23612584.82049 124084969.28549     -7017.92649        49.000  

  22338734.34449 117390840.90649      4338.00849        50.000  

 16 04 02 13 06 16.1000000  0  2G25G20                                          
  23612718.38349 124085671.13749     -7019.30949        49.000  

  22338651.83649 117390407.32449      4333.59849        50.000  

 16 04 02 13 06 16.2000000  0  2G25G20                                          
  23612851.96949 124086373.15649     -7021.26249        49.000  

  22338569.42249 117389974.21149      4328.60949        50.000  

 16 04 02 13 06 16.3000000  0  2G25G20                                          
  23612985.59449 124087075.34449     -7023.05549        49.000  

  22338487.09449 117389541.57449      4323.80149        50.000  

 16 04 02 13 06 16.4000000  0  2G25G20                                          
  23613119.26649 124087777.78549     -7025.31249        49.000  

  22338404.87549 117389109.50049      4318.20349        50.000  

 16 04 02 13 06 16.5000000  0  2G25G20                                          
  23613252.96149 124088480.35949     -7026.58649        49.000  

  22338322.73449 117388677.86349      4313.96949        50.000  

 16 04 02 13 06 16.6000000  0  2G25G20                                          
  23613386.68849 124089183.11349     -7028.54749        49.000  

  22338240.69549 117388246.70749      4309.13349        50.000  

 16 04 02 13 06 16.7000000  0  2G25G20                                          
  23613520.45349 124089886.05949     -7030.53949        49.000  

  22338158.74249 117387816.05949      4303.91849        50.000  

 16 04 02 13 06 16.8000000  0  2G25G20                                          
  23613654.25849 124090589.22349     -7032.85949        49.000  

  22338076.89849 117387385.92649      4298.78949        50.000  

 16 04 02 13 06 16.9000000  0  2G25G20                                          
  23613788.08649 124091292.53549     -7033.87149        49.000  

  22337995.13349 117386956.27049      4294.36349        50.000  

 16 04 02 13 06 17.0000000  0  2G25G20                                          
  23613921.95349 124091995.98849     -7035.51249        49.000  

  22337913.46149 117386527.05149      4289.67649        50.000  

 16 04 02 13 06 17.1000000  0  2G25G20                                          
  23614055.85949 124092699.64849     -7037.35549        49.000  

  22337831.87549 117386098.33649      4284.75449        50.000  

 16 04 02 13 06 17.2000000  0  2G25G20                                          
  23614189.78949 124093403.46149     -7039.08249        49.000  

  22337750.38349 117385670.08649      4280.08249        50.000  

 16 04 02 13 06 17.3000000  0  2G25G20                                          
  23614323.75849 124094107.45349     -7041.01649        49.000  

  22337668.98449 117385242.34049      4274.97749        50.000  

 16 04 02 13 06 17.4000000  0  2G25G20                                          
  23614457.75049 124094811.60949     -7042.48049        49.000  

  22337587.66449 117384815.05149      4270.42249        50.000  

 16 04 02 13 06 17.5000000  0  2G25G20                                          
  23614591.78149 124095515.91049     -7043.91049        49.000  

  22337506.44549 117384388.21149      4265.96149        50.000  

 16 04 02 13 06 17.6000000  0  2G25G20                                          
  23614725.85249 124096220.43049     -7046.15649        49.000  

  22337425.32049 117383961.90249      4260.58249        50.000  

 16 04 02 13 06 17.7000000  0  2G25G20                                          
  23614859.94549 124096925.10549     -7047.67649        49.000  

  22337344.28149 117383536.05149      4256.05149        50.000  

 16 04 02 13 06 17.8000000  0  2G25G20                                          
  23614994.06249 124097629.93449     -7049.37549        49.000  

  22337263.33649 117383110.65649      4251.39849        50.000  

 16 04 02 13 06 17.9000000  0  2G25G20                                          
  23615128.23449 124098334.94149     -7051.11749        49.000  

  22337182.47749 117382685.77049      4246.43849        50.000  

 16 04 02 13 06 18.0000000  0  2G25G20                                          
  23615262.43049 124099040.14849     -7052.97749        49.000  

  22337101.71149 117382261.36349      4241.59049        50.000  

 16 04 02 13 06 18.1000000  0  2G25G20                                          
  23615396.65649 124099745.52349     -7054.86749        49.000  

  22337021.04749 117381837.46549      4236.61349        50.000  

 16 04 02 13 06 18.2000000  0  2G25G20                                          
  23615530.91449 124100451.07049     -7056.25449        49.000  

  22336940.46949 117381414.02049      4232.14149        50.000  

 16 04 02 13 06 18.3000000  0  2G25G20                                          
  23615665.20349 124101156.79349     -7058.06649        49.000  

  22336859.98449 117380991.07049      4227.23049        50.000  

 16 04 02 13 06 18.4000000  0  2G25G20                                          
  23615799.52349 124101862.64549     -7059.40249        49.000  

  22336779.59449 117380568.55549      4222.69949        50.000  

 16 04 02 13 06 18.5000000  0  2G25G20                                          
  23615933.89849 124102568.71949     -7061.72349        49.000  

  22336699.28949 117380146.57049      4217.31249        50.000  

 16 04 02 13 06 18.6000000  0  2G25G20                                          
  23616068.28949 124103274.93849     -7063.15249        49.000  

  22336619.08649 117379725.02749      4212.97749        50.000  

 16 04 02 13 06 18.7000000  0  2G25G20                                          
  23616202.71949 124103981.34449     -7065.08249        49.000  

  22336538.96149 117379303.98849      4207.95749        50.000  

 16 04 02 13 06 18.8000000  0  2G25G20                                          
  23616337.17249 124104687.88749     -7066.53149        49.000  

  22336458.92249 117378883.40249      4203.42649        50.000  

 16 04 02 13 06 18.9000000  0  2G25G20                                          
  23616471.65649 124105394.63749     -7068.50849        49.000  

  22336378.98449 117378463.31649      4198.53149        50.000  

 16 04 02 13 06 19.0000000  0  2G25G20                                          
  23616606.18849 124106101.58649     -7070.44549        49.000  

  22336299.14149 117378043.75049      4193.17249        50.000  

 16 04 02 13 06 19.1000000  0  2G25G20                                          
  23616740.75049 124106808.71549     -7072.03149        49.000  

  22336219.39149 117377624.66849      4188.46149        50.000  

 16 04 02 13 06 19.2000000  0  2G25G20                                          
  23616875.34449 124107515.97749     -7073.51649        49.000  

  22336139.71149 117377206.02049      4184.06249        50.000  

 16 04 02 13 06 19.3000000  0  2G25G20                                          
  23617009.95349 124108223.40249     -7075.07849        49.000  

  22336060.13349 117376787.85249      4179.34849        50.000  

 16 04 02 13 06 19.4000000  0  2G25G20                                          
  23617144.60949 124108931.00049     -7077.17649        49.000  

  22335980.65649 117376370.16049      4174.35549        50.000  

 16 04 02 13 06 19.5000000  0  2G25G20                                          
  23617279.32049 124109638.86349     -7079.56649        49.000  

  22335901.28149 117375953.03149      4168.86749        50.000  

 16 04 02 13 06 19.6000000  0  2G25G20                                          
  23617414.03949 124110346.81249     -7080.55549        49.000  

  22335821.97749 117375536.31649      4164.65249        50.000  

 16 04 02 13 06 19.7000000  0  2G25G20                                          
  23617548.79749 124111054.97749     -7082.62949        49.000  

  22335742.77349 117375120.11749      4159.53549        50.000  

 16 04 02 13 06 19.8000000  0  2G25G20                                          
  23617683.60249 124111763.38749     -7084.99249        49.000  

  22335663.67249 117374704.46549      4154.10549        50.000  

 16 04 02 13 06 19.9000000  0  2G25G20                                          
  23617818.43049 124112471.91449     -7086.15249        49.000  

  22335584.65649 117374289.23849      4149.91449        50.000  

 16 04 02 13 06 20.0000000  0  2G25G20                                          
  23617953.28149 124113180.57049     -7087.73449        49.000  

  22335505.72749 117373874.46149      4145.32449        50.000  

 16 04 02 13 06 20.1000000  0  2G25G20                                          
  23618088.19549 124113889.53549     -7090.56649        49.000  

  22335426.91449 117373460.28949      4139.34049        50.000  

 16 04 02 13 06 20.2000000  0  2G25G20                                          
  23618223.13349 124114598.60549     -7091.90649        49.000  

  22335348.18049 117373046.53549      4134.84449        50.000  

 16 04 02 13 06 20.3000000  0  2G25G20                                          
  23618358.10249 124115307.86749     -7093.69549        49.000  

  22335269.53949 117372633.29349      4129.99649        50.000  

 16 04 02 13 06 20.4000000  0  2G25G20                                          
  23618493.10949 124116017.32449     -7095.44949        49.000  

  22335190.99249 117372220.54349      4124.94949        50.000  

 16 04 02 13 06 20.5000000  0  2G25G20                                          
  23618628.14849 124116726.95349     -7097.25849        49.000  

  22335112.53949 117371808.26649      4120.30949        50.000  

 16 04 02 13 06 20.6000000  0  2G25G20                                          
  23618763.21949 124117436.76649     -7099.24249        49.000  

  22335034.18049 117371396.48449      4115.25049        50.000  

 16 04 02 13 06 20.7000000  0  2G25G20                                          
  23618898.33649 124118146.78949     -7101.32449        49.000  

  22334955.91449 117370985.22349      4110.12949        50.000  

 16 04 02 13 06 20.8000000  0  2G25G20                                          
  23619033.47749 124118856.97749     -7102.68849        49.000  

  22334877.74249 117370574.43449      4105.50849        50.000  

 16 04 02 13 06 20.9000000  0  2G25G20                                          
  23619168.64149 124119567.27749     -7103.85249        49.000  

  22334799.64849 117370164.07449      4101.32449        50.000  

 16 04 02 13 06 21.0000000  0  2G25G20                                          
  23619303.83649 124120277.75849     -7105.82449        49.000  

  22334721.64849 117369754.18849      4096.25449        50.000  

 16 04 02 13 06 21.1000000  0  2G25G20                                          
  23619439.07849 124120988.44549     -7107.86749        49.000  

  22334643.75049 117369344.82449      4091.26249        50.000  

 16 04 02 13 06 21.2000000  0  2G25G20                                          
  23619574.33649 124121699.24649     -7108.84049        49.000  

  22334565.93049 117368935.89149      4087.03149        50.000  

 16 04 02 13 06 21.3000000  0  2G25G20                                          
  23619709.62549 124122410.18849     -7110.34849        49.000  

  22334488.19549 117368527.40249      4082.52349        50.000  

 16 04 02 13 06 21.4000000  0  2G25G20                                          
  23619844.96149 124123121.39849     -7112.92249        49.000  

  22334410.56249 117368119.48049      4076.84049        50.000  

 16 04 02 13 06 21.5000000  0  2G25G20                                          
  23619980.32849 124123832.73449     -7114.50049        49.000  

  22334333.02349 117367712.00849      4072.18049        50.000  

 16 04 02 13 06 21.6000000  0  2G25G20                                          
  23620115.73449 124124544.30549     -7116.56249        49.000  

  22334255.58649 117367305.06249      4067.04749        50.000  

 16 04 02 13 06 21.7000000  0  2G25G20                                          
  23620251.16449 124125256.01249     -7118.28549        49.000  

  22334178.23449 117366898.59449      4062.11749        50.000  

 16 04 02 13 06 21.8000000  0  2G25G20                                          
  23620386.64149 124125967.95349     -7120.10549        49.000  

  22334100.98449 117366492.62949      4057.34849        50.000  

 16 04 02 13 06 21.9000000  0  2G25G20                                          
  23620522.14849 124126680.00849     -7121.62149        49.000  

  22334023.81249 117366087.10549      4052.75049        50.000  

 16 04 02 13 06 22.0000000  0  2G25G20                                          
  23620657.68049 124127392.25449     -7123.42649        49.000  

  22333946.74249 117365682.09449      4047.76649        50.000  

 16 04 02 13 06 22.1000000  0  2G25G20                                          
  23620793.24249 124128104.66849     -7124.92649        49.000  

  22333869.75849 117365277.52049      4043.40649        50.000  

 16 04 02 13 06 22.2000000  0  2G25G20                                          
  23620928.84449 124128817.25849     -7126.99649        49.000  

  22333792.85949 117364873.47349      4037.97349        50.000  

 16 04 02 13 06 22.3000000  0  2G25G20                                          
  23621064.47749 124129530.02049     -7128.43449        49.000  

  22333716.06249 117364469.87949      4033.59449        50.000  

 16 04 02 13 06 22.4000000  0  2G25G20                                          
  23621200.14149 124130242.94549     -7130.33649        49.000  

  22333639.35249 117364066.78149      4028.44949        50.000  

 16 04 02 13 06 22.5000000  0  2G25G20                                          
  23621335.85249 124130956.06649     -7132.25849        49.000  

  22333562.73449 117363664.16849      4023.46549        50.000  

 16 04 02 13 06 22.6000000  0  2G25G20                                          
  23621471.57849 124131669.33249     -7133.58649        49.000  

  22333486.21149 117363262.00849      4019.21549        50.000  

 16 04 02 13 06 22.7000000  0  2G25G20                                          
  23621607.35949 124132382.77049     -7135.53549        49.000  

  22333409.77349 117362860.33649      4014.12549        50.000  

 16 04 02 13 06 22.8000000  0  2G25G20                                          
  23621743.16449 124133096.42249     -7137.39149        49.000  

  22333333.43849 117362459.19149      4009.07449        50.000  

 16 04 02 13 06 22.9000000  0  2G25G20                                          
  23621879.00049 124133810.28149     -7139.92649        49.000  

  22333257.19549 117362058.55149      4003.73049        50.000  

 16 04 02 13 06 23.0000000  0  2G25G20                                          
  23622014.88349 124134524.33649     -7141.52749        49.000  

  22333181.05549 117361658.43049      3998.70749        50.000  

 16 04 02 13 06 23.1000000  0  2G25G20                                          
  23622150.79749 124135238.55149     -7143.27049        49.000  

  22333105.00849 117361258.77349      3993.94549        50.000  

 16 04 02 13 06 23.2000000  0  2G25G20                                          
  23622286.73449 124135952.90649     -7144.41849        49.000  

  22333029.03949 117360859.55949      3989.83649        50.000  

 16 04 02 13 06 23.3000000  0  2G25G20                                          
  23622422.70349 124136667.42249     -7146.10249        49.000  

  22332953.15649 117360460.80949      3985.07849        50.000  

 16 04 02 13 06 23.4000000  0  2G25G20                                          
  23622558.70349 124137382.11749     -7147.60949        49.000  

  22332877.36749 117360062.56249      3980.18849        50.000  

 16 04 02 13 06 23.5000000  0  2G25G20                                          
  23622694.73449 124138096.91849     -7149.07449        49.000  

  22332801.66449 117359664.73449      3975.74249        50.000  

 16 04 02 13 06 23.6000000  0  2G25G20                                          
  23622830.79749 124138811.96149     -7151.12149        49.000  

  22332726.06249 117359267.43449      3970.77049        50.000  

 16 04 02 13 06 23.7000000  0  2G25G20                                          
  23622966.89849 124139527.14849     -7152.94949        49.000  

  22332650.54749 117358870.60249      3965.74649        50.000  

 16 04 02 13 06 23.8000000  0  2G25G20                                          
  23623103.02349 124140242.50049     -7154.30549        49.000  

  22332575.12549 117358474.24649      3961.24249        50.000  

 16 04 02 13 06 23.9000000  0  2G25G20                                          
  23623239.17249 124140957.98449     -7156.03949        49.000  

  22332499.78949 117358078.32449      3956.65249        50.000  

 16 04 02 13 06 24.0000000  0  2G25G20                                          
  23623375.36749 124141673.69149     -7157.91849        49.000  

  22332424.54749 117357682.94549      3951.52349        50.000  

 16 04 02 13 06 24.1000000  0  2G25G20                                          
  23623511.59449 124142389.54749     -7159.44549        49.000  

  22332349.39849 117357288.01249      3946.87149        50.000  

 16 04 02 13 06 24.2000000  0  2G25G20                                          
  23623647.84449 124143105.54749     -7161.16849        49.000  

  22332274.32849 117356893.53149      3942.31249        50.000  

 16 04 02 13 06 24.3000000  0  2G25G20                                          
  23623784.12549 124143821.72349     -7162.52749        49.000  

  22332199.35949 117356499.55549      3937.46949        50.000  

 16 04 02 13 06 24.4000000  0  2G25G20                                          
  23623920.43049 124144538.01249     -7163.66849        49.000  

  22332124.46149 117356105.98049      3933.48449        50.000  

 16 04 02 13 06 24.5000000  0  2G25G20                                          
  23624056.76649 124145254.50449     -7165.84849        49.000  

  22332049.66449 117355712.92649      3928.12149        50.000  

 16 04 02 13 06 24.6000000  0  2G25G20                                          
  23624193.15649 124145971.21549     -7168.19549        49.000  

  22331974.97749 117355320.40249      3922.79749        50.000  

 16 04 02 13 06 24.7000000  0  2G25G20                                          
  23624329.57849 124146688.09849     -7169.76649        49.000  

  22331900.37549 117354928.36749      3917.89149        50.000  

 16 04 02 13 06 24.8000000  0  2G25G20                                          
  23624466.03149 124147405.16049     -7171.60249        49.000  

  22331825.87549 117354536.79349      3913.20749        50.000  

 16 04 02 13 06 24.9000000  0  2G25G20                                          
  23624602.50849 124148122.35949     -7172.88749        49.000  

  22331751.45349 117354145.70349      3908.50449        50.000  

 16 04 02 13 06 25.0000000  0  2G25G20                                          
  23624739.01649 124148839.73049     -7174.46549        49.000  

  22331677.11749 117353755.06249      3904.09449        50.000  

 16 04 02 13 06 25.1000000  0  2G25G20                                          
  23624875.56249 124149557.29749     -7176.71549        49.000  

  22331602.87549 117353364.93449      3898.84849        50.000  

 16 04 02 13 06 25.2000000  0  2G25G20                                          
  23625012.14849 124150275.05549     -7178.41849        49.000  

  22331528.73449 117352975.32449      3893.75449        50.000  

 16 04 02 13 06 25.3000000  0  2G25G20                                          
  23625148.75049 124150992.88349     -7179.23049        49.000  

  22331454.66449 117352586.07849      3889.88349        50.000  

 16 04 02 13 06 25.4000000  0  2G25G20                                          
  23625285.39149 124151710.94149     -7181.33649        49.000  

  22331380.69549 117352197.37149      3884.87149        50.000  

 16 04 02 13 06 25.5000000  0  2G25G20                                          
  23625422.05549 124152429.12149     -7182.89849        49.000  

  22331306.80549 117351809.10949      3880.16849        50.000  

 16 04 02 13 06 25.6000000  0  3G25G30G20                                       
  23625558.75849 124153147.50049     -7184.69549        49.000  

  26250778.18849 137948769.69159      8710.69149        48.000  

  22331233.02349 117351421.33649      3875.25849        50.000  

 16 04 02 13 06 25.7000000  0  3G25G30G20                                       
  23625695.50049 124153866.03949     -7186.30149        49.000  

  26250612.44549 137947898.73049      8708.65649        48.000  

  22331159.32049 117351034.04349      3870.48849        50.000  

 16 04 02 13 06 25.8000000  0  4G25G30G20G12                                    
  23625832.26649 124154584.76249     -7188.21149        49.000  

  26250446.75049 137947027.99649      8706.20749        48.000  

  22331085.71949 117350647.24649      3865.56649        50.000  

  22371628.57849 117563700.88359     13885.78149        50.000  

 16 04 02 13 06 25.9000000  0  5G25G06G30G20G12                                 
  23625969.07049 124155303.67249     -7190.17249        49.000  

  23651161.60249 124287692.20759     -9027.62949        49.000  

  26250281.10249 137946157.46949      8703.92649        48.000  

  22331012.20349 117350260.93849      3860.45349        50.000  

  22371364.36749 117562312.42649     13883.17249        50.000  

 16 04 02 13 06 26.0000000  0  5G25G06G30G20G12                                 
  23626105.90649 124156022.75849     -7191.73449        49.000  

  23651333.40649 124288595.04749     -9029.49649        49.000  

  26250115.49249 137945287.16449      8701.87149        48.000  

  22330938.78949 117349875.12949      3855.60949        50.000  

  22371100.21949 117560924.22349     13880.77349        50.000  

 16 04 02 13 06 26.1000000  0  5G25G06G30G20G12                                 
  23626242.77349 124156741.98449     -7193.17249        49.000  

  23651505.26649 124289498.05549     -9031.31249        49.000  

  26249949.91449 137944417.02749      8700.14549        48.000  

  22330865.45349 117349489.76249      3851.19949        50.000  

  22370836.08649 117559536.21949     13878.75849        50.000  

 16 04 02 13 06 26.2000000  0  5G25G06G30G20G12                                 
  23626379.67249 124157461.40249     -7195.03149        49.000  

  23651677.14849 124290401.29749     -9033.44949        49.000  

  26249784.39149 137943547.13349      8698.00449        48.000  

  22330792.21149 117349104.89549      3846.25449        50.000  

  22370572.03149 117558148.47349     13876.28949        50.000  

 16 04 02 13 06 26.3000000  0  5G25G06G30G20G12                                 
  23626516.60949 124158180.96949     -7196.37149        49.000  

  23651849.05549 124291304.71949     -9035.28949        49.000  

  26249618.88349 137942677.41049      8696.14149        48.000  

  22330719.06249 117348720.49249      3841.64849        50.000  

  22370307.99249 117556760.94949     13874.08249        50.000  

 16 04 02 13 06 26.4000000  0  5G25G06G30G20G12                                 
  23626653.56249 124158900.68449     -7198.27349        49.000  

  23652021.00049 124292208.29349     -9037.05549        49.000  

  26249453.44549 137941807.85949      8694.34449        48.000  

  22330645.99249 117348336.52749      3837.18049        50.000  

  22370044.00049 117555373.61349     13872.07049        50.000  

 16 04 02 13 06 26.5000000  0  5G25G06G30G20G12                                 
  23626790.55549 124159620.60249     -7199.91849        49.000  

  23652193.00849 124293112.14849     -9039.45349        49.000  

  26249288.02349 137940938.58249      8691.79749        48.000  

  22330573.03149 117347953.10249      3831.99649        50.000  

  22369780.05549 117553986.58249     13869.31249        50.000  

 16 04 02 13 06 26.6000000  0  5G25G06G30G20G12                                 
  23626927.57049 124160340.62149     -7201.16449        49.000  

  23652365.03149 124294016.12949     -9040.83249        49.000  

  26249122.66449 137940069.42649      8690.42649        48.000  

  22330500.14849 117347570.08249      3827.78549        50.000  

  22369516.15649 117552599.70749     13867.57049        50.000  

 16 04 02 13 06 26.7000000  0  5G25G06G30G20G12                                 
  23627064.62549 124161060.88749     -7203.65249        49.000  

  23652537.10249 124294920.38749     -9043.81649        49.000  

  26248957.32049 137939200.55549      8687.63749        48.000  

  22330427.36749 117347187.60549      3822.26649        50.000  

  22369252.30549 117551213.13349     13864.55549        50.000  

 16 04 02 13 06 26.8000000  0  5G25G06G30G20G12                                 
  23627201.71149 124161781.25849     -7204.67649        49.000  

  23652709.20349 124295824.76249     -9044.95749        49.000  

  26248792.06249 137938331.82449      8686.33649        48.000  

  22330354.65649 117346805.55549      3818.02349        50.000  

  22368988.48449 117549826.75049     13862.74649        50.000  

 16 04 02 13 06 26.9000000  0  5G25G06G30G20G12                                 
  23627338.82849 124162501.77749     -7206.15649        49.000  

  23652881.38349 124296729.34049     -9046.91449        49.000  

  26248626.78149 137937463.27349      8684.32849        48.000  

  22330282.03949 117346423.94949      3813.57049        50.000  

  22368724.70349 117548440.56649     13860.56249        50.000  

 16 04 02 13 06 27.0000000  0  5G25G06G30G20G12                                 
  23627475.97749 124163222.51249     -7208.20349        49.000  

  23653053.56249 124297634.16849     -9049.31649        49.000  

  26248461.62549 137936594.98449      8681.91849        48.000  

  22330209.53149 117346042.89149      3808.31649        50.000  

  22368460.99249 117547054.67249     13857.78149        50.000  

 16 04 02 13 06 27.1000000  0  5G25G06G30G20G12                                 
  23627613.15649 124163943.40249     -7209.98849        49.000  

  23653225.79749 124298539.17649     -9051.39149        49.000  

  26248296.43049 137935726.87549      8679.80549        48.000  

  22330137.10949 117345662.29349      3803.28949        50.000  

  22368197.30549 117545669.00049     13855.41449        50.000  

 16 04 02 13 06 27.2000000  0  5G25G06G30G20G12                                 
  23627750.36749 124164664.44549     -7211.40249        49.000  

  23653398.05549 124299444.38749     -9053.29349        49.000  

  26248131.25849 137934858.98049      8677.79749        48.000  

  22330064.76649 117345282.16049      3798.69549        50.000  

  22367933.65649 117544283.56249     13853.13749        50.000  

 16 04 02 13 06 27.3000000  0  5G25G06G30G20G12                                 
  23627887.61749 124165385.68849     -7213.35949        49.000  

  23653570.33649 124300349.81649     -9055.46149        49.000  

  26247966.14149 137933991.30949      8675.56649        48.000  

  22329992.52349 117344902.51649      3793.98849        50.000  

  22367670.06249 117542898.36749     13850.75049        50.000  

 16 04 02 13 06 27.4000000  0  5G25G06G30G20G12                                 
  23628024.90649 124166107.16849     -7215.74649        49.000  

  23653742.68849 124301255.51649     -9058.23049        49.000  

  26247801.10249 137933123.89849      8672.76649        48.000  

  22329920.38349 117344523.42649      3788.33649        50.000  

  22367406.51649 117541513.47749     13847.46549        50.000  

 16 04 02 13 06 27.5000000  0  5G25G06G30G20G12                                 
  23628162.23449 124166828.82049     -7217.48449        49.000  

  23653915.09449 124302161.40649     -9060.19149        49.000  

  26247636.07849 137932256.70349      8670.72749        48.000  

  22329848.33649 117344144.82849      3783.44149        50.000  

  22367143.02349 117540128.83649     13845.07049        50.000  

 16 04 02 13 06 27.6000000  0  5G25G06G30G20G12                                 
  23628299.58649 124167550.59849     -7218.72349        49.000  

  23654087.51649 124303067.48849     -9061.90649        49.000  

  26247471.10949 137931389.66849      8669.04349        48.000  

  22329776.37549 117343766.66449      3779.12149        50.000  

  22366879.58649 117538744.38349     13843.21949        50.000  

 16 04 02 13 06 27.7000000  0  5G25G06G30G20G12                                 
  23628436.97749 124168272.54749     -7220.12149        49.000  

  23654259.95349 124303973.74649     -9063.41849        49.000  

  26247306.15649 137930522.84449      8667.52049        48.000  

  22329704.50049 117343388.97349      3774.86749        50.000  

  22366616.17249 117537360.16449     13841.21149        50.000  

 16 04 02 13 06 27.8000000  0  5G25G06G30G20G12                                 
  23628574.37549 124168994.61349     -7221.78949        49.000  

  23654432.44549 124304880.18449     -9065.68049        49.000  

  26247141.20349 137929656.18849      8665.38349        48.000  

  22329632.71149 117343011.72349      3769.98449        50.000  

  22366352.78949 117535976.13749     13838.94149        50.000  

 16 04 02 13 06 27.9000000  0  5G25G06G30G20G12                                 
  23628711.84449 124169716.98049     -7224.57449        49.000  

  23654605.02349 124305786.93849     -9068.55949        49.000  

  26246976.35249 137928789.85549      8662.18849        48.000  

  22329561.03949 117342635.08249      3764.05549        50.000  

  22366089.48449 117534592.48449     13835.37949        50.000  

 16 04 02 13 06 28.0000000  0  5G25G06G30G20G12                                 
  23628849.33649 124170439.48449     -7226.11749        49.000  

  23654777.60949 124306693.85549     -9070.40249        49.000  

  26246811.53949 137927923.69149      8660.37549        48.000  

  22329489.44549 117342258.86749      3759.53949        50.000  

  22365826.21949 117533209.01249     13833.28949        50.000  

 16 04 02 13 06 28.1000000  0  5G25G06G30G20G12                                 
  23628986.85249 124171162.10549     -7226.97349        49.000  

  23654950.24249 124307600.93449     -9071.89849        49.000  

  26246646.74249 137927057.68849      8659.02349        48.000  

  22329417.93849 117341883.10249      3755.28149        50.000  

  22365562.99249 117531825.73849     13831.59449        50.000  

 16 04 02 13 06 28.2000000  0  5G25G06G30G20G12                                 
  23629124.38349 124171884.86749     -7228.59449        49.000  

  23655122.88349 124308508.18849     -9073.71149        49.000  

  26246481.97749 137926191.87949      8656.98449        48.000  

  22329346.51649 117341507.78549      3750.71549        50.000  

  22365299.80549 117530442.68049     13829.42649        50.000  

 16 04 02 13 06 28.3000000  0  5G25G06G30G20G12                                 
  23629261.97749 124172607.87549     -7230.98449        49.000  

  23655295.58649 124309415.70349     -9076.25849        49.000  

  26246317.26649 137925326.31249      8654.41849        48.000  

  22329275.19549 117341133.00449      3745.37949        50.000  

  22365036.67249 117529059.90649     13826.51249        50.000  

 16 04 02 13 06 28.4000000  0  5G25G06G30G20G12                                 
  23629399.57849 124173331.00049     -7232.13349        49.000  

  23655468.31249 124310323.38749     -9077.97349        49.000  

  26246152.56249 137924460.94149      8652.66049        48.000  

  22329203.96149 117340758.67649      3740.86749        50.000  

  22364773.57049 117527677.35549     13824.42649        50.000  

 16 04 02 13 06 28.5000000  0  5G25G06G30G20G12                                 
  23629537.21949 124174054.27349     -7233.79349        49.000  

  23655641.05549 124311231.25449     -9079.87149        49.000  

  26245987.92249 137923595.73049      8650.91049        48.000  

  22329132.81249 117340384.79749      3736.29349        50.000  

  22364510.51649 117526295.00449     13822.25849        50.000  

 16 04 02 13 06 28.6000000  0  5G25G06G30G20G12                                 
  23629674.87549 124174777.69949     -7235.17249        49.000  

  23655813.85249 124312139.30949     -9081.62949        49.000  

  26245823.30549 137922730.72749      8649.05149        48.000  

  22329061.75849 117340011.38749      3731.76249        50.000  

  22364247.52349 117524912.87549     13820.17649        50.000  

 16 04 02 13 06 28.7000000  0  5G25G06G30G20G12                                 
  23629812.57849 124175501.28949     -7236.89149        49.000  

  23655986.68049 124313047.53549     -9083.46549        49.000  

  26245658.73449 137921865.90649      8646.88749        48.000  

  22328990.78949 117339638.43849      3727.04749        50.000  

  22363984.55549 117523530.96549     13817.81649        50.000  

 16 04 02 13 06 28.8000000  0  5G25G06G30G20G12                                 
  23629950.32849 124176225.15249     -7239.63349        49.000  

  23656159.57049 124313956.09449     -9086.62149        49.000  

  26245494.21949 137921001.40249      8643.87949        48.000  

  22328919.93849 117339266.08249      3721.16449        50.000  

  22363721.68049 117522149.39549     13814.38749        50.000  

 16 04 02 13 06 28.9000000  0  5G25G06G30G20G12                                 
  23630088.08649 124176949.06649     -7240.35549        49.000  

  23656332.49249 124314864.73849     -9087.59049        49.000  

  26245329.72749 137920136.99649      8642.89549        48.000  

  22328849.14849 117338894.09049      3717.37149        50.000  

  22363458.79749 117520767.96149     13813.10249        50.000  

 16 04 02 13 06 29.0000000  0  5G25G06G30G20G12                                 
  23630225.88349 124177673.18049     -7241.83649        49.000  

  23656505.44549 124315773.60949     -9089.63349        49.000  

  26245165.27349 137919272.82049      8640.89149        48.000  

  22328778.45349 117338522.60549      3712.69949        50.000  

  22363195.96149 117519386.78549     13810.82049        50.000  

 16 04 02 13 06 29.1000000  0  5G25G06G30G20G12                                 
  23630363.71149 124178397.45749     -7243.70749        49.000  

  23656678.44549 124316682.68049     -9091.83249        49.000  

  26245000.85949 137918408.85249      8638.57049        48.000  

  22328707.85249 117338151.59849      3707.64849        50.000  

  22362933.17249 117518005.84049     13808.24649        50.000  

 16 04 02 13 06 29.2000000  0  5G25G06G30G20G12                                 
  23630501.57849 124179121.93449     -7245.68449        49.000  

  23656851.47749 124317591.96549     -9093.97349        49.000  

  26244836.50849 137917545.09449      8636.41849        48.000  

  22328637.34449 117337781.08649      3702.69949        50.000  

  22362670.44549 117516625.15249     13805.71149        50.000  

 16 04 02 13 06 29.3000000  0  5G25G06G30G20G12                                 
  23630639.46949 124179846.55949     -7247.38349        49.000  

  23657024.55549 124318501.44549     -9096.11349        49.000  

  26244672.18849 137916681.55549      8634.12149        48.000  

  22328566.93049 117337411.05149      3697.75449        50.000  

  22362407.75049 117515244.69949     13803.18449        50.000  

 16 04 02 13 06 29.4000000  0  5G25G06G30G20G12                                 
  23630777.40649 124180571.41449     -7249.48049        49.000  

  23657197.67249 124319411.18449     -9098.50849        49.000  

  26244507.89849 137915818.26249      8631.80149        48.000  

  22328496.60949 117337041.54349      3692.61749        50.000  

  22362145.12549 117513864.52749     13800.44549        50.000  

 16 04 02 13 06 29.5000000  0  5G25G06G30G20G12                                 
  23630915.35949 124181296.41049     -7250.82449        49.000  

  23657370.82849 124320321.09049     -9100.19149        49.000  

  26244343.65649 137914955.14849      8629.97349        48.000  

  22328426.38349 117336672.48849      3688.17249        50.000  

  22361882.52349 117512484.55549     13798.63349        50.000  

 16 04 02 13 06 29.6000000  0  5G25G06G30G20G12                                 
  23631053.35949 124182021.59849     -7252.86749        49.000  

  23657544.02349 124321231.25049     -9102.78149        49.000  

  26244179.45349 137914092.28149      8627.39849        48.000  

  22328356.25049 117336303.94949      3682.84049        50.000  

  22361619.97749 117511104.86749     13795.61749        50.000  

 16 04 02 13 06 29.7000000  0  5G25G06G30G20G12                                 
  23631191.39149 124182746.93049     -7254.17249        49.000  

  23657717.22749 124322141.55549     -9104.08249        49.000  

  26244015.28149 137913229.57049      8626.10549        48.000  

  22328286.20349 117335935.85249      3678.59049        50.000  

  22361357.47749 117509725.38749     13793.71949        50.000  

 16 04 02 13 06 29.8000000  0  5G25G06G30G20G12                                 
  23631329.43849 124183472.36749     -7255.46149        49.000  

  23657890.48449 124323052.02349     -9105.84049        49.000  

  26243851.16449 137912367.02749      8624.23449        48.000  

  22328216.23449 117335568.18449      3674.24249        50.000  

  22361095.00049 117508346.08249     13791.79349        50.000  

 16 04 02 13 06 29.9000000  0  5G25G06G30G20G12                                 
  23631467.54749 124184198.09049     -7258.07049        49.000  

  23658063.81249 124323962.80949     -9108.95749        49.000  

  26243687.08649 137911504.79749      8621.16849        48.000  

  22328146.38349 117335201.10549      3668.37949        50.000  

  22360832.58649 117506967.12149     13788.38749        50.000  

 16 04 02 13 06 30.0000000  0  5G25G06G30G20G12                                 
  23631605.67249 124184923.95349     -7259.37149        49.000  

  23658237.15649 124324873.73449     -9110.30149        49.000  

  26243523.06249 137910642.73049      8619.65649        48.000  

  22328076.60949 117334834.45749      3664.19549        50.000  

  22360570.21149 117505588.34849     13786.62949        50.000  

 16 04 02 13 06 30.1000000  0  5G25G06G30G20G12                                 
  23631743.80549 124185649.84849     -7259.66449        49.000  

  23658410.53149 124325784.75449     -9111.17649        49.000  

  26243359.03149 137909780.74249      8618.93849        48.000  

  22328006.91449 117334468.17649      3660.54349        50.000  

  22360307.86749 117504209.71149     13785.37149        50.000  

 16 04 02 13 06 30.2000000  0  5G25G06G30G20G12                                 
  23631881.99249 124186375.98849     -7262.42249        49.000  

  23658583.94549 124326696.05149     -9114.08249        49.000  

  26243195.06249 137908919.03949      8615.98449        48.000  

  22327937.30549 117334102.44149      3654.95749        50.000  

  22360045.56249 117502831.36349     13782.27349        50.000  

 16 04 02 13 06 30.3000000  0  5G25G06G30G20G12                                 
  23632020.20349 124187102.34449     -7264.58249        49.000  

  23658757.42249 124327607.59049     -9116.51649        49.000  

  26243031.13349 137908057.57849      8613.43049        48.000  

  22327867.81249 117333737.24649      3649.45349        50.000  

  22359783.32849 117501453.30949     13779.33249        50.000  

 16 04 02 13 06 30.4000000  0  5G25G06G30G20G12                                 
  23632158.43849 124187828.78949     -7265.28549        49.000  

  23658930.89849 124328519.23849     -9117.58249        49.000  

  26242867.24249 137907196.26249      8612.19549        48.000  

  22327798.38349 117333372.43049      3645.71949        50.000  

  22359521.10949 117500075.39849     13778.00449        50.000  

 16 04 02 13 06 30.5000000  0  5G25G06G30G20G12                                 
  23632296.72749 124188555.43449     -7267.41849        49.000  

  23659104.45349 124329431.14549     -9120.20349        49.000  

  26242703.38349 137906335.17649      8609.54349        48.000  

  22327729.06249 117333008.13749      3640.52049        50.000  

  22359258.96149 117498697.77349     13775.02349        50.000  

 16 04 02 13 06 30.6000000  0  5G25G06G30G20G12                                 
  23632435.03949 124189282.29349     -7269.51649        49.000  

  23659278.03149 124330343.27749     -9122.38349        49.000  

  26242539.56249 137905474.34049      8607.25849        48.000  

  22327659.84449 117332644.36749      3635.38749        50.000  

  22358996.84449 117497320.42649     13772.24249        50.000  

 16 04 02 13 06 30.7000000  0  5G25G06G30G20G12                                 
  23632573.38349 124190009.27349     -7270.68049        49.000  

  23659451.63349 124331255.58649     -9124.21949        49.000  

  26242375.78149 137904613.66849      8605.61349        48.000  

  22327590.70349 117332281.04349      3630.85549        50.000  

  22358734.78149 117495943.27049     13770.39149        50.000  

 16 04 02 13 06 30.8000000  0  5G25G06G30G20G12                                 
  23632711.75849 124190736.46949     -7272.83649        49.000  

  23659625.28149 124332168.12549     -9126.47349        49.000  

  26242212.02349 137903753.23449      8603.33649        48.000  

  22327521.65649 117331918.22349      3625.84849        50.000  

  22358472.77349 117494566.38749     13767.69149        50.000  

 16 04 02 13 06 30.9000000  0  5G25G06G30G20G12                                 
  23632850.18049 124191463.84449     -7274.90249        49.000  

  23659798.96949 124333080.87949     -9128.75449        49.000  

  26242048.33649 137902893.02749      8600.78949        48.000  

  22327452.71149 117331555.90649      3620.57849        50.000  

  22358210.81249 117493189.75449     13765.00849        50.000  

 16 04 02 13 06 31.0000000  0  5G25G06G30G20G12                                 
  23632988.63349 124192191.44149     -7277.15649        49.000  

  23659972.71149 124333993.89149     -9131.43049        49.000  

  26241884.69549 137902033.07449      8598.14149        48.000  

  22327383.86749 117331194.10949      3615.33649        50.000  

  22357948.92249 117491813.41049     13762.12949        50.000  

 16 04 02 13 06 31.1000000  0  5G25G06G30G20G12                                 
  23633127.11749 124192919.19149     -7278.39149        49.000  

  23660146.50049 124334907.09049     -9133.09449        49.000  

  26241721.09449 137901173.32449      8596.43849        48.000  

  22327315.10949 117330832.79749      3610.72749        50.000  

  22357687.05549 117490437.29749     13759.87149        50.000  

 16 04 02 13 06 31.2000000  0  5G25G06G30G20G12                                 
  23633265.64149 124193647.13749     -7280.44149        49.000  

  23660320.32049 124335820.52049     -9135.44149        49.000  

  26241557.50849 137900313.80149      8594.10549        48.000  

  22327246.44549 117330471.98049      3605.72749        50.000  

  22357425.24249 117489061.44149     13757.34849        50.000  

 16 04 02 13 06 31.3000000  0  5G25G06G30G20G12                                 
  23633404.19549 124194375.25449     -7282.13349        49.000  

  23660494.19549 124336734.14549     -9137.43049        49.000  

  26241393.98449 137899454.48049      8592.07849        48.000  

  22327177.87549 117330111.64849      3600.84049        50.000  

  22357163.46949 117487685.82449     13754.93049        50.000  

 16 04 02 13 06 31.4000000  0  5G25G06G30G20G12                                 
  23633542.78149 124195103.50449     -7283.40649        49.000  

  23660668.08649 124337647.94149     -9139.04749        49.000  

  26241230.48449 137898595.34049      8590.39849        48.000  

  22327109.39149 117329751.75449      3596.49649        50.000  

  22356901.72749 117486310.41049     13753.04749        50.000  

 16 04 02 13 06 31.5000000  0  5G25G06G30G20G12                                 
  23633681.39849 124195831.93449     -7285.11749        49.000  

  23660842.03149 124338561.94549     -9141.20349        49.000  

  26241067.03949 137897736.41849      8588.11349        48.000  

  22327041.00049 117329392.35949      3591.64149        50.000  

  22356640.03949 117484935.24649     13750.58649        50.000  

 16 04 02 13 06 31.6000000  0  5G25G06G30G20G12                                 
  23633820.03149 124196560.48849     -7286.52049        49.000  

  23661015.99249 124339476.11349     -9142.68049        49.000  

  26240903.61749 137896877.62949      8586.78149        48.000  

  22326972.69549 117329033.39849      3587.21949        50.000  

  22356378.36749 117483560.27049     13748.64549        50.000  

 16 04 02 13 06 31.7000000  0  5G25G06G30G20G12                                 
  23633958.72749 124197289.27349     -7288.80949        49.000  

  23661190.00849 124340390.54349     -9145.49649        49.000  

  26240740.25049 137896019.13749      8583.71149        48.000  

  22326904.49249 117328674.97749      3581.76249        50.000  

  22356116.77349 117482185.59449     13745.50449        50.000  

 16 04 02 13 06 31.8000000  0  5G25G06G30G20G12                                 
  23634097.44549 124198018.24249     -7290.71949        49.000  

  23661364.06249 124341305.19149     -9147.76249        49.000  

  26240576.92249 137895160.87949      8581.50849        48.000  

  22326836.37549 117328317.04749      3576.74249        50.000  

  22355855.24249 117480811.17249     13742.91049        50.000  

 16 04 02 13 06 31.9000000  0  5G25G06G30G20G12                                 
  23634236.19549 124198747.30949     -7291.66049        49.000  

  23661538.13349 124342219.96949     -9148.78549        49.000  

  26240413.61749 137894302.72749      8580.47349        48.000  

  22326768.34449 117327959.53549      3572.66049        50.000  

  22355593.73449 117479436.91449     13741.33649        50.000  

 16 04 02 13 06 32.0000000  0  5G25G06G30G20G12                                 
  23634374.96149 124199476.55149     -7293.15249        49.000  

  23661712.25049 124343134.95349     -9150.82049        49.000  

  26240250.33649 137893444.80549      8578.26249        48.000  

  22326700.39849 117327602.50049      3568.03949        50.000  

  22355332.28949 117478062.89849     13739.09849        50.000  

 16 04 02 13 06 32.1000000  0  5G25G06G30G20G12                                 
  23634513.76649 124200205.92649     -7294.62149        49.000  

  23661886.41449 124344050.09449     -9152.51649        49.000  

  26240087.10949 137892587.05149      8576.55549        48.000  

  22326632.53949 117327245.90249      3563.58649        50.000  

  22355070.85949 117476689.08649     13736.92649        50.000  

 16 04 02 13 06 32.2000000  0  5G25G06G30G20G12                                 
  23634652.60949 124200935.54349     -7296.98449        49.000  

  23662060.61749 124344965.52049     -9155.27749        49.000  

  26239923.94549 137891729.56249      8573.75849        48.000  

  22326564.78149 117326889.87549      3557.88349        50.000  

  22354809.49249 117475315.58649     13733.88749        50.000  

 16 04 02 13 06 32.3000000  0  5G25G06G30G20G12                                 
  23634791.47749 124201665.27749     -7298.39149        49.000  

  23662234.83649 124345881.09449     -9156.97749        49.000  

  26239760.80549 137890872.24649      8572.14149        48.000  

  22326497.11749 117326534.27749      3553.56649        50.000  

  22354548.16449 117473942.27049     13731.89549        50.000  

 16 04 02 13 06 32.4000000  0  5G25G06G30G20G12                                 
  23634930.37549 124202395.20749     -7300.36749        49.000  

  23662409.10249 124346796.89849     -9159.18049        49.000  

  26239597.71949 137890015.15249      8569.71549        48.000  

  22326429.54749 117326179.17649      3548.53149        50.000  

  22354286.89149 117472569.21949     13729.28149        50.000  

 16 04 02 13 06 32.5000000  0  5G25G06G30G20G12                                 
  23635069.31249 124203125.33649     -7302.23449        49.000  

  23662583.43049 124347712.93449     -9161.49249        49.000  

  26239434.67249 137889158.30949      8567.24249        48.000  

  22326362.07049 117325824.58249      3543.37549        50.000  

  22354025.65649 117471196.43449     13726.54749        50.000  

 16 04 02 13 06 32.6000000  0  5G25G06G30G20G12                                 
  23635208.28949 124203855.64849     -7304.10249        49.000  

  23662757.78949 124348629.18849     -9163.67649        49.000  

  26239271.66449 137888301.66449      8565.38749        48.000  

  22326294.68049 117325470.49649      3538.46149        50.000  

  22353764.46149 117469823.89549     13724.05549        50.000  

 16 04 02 13 06 32.7000000  0  5G25G06G30G20G12                                 
  23635347.28949 124204586.13349     -7305.87949        49.000  

  23662932.17249 124349545.64149     -9165.75049        49.000  

  26239108.69549 137887445.25849      8562.98449        48.000  

  22326227.39149 117325116.88349      3533.60549        50.000  

  22353503.32849 117468451.60549     13721.58249        50.000  

 16 04 02 13 06 32.8000000  0  5G25G06G30G20G12                                 
  23635486.32049 124205316.73849     -7307.13349        49.000  

  23663106.60249 124350462.25449     -9167.40249        49.000  

  26238945.74249 137886588.99649      8561.29749        48.000  

  22326160.18849 117324763.71949      3529.13749        50.000  

  22353242.23449 117467079.50849     13719.65649        50.000  

 16 04 02 13 06 32.9000000  0  5G25G06G30G20G12                                 
  23635625.39849 124206047.62949     -7309.65249        49.000  

  23663281.06249 124351379.16849     -9170.21949        49.000  

  26238782.85949 137885733.04749      8558.39549        48.000  

  22326093.09449 117324411.12549      3523.54349        50.000  

  22352981.19549 117465707.75049     13716.43449        50.000  

 16 04 02 13 06 33.0000000  0  5G25G06G30G20G12                                 
  23635764.50049 124206778.58649     -7310.53549        49.000  

  23663455.56249 124352296.19549     -9171.43049        49.000  

  26238620.00849 137884877.21949      8557.23449        48.000  

  22326026.07849 117324058.92649      3519.53949        50.000  

  22352720.20349 117464336.13349     13714.96549        50.000  

 16 04 02 13 06 33.1000000  0  5G25G06G30G20G12                                 
  23635903.62549 124207509.71949     -7312.48049        49.000  

  23663630.11749 124353213.43049     -9173.55549        49.000  

  26238457.18849 137884021.59049      8555.10249        48.000  

  22325959.14849 117323707.21949      3514.53149        50.000  

  22352459.24249 117462964.77349     13712.34049        50.000  

 16 04 02 13 06 33.2000000  0  5G25G06G30G20G12                                 
  23636042.79749 124208241.03949     -7313.96949        49.000  

  23663804.70349 124354130.88349     -9175.58249        49.000  

  26238294.41449 137883166.19949      8553.07049        48.000  

  22325892.30549 117323356.00449      3509.83249        50.000  

  22352198.32049 117461593.65649     13710.08649        50.000  

 16 04 02 13 06 33.3000000  0  5G25G06G30G20G12                                 
  23636181.97749 124208972.45749     -7315.07849        49.000  

  23663979.28949 124355048.46549     -9176.96549        49.000  

  26238131.66449 137882310.94149      8551.46549        48.000  

  22325825.54749 117323005.18849      3505.73849        50.000  

  22351937.43849 117460222.71149     13708.22749        50.000  

 16 04 02 13 06 33.4000000  0  5G25G06G30G20G12                                 
  23636321.20349 124209704.10249     -7317.13349        49.000  

  23664153.94549 124355966.30549     -9179.33249        49.000  

  26237968.93849 137881455.93049      8549.28549        48.000  

  22325758.90649 117322654.93449      3500.38349        50.000  

  22351676.64149 117458852.06249     13705.51249        50.000  

 16 04 02 13 06 33.5000000  0  5G25G06G30G20G12                                 
  23636460.47749 124210435.93449     -7319.05949        49.000  

  23664328.62549 124356884.36749     -9181.57449        49.000  

  26237806.28149 137880601.16449      8546.80949        48.000  

  22325692.34449 117322305.15649      3495.43049        50.000  

  22351415.85949 117457481.66449     13702.82049        50.000  

 16 04 02 13 06 33.6000000  0  5G25G06G30G20G12                                 
  23636599.76649 124211167.90249     -7320.77349        49.000  

  23664503.35949 124357802.60249     -9183.62149        49.000  

  26237643.65649 137879746.57849      8544.59449        48.000  

  22325625.87549 117321955.83649      3490.69949        50.000  

  22351155.10949 117456111.47749     13700.52749        50.000  

 16 04 02 13 06 33.7000000  0  5G25G06G30G20G12                                 
  23636739.08649 124211900.05549     -7322.43049        49.000  

  23664678.14149 124358721.04349     -9185.48449        49.000  

  26237481.07849 137878892.19549      8542.73449        48.000  

  22325559.49249 117321607.01649      3485.80149        50.000  

  22350894.41449 117454741.53549     13698.25849        50.000  

 16 04 02 13 06 33.8000000  0  5G25G06G30G20G12                                 
  23636878.43049 124212632.32449     -7323.49249        49.000  

  23664852.94549 124359639.63749     -9186.87549        49.000  

  26237318.53949 137878037.97749      8541.23849        48.000  

  22325493.18849 117321258.60249      3481.81649        50.000  

  22350633.78149 117453371.78149     13696.40249        50.000  

 16 04 02 13 06 33.9000000  0  5G25G06G30G20G12                                 
  23637017.82049 124213364.81249     -7325.77049        49.000  

  23665027.79749 124360558.48849     -9189.46549        49.000  

  26237156.03949 137877184.01649      8538.54749        48.000  

  22325427.00049 117320910.75449      3476.21549        50.000  

  22350373.18049 117452002.32049     13693.55949        50.000  

 16 04 02 13 06 34.0000000  0  5G25G06G30G20G12                                 
  23637157.23449 124214097.46949     -7327.47349        49.000  

  23665202.68849 124361477.53949     -9191.56249        49.000  

  26236993.55549 137876330.26249      8536.48849        48.000  

  22325360.89149 117320563.36349      3471.47349        50.000  

  22350112.63349 117450633.09849     13691.02349        50.000  

 16 04 02 13 06 34.1000000  0  5G25G06G30G20G12                                 
  23637296.68849 124214830.25049     -7328.77349        49.000  

  23665377.60249 124362396.73849     -9193.12949        49.000  

  26236831.12549 137875476.66449      8534.88749        48.000  

  22325294.86749 117320216.41049      3467.12549        50.000  

  22349852.10949 117449264.06249     13689.16049        50.000  

 16 04 02 13 06 34.2000000  0  5G25G06G30G20G12                                 
  23637436.16449 124215563.18849     -7330.07849        49.000  

  23665552.55549 124363316.12949     -9194.88349        49.000  

  26236668.73449 137874623.26249      8533.08649        48.000  

  22325228.93849 117319869.93049      3462.55949        50.000  

  22349591.64149 117447895.24649     13687.10249        50.000  

 16 04 02 13 06 34.3000000  0  5G25G06G30G20G12                                 
  23637575.67249 124216296.30149     -7332.03549        49.000  

  23665727.54749 124364235.73049     -9197.07049        49.000  

  26236506.38349 137873770.08649      8530.66849        48.000  

  22325163.09449 117319523.94549      3457.50449        50.000  

  22349331.21949 117446526.69949     13684.43849        50.000  

 16 04 02 13 06 34.4000000  0  5G25G06G30G20G12                                 
  23637715.20349 124217029.55149     -7333.25049        49.000  

  23665902.57849 124365155.51249     -9198.71149        49.000  

  26236344.07049 137872917.07049      8529.16849        48.000  

  22325097.34449 117319178.40249      3453.08649        50.000  

  22349070.82849 117445158.34449     13682.45349        50.000  

 16 04 02 13 06 34.5000000  0  5G25G06G30G20G12                                 
  23637854.78149 124217763.02049     -7335.39149        49.000  

  23666077.64849 124366075.52049     -9201.07849        49.000  

  26236181.79749 137872064.31249      8526.69149        48.000  

  22325031.68849 117318833.37549      3447.94549        50.000  

  22348810.49249 117443790.27049     13679.74249        50.000  

 16 04 02 13 06 34.6000000  0  5G25G06G30G20G12                                 
  23637994.37549 124218496.60249     -7336.84049        49.000  

  23666252.75049 124366995.69149     -9202.86749        49.000  

  26236019.57849 137871211.70749      8524.90249        48.000  

  22324966.11749 117318488.78949      3443.41449        50.000  

  22348550.20349 117442422.38349     13677.61349        50.000  

 16 04 02 13 06 34.7000000  0  5G25G06G30G20G12                                 
  23638134.00849 124219230.38349     -7338.66049        49.000  

  23666427.90649 124367916.09449     -9205.10249        49.000  

  26235857.38349 137870359.35249      8522.59049        48.000  

  22324900.64149 117318144.71949      3438.35949        50.000  

  22348289.95349 117441054.77349     13674.96549        50.000  

 16 04 02 13 06 34.8000000  0  5G25G06G30G20G12                                 
  23638273.68849 124219964.39549     -7341.20749        49.000  

  23666603.10249 124368836.74649     -9207.79749        49.000  

  26235695.22749 137869507.23449      8519.89549        48.000  

  22324835.26649 117317801.16849      3432.86349        50.000  

  22348029.74249 117439687.44149     13671.89149        50.000  

 16 04 02 13 06 34.9000000  0  5G25G06G30G20G12                                 
  23638413.38349 124220698.52049     -7342.18449        49.000  

  23666778.32049 124369757.55949     -9209.26649        49.000  

  26235533.10949 137868655.30549      8518.32449        48.000  

  22324769.97749 117317458.06249      3428.62149        50.000  

  22347769.58649 117438320.31249     13670.04749        50.000  

 16 04 02 13 06 35.0000000  0  5G25G06G30G20G12                                 
  23638553.10949 124221432.80949     -7343.72349        49.000  

  23666953.58649 124370678.55149     -9210.94549        49.000  

  26235370.98449 137867803.55549      8516.42649        48.000  

  22324704.77349 117317115.43049      3423.97349        50.000  

  22347509.45349 117436953.40249     13667.96549        50.000  

 16 04 02 13 06 35.1000000  0  5G25G06G30G20G12                                 
  23638692.86749 124222167.21949     -7344.91849        49.000  

  23667128.88349 124371599.71949     -9212.60549        49.000  

  26235208.93849 137866951.98049      8514.68849        48.000  

  22324639.65649 117316773.23049      3419.58249        50.000  

  22347249.38349 117435586.70749     13665.85949        50.000  

 16 04 02 13 06 35.2000000  0  5G25G06G30G20G12                                 
  23638832.65649 124222901.77349     -7346.43049        49.000  

  23667304.21149 124372521.05149     -9214.40649        49.000  

  26235046.90649 137866100.57849      8512.90649        48.000    26235050.37541
 107428145.34051      6633.43441        22.000  
  22324574.62549 117316431.48449      3415.09049        50.000  

  22346989.33649 117434220.20349     13663.80549        50.000  

 16 04 02 13 06 35.3000000  0  5G25G06G30G20G12                                 
  23638972.49249 124223636.59049     -7349.20349        49.000  

  23667479.60249 124373442.67649     -9217.51249        49.000  

  26234884.95349 137865249.47749      8509.75449        48.000    26234888.42241
 107427482.16841      6630.97741        23.000  
  22324509.70349 117316090.32449      3409.14549        50.000  

  22346729.36749 117432854.03949     13660.31249        50.000  

 16 04 02 13 06 35.4000000  0  5G25G06G30G20G12                                 
  23639112.35949 124224371.57849     -7350.91049        49.000  

  23667655.01649 124374364.49649     -9219.39849        49.000  

  26234723.01649 137864398.57449      8507.81249        48.000    26234724.85941
 107426819.15241      6629.46541        20.000  
  22324444.87549 117315749.61749      3404.51249        50.000  

  22346469.43849 117431488.10249     13658.03149        50.000  

 16 04 02 13 06 35.5000000  0  5G25G06G30G20G12                                 
  23639252.24249 124225106.69549     -7351.91449        49.000  

  23667830.45349 124375286.49249     -9220.78949        49.000  

  26234561.13349 137863547.85949      8506.22749        48.000    26234562.98441
 107426156.28541      6628.22741        20.000  
  22324380.12549 117315409.37549      3400.22749        50.000  

  22346209.54749 117430122.37549     13656.27349        50.000  

 16 04 02 13 06 35.6000000  0  5G25G06G30G20G12                                 
  23639392.16449 124225841.96549     -7353.77049        49.000  

  23668005.93849 124376208.66449     -9222.93449        49.000  

  26234399.28149 137862697.33649      8504.02049        48.000    26234397.22741
 107425493.53141      6626.50841        20.000  
  22324315.46949 117315069.59449      3395.37149        50.000  

  22345949.68849 117428756.87149     13653.82449        50.000  

 16 04 02 13 06 35.7000000  0  5G25G06G30G20G12                                 
  23639532.10249 124226577.39149     -7355.07049        49.000  

  23668181.46149 124377131.03949     -9224.55949        49.000  

  26234237.46949 137861846.98849      8502.45349        48.000    26234235.40641
 107424830.90641      6625.28541        25.000  
  22324250.89849 117314730.28549      3390.85249        50.000  

  22345689.89149 117427391.60249     13651.65249        50.000  

 16 04 02 13 06 35.8000000  0  5G25G06G30G20G12                                 
  23639672.08649 124227313.02049     -7357.14549        49.000  

  23668357.03149 124378053.63349     -9227.05549        49.000  

  26234075.70349 137860996.89149      8499.85949        48.000    26234073.70341
 107424168.46941      6623.26641        22.000  
  22324186.43049 117314391.48449      3385.57449        50.000  

  22345430.13349 117426026.59049     13648.89849        50.000  

 16 04 02 13 06 35.9000000  0  5G25G06G30G20G12                                 
  23639812.09449 124228048.75849     -7358.32049        49.000  

  23668532.64849 124378976.37549     -9228.40249        49.000  

  26233913.96149 137860146.94149      8498.39149        48.000    26233911.96141
 107423506.15241      6622.12141        20.000  
  22324122.03949 117314053.11749      3381.31649        50.000  

  22345170.42249 117424661.76649     13647.15249        50.000  

 16 04 02 13 06 36.0000000  0  5G25G06G30G20G12                                 
  23639952.13349 124228784.66849     -7359.91049        49.000  

  23668708.28149 124379899.32449     -9230.63749        49.000  

  26233752.24249 137859297.20749      8496.27749        48.000    26233747.09441
 107422844.00041      6620.47741        20.000  
  22324057.74249 117313715.22349      3376.52349        50.000  

  22344910.75049 117423297.18049     13644.62149        50.000  

 16 04 02 13 06 36.1000000  0  5G25G06G30G20G12                                 
  23640092.21149 124229520.75449     -7361.55549        49.000  

  23668883.94549 124380822.47349     -9232.43449        49.000  

  26233590.57849 137858447.66849      8494.54349        48.000    26233585.43041
 107422182.02041      6619.12541        20.000  
  22323993.53149 117313377.82049      3371.71549        50.000  

  22344651.12549 117421932.84449     13642.28549        50.000  

 16 04 02 13 06 36.2000000  0  5G25G06G30G20G12                                 
  23640232.31249 124230256.98849     -7362.99249        49.000  

  23669059.64849 124381745.80549     -9234.24249        49.000  

  26233428.94549 137857598.34049      8492.41049        48.000    26233425.18041
 107421520.20341      6617.46141        20.000  
  22323929.42249 117313040.87949      3367.10549        50.000  

  22344391.53949 117420568.71549     13640.15649        50.000  

 16 04 02 13 06 36.3000000  0  5G25G06G30G20G12                                 
  23640372.43849 124230993.37549     -7364.86749        49.000  

  23669235.37549 124382669.31649     -9236.23049        49.000  

  26233267.35949 137856749.18449      8490.38349        48.000    26233263.59441
 107420858.52041      6615.88341        20.000  
  22323865.38349 117312704.39149      3362.41449        50.000  

  22344132.00049 117419204.80949     13637.82449        50.000  

 16 04 02 13 06 36.4000000  0  5G25G06G30G20G12                                 
  23640512.60949 124231729.97749     -7366.91449        49.000  

  23669411.16449 124383593.07449     -9238.71949        49.000  

  26233105.82049 137855900.29749      8487.85249        48.000    26233098.14841
 107420197.05141      6613.91041        21.000  
  22323801.46149 117312368.44149      3357.14849        50.000  

  22343872.52349 117417841.19549     13635.00049        50.000  

 16 04 02 13 06 36.5000000  0  5G25G06G30G20G12                                 
  23640652.81249 124232466.75449     -7368.73049        49.000  

  23669587.00849 124384517.06249     -9240.97749        49.000  

  26232944.32049 137855051.61749      8485.68449        48.000    26232936.64841
 107419535.73841      6612.22341        20.000  
  22323737.62549 117312032.98049      3352.13749        50.000  

  22343613.08649 117416477.82849     13632.39549        50.000  

 16 04 02 13 06 36.6000000  0  5G25G06G30G20G12                                 
  23640793.04749 124233203.69949     -7370.54749        49.000  

  23669762.86749 124385441.21549     -9242.77349        49.000  

  26232782.85249 137854203.14149      8483.59449        48.000    26232773.37541
 107418874.58241      6610.59441        23.000  
  22323673.88349 117311698.00049      3347.32049        50.000  

  22343353.69549 117415114.69149     13630.14149        50.000  

 16 04 02 13 06 36.7000000  0  5G25G06G30G20G12                                 
  23640933.28949 124233940.70349     -7370.76649        49.000  

  23669938.75049 124386365.48449     -9243.55949        49.000  

  26232621.40649 137853354.77049      8482.73449        48.000    26232611.93841
 107418213.50841      6609.92641        20.000  
  22323610.21149 117311363.39149      3343.87549        50.000  

  22343094.32849 117413751.69549     13628.95349        50.000  

 16 04 02 13 06 36.8000000  0  5G25G06G30G20G12                                 
  23641073.57049 124234677.86749     -7372.28149        49.000  

  23670114.67249 124387289.94149     -9245.35249        49.000  

  26232460.01649 137852506.59849      8480.88349        48.000    26232450.54741
 107417552.59041      6608.48041        20.000  
  22323546.62549 117311029.25849      3339.19149        50.000  

  22342835.00049 117412388.93049     13626.70349        50.000  

 16 04 02 13 06 36.9000000  0  5G25G06G30G20G12                                 
  23641213.89149 124235415.23449     -7374.53549        49.000  

  23670290.64849 124388214.62949     -9247.86349        49.000  

  26232298.65649 137851658.64849      8478.57049        48.000    26232289.18841
 107416891.84441      6606.67641        20.000  
  22323483.13349 117310695.62149      3334.00449        50.000  

  22342575.71949 117411026.40649     13624.14149        50.000  

 16 04 02 13 06 37.0000000  0  5G25G06G30G20G12                                 
  23641354.23449 124236152.77349     -7376.35249        49.000  

  23670466.64849 124389139.51249     -9250.03149        49.000  

  26232137.32849 137850810.92249      8476.02049        48.000    26232123.96141
 107416231.27341      6604.69141        20.000  
  22323419.74249 117310362.48849      3328.87549        50.000  

  22342316.49249 117409664.15649     13621.36749        50.000  

 16 04 02 13 06 37.1000000  0  5G25G06G30G20G12                                 
  23641494.60949 124236890.44949     -7377.57449        49.000  

  23670642.67249 124390064.58249     -9251.70349        49.000  

  26231976.04749 137849963.38349      8474.36349        48.000    26231962.68841
 107415570.85941      6603.40241        20.000  
  22323356.43849 117310029.79749      3324.50449        50.000  

  22342057.30549 117408302.10949     13619.27049        50.000  

 16 04 02 13 06 37.2000000  0  5G25G06G30G20G12                                 
  23641635.01649 124237628.25049     -7378.87549        49.000  

  23670818.73449 124390989.80149     -9253.16049        49.000  

  26231814.78149 137849115.99249      8472.95749        48.000    26231800.74241
 107414910.56241      6602.30541        20.000  
  22323293.21149 117309697.54349      3320.26249        50.000  

  22341798.15649 117406940.25449     13617.39849        50.000  

 16 04 02 13 06 37.3000000  0  5G25G06G30G20G12                                 
  23641775.46949 124238366.33249     -7381.71149        49.000  

  23670994.85249 124391915.32849     -9256.51649        49.000  

  26231653.58649 137848268.92649      8469.48449        48.000    26231639.55541
 107414250.52041      6599.59841        20.000  
  22323230.10249 117309365.89549      3313.96949        50.000  

  22341539.07049 117405578.75049     13613.72349        50.000  

 16 04 02 13 06 37.4000000  0  5G25G06G30G20G12                                 
  23641915.93849 124239104.51249     -7382.74249        49.000  

  23671171.00049 124392840.98449     -9257.57049        49.000  

  26231492.43849 137847421.99249      8468.26249        48.000    26231476.08641
 107413590.57841      6598.64541        20.000  
  22323167.06249 117309034.62949      3310.18049        50.000  

  22341280.00049 117404217.39549     13612.41849        50.000  

 16 04 02 13 06 37.5000000  0  5G25G06G30G20G12                                 
  23642056.44549 124239842.85949     -7384.26249        49.000  

  23671347.19549 124393766.84449     -9259.55149        49.000  

  26231331.30549 137846575.26649      8466.27349        48.000    26231314.96141
 107412930.80141      6597.09441        20.000  
  22323104.12549 117308703.86749      3305.34449        50.000  

  22341020.99249 117402856.30949     13609.81249        50.000  

 16 04 02 13 06 37.6000000  0  5G25G06G30G20G12                                 
  23642196.97749 124240581.36749     -7385.96549        49.000  

  23671523.41449 124394692.89849     -9261.64849        49.000  

  26231170.22749 137845728.75049      8464.06649        48.000  

  22323041.27349 117308373.58249      3300.48849        50.000  

  22340762.01649 117401495.43049     13607.50049        50.000  

 16 04 02 13 06 37.7000000  0  5G25G06G30G20G12                                 
  23642337.54749 124241320.02349     -7387.35249        49.000  

  23671699.67249 124395619.12149     -9263.18049        49.000  

  26231009.17249 137844882.40649      8462.49249        48.000  

  22322978.50849 117308043.73449      3296.15649        50.000  

  22340503.09449 117400134.78949     13605.38749        50.000  

 16 04 02 13 06 37.8000000  0  5G25G06G30G20G12                                 
  23642478.14149 124242058.84849     -7389.12949        49.000  

  23671875.96949 124396545.54749     -9265.31249        49.000  

  26230848.14849 137844036.27749      8460.23849        48.000  

  22322915.82849 117307714.38349      3291.20749        50.000  

  22340244.21149 117398774.35949     13603.17249        50.000  

 16 04 02 13 06 37.9000000  0  5G25G06G30G20G12                                 
  23642618.75849 124242797.78549     -7390.23449        49.000  

  23672052.26649 124397472.12549     -9266.77049        49.000  

  26230687.16449 137843190.29349      8458.64549        48.000  

  22322853.23449 117307385.46149      3286.84049        50.000  

  22339985.36749 117397414.13749     13601.08249        50.000  

 16 04 02 13 06 38.0000000  0  5G25G06G30G20G12                                 
  23642759.41449 124243536.94149     -7392.60249        49.000  

  23672228.64149 124398398.95349     -9269.35549        49.000  

  26230526.24249 137842344.57049      8456.09449        48.000  

  22322790.74249 117307057.05949      3281.52349        50.000  

  22339726.58649 117396054.19549     13598.22349        50.000  

 16 04 02 13 06 38.1000000  0  5G25G06G30G20G12                                 
  23642900.10249 124244276.26249     -7394.36349        49.000  

  23672405.05549 124399325.98849     -9271.59849        49.000  

  26230365.34449 137841499.06649      8453.70349        48.000  

  22322728.35249 117306729.15649      3276.48049        50.000  

  22339467.84449 117394694.50849     13595.58649        50.000  

 16 04 02 13 06 38.2000000  0  5G25G06G30G20G12                                 
  23643040.82049 124245015.75849     -7395.55949        49.000  

  23672581.50049 124400253.21149     -9273.17249        49.000  

  26230204.51649 137840653.75049      8452.31249        48.000  

  22322666.03949 117306401.71949      3272.08249        50.000  

  22339209.14149 117393335.03949     13593.60249        50.000  

 16 04 02 13 06 38.3000000  0  5G25G06G30G20G12                                 
  23643181.58649 124245755.40649     -7397.30949        49.000  

  23672757.96949 124401180.61749     -9275.06649        49.000  

  26230043.69549 137839808.63349      8450.13349        48.000  

  22322603.82049 117306074.75049      3267.31249        50.000  

  22338950.49249 117391975.79349     13591.32049        50.000  

 16 04 02 13 06 38.4000000  0  5G25G06G30G20G12                                 
  23643322.35949 124246495.18049     -7398.67649        49.000  

  23672934.47749 124402108.17649     -9276.64849        49.000  

  26229882.90649 137838963.68049      8448.39549        48.000  

  22322541.68049 117305748.21549      3262.94549        50.000  

  22338691.86749 117390616.74649     13589.35249        50.000  

 16 04 02 13 06 38.5000000  0  5G25G06G30G20G12                                 
  23643463.17249 124247235.18849     -7401.34049        49.000  

  23673111.04749 124403036.03149     -9279.94149        49.000  

  26229722.17249 137838119.01249      8445.41849        48.000  

  22322479.65649 117305422.25449      3256.98449        50.000  

  22338433.31249 117389258.02749     13585.83249        50.000  

 16 04 02 13 06 38.6000000  0  5G25G06G30G20G12                                 
  23643604.02349 124247975.35549     -7402.50049        49.000  

  23673287.64149 124403964.04349     -9281.15249        49.000  

  26229561.49249 137837274.52349      8443.75449        48.000  

  22322417.70349 117305096.73049      3252.79349        50.000  

  22338174.78149 117387899.50849     13584.04349        50.000  

 16 04 02 13 06 38.7000000  0  5G25G06G30G20G12                                 
  23643744.89149 124248715.64549     -7403.66449        49.000  

  23673464.25849 124404892.22749     -9282.88349        49.000  

  26229400.82049 137836430.21149      8442.04749        48.000  

  22322355.84449 117304771.65649      3248.39549        50.000  

  22337916.30549 117386541.18449     13582.07849        50.000  

 16 04 02 13 06 38.8000000  0  5G25G06G30G20G12                                 
  23643885.79749 124249456.07849     -7405.46949        49.000  

  23673640.92249 124405820.59449     -9284.90249        49.000  

  26229240.19549 137835586.08649      8440.06649        48.000  

  22322294.07049 117304447.05149      3243.53549        50.000  

  22337657.87549 117385183.10249     13579.57449        50.000  

 16 04 02 13 06 38.9000000  0  5G25G06G30G20G12                                 
  23644026.71949 124250196.67249     -7406.80149        49.000  

  23673817.61749 124406749.14149     -9286.40649        49.000  

  26229079.59449 137834742.14549      8438.46149        48.000  

  22322232.39149 117304122.90649      3239.17249        50.000  

  22337399.47749 117383825.23849     13577.57449        50.000  

 16 04 02 13 06 39.0000000  0  5G25G06G30G20G12                                 
  23644167.68049 124250937.43049     -7408.30549        49.000  

  23673994.35249 124407677.88349     -9288.43449        49.000  

  26228919.03949 137833898.41849      8436.31649        48.000  

  22322170.79749 117303799.24249      3234.35249        50.000  

  22337141.13349 117382467.60249     13575.23449        50.000  

 16 04 02 13 06 39.1000000  0  5G25G06G30G20G12                                 
  23644308.67249 124251678.36349     -7410.27349        49.000  

  23674171.12549 124408606.82849     -9290.58249        49.000  

  26228758.52349 137833054.90249      8434.09849        48.000  

  22322109.29749 117303476.06649      3229.25449        50.000  

  22336882.82849 117381110.21149     13572.66849        50.000  

 16 04 02 13 06 39.2000000  0  5G25G06G30G20G12                                 
  23644449.71149 124252419.49249     -7412.21549        49.000  

  23674347.94549 124409536.00449     -9292.98849        49.000  

  26228598.05549 137832211.60549      8431.69949        48.000  

  22322047.89849 117303153.39149      3224.17249        50.000  

  22336624.57049 117379753.09049     13569.80149        50.000  

 16 04 02 13 06 39.3000000  0  5G25G06G30G20G12                                 
  23644590.76649 124253160.76649     -7413.56649        49.000  

  23674524.79749 124410465.35549     -9294.50049        49.000  

  26228437.61749 137831368.50449      8429.98049        48.000  

  22321986.58649 117302831.18849      3219.73449        50.000  

  22336366.35949 117378396.18049     13567.93049        50.000  

 16 04 02 13 06 39.4000000  0  5G25G06G30G20G12                                 
  23644731.85949 124253902.19149     -7415.25849        49.000  

  23674701.68049 124411394.88749     -9296.49649        49.000  

  26228277.21949 137830525.60249      8427.98049        48.000  

  22321925.35949 117302509.43449      3215.07849        50.000  

  22336108.18849 117377039.49249     13565.64149        50.000  

 16 04 02 13 06 39.5000000  0  5G25G06G30G20G12                                 
  23644872.98449 124254643.80149     -7416.80949        49.000  

  23674878.60249 124412324.64149     -9298.44149        49.000  

  26228116.86749 137829682.91449      8425.89849        48.000  

  22321864.22749 117302188.19149      3210.12149        50.000  

  22335850.07049 117375683.07049     13563.12149        50.000  

 16 04 02 13 06 39.6000000  0  5G25G06G30G20G12                                 
  23645014.13349 124255385.53549     -7418.33649        49.000  

  23675055.55549 124413254.54749     -9300.25049        49.000  

  26227956.51649 137828840.39549      8424.00849        48.000  

  22321803.18049 117301867.37549      3205.67249        50.000  

  22335591.98449 117374326.83249     13560.99249        50.000  

 16 04 02 13 06 39.7000000  0  5G25G06G30G20G12                                 
  23645155.30549 124256127.43449     -7419.89549        49.000  

  23675232.53149 124414184.65249     -9301.97749        49.000  

  26227796.22749 137827998.07049      8422.21549        48.000  

  22321742.21949 117301547.03949      3200.94949        50.000  

  22335333.95349 117372970.83249     13558.90649        50.000  

 16 04 02 13 06 39.8000000  0  5G25G06G30G20G12                                 
  23645296.52349 124256869.54749     -7422.21149        49.000  

  23675409.57049 124415115.00049     -9304.65649        49.000  

  26227636.00049 137827156.00449      8419.53549        48.000  

  22321681.36749 117301227.24249      3195.50049        50.000  

  22335075.96149 117371615.12149     13555.92649        50.000  

 16 04 02 13 06 39.9000000  0  5G25G06G30G20G12                                 
  23645437.77349 124257611.82849     -7423.75849        49.000  

  23675586.64849 124416045.54349     -9306.47749        49.000  

  26227475.80549 137826314.14549      8417.60949        48.000  

  22321620.60249 117300907.91449      3190.83649        50.000  

  22334818.02349 117370259.64549     13553.56249        50.000  

 16 04 02 13 06 40.0000000  0  5G25G06G30G20G12                                 
  23645579.04749 124258354.23049     -7424.81249        49.000  

  23675763.75849 124416976.25849     -9308.14149        49.000  

  26227315.63349 137825472.46549      8415.77749        48.000  

  22321559.92249 117300589.02749      3186.52049        50.000  

  22334560.13349 117368904.37549     13551.57049        50.000  

 16 04 02 13 06 40.1000000  0  5G25G06G30G20G12                                 
  23645720.35249 124259096.77349     -7426.28549        49.000  

  23675940.89149 124417907.11749     -9309.69149        49.000  

  26227155.49249 137824630.93849      8414.20749        48.000  

  22321499.32849 117300270.58649      3182.06249        50.000  

  22334302.27349 117367549.29749     13549.66449        50.000  

 16 04 02 13 06 40.2000000  0  5G25G06G30G20G12                                 
  23645861.68049 124259839.46949     -7428.08649        49.000  

  23676118.06249 124418838.17649     -9311.82449        49.000  

  26226995.39849 137823789.61349      8412.16849        48.000  

  22321438.82049 117299952.61749      3177.31249        50.000  

  22334044.46149 117366194.45349     13547.29349        50.000  

 16 04 02 13 06 40.3000000  0  5G25G06G30G20G12                                 
  23646003.06249 124260582.39149     -7430.06249        49.000  

  23676295.30549 124419769.50449     -9314.06649        49.000  

  26226835.35249 137822948.55549      8409.65649        48.000  

  22321378.41449 117299635.19549      3172.04749        50.000  

  22333786.70349 117364839.91049     13544.52749        50.000  

 16 04 02 13 06 40.4000000  0  5G25G06G30G20G12                                 
  23646144.44549 124261325.39849     -7430.92649        49.000  

  23676472.54749 124420700.91449     -9315.35949        49.000  

  26226675.32849 137822107.61349      8408.36349        48.000  

  22321318.09449 117299318.15649      3167.99249        50.000  

  22333528.96149 117363485.51649     13542.72349        50.000  

 16 04 02 13 06 40.5000000  0  5G25G06G30G20G12                                 
  23646285.89149 124262068.64849     -7433.57449        49.000  

  23676649.84449 124421632.63749     -9318.21949        49.000  

  26226515.35949 137821266.96149      8405.46149        48.000  

  22321257.86749 117299001.68049      3162.33649        50.000  

  22333271.28949 117362131.43849     13539.56249        50.000  

 16 04 02 13 06 40.6000000  0  5G25G06G30G20G12                                 
  23646427.35249 124262812.05149     -7434.78949        49.000  

  23676827.17249 124422564.51649     -9319.79349        49.000  

  26226355.43049 137820426.49649      8403.61349        48.000  

  22321197.72749 117298685.66849      3157.75049        50.000  

  22333013.64849 117360777.57049     13537.53549        50.000  

 16 04 02 13 06 40.7000000  0  5G25G06G30G20G12                                 
  23646568.82049 124263555.48849     -7435.24649        49.000  

  23677004.52349 124423496.47749     -9320.70349        49.000  

  26226195.51649 137819586.12149      8402.62149        48.000  

  22321137.65649 117298370.01649      3154.17649        50.000  

  22332756.04749 117359423.84049     13536.18449        50.000  

 16 04 02 13 06 40.8000000  0  5G25G06G30G20G12                                 
  23646710.35249 124264299.21949     -7437.98049        49.000  

  23677181.93049 124424428.74649     -9323.60549        49.000  

  26226035.64849 137818746.06249      8399.59849        48.000  

  22321077.70349 117298054.95349      3148.38749        50.000  

  22332498.49249 117358070.44549     13532.90249        50.000  

 16 04 02 13 06 40.9000000  0  5G25G06G30G20G12                                 
  23646851.89849 124265043.06649     -7439.39549        49.000  

  23677359.36749 124425361.18049     -9325.47749        49.000  

  26225875.82049 137817906.15649      8397.85949        48.000  

  22321017.83649 117297740.33649      3143.69949        50.000  

  22332240.99249 117356717.25449     13530.63749        50.000  

 16 04 02 13 06 41.0000000  0  5G25G06G30G20G12                                 
  23646993.48449 124265787.06649     -7440.93449        49.000  

  23677536.83649 124426293.79749     -9327.20349        49.000  

  26225716.03149 137817066.44949      8396.00449        48.000  

  22320958.05549 117297426.18049      3139.17649        50.000  

  22331983.53149 117355364.28949     13528.47349        50.000  

 16 04 02 13 06 41.1000000  0  5G25G06G30G20G12                                 
  23647135.09449 124266531.25449     -7442.77049        49.000  

  23677714.34449 124427226.62149     -9329.48049        49.000  

  26225556.28149 137816226.97349      8393.59849        48.000  

  22320898.36749 117297112.52049      3134.14549        50.000  

  22331726.11749 117354011.57049     13525.99649        50.000  

 16 04 02 13 06 41.2000000  0  5G25G06G30G20G12                                 
  23647276.73449 124267275.58649     -7444.04349        49.000  

  23677891.89149 124428159.62149     -9330.94549        49.000  

  26225396.57049 137815387.67249      8392.10249        48.000  

  22320838.77349 117296799.31649      3129.73449        50.000  

  22331468.74249 117352659.07449     13523.88749        50.000  

 16 04 02 13 06 41.3000000  0  5G25G06G30G20G12                                 
  23647418.40649 124268020.04349     -7445.37149        49.000  

  23678069.46949 124429092.77749     -9332.52349        49.000  

  26225236.89149 137814548.53549      8390.42249        48.000  

  22320779.25049 117296486.55149      3125.44549        50.000  

  22331211.40649 117351306.75849     13522.07849        50.000  

 16 04 02 13 06 41.4000000  0  5G25G06G30G20G12                                 
  23647560.10949 124268764.73449     -7447.78149        49.000  

  23678247.09449 124430026.20349     -9335.27749        49.000  

  26225077.27349 137813709.67249      8387.59849        48.000  

  22320719.84449 117296174.33649      3119.78149        50.000  

  22330954.13349 117349954.76649     13518.81249        50.000  

 16 04 02 13 06 41.5000000  0  5G25G06G30G20G12                                 
  23647701.85949 124269509.54349     -7449.11349        49.000  

  23678424.75849 124430959.78949     -9337.02349        49.000  

  26224917.68049 137812870.98449      8385.64549        48.000  

  22320660.51649 117295862.56649      3115.12549        50.000  

  22330696.89849 117348602.97749     13516.51649        50.000  

 16 04 02 13 06 41.6000000  0  5G25G06G30G20G12                                 
  23647843.60949 124270254.48049     -7450.43049        49.000  

  23678602.43849 124431893.51249     -9338.40249        49.000  

  26224758.12549 137812032.44549      8384.23849        48.000  

  22320601.27349 117295551.22349      3110.98449        50.000  

  22330439.70349 117347251.36349     13514.91449        50.000  

 16 04 02 13 06 41.7000000  0  5G25G06G30G20G12                                 
  23647985.41449 124270999.62549     -7452.30949        49.000  

  23678780.15649 124432827.48449     -9340.74649        49.000  

  26224598.60249 137811194.14849      8381.80549        48.000  

  22320542.12549 117295240.39549      3105.88749        50.000  

  22330182.55549 117345900.03149     13512.10949        50.000  

 16 04 02 13 06 41.8000000  0  5G25G06G30G20G12                                 
  23648127.23449 124271744.90649     -7453.52049        49.000  

  23678957.92249 124433761.62549     -9342.19549        49.000  

  26224439.11749 137810356.03949      8380.20749        48.000  

  22320483.07049 117294930.03149      3101.47349        50.000  

  22329925.44549 117344548.91049     13510.23849        50.000  

 16 04 02 13 06 41.9000000  0  5G25G06G30G20G12                                 
  23648269.07849 124272490.28149     -7454.81649        49.000  

  23679135.71949 124434695.89849     -9343.80149        49.000  

  26224279.65649 137809518.06249      8378.62549        48.000  

  22320424.08649 117294620.07449      3097.13749        50.000  

  22329668.36749 117343197.96149     13508.34449        50.000  

 16 04 02 13 06 42.0000000  0  5G25G06G30G20G12                                 
  23648410.96149 124273235.89849     -7456.94549        49.000  

  23679313.55549 124435630.42649     -9346.25049        49.000  

  26224120.23449 137808680.36349      8376.18849        48.000    26224114.53941
 107383364.43851      6526.89841        20.000  
  22320365.21149 117294310.66849      3091.86749        50.000  

  22329411.35249 117341847.32449     13505.40649        50.000  

 16 04 02 13 06 42.1000000  0  5G25G06G30G20G12                                 
  23648552.86749 124273981.62549     -7458.00449        49.000  

  23679491.41449 124436565.10549     -9347.72749        49.000  

  26223960.85249 137807842.82049      8374.39549        48.000    26223955.17241
 107382711.83641      6525.50041        20.000  
  22320306.41449 117294001.68849      3087.48049        50.000  

  22329154.36749 117340496.86349     13503.41449        50.000  

 16 04 02 13 06 42.2000000  0  5G25G06G30G20G12                                 
  23648694.81249 124274727.54749     -7460.28149        49.000  

  23679669.32049 124437500.01249     -9350.31649        49.000  

  26223801.51649 137807005.50449      8371.85249        48.000    26223794.30541
 107382059.41041      6523.52041        20.000  
  22320247.71949 117293693.21549      3082.15649        50.000  

  22328897.43049 117339146.67249     13500.55549        50.000  

 16 04 02 13 06 42.3000000  0  5G25G06G30G20G12                                 
  23648836.78949 124275473.64549     -7461.87549        49.000  

  23679847.25849 124438435.11349     -9352.05549        49.000  

  26223642.21949 137806168.40649      8369.95349        48.000    26223635.02341
 107381407.15641      6522.04341        20.000  
  22320189.10949 117293385.23049      3077.40649        50.000  

  22328640.53949 117337796.72349     13498.20749        50.000  

 16 04 02 13 06 42.4000000  0  5G25G06G30G20G12                                 
  23648978.78949 124276219.84849     -7463.06249        49.000  

  23680025.22749 124439370.36749     -9353.64849        49.000  

  26223482.94549 137805331.44949      8368.34049        48.000  

  22320130.58649 117293077.66849      3073.18049        50.000  

  22328383.68049 117336446.95349     13496.44949        50.000  

 16 04 02 13 06 42.5000000  0  5G25G06G30G20G12                                 
  23649120.81249 124276966.17649     -7463.91849        49.000  

  23680203.24249 124440305.77749     -9354.89549        49.000  

  26223323.71149 137804494.67649      8366.98449        48.000  

  22320072.14149 117292770.54349      3069.10549        50.000  

  22328126.86749 117335097.39149     13494.77349        50.000  

 16 04 02 13 06 42.6000000  0  5G25G06G30G20G12                                 
  23649262.86749 124277712.69949     -7466.24249        49.000  

  23680381.28149 124441241.39549     -9357.34849        49.000  

  26223164.50849 137803658.11749      8364.33649        48.000  

  22320013.79749 117292463.93049      3063.68049        50.000  

  22327870.10249 117333748.09049     13491.71949        50.000  

 16 04 02 13 06 42.7000000  0  5G25G06G30G20G12                                 
  23649404.96949 124278459.41449     -7468.01249        49.000  

  23680559.35249 124442177.25449     -9359.52349        49.000  

  26223005.36749 137802821.79749      8362.21549        48.000  

  22319955.54749 117292157.81249      3058.79749        50.000  

  22327613.39149 117332399.04749     13489.18849        50.000  

 16 04 02 13 06 42.8000000  0  5G25G06G30G20G12                                 
  23649547.08649 124279206.27349     -7469.43449        49.000  

  23680737.47749 124443113.28149     -9361.33249        49.000  

  26222846.25049 137801985.65249      8360.35949        48.000  

  22319897.37549 117291852.16449      3054.07049        50.000  

  22327356.71149 117331050.22349     13487.01649        50.000  

 16 04 02 13 06 42.9000000  0  5G25G06G30G20G12                                 
  23649689.25049 124279953.32849     -7471.56249        49.000  

  23680915.64149 124444049.52749     -9363.62949        49.000  

  26222687.18049 137801149.75049      8357.93449        48.000  

  22319839.30549 117291547.01649      3048.98049        50.000  

  22327100.08649 117329701.65649     13484.45349        50.000  

 16 04 02 13 06 43.0000000  0  5G25G06G30G20G12                                 
  23649831.43049 124280700.52049     -7472.91049        49.000  

  23681093.83649 124444985.95349     -9365.42249        49.000  

  26222528.13349 137800314.02749      8356.08249        48.000  

  22319781.32849 117291242.32449      3044.42649        50.000  

  22326843.50049 117328353.32449     13482.05949        50.000  

 16 04 02 13 06 43.1000000  0  5G25G06G30G20G12                                 
  23649973.66449 124281447.94149     -7475.05549        49.000  

  23681272.08649 124445922.62549     -9367.71149        49.000  

  26222369.14849 137799478.57049      8353.59449        48.000  

  22319723.45349 117290938.18049      3039.07449        50.000  

  22326586.97749 117327005.27049     13479.36749        50.000  

 16 04 02 13 06 43.2000000  0  5G25G06G30G20G12                                 
  23650115.90649 124282195.42649     -7475.68849        49.000  

  23681450.35249 124446859.40649     -9368.81649        49.000  

  26222210.17249 137798643.20349      8352.67249        48.000  

  22319665.64149 117290634.40249      3035.34849        50.000  

  22326330.47749 117325657.35949     13477.93049        50.000  

 16 04 02 13 06 43.3000000  0  5G25G06G30G20G12                                 
  23650258.17249 124282943.07049     -7477.42249        49.000  

  23681628.66449 124447796.37549     -9370.84449        49.000  

  26222051.25049 137797808.06649      8350.16049        48.000  

  22319607.93049 117290331.11349      3030.47349        50.000  

  22326074.02349 117324309.68849     13475.52349        50.000  

 16 04 02 13 06 43.4000000  0  5G25G06G30G20G12                                 
  23650400.48449 124283690.93449     -7479.20749        49.000  

  23681807.00849 124448733.59049     -9372.93849        49.000  

  26221892.35949 137796973.16849      8348.10549        48.000  

  22319550.32049 117290028.35249      3025.41449        50.000  

  22325817.61749 117322962.29749     13472.88349        50.000  

 16 04 02 13 06 43.5000000  0  5G25G06G30G20G12                                 
  23650542.81249 124284438.87949     -7480.39849        49.000  

  23681985.37549 124449670.91449     -9374.32849        49.000  

  26221733.50849 137796138.38749      8346.77749        48.000    26221722.83641
 107373570.77051      6503.98041        20.000  
  22319492.77349 117289725.97349      3021.34049        50.000  

  22325561.25049 117321615.06649     13471.07849        50.000  

 16 04 02 13 06 43.6000000  0  5G25G06G30G20G12                                 
  23650685.18049 124285187.00449     -7482.05549        49.000  

  23682163.78149 124450608.44549     -9376.20749        49.000  

  26221574.68049 137795303.82449      8344.74649        48.000    26221560.12541
 107372920.45741      6502.39841        20.000  
  22319435.32849 117289424.09049      3016.54349        50.000  

  22325304.93049 117320268.07049     13468.85949        50.000  

 16 04 02 13 06 43.7000000  0  5G25G06G30G20G12                                 
  23650827.56249 124285935.27049     -7483.79349        49.000  

  23682342.23449 124451546.16049     -9378.40649        49.000  

  26221415.90649 137794469.45749      8342.37949        48.000    26221401.35241
 107372270.30141      6500.55541        20.000  
  22319377.96949 117289122.67649      3011.62549        50.000  

  22325048.65649 117318921.31249     13466.28149        50.000  

 16 04 02 13 06 43.8000000  0  5G25G06G30G20G12                                 
  23650969.99249 124286683.70749     -7485.17249        49.000  

  23682520.71149 124452484.07049     -9380.08249        49.000  

  26221257.17249 137793635.31249      8340.34449        48.000    26221246.51641
 107371620.32041      6498.96941        20.000  
  22319320.71149 117288821.75049      3006.93049        50.000  

  22324792.42249 117317574.78949     13464.10949        50.000  

 16 04 02 13 06 43.9000000  0  5G25G06G30G20G12                                 
  23651112.43849 124287432.28949     -7486.60949        49.000  

  23682699.23449 124453422.15249     -9381.87949        49.000  

  26221098.46949 137792801.30949      8338.90249        48.000    26221087.81241
 107370970.43041      6497.84841        20.000  
  22319263.53149 117288521.26249      3002.46549        50.000  

  22324536.21949 117316228.47349     13461.98849        50.000  

 16 04 02 13 06 44.0000000  0  5G25G06G30G20G12                                 
  23651254.92249 124288181.05549     -7488.81649        49.000  

  23682877.78949 124454360.46149     -9384.41049        49.000  

  26220939.80549 137791967.56249      8336.21949        48.000    26220928.19541
 107370320.74241      6495.75441        24.000  
  22319206.44549 117288221.29349      2997.18049        50.000  

  22324280.07049 117314882.42649     13459.12549        50.000  

 16 04 02 13 06 44.1000000  0  5G25G06G30G20G12                                 
  23651397.44549 124288930.02049     -7490.60249        49.000  

  23683056.36749 124455298.98849     -9386.38749        49.000  

  26220781.19549 137791134.05549      8333.88749        48.000    26220769.57841
 107369671.23841      6493.93841        21.000  
  22319149.46149 117287921.82849      2992.19549        50.000  

  22324023.98449 117313536.64849     13456.52349        50.000  

 16 04 02 13 06 44.2000000  0  5G25G06G30G20G12                                 
  23651540.00049 124289679.16849     -7492.45349        49.000  

  23683235.00849 124456237.73849     -9388.69549        49.000  

  26220622.62549 137790300.75849      8331.73449        48.000    26220608.19541
 107369021.89841      6492.26241        20.000  
  22319092.57049 117287622.86349      2987.18449        50.000  

  22323767.92249 117312191.12149     13453.99649        50.000  

 16 04 02 13 06 44.3000000  0  5G25G06G30G20G12                                 
  23651682.59449 124290428.47349     -7493.85249        49.000  

  23683413.67249 124457176.66849     -9390.30149        49.000  

  26220464.08649 137789467.65649      8330.06649        48.000    26220449.65641
 107368372.71541      6490.96141        21.000  
  22319035.76649 117287324.36349      2982.60949        50.000  

  22323511.92249 117310845.82049     13451.82849        50.000  

 16 04 02 13 06 44.4000000  0  5G25G06G30G20G12                                 
  23651825.20349 124291177.89149     -7494.94949        49.000  

  23683592.37549 124458115.74249     -9391.68049        49.000  

  26220305.58649 137788634.71149      8328.44949        48.000    26220290.89141
 107367723.65641      6489.70341        20.000  
  22318979.03949 117287026.29349      2978.43049        50.000  

  22323255.96149 117309500.71549     13450.00849        50.000  

 16 04 02 13 06 44.5000000  0  5G25G06G30G20G12                                 
  23651967.85249 124291927.49249     -7496.92649        49.000  

  23683771.11749 124459055.03949     -9394.04349        49.000  

  26220147.12549 137787801.99249      8326.20749        48.000    26220132.43041
 107367074.77741      6487.95341        20.000  
  22318922.41449 117286728.72749      2973.28949        50.000  

  22323000.04749 117308155.86349     13447.26249        50.000  

 16 04 02 13 06 44.6000000  0  5G25G06G30G20G12                                 
  23652110.53149 124292677.30149     -7499.17249        49.000  

  23683949.89849 124459994.55549     -9396.56649        49.000  

  26219988.70349 137786969.51649      8323.51249        48.000    26219971.88341
 107366426.08641      6485.85241        22.000  
  22318865.88349 117286431.68049      2967.90249        50.000  

  22322744.18049 117306811.28549     13444.41049        50.000  

 16 04 02 13 06 44.7000000  0  5G25G06G30G20G12                                 
  23652253.25049 124293427.26249     -7500.22349        49.000  

  23684128.73449 124460934.27349     -9397.92249        49.000  

  26219830.32849 137786137.24649      8321.96949        48.000    26219813.50841
 107365777.55941      6484.64841        25.000  
  22318809.44549 117286135.09449      2963.64849        50.000  

  22322488.35949 117305466.93849     13442.52349        50.000  

 16 04 02 13 06 44.8000000  0  5G25G06G30G20G12                                 
  23652395.98449 124294177.35949     -7501.81649        49.000  

  23684307.57849 124461874.14149     -9399.66449        49.000  

  26219671.98449 137785305.12549      8320.02049        48.000    26219653.87541
 107365129.14541      6483.13341        22.000  
  22318753.09449 117285838.95749      2958.93449        50.000  

  22322232.57049 117304122.78149     13440.39549        50.000  

 16 04 02 13 06 44.9000000  0  5G25G06G30G20G12                                 
  23652538.75049 124294927.59849     -7503.23049        49.000  

  23684486.46949 124462814.19549     -9401.57449        49.000  

  26219513.67249 137784473.21149      8318.12549        48.000    26219495.56241
 107364480.89541      6481.65641        20.000  
  22318696.83649 117285543.29349      2954.25449        50.000  

  22321976.83649 117302778.87549     13437.94549        50.000  

 16 04 02 13 06 45.0000000  0  5G25G06G30G20G12                                 
  23652681.55549 124295678.01649     -7505.18049        49.000  

  23684665.39849 124463754.45749     -9403.80549        49.000  

  26219355.40649 137783641.51249      8315.93049        48.000    26219334.03941
 107363832.80941      6479.94541        20.000  
  22318640.65649 117285248.09849      2949.46549        50.000  

  22321721.13349 117301435.19149     13435.52749        50.000    22321722.00841
  91403719.95351     10469.24241        20.000  
 16 04 02 13 06 45.1000000  0  5G25G06G30G20G12                                 
  23652824.38349 124296428.55949     -7506.12949        49.000  

  23684844.35249 124464694.87549     -9404.98449        49.000  

  26219197.17249 137782809.97749      8314.41449        48.000    26219175.79741
 107363184.85241      6478.76641        20.000  
  22318584.57049 117284953.36349      2945.09849        50.000  

  22321465.47749 117300091.71949     13433.66449        50.000    22321468.35241
  91402673.09441     10467.78941        20.000  
 16 04 02 13 06 45.2000000  0  5G25G06G30G20G12                                 
  23652967.23449 124297179.24649     -7507.71949        49.000  

  23685023.33649 124465635.45749     -9406.87949        49.000  

  26219038.96949 137781978.60949      8312.51249        48.000    26219018.59441
 107362537.02741      6477.28141        20.000  
  22318528.57049 117284659.07449      2940.52049        50.000  

  22321209.87549 117298748.45349     13431.43049        50.000    22321212.73441
  91401626.39141     10466.05141        20.000  
 16 04 02 13 06 45.3000000  0  5G25G06G30G20G12                                 
  23653110.10949 124297930.07049     -7508.96949        49.000  

  23685202.36749 124466576.21549     -9408.53149        49.000  

  26218880.79749 137781147.43449      8310.91049        48.000    26218860.43041
 107361889.34841      6476.03541        20.000  
  22318472.65649 117284365.25049      2935.98449        50.000  

  22320954.29749 117297405.40249     13429.46549        50.000    22320961.07041
  91400579.85941     10464.52041        20.000  
 16 04 02 13 06 45.4000000  0  5G25G06G30G20G12                                 
  23653253.02349 124298681.06249     -7510.77349        49.000  

  23685381.42249 124467517.15649     -9410.54749        49.000  

  26218722.68049 137780316.46949      8308.58649        48.000    26218699.37541
 107361241.84841      6474.22341        20.000  
  22318416.82849 117284071.89149      2931.18049        50.000  

  22320698.75849 117296062.59449     13426.98049        50.000    22320705.53941
  91399533.52041     10462.58241        20.000  
 16 04 02 13 06 45.5000000  0  5G25G06G30G20G12                                 
  23653395.97749 124299432.26649     -7512.89849        49.000  

  23685560.51649 124468458.35949     -9413.14849        49.000  

  26218564.60249 137779485.75449      8306.08249        48.000    26218541.29741
 107360594.53941      6472.27041        20.000  
  22318361.10249 117283779.06649      2925.89149        50.000  

  22320443.28149 117294720.07849     13423.98449        50.000    22320446.70341
  91398487.40641     10460.25041        20.000  
 16 04 02 13 06 45.6000000  0  5G25G06G30G20G12                                 
  23653538.94549 124300183.57049     -7513.72749        49.000  

  23685739.64849 124469399.68449     -9414.14849        49.000  

  26218406.55549 137778655.17249      8304.96149        48.000    26218385.21141
 107359947.33641      6471.39841        20.000  
  22318305.46149 117283486.66049      2921.86749        50.000  

  22320187.85249 117293377.71149     13422.56249        50.000    22320191.26641
  91397441.41441     10459.14141        20.000  
 16 04 02 13 06 45.7000000  0  5G25G06G30G20G12                                 
  23653681.95349 124300935.06649     -7515.89149        49.000  

  23685918.82049 124470341.23449     -9416.46149        49.000  

  26218248.54749 137777824.83249      8302.22349        48.000    26218227.20341
 107359300.32441      6469.26641        20.000  
  22318249.91449 117283194.76249      2916.55949        50.000  

  22319932.46149 117292035.62949     13419.67249        50.000    22319939.78141
  91396395.64541     10456.88741        20.000  
 16 04 02 13 06 45.8000000  0  5G25G06G30G20G12                                 
  23653824.98449 124301686.71149     -7517.08649        49.000  

  23686098.02349 124471282.96149     -9418.19149        49.000  

  26218090.57049 137776994.65649      8300.87549        48.000    26218067.70341
 107358653.43841      6468.21541        20.000  
  22318194.45349 117282903.31249      2912.21149        50.000  

  22319677.10949 117290693.75849     13417.60549        50.000    22319684.43041
  91395350.03541     10455.27741        20.000  
 16 04 02 13 06 45.9000000  0  5G25G06G30G20G12                                 
  23653968.03949 124302438.49249     -7518.76649        49.000  

  23686277.25049 124472224.85949     -9420.05549        49.000  

  26217932.63349 137776164.68849      8298.72749        48.000    26217909.76641
 107358006.71941      6466.54341        20.000  
  22318139.08649 117282612.33649      2907.37949        50.000  

  22319421.79749 117289352.10549     13415.37949        50.000  

 16 04 02 13 06 46.0000000  0  5G25G06G30G20G12                                 
  23654111.13349 124303190.44549     -7520.46149        49.000  

  23686456.53149 124473166.96149     -9422.13749        49.000  

  26217774.73449 137775334.93049      8296.53149        48.000    26217754.42241
 107357360.16841      6464.82841        20.000  
  22318083.80549 117282321.83249      2902.46949        50.000  

  22319166.53149 117288010.69949     13412.80949        50.000  

 16 04 02 13 06 46.1000000  0  5G25G06G30G20G12                                 
  23654254.25849 124303942.55949     -7522.00049        49.000  

  23686635.83649 124474109.23849     -9423.73449        49.000  

  26217616.86749 137774505.35549      8294.77749        48.000    26217596.56241
 107356713.75841      6463.46541        20.000  
  22318028.60949 117282031.80149      2898.01249        50.000  

  22318911.31249 117286669.51649     13410.60949        50.000  

 16 04 02 13 06 46.2000000  0  5G25G06G30G20G12                                 
  23654397.40649 124304694.79749     -7523.30949        49.000  

  23686815.17249 124475051.67649     -9425.59049        49.000  

  26217459.03149 137773675.94949      8292.85249        48.000    26217437.58641
 107356067.47741      6461.96141        20.000  
  22317973.50849 117281742.20749      2893.48049        50.000  

  22318656.12549 117285328.52749     13408.63349        50.000  

 16 04 02 13 06 46.3000000  0  5G25G06G30G20G12                                 
  23654540.58649 124305447.21949     -7525.09049        49.000  

  23686994.56249 124475994.34049     -9427.77049        49.000  

  26217301.25049 137772846.78149      8290.67249        48.000    26217279.80541
 107355421.38741      6460.26641        20.000  
  22317918.49249 117281453.12949      2888.46949        50.000  

  22318401.00049 117283987.81649     13406.03549        50.000  

 16 04 02 13 06 46.4000000  0  5G25G06G30G20G12                                 
  23654683.80549 124306199.82049     -7526.70349        49.000  

  23687173.98449 124476937.19949     -9429.40649        49.000  

  26217143.50049 137772017.82049      8288.66449        48.000  

  22317863.57849 117281164.52749      2883.83249        50.000  

  22318145.90649 117282647.33249     13403.82849        50.000  

 16 04 02 13 06 46.5000000  0  5G25G06G30G20G12                                 
  23654827.03149 124306952.50049     -7527.56249        49.000  

  23687353.43049 124477880.17249     -9430.64549        49.000  

  26216985.78149 137771188.98049      8287.36349        48.000  

  22317808.73449 117280876.33649      2879.54749        50.000  

  22317890.85249 117281307.02049     13402.02349        50.000  

 16 04 02 13 06 46.6000000  0  5G25G06G30G20G12                                 
  23654970.30549 124307705.37949     -7529.56249        49.000  

  23687532.92249 124478823.37949     -9432.89149        49.000  

  26216828.09449 137770360.38749      8285.02349        48.000  

  22317753.99249 117280588.65249      2874.52049        50.000  

  22317635.85249 117279966.98049     13399.35249        50.000  

 16 04 02 13 06 46.7000000  0  5G25G06G30G20G12                                 
  23655113.61749 124308458.47749     -7531.98049        49.000  

  23687712.44549 124479766.83249     -9435.68049        49.000  

  26216670.46949 137769532.04749      8282.12949        48.000  

  22317699.34449 117280301.49249      2869.00849        50.000  

  22317380.90649 117278627.21949     13396.26649        50.000  

 16 04 02 13 06 46.8000000  0  5G25G06G30G20G12                                 
  23655256.95349 124309211.69549     -7533.23849        49.000  

  23687892.00849 124480710.43449     -9437.18449        49.000  

  26216512.85949 137768703.85949      8280.55149        48.000  

  22317644.78149 117280014.77749      2864.55149        50.000  

  22317126.00849 117277287.66049     13394.20749        50.000  

 16 04 02 13 06 46.9000000  0  5G25G06G30G20G12                                 
  23655400.30549 124309965.03949     -7534.20749        49.000  

  23688071.60249 124481654.19549     -9438.61349        49.000  

  26216355.29749 137767875.85549      8279.06649        48.000  

  22317590.30549 117279728.50049      2860.38349        50.000  

  22316871.13349 117275948.29349     13392.51649        50.000  

 16 04 02 13 06 47.0000000  0  5G25G06G30G20G12                                 
  23655543.69549 124310718.56249     -7536.04349        49.000  

  23688251.22749 124482598.14849     -9440.54749        49.000  

  26216197.77349 137767048.03949      8277.03949        48.000    26216176.77341
 107350861.03151      6449.64141        20.000  
  22317535.92249 117279442.70749      2855.61349        50.000  

  22316616.30549 117274609.17249     13390.02749        50.000  

 16 04 02 13 06 47.1000000  0  5G25G06G30G20G12                                 
  23655687.11749 124311472.21549     -7537.40649        49.000  

  23688430.88349 124483542.28549     -9442.21949        49.000  

  26216040.28949 137766220.42649      8275.17649        48.000    26216019.28141
 107350216.12941      6448.18841        23.000  
  22317481.62549 117279157.37149      2851.08249        50.000  

  22316361.52349 117273270.27049     13388.00049        50.000  

 16 04 02 13 06 47.2000000  0  5G25G06G30G20G12                                 
  23655830.56249 124312226.02749     -7539.10249        49.000  

  23688610.58649 124484486.61349     -9444.30949        49.000  

  26215882.82849 137765393.00049      8273.16849        48.000    26215859.80541
 107349571.37141      6446.62541        20.000  
  22317427.42249 117278872.50849      2846.12549        50.000  

  22316106.78949 117271931.59449     13385.59449        50.000  

 16 04 02 13 06 47.3000000  0  5G25G06G30G20G12                                 
  23655974.05549 124312980.06249     -7541.28149        49.000  

  23688790.32049 124485431.17249     -9446.84449        49.000  

  26215725.42249 137764565.84049      8270.48449        48.000    26215702.39841
 107348926.82041      6444.53541        20.000  
  22317373.32049 117278588.18449      2840.64849        50.000  

  22315852.10249 117270593.21949     13382.44149        50.000  

 16 04 02 13 06 47.4000000  0  5G25G06G30G20G12                                 
  23656117.56249 124313734.21549     -7542.20749        49.000  

  23688970.09449 124486375.89149     -9448.02349        49.000  

  26215568.03149 137763738.83249      8269.12949        48.000  

  22317319.29749 117278304.28549      2836.71549        50.000  

  22315597.46149 117269255.03549     13380.74249        50.000  

 16 04 02 13 06 47.5000000  0  5G25G06G30G20G12                                 
  23656261.10949 124314488.53149     -7543.80949        49.000  

  23689149.89849 124487320.80149     -9449.86749        49.000  

  26215410.69549 137762912.03949      8266.96949        48.000  

  22317265.36749 117278020.87149      2831.91049        50.000  

  22315342.85249 117267917.08249     13378.50849        50.000  

 16 04 02 13 06 47.6000000  0  5G25G06G30G20G12                                 
  23656404.67249 124315242.95349     -7545.28949        49.000  

  23689329.73449 124488265.85249     -9451.56249        49.000  

  26215253.41449 137762085.38749      8265.32849        48.000  

  22317211.51649 117277737.88349      2827.37949        50.000  

  22315088.28949 117266579.32049     13376.34049        50.000  

 16 04 02 13 06 47.7000000  0  5G25G06G30G20G12                                 
  23656548.28149 124315997.61749     -7547.35949        49.000  

  23689509.62549 124489211.16849     -9454.03149        49.000  

  26215096.15649 137761259.01649      8262.77349        48.000  

  22317157.76649 117277455.43049      2822.16449        50.000  

  22314833.78149 117265241.85949     13373.53549        50.000  

 16 04 02 13 06 47.8000000  0  5G25G06G30G20G12                                 
  23656691.91449 124316752.42249     -7548.82049        49.000  

  23689689.54749 124490156.66049     -9455.97349        49.000  

  26214938.92249 137760432.82849      8260.88349        48.000  

  22317104.10949 117277173.46149      2817.33249        50.000  

  22314579.31249 117263904.62149     13371.21949        50.000  

 16 04 02 13 06 47.9000000  0  5G25G06G30G20G12                                 
  23656835.57849 124317507.35949     -7550.32049        49.000  

  23689869.50049 124491102.31249     -9457.62549        49.000  

  26214781.74249 137759606.80549      8258.98449        48.000  

  22317050.53949 117276891.91849      2812.90649        50.000  

  22314324.88349 117262567.57849     13369.03149        50.000  

 16 04 02 13 06 48.0000000  0  5G25G06G30G20G12                                 
  23656979.26649 124318262.44149     -7551.67649        49.000  

  23690049.48449 124492048.13349     -9459.32049        49.000  

  26214624.59449 137758780.97349      8257.33649        48.000  

  22316997.04749 117276610.84049      2808.43049        50.000  

  22314070.48449 117261230.76649     13367.03149        50.000  

 16 04 02 13 06 48.1000000  0  5G25G06G30G20G12                                 
  23657122.99249 124319017.71949     -7553.52349        49.000  

  23690229.51649 124492994.18449     -9461.37149        49.000  

  26214467.49249 137757955.36749      8255.16449        48.000  

  22316943.65649 117276330.27749      2803.37949        50.000  

  22313816.14849 117259894.20349     13364.52049        50.000  

 16 04 02 13 06 48.2000000  0  5G25G06G30G20G12                                 
  23657266.72749 124319773.07049     -7554.25049        49.000  

  23690409.56249 124493940.35549     -9462.46549        49.000  

  26214310.40649 137757129.90249      8253.80949        48.000  

  22316890.34449 117276050.10549      2799.44149        50.000  

  22313561.83649 117258557.82049     13362.84449        50.000  

 16 04 02 13 06 48.3000000  0  5G25G06G30G20G12                                 
  23657410.50849 124320528.62549     -7556.52749        49.000  

  23690589.64849 124494886.72349     -9464.95349        49.000  

  26214153.36749 137756304.66849      8251.09849        48.000  

  22316837.13349 117275770.45349      2793.92649        50.000  

  22313307.57849 117257221.69149     13359.87549        50.000  

 16 04 02 13 06 48.4000000  0  4G25G06G20G12                                    
  23657554.32049 124321284.34449     -7557.91849        49.000  

  23690769.77349 124495833.31249     -9466.68449        49.000  

  22316784.00849 117275491.27749      2789.43849        50.000  

  22313053.36749 117255885.80949     13357.80549        50.000  

 16 04 02 13 06 48.5000000  0  4G25G06G20G12                                    
  23657698.14849 124322040.19149     -7559.32449        49.000  

  23690949.93049 124496780.06249     -9468.48449        49.000  

  22316730.96949 117275212.54349      2784.99649        50.000  

  22312799.19549 117254550.12549     13355.71549        50.000  

 16 04 02 13 06 48.6000000  0  4G25G06G20G12                                    
  23657842.01649 124322796.21149     -7560.96549        49.000  

  23691130.12549 124497726.99649     -9470.32449        49.000  

  22316678.01649 117274934.28549      2780.32049        50.000  

  22312545.07849 117253214.68849     13353.18849        50.000  

 16 04 02 13 06 48.7000000  0  4G25G06G20G12                                    
  23657985.90649 124323552.34449     -7562.16449        49.000  

  23691310.35249 124498674.07849     -9471.92249        49.000  

  22316625.14849 117274656.47349      2775.81649        50.000  

  22312290.98449 117251879.44149     13351.35949        50.000  

 16 04 02 13 06 48.8000000  0  4G25G06G20G12                                    
  23658129.82049 124324308.64149     -7563.89849        49.000  

  23691490.60949 124499621.35249     -9473.72349        49.000  

  22316572.37549 117274379.13349      2770.91849        50.000  

  22312036.94549 117250544.41049     13349.07449        50.000  

 16 04 02 13 06 48.9000000  0  4G25G06G20G12                                    
  23658273.76649 124325065.07849     -7565.44149        49.000  

  23691670.89849 124500568.80949     -9475.58249        49.000  

  22316519.68849 117274102.25449      2766.27749        50.000  

  22311782.93849 117249209.62549     13346.71549        50.000  

 16 04 02 13 06 49.0000000  0  4G25G06G20G12                                    
  23658417.74249 124325821.69549     -7566.85549        49.000  

  23691851.23449 124501516.47749     -9477.56249        49.000  

  22316467.09449 117273825.87149      2761.56249        50.000  

  22311528.98449 117247875.08249     13344.50849        50.000  

 16 04 02 13 06 49.1000000  0  4G25G06G20G12                                    
  23658561.74249 124326578.41849     -7568.17649        49.000  

  23692031.60249 124502464.26649     -9478.92649        49.000  

  22316414.57849 117273549.90249      2757.25449        50.000  

  22311275.06249 117246540.71949     13342.47349        50.000  

 16 04 02 13 06 49.2000000  0  4G25G06G20G12                                    
  23658705.78949 124327335.36749     -7570.55949        49.000  

  23692212.00849 124503412.33249     -9481.78949        49.000  

  22316362.17249 117273274.48849      2751.63749        50.000  

  22311021.21149 117245206.66849     13339.23849        50.000  

 16 04 02 13 06 49.3000000  0  4G25G06G20G12                                    
  23658849.85949 124328092.43849     -7571.43049        49.000  

  23692392.44549 124504360.52349     -9483.00049        49.000  

  22316309.84449 117272999.49249      2747.56249        50.000  

  22310767.38349 117243872.79349     13337.47349        50.000  

 16 04 02 13 06 49.4000000  0  4G25G06G20G12                                    
  23658993.94549 124328849.62549     -7572.70749        49.000  

  23692572.90649 124505308.86749     -9484.28549        49.000  

  22316257.59449 117272724.93449      2743.38349        50.000  

  22310513.59449 117242539.11349     13335.77349        50.000  

 16 04 02 13 06 49.5000000  0  4G25G06G20G12                                    
  23659138.06249 124329607.00849     -7574.67249        49.000  

  23692753.41449 124506257.44149     -9486.70349        49.000  

  22316205.44549 117272450.89149      2738.11349        50.000  

  22310259.85249 117241205.69949     13333.04749        50.000  

 16 04 02 13 06 49.6000000  0  4G25G06G20G12                                    
  23659282.22749 124330364.59449     -7576.96149        49.000  

  23692933.96949 124507206.25849     -9489.24649        49.000  

  22316153.39849 117272177.36749      2732.69949        50.000  

  22310006.16449 117239872.57449     13330.02049        50.000  

 16 04 02 13 06 49.7000000  0  4G25G06G20G12                                    
  23659426.43849 124331122.41849     -7579.28549        49.000  

  23693114.57049 124508155.32049     -9491.87949        49.000  

  22316101.45349 117271904.39549      2727.21549        50.000  

  22309752.53949 117238539.76249     13326.82449        50.000  

 16 04 02 13 06 49.8000000  0  4G25G06G20G12                                    
  23659570.65649 124331880.32849     -7579.83249        49.000  

  23693295.20349 124509104.52049     -9493.03549        49.000  

  22316049.58649 117271631.82449      2723.34049        50.000  

  22309498.94549 117237207.10549     13325.31249        50.000  

 16 04 02 13 06 49.9000000  0  4G25G06G20G12                                    
  23659714.91449 124332638.37949     -7581.37149        49.000  

  23693475.85949 124510053.87949     -9494.74249        49.000  

  22315997.80549 117271359.72349      2718.68049        50.000  

  22309245.39149 117235874.66849     13323.19949        50.000  

 16 04 02 13 06 50.0000000  0  4G25G06G20G12                                    
  23659859.20349 124333396.60949     -7583.08249        49.000  

  23693656.55549 124511003.43849     -9496.60549        49.000  

  22315946.11749 117271088.09049      2713.97349        50.000  

  22308991.88349 117234542.46549     13320.87149        50.000  

 16 04 02 13 06 50.1000000  0  4G25G06G20G12                                    
  23660003.50849 124334154.94549     -7584.18449        49.000  

  23693837.28149 124511953.14549     -9497.96949        49.000  

  22315894.50849 117270816.89149      2709.59049        50.000  

  22308738.41449 117233210.45749     13318.97349        50.000  

 16 04 02 13 06 50.2000000  0  4G25G06G20G12                                    
  23660147.84449 124334913.45349     -7585.93049        49.000  

  23694018.04749 124512903.05949     -9500.28549        49.000  

  22315842.99249 117270546.18849      2704.66049        50.000  

  22308484.97749 117231878.69549     13316.41049        50.000  

 16 04 02 13 06 50.3000000  0  4G25G06G20G12                                    
  23660292.21949 124335672.15649     -7587.80149        49.000  

  23694198.84449 124513853.17649     -9502.04749        49.000  

  22315791.57049 117270275.97749      2699.78549        50.000  

  22308231.60249 117230547.19549     13313.93449        50.000  

 16 04 02 13 06 50.4000000  0  4G25G06G20G12                                    
  23660436.60949 124336430.93449     -7588.64149        49.000  

  23694379.67249 124514803.41049     -9503.32049        49.000  

  22315740.23449 117270006.17649      2695.64149        50.000  

  22307978.25049 117229215.84849     13312.36749        50.000  

 16 04 02 13 06 50.5000000  0  4G25G06G20G12                                    
  23660581.02349 124337189.85949     -7589.73049        49.000  

  23694560.52349 124515753.82049     -9504.72749        49.000  

  22315688.97749 117269736.82449      2691.44549        50.000  

  22307724.94549 117227884.73849     13310.24649        50.000  

 16 04 02 13 06 50.6000000  0  4G25G06G20G12                                    
  23660725.47749 124337948.94149     -7591.84449        49.000  

  23694741.41449 124516704.42249     -9506.94949        49.000  

  22315637.81249 117269467.94949      2686.35949        50.000  

  22307471.69549 117226553.84449     13307.65249        50.000  

 16 04 02 13 06 50.7000000  0  4G25G06G20G12                                    
  23660869.96149 124338708.21949     -7593.52749        49.000  

  23694922.34449 124517655.23449     -9509.16049        49.000  

  22315586.74249 117269199.59049      2681.27749        50.000  

  22307218.48449 117225223.21949     13305.05949        50.000  

 16 04 02 13 06 50.8000000  0  4G25G06G20G12                                    
  23661014.46149 124339467.59449     -7594.72749        49.000  

  23695103.30549 124518606.19549     -9510.58249        49.000  

  22315535.75049 117268931.64549      2677.03149        50.000  

  22306965.31249 117223892.77049     13303.32849        50.000  

 16 04 02 13 06 50.9000000  0  4G25G06G20G12                                    
  23661158.99249 124340227.13749     -7596.14149        49.000  

  23695284.31249 124519557.34049     -9512.36349        49.000  

  22315484.85249 117268664.17249      2672.48049        50.000  

  22306712.18049 117222562.56249     13301.04749        50.000  

 16 04 02 13 06 51.0000000  0  4G25G06G20G12                                    
  23661303.56249 124340986.86749     -7598.22349        49.000  

  23695465.35249 124520508.69549     -9514.60249        49.000  

  22315434.05549 117268397.21149      2667.24249        50.000  

  22306459.10249 117221232.61349     13298.32049        50.000  

 16 04 02 13 06 51.1000000  0  4G25G06G20G12                                    
  23661448.17249 124341746.79749     -7600.25449        49.000  

  23695646.43049 124521460.30149     -9517.14849        49.000  

  22315383.35249 117268130.77049      2661.97349        50.000  

  22306206.07849 117219902.94949     13295.44549        50.000  

 16 04 02 13 06 51.2000000  0  4G25G06G20G12                                    
  23661592.80549 124342506.86749     -7601.55149        49.000  

  23695827.54749 124522412.06249     -9518.64149        49.000  

  22315332.74249 117267864.77349      2657.45749        50.000  

  22305953.08649 117218573.50049     13293.15649        50.000  

 16 04 02 13 06 51.3000000  0  4G25G06G20G12                                    
  23661737.46949 124343267.04349     -7602.57849        49.000  

  23696008.69549 124523363.94949     -9519.87149        49.000  

  22315282.21149 117267599.21949      2653.26649        50.000  

  22305700.14149 117217244.22349     13291.60949        50.000  

 16 04 02 13 06 51.4000000  0  4G25G06G20G12                                    
  23661882.15649 124344027.36349     -7603.96949        49.000  

  23696189.86749 124524316.02349     -9521.65249        49.000  

  22315231.75049 117267334.09449      2648.96949        50.000  

  22305447.22749 117215915.15649     13289.72749        50.000  

 16 04 02 13 06 51.5000000  0  4G25G06G20G12                                    
  23662026.86749 124344787.82849     -7605.35549        49.000  

  23696371.08649 124525268.27749     -9523.30949        49.000  

  22315181.39849 117267069.46549      2644.18849        50.000  

  22305194.35949 117214586.33649     13287.28549        50.000  

 16 04 02 13 06 51.6000000  0  4G25G06G20G12                                    
  23662171.60949 124345548.46149     -7607.11349        49.000  

  23696552.32849 124526220.71549     -9525.28549        49.000  

  22315131.12549 117266805.28949      2639.39549        50.000  

  22304941.53149 117213257.73849     13284.80149        50.000  

 16 04 02 13 06 51.7000000  0  4G25G06G20G12                                    
  23662316.39149 124346309.27749     -7608.90649        49.000  

  23696733.61749 124527173.37149     -9527.27749        49.000  

  22315080.95349 117266541.62549      2634.31249        50.000  

  22304688.75049 117211929.39549     13282.38349        50.000  

 16 04 02 13 06 51.8000000  0  4G25G06G20G12                                    
  23662461.18849 124347070.20349     -7610.32049        49.000  

  23696914.93049 124528126.15649     -9529.13349        49.000  

  22315030.85949 117266278.38749      2629.89149        50.000  

  22304436.01649 117210601.25049     13280.12549        50.000  

 16 04 02 13 06 51.9000000  0  4G25G06G20G12                                    
  23662606.03149 124347831.34049     -7612.12549        49.000  

  23697096.28149 124529079.19949     -9531.16449        49.000  

  22314980.86749 117266015.67649      2624.82049        50.000  

  22304183.32849 117209273.39149     13277.50849        50.000  

 16 04 02 13 06 52.0000000  0  4G25G06G20G12                                    
  23662750.89149 124348592.57849     -7613.28149        49.000  

  23697277.65649 124530032.35549     -9532.71549        49.000  

  22314930.95349 117265753.37949      2620.46949        50.000  

  22303930.67249 117207945.68849     13275.72349        50.000  

 16 04 02 13 06 52.1000000  0  4G25G06G20G12                                    
  23662895.79749 124349354.02349     -7615.29749        49.000  

  23697459.09449 124530985.76249     -9535.18849        49.000  

  22314881.13349 117265491.60549      2615.30149        50.000  

  22303678.07849 117206618.28549     13272.82849        50.000  

 16 04 02 13 06 52.2000000  0  4G25G06G20G12                                    
  23663040.69549 124350115.48849     -7615.16849        49.000  

  23697640.52349 124531939.20749     -9535.23449        49.000  

  22314831.38349 117265230.17249      2612.21149        50.000  

  22303425.49249 117205290.97349     13272.28149        50.000  

 16 04 02 13 06 52.3000000  0  4G25G06G20G12                                    
  23663185.63349 124350877.11749     -7617.02049        49.000  

  23697822.00049 124532892.84449     -9537.19549        49.000  

  22314781.72749 117264969.21549      2607.32449        50.000  

  22303172.96149 117203963.90249     13269.69149        50.000  

 16 04 02 13 06 52.4000000  0  4G25G06G20G12                                    
  23663330.59449 124351638.89149     -7618.45749        49.000  

  23698003.50849 124533846.66449     -9539.09049        49.000  

  22314732.15649 117264708.71549      2602.73449        50.000  

  22302920.46149 117202637.04349     13267.62549        50.000  

 16 04 02 13 06 52.5000000  0  4G25G06G20G12                                    
  23663475.57049 124352400.78549     -7619.75449        49.000  

  23698185.03949 124534800.64549     -9540.77349        49.000  

  22314682.67249 117264448.66849      2598.11349        50.000  

  22302668.00849 117201310.39549     13265.36749        50.000  

 16 04 02 13 06 52.6000000  0  4G25G06G20G12                                    
  23663620.58649 124353162.82449     -7621.32849        49.000  

  23698366.60949 124535754.77749     -9542.39849        49.000  

  22314633.26649 117264189.07049      2593.53149        50.000  

  22302415.60949 117199983.96149     13263.18049        50.000  

 16 04 02 13 06 52.7000000  0  4G25G06G20G12                                    
  23663765.63349 124353925.06649     -7623.20349        49.000  

  23698548.22749 124536709.13349     -9544.58249        49.000  

  22314583.96949 117263929.98449      2588.55549        50.000  

  22302163.25049 117198657.79749     13260.54749        50.000  

 16 04 02 13 06 52.8000000  0  4G25G06G20G12                                    
  23663910.71149 124354687.43849     -7624.66849        49.000  

  23698729.86749 124537663.67249     -9546.50849        49.000  

  22314534.75049 117263671.35549      2583.83649        50.000  

  22301910.93049 117197331.84449     13258.29749        50.000  

 16 04 02 13 06 52.9000000  0  4G25G06G20G12                                    
  23664055.83649 124355450.07849     -7627.20749        49.000  

  23698911.57049 124538618.49649     -9549.15249        49.000  

  22314485.64849 117263413.30549      2578.15249        50.000  

  22301658.67249 117196006.22749     13254.98849        50.000  

 16 04 02 13 06 53.0000000  0  4G25G06G20G12                                    
  23664200.96949 124356212.75449     -7627.85249        49.000  

  23699093.28149 124539573.39849     -9550.13749        49.000  

  22314436.60949 117263155.62149      2574.32449        50.000  

  22301406.43849 117194680.73849     13253.50849        50.000  

 16 04 02 13 06 53.1000000  0  4G25G06G20G12                                    
  23664346.14849 124356975.69149     -7630.19549        49.000  

  23699275.05549 124540528.57849     -9552.89549        49.000  

  22314387.68049 117262898.48849      2568.94949        50.000  

  22301154.26649 117193355.56649     13250.51249        50.000  

 16 04 02 13 06 53.2000000  0  4G25G06G20G12                                    
  23664491.35249 124357738.72749     -7631.31649        49.000  

  23699456.84449 124541483.88349     -9554.10249        49.000  

  22314338.83649 117262641.79749      2564.51649        50.000  

  22300902.12549 117192030.58249     13248.66049        50.000  

 16 04 02 13 06 53.3000000  0  4G25G06G20G12                                    
  23664636.58649 124358501.90249     -7632.34449        49.000  

  23699638.66449 124542439.36749     -9555.46549        49.000  

  22314290.07049 117262385.55149      2560.23049        50.000  

  22300650.02349 117190705.81249     13246.70749        50.000  

 16 04 02 13 06 53.4000000  0  4G25G06G20G12                                    
  23664781.84449 124359265.23849     -7634.33649        49.000  

  23699820.51649 124543395.03549     -9557.83649        49.000  

  22314241.39849 117262129.78149      2555.18449        50.000  

  22300397.96949 117189381.27349     13244.05549        50.000  

 16 04 02 13 06 53.5000000  0  4G25G06G20G12                                    
  23664927.14149 124360028.78149     -7636.21149        49.000  

  23700002.41449 124544350.93849     -9560.04749        49.000  

  22314192.82849 117261874.53149      2550.09049        50.000  

  22300145.96949 117188057.01249     13241.44549        50.000  

 16 04 02 13 06 53.6000000  0  4G25G06G20G12                                    
  23665072.46149 124360792.43449     -7637.29349        49.000  

  23700184.34449 124545306.98449     -9561.43449        49.000  

  22314144.33649 117261619.70749      2545.88349        50.000  

  22299894.00049 117186732.93449     13239.66049        50.000  

 16 04 02 13 06 53.7000000  0  4G25G06G20G12                                    
  23665217.79749 124361556.21149     -7638.66849        49.000  

  23700366.31249 124546263.18049     -9563.06649        49.000  

  22314095.93049 117261365.32849      2541.35549        50.000  

  22299642.07849 117185409.07049     13237.52349        50.000  

 16 04 02 13 06 53.8000000  0  4G25G06G20G12                                    
  23665363.18049 124362320.18449     -7640.41049        49.000  

  23700548.31249 124547219.60549     -9565.10949        49.000  

  22314047.62549 117261111.45749      2536.43049        50.000  

  22299390.21949 117184085.46549     13234.98849        50.000  

 16 04 02 13 06 53.9000000  0  4G25G06G20G12                                    
  23665508.57049 124363084.23049     -7641.14149        49.000  

  23700730.33649 124548176.12149     -9566.06249        49.000  

  22313999.39149 117260857.98849      2532.47749        50.000  

  22299138.37549 117182762.02349     13233.45749        50.000  

 16 04 02 13 06 54.0000000  0  4G25G06G20G12                                    
  23665654.00049 124363848.44549     -7643.02749        49.000  

  23700912.39849 124549132.85249     -9568.34849        49.000  

  22313951.24249 117260604.99649      2527.56649        50.000  

  22298886.56249 117181438.81649     13230.94549        50.000  

 16 04 02 13 06 54.1000000  0  4G25G06G20G12                                    
  23665799.46149 124364612.86349     -7645.21949        49.000  

  23701094.49249 124550089.79749     -9570.69149        49.000  

  22313903.20349 117260352.51649      2522.26249        50.000  

  22298634.81249 117180115.87949     13228.07449        50.000  

 16 04 02 13 06 54.2000000  0  4G25G06G20G12                                    
  23665944.96149 124365377.46549     -7647.01649        49.000  

  23701276.63349 124551046.95349     -9572.78549        49.000  

  22313855.25049 117260100.53949      2517.24649        50.000  

  22298383.11749 117178793.20749     13225.52349        50.000  

 16 04 02 13 06 54.3000000  0  4G25G06G20G12                                    
  23666090.46949 124366142.12549     -7647.43849        49.000  

  23701458.80549 124552004.21949     -9573.59449        49.000  

  22313807.36749 117259848.94549      2513.60249        50.000  

  22298131.45349 117177470.69149     13224.07449        50.000  

 16 04 02 13 06 54.4000000  0  4G25G06G20G12                                    
  23666236.02349 124366907.02049     -7649.68449        49.000  

  23701641.01649 124552961.74249     -9576.15249        49.000  

  22313759.60249 117259597.90249      2508.19149        50.000  

  22297879.83649 117176148.45349     13221.31649        50.000  

 16 04 02 13 06 54.5000000  0  4G25G06G20G12                                    
  23666381.60249 124367672.05949     -7651.24649        49.000  

  23701823.25049 124553919.41849     -9577.82849        49.000  

  22313711.91449 117259347.30949      2503.59449        50.000  

  22297628.26649 117174826.45749     13218.80549        50.000  

 16 04 02 13 06 54.6000000  0  4G25G06G20G12                                    
  23666527.21949 124368437.30949     -7653.53949        49.000  

  23702005.53949 124554877.34049     -9580.47749        49.000  

  22313664.32849 117259097.25449      2497.87549        50.000  

  22297376.75049 117173504.73849     13215.86749        50.000  

 16 04 02 13 06 54.7000000  0  4G25G06G20G12                                    
  23666672.87549 124369202.72749     -7655.31249        49.000  

  23702187.85249 124555835.47749     -9582.57449        49.000  

  22313616.83649 117258847.68449      2493.09849        50.000  

  22297125.28149 117172183.25849     13213.37549        50.000  

 16 04 02 13 06 54.8000000  0  4G25G06G20G12                                    
  23666818.54749 124369968.26249     -7656.16049        49.000  

  23702370.20349 124556793.75049     -9583.69949        49.000  

  22313569.43049 117258598.54749      2489.06249        50.000  

  22296873.84449 117170861.99249     13211.65649        50.000  

 16 04 02 13 06 54.9000000  0  4G25G06G20G12                                    
  23666964.25849 124370733.95749     -7657.76649        49.000  

  23702552.58649 124557752.20349     -9585.63749        49.000  

  22313522.10949 117258349.88349      2484.30949        50.000  

  22296622.45349 117169540.93849     13209.45349        50.000  

 16 04 02 13 06 55.0000000  0  4G25G06G20G12                                    
  23667109.99249 124371499.78949     -7658.89549        49.000  

  23702735.00849 124558710.84049     -9587.05549        49.000  

  22313474.87549 117258101.67649      2479.93449        50.000  

  22296371.11749 117168220.11749     13207.26249        50.000  

 16 04 02 13 06 55.1000000  0  4G25G06G20G12                                    
  23667255.74249 124372265.71949     -7660.10249        49.000  

  23702917.43849 124559669.58649     -9588.46549        49.000  

  22313427.72749 117257853.87949      2475.67649        50.000  

  22296119.80549 117166899.46549     13205.43049        50.000  

 16 04 02 13 06 55.2000000  0  4G25G06G20G12                                    
  23667401.53149 124373031.86349     -7662.07049        49.000  

  23703099.92249 124560628.57449     -9590.62949        49.000  

  22313380.67249 117257606.61349      2470.45749        50.000  

  22295868.55549 117165579.08249     13202.76249        50.000  

 16 04 02 13 06 55.3000000  0  4G25G06G20G12                                    
  23667547.35249 124373798.14149     -7663.77049        49.000  

  23703282.44549 124561587.73849     -9592.84849        49.000  

  22313333.70349 117257359.79749      2465.61749        50.000  

  22295617.33649 117164258.93049     13200.21149        50.000  

 16 04 02 13 06 55.4000000  0  4G25G06G20G12                                    
  23667693.20349 124374564.56649     -7665.11349        49.000  

  23703465.00049 124562547.06249     -9594.22749        49.000  

  22313286.82849 117257113.45349      2461.12149        50.000  

  22295366.15649 117162938.99249     13198.25449        50.000  

 16 04 02 13 06 55.5000000  0  4G25G06G20G12                                    
  23667839.07049 124375331.11749     -7666.23449        49.000  

  23703647.59449 124563506.56249     -9595.88349        49.000  

  22313240.03149 117256867.55149      2456.82449        50.000  

  22295115.02349 117161619.27349     13196.14549        50.000  

 16 04 02 13 06 55.6000000  0  4G25G06G20G12                                    
  23667984.96949 124376097.82849     -7667.90649        49.000  

  23703830.21149 124564466.23449     -9597.72349        49.000  

  22313193.32849 117256622.11749      2452.02349        50.000  

  22294863.93849 117160299.77049     13193.93449        50.000  

 16 04 02 13 06 55.7000000  0  4G25G06G20G12                                    
  23668130.90649 124376864.75049     -7670.25449        49.000  

  23704012.87549 124565426.15249     -9600.42649        49.000  

  22313146.72749 117256377.21949      2446.47349        50.000  

  22294612.89849 117158980.56249     13190.68849        50.000  

 16 04 02 13 06 55.8000000  0  4G25G06G20G12                                    
  23668276.89149 124377631.87149     -7672.09849        49.000  

  23704195.58649 124566386.29349     -9602.47349        49.000  

  22313100.21949 117256132.83249      2441.40649        50.000  

  22294361.90649 117157661.62949     13188.14549        50.000  

 16 04 02 13 06 55.9000000  0  4G25G06G20G12                                    
  23668422.89149 124378399.12949     -7673.49249        49.000  

  23704378.32849 124567346.60249     -9604.10949        49.000  

  22313053.80549 117255888.90249      2436.72349        50.000  

  22294110.96149 117156342.91049     13185.91449        50.000  

 16 04 02 13 06 56.0000000  0  4G25G06G20G12                                    
  23668568.92249 124379166.52349     -7674.89149        49.000  

  23704561.10249 124568307.07849     -9605.89549        49.000  

  22313007.46949 117255645.41849      2432.32049        50.000  

  22293860.06249 117155024.39849     13183.91049        50.000  

 16 04 02 13 06 56.1000000  0  4G25G06G20G12                                    
  23668714.99249 124379934.10249     -7676.53149        49.000  

  23704743.89849 124569267.75849     -9607.80949        49.000  

  22312961.23449 117255402.44149      2427.50449        50.000  

  22293609.20349 117153706.15249     13181.40649        50.000  

 16 04 02 13 06 56.2000000  0  4G25G06G20G12                                    
  23668861.07849 124380701.80549     -7677.76249        49.000  

  23704926.74249 124570228.60249     -9609.27349        49.000  

  22312915.07849 117255159.91049      2422.92649        50.000  

  22293358.39849 117152388.11349     13179.24249        50.000  

 16 04 02 13 06 56.3000000  0  4G25G06G20G12                                    
  23669007.19549 124381469.62549     -7678.92649        49.000  

  23705109.60949 124571189.57849     -9610.68849        49.000  

  22312869.00849 117254917.79749      2418.82849        50.000  

  22293107.61749 117151070.25049     13177.57049        50.000  

 16 04 02 13 06 56.4000000  0  4G25G06G20G12                                    
  23669153.33649 124382237.63349     -7680.89149        49.000  

  23705292.51649 124572150.78149     -9612.94549        49.000  

  22312823.03949 117254676.21149      2413.62949        50.000  

  22292856.89149 117149752.66449     13174.84049        50.000  

 16 04 02 13 06 56.5000000  0  4G25G06G20G12                                    
  23669299.50849 124383005.73849     -7681.87949        49.000  

  23705475.46149 124573112.11749     -9614.32849        49.000  

  22312777.14149 117254435.03149      2409.46549        50.000  

  22292606.19549 117148435.25049     13172.98049        50.000  

 16 04 02 13 06 56.6000000  0  4G25G06G20G12                                    
  23669445.70349 124383773.99249     -7683.20749        49.000  

  23705658.43049 124574073.61749     -9615.85949        49.000  

  22312731.33649 117254194.30949      2404.93849        50.000  

  22292355.53949 117147118.05949     13170.92249        50.000  

 16 04 02 13 06 56.7000000  0  4G25G06G20G12                                    
  23669591.93049 124384542.44149     -7685.46949        49.000  

  23705841.43849 124575035.34049     -9618.34449        49.000  

  22312685.62549 117253954.10549      2399.53949        50.000  

  22292104.93849 117145801.13749     13167.93049        50.000  

 16 04 02 13 06 56.8000000  0  4G25G06G20G12                                    
  23669738.20349 124385311.09449     -7687.58249        49.000  

  23706024.50049 124575997.30149     -9620.74649        49.000  

  22312640.01649 117253714.42249      2394.28149        50.000  

  22291854.39849 117144484.50849     13164.96549        50.000  

 16 04 02 13 06 56.9000000  0  4G25G06G20G12                                    
  23669884.49249 124386079.84449     -7688.27349        49.000  

  23706207.57049 124576959.39149     -9621.82449        49.000  

  22312594.48449 117253475.15249      2390.39849        50.000  

  22291603.88349 117143168.03949     13163.53549        50.000  

 16 04 02 13 06 57.0000000  0  4G25G06G20G12                                    
  23670030.82049 124386848.77749     -7690.17249        49.000  

  23706390.68849 124577921.69549     -9624.00849        49.000  

  22312549.04749 117253236.39149      2385.23849        50.000  

  22291353.42249 117141851.84049     13160.87549        50.000  

 16 04 02 13 06 57.1000000  0  4G25G06G20G12                                    
  23670177.17249 124387617.87949     -7691.90249        49.000  

  23706573.85249 124578884.19149     -9626.14149        49.000  

  22312503.70349 117252998.10549      2380.38349        50.000  

  22291103.00049 117140535.87949     13158.31649        50.000  

 16 04 02 13 06 57.2000000  0  4G25G06G20G12                                    
  23670323.56249 124388387.18449     -7693.93049        49.000  

  23706757.04749 124579846.89849     -9628.34449        49.000  

  22312458.45349 117252760.33249      2375.30149        50.000  

  22290852.64149 117139220.19149     13155.66449        50.000  

 16 04 02 13 06 57.3000000  0  4G25G06G20G12                                    
  23670469.97749 124389156.59449     -7694.97749        49.000  

  23706940.28149 124580809.76249     -9629.55149        49.000  

  22312413.28949 117252523.00049      2370.96149        50.000  

  22290602.31249 117137904.69949     13153.81649        50.000  

 16 04 02 13 06 57.4000000  0  4G25G06G20G12                                    
  23670616.43049 124389926.17249     -7696.67249        49.000  

  23707123.54749 124581772.81649     -9631.62949        49.000  

  22312368.21949 117252286.14149      2366.16049        50.000  

  22290352.03149 117136589.44549     13151.30949        50.000  

 16 04 02 13 06 57.5000000  0  4G25G06G20G12                                    
  23670762.90649 124390695.95349     -7698.57849        49.000  

  23707306.85249 124582736.09849     -9633.79749        49.000  

  22312323.24249 117252049.79749      2361.09449        50.000  

  22290101.79749 117135274.46549     13148.66049        50.000  

 16 04 02 13 06 57.6000000  0  4G25G06G20G12                                    
  23670909.40649 124391465.81649     -7699.52349        49.000  

  23707490.18049 124583699.50449     -9635.00049        49.000  

  22312278.35249 117251813.87149      2356.99649        50.000  

  22289851.60249 117133959.66849     13146.82849        50.000  

 16 04 02 13 06 57.7000000  0  4G25G06G20G12                                    
  23671055.93049 124392235.79349     -7700.52749        49.000  

  23707673.53149 124584663.03149     -9636.23049        49.000  

  22312233.53949 117251578.36749      2352.82449        50.000  

  22289601.43849 117132645.03549     13145.23049        50.000  

 16 04 02 13 06 57.8000000  0  4G25G06G20G12                                    
  23671202.49249 124393005.97349     -7702.43449        49.000  

  23707856.93049 124585626.80149     -9638.53149        49.000  

  22312188.82049 117251343.36749      2347.79349        50.000  

  22289351.31249 117131330.68849     13142.49249        50.000  

 16 04 02 13 06 57.9000000  0  4G25G06G20G12                                    
  23671349.07049 124393776.25049     -7703.80549        49.000  

  23708040.35949 124586590.70349     -9640.10549        49.000  

  22312144.18849 117251108.81649      2343.10949        50.000  

  22289101.24249 117130016.53149     13140.36749        50.000  

 16 04 02 13 06 58.0000000  0  4G25G06G20G12                                    
  23671495.68849 124394546.75049     -7705.84049        49.000  

  23708223.83649 124587554.85549     -9642.53149        49.000  

  22312099.64849 117250874.78549      2337.99649        50.000  

  22288851.21949 117128702.66049     13137.59049        50.000  

 16 04 02 13 06 58.1000000  0  4G25G06G20G12                                    
  23671642.35249 124395317.43449     -7707.84049        49.000  

  23708407.35249 124588519.19949     -9644.61749        49.000  

  22312055.21149 117250641.25849      2332.78149        50.000  

  22288601.24249 117127389.04749     13134.84049        50.000  

 16 04 02 13 06 58.2000000  0  4G25G06G20G12                                    
  23671789.04749 124396088.30549     -7709.73049        49.000  

  23708590.90649 124589483.78149     -9646.87949        49.000  

  22312010.86749 117250408.24249      2327.50049        50.000  

  22288351.32849 117126075.70749     13132.05949        50.000  

 16 04 02 13 06 58.3000000  0  4G25G06G20G12                                    
  23671935.75849 124396859.26649     -7710.30549        49.000  

  23708774.48449 124590448.47749     -9647.76649        49.000  

  22311966.60249 117250175.61749      2323.97349        50.000  

  22288101.43849 117124762.53149     13130.69549        50.000  

 16 04 02 13 06 58.4000000  0  4G25G06G20G12                                    
  23672082.49249 124397630.35249     -7711.58249        49.000  

  23708958.08649 124591413.31649     -9649.34449        49.000  

  22311922.42249 117249943.44949      2319.40249        50.000  

  22287851.58649 117123449.54749     13128.72749        50.000  

 16 04 02 13 06 58.5000000  0  4G25G06G20G12                                    
  23672229.25849 124398401.60249     -7713.18049        49.000  

  23709141.72749 124592378.34049     -9651.12949        49.000  

  22311878.33649 117249711.74649      2314.77049        50.000  

  22287601.78149 117122136.80949     13126.44949        50.000  

 16 04 02 13 06 58.6000000  0  4G25G06G20G12                                    
  23672376.03949 124399172.96549     -7714.38349        49.000  

  23709325.39849 124593343.53149     -9652.78949        49.000  

  22311834.32849 117249480.49249      2310.28949        50.000  

  22287352.00849 117120824.27749     13124.22349        50.000  

 16 04 02 13 06 58.7000000  0  4G25G06G20G12                                    
  23672522.86749 124399944.54349     -7716.60949        49.000  

  23709509.10249 124594308.94149     -9655.04749        49.000  

  22311790.42249 117249249.75849      2305.00049        50.000  

  22287102.28949 117119512.01249     13121.44549        50.000  

 16 04 02 13 06 58.8000000  0  4G25G06G20G12                                    
  23672669.71149 124400716.21949     -7717.75049        49.000  

  23709692.83649 124595274.49249     -9656.58649        49.000  

  22311746.59449 117249019.44549      2300.60249        50.000  

  22286852.60249 117118199.93849     13119.47749        50.000  

 16 04 02 13 06 58.9000000  0  4G25G06G20G12                                    
  23672816.57849 124401488.03949     -7718.85949        49.000  

  23709876.60949 124596240.21949     -9658.07849        49.000  

  22311702.85249 117248789.60549      2295.96549        50.000  

  22286602.96949 117116888.09449     13117.42649        50.000  

 16 04 02 13 06 59.0000000  0  4G25G06G20G12                                    
  23672963.48449 124402260.02349     -7720.79749        49.000  

  23710060.41449 124597206.12149     -9660.13749        49.000  

  22311659.21149 117248560.23049      2291.37149        50.000  

  22286353.37549 117115576.47349     13115.00049        50.000  

 16 04 02 13 06 59.1000000  0  4G25G06G20G12                                    
  23673110.42249 124403032.18449     -7722.14849        49.000  

  23710244.25849 124598172.24249     -9661.94149        49.000  

  22311615.65649 117248331.35249      2286.66849        50.000  

  22286103.83649 117114265.11349     13112.66449        50.000  

 16 04 02 13 06 59.2000000  0  4G25G06G20G12                                    
  23673257.37549 124403804.44949     -7723.48849        49.000  

  23710428.13349 124599138.49249     -9663.42649        49.000  

  22311572.18049 117248102.90249      2282.12949        50.000  

  22285854.32049 117112953.93849     13110.60249        50.000  

 16 04 02 13 06 59.3000000  0  4G25G06G20G12                                    
  23673404.36749 124404576.89849     -7725.38349        49.000  

  23710612.03149 124600104.93049     -9665.50449        49.000  

  22311528.79749 117247874.92649      2277.28149        50.000  

  22285604.85949 117111643.00449     13108.09049        50.000  

 16 04 02 13 06 59.4000000  0  4G25G06G20G12                                    
  23673551.39849 124405349.52349     -7727.04749        49.000  

  23710795.99249 124601071.61349     -9667.74249        49.000  

  22311485.51649 117247647.48849      2272.12549        50.000  

  22285355.44549 117110332.35549     13105.37949        50.000  

 16 04 02 13 06 59.5000000  0  4G25G06G20G12                                    
  23673698.44549 124406122.26249     -7728.32049        49.000  

  23710979.96949 124602038.41049     -9669.07849        49.000  

  22311442.31249 117247420.46149      2267.73049        50.000  

  22285106.07049 117109021.87149     13103.58649        50.000  

 16 04 02 13 06 59.6000000  0  4G25G06G20G12                                    
  23673845.52349 124406895.14849     -7729.71549        49.000  

  23711163.98449 124603005.38349     -9670.72349        49.000  

  22311399.20349 117247193.89149      2263.25849        50.000  

  22284856.73449 117107711.63349     13101.23049        50.000  

 16 04 02 13 06 59.7000000  0  4G25G06G20G12                                    
  23673992.64149 124407668.26649     -7732.18849        49.000  

  23711348.03949 124603972.62549     -9673.63749        49.000  

  22311356.18849 117246967.87549      2257.72749        50.000  

  22284607.46149 117106401.68449     13098.16449        50.000  

 16 04 02 13 06 59.8000000  0  4G25G06G20G12                                    
  23674139.78149 124408441.50849     -7733.43849        49.000  

  23711532.12549 124604940.01649     -9674.96949        49.000  

  22311313.26649 117246742.30949      2253.27749        50.000  

  22284358.21949 117105091.94949     13096.06649        50.000  

 16 04 02 13 06 59.9000000  0  4G25G06G20G12                                    
  23674286.96949 124409214.94149     -7735.08249        49.000  

  23711716.25049 124605907.62549     -9676.92249        49.000  

  22311270.43849 117246517.24649      2248.31649        50.000  

  22284109.03949 117103782.47349     13093.66849        50.000  

 16 04 02 13 07  0.0000000  0  4G25G06G20G12                                    
  23674434.17249 124409988.50049     -7736.40249        49.000  

  23711900.41449 124606875.39549     -9678.64849        49.000  

  22311227.69549 117246292.62949      2243.78149        50.000  

  22283859.89149 117102473.21149     13091.52349        50.000  

 16 04 02 13 07  0.1000000  0  4G25G06G20G12                                    
  23674581.38349 124410762.14549     -7737.24249        49.000  

  23712084.59449 124607843.26249     -9679.66449        49.000  

  22311185.02349 117246068.41049      2239.87149        50.000  

  22283610.78149 117101164.11349     13089.90249        50.000  

 16 04 02 13 07  0.2000000  0  4G25G06G20G12                                    
  23674728.64149 124411535.98049     -7739.11749        49.000  

  23712268.81249 124608811.37149     -9681.92649        49.000  

  22311142.45349 117245844.70749      2234.82849        50.000  

  22283361.71149 117099855.28149     13087.22349        50.000  

 16 04 02 13 07  0.3000000  0  4G25G06G20G12                                    
  23674875.93849 124412309.99649     -7741.13349        49.000  

  23712453.08649 124609779.66449     -9684.03549        49.000  

  22311099.98449 117245621.50449      2229.62549        50.000  

  22283112.69549 117098546.69949     13084.61749        50.000  

 16 04 02 13 07  0.4000000  0  4G25G06G20G12                                    
  23675023.25849 124413084.16449     -7742.61749        49.000  

  23712637.38349 124610748.16049     -9685.93849        49.000  

  22311057.59449 117245398.77049      2224.82849        50.000  

  22282863.73449 117097238.36749     13082.09049        50.000  

 16 04 02 13 07  0.5000000  0  4G25G06G20G12                                    
  23675170.60949 124413858.52049     -7744.62949        49.000  

  23712821.71949 124611716.85949     -9688.16449        49.000  

  22311015.30549 117245176.53549      2219.76649        50.000  

  22282614.82049 117095930.28949     13079.36749        50.000  

 16 04 02 13 07  0.6000000  0  4G25G06G20G12                                    
  23675318.00049 124414633.02749     -7746.02049        49.000  

  23713006.08649 124612685.72749     -9689.75449        49.000  

  22310973.10249 117244954.75849      2215.34449        50.000  

  22282365.94549 117094622.42649     13077.32049        50.000  

 16 04 02 13 07  0.7000000  0  4G25G06G20G12                                    
  23675465.40649 124415407.67249     -7747.53549        49.000  

  23713190.49249 124613654.77749     -9691.61349        49.000  

  22310930.99249 117244733.46549      2210.58649        50.000  

  22282117.10949 117093314.78949     13075.14149        50.000  

 16 04 02 13 07  0.8000000  0  4G25G06G20G12                                    
  23675612.84449 124416182.46949     -7748.52349        49.000  

  23713374.93049 124614624.00849     -9693.10949        49.000  

  22310888.96949 117244512.62949      2206.22749        50.000  

  22281868.32049 117092007.39549     13073.04749        50.000  

 16 04 02 13 07  0.9000000  0  4G25G06G20G12                                    
  23675760.31249 124416957.43049     -7750.50049        49.000  

  23713559.39849 124615593.42649     -9695.23049        49.000  

  22310847.03949 117244292.28549      2201.02349        50.000  

  22281619.57049 117090700.23449     13070.39549        50.000  

 16 04 02 13 07  1.0000000  0  4G25G06G20G12                                    
  23675907.81249 124417732.53149     -7751.73449        49.000  

  23713743.90649 124616563.01649     -9696.88349        49.000  

  22310805.19549 117244072.38749      2196.59049        50.000  

  22281370.87549 117089393.29349     13068.30949        50.000  

 16 04 02 13 07  1.1000000  0  4G25G06G20G12                                    
  23676055.33649 124418507.75449     -7752.97749        49.000  

  23713928.43849 124617532.72749     -9698.02749        49.000  

  22310763.43049 117243852.91449      2192.45349        50.000  

  22281122.20349 117088086.52749     13066.55549        50.000  

 16 04 02 13 07  1.2000000  0  4G25G06G20G12                                    
  23676202.89149 124419283.16849     -7755.25849        49.000  

  23714113.02349 124618502.69149     -9700.95749        49.000  

  22310721.77349 117243633.97749      2186.87949        50.000  

  22280873.58649 117086780.06649     13063.33649        50.000  

 16 04 02 13 07  1.3000000  0  4G25G06G20G12                                    
  23676350.49249 124420058.80549     -7757.08249        49.000  

  23714297.64849 124619472.89149     -9702.95749        49.000  

  22310680.21149 117243415.56649      2181.68849        50.000  

  22280625.03149 117085473.88749     13060.62549        50.000  

 16 04 02 13 07  1.4000000  0  4G25G06G20G12                                    
  23676498.12549 124420834.59849     -7758.72349        49.000  

  23714482.30549 124620443.27349     -9704.77349        49.000  

  22310638.73449 117243197.63349      2177.04749        50.000  

  22280376.51649 117084167.94149     13058.31249        50.000  

 16 04 02 13 07  1.5000000  0  4G25G06G20G12                                    
  23676645.75849 124421610.44949     -7759.38349        49.000  

  23714666.98449 124621413.73849     -9705.66049        49.000  

  22310597.33649 117242980.07849      2173.12549        50.000  

  22280128.03149 117082862.13349     13056.90249        50.000  

 16 04 02 13 07  1.6000000  0  4G25G06G20G12                                    
  23676793.42249 124422386.43449     -7760.57049        49.000  

  23714851.68849 124622384.37549     -9707.17649        49.000  

  22310556.02349 117242762.97349      2168.76649        50.000  

  22279879.58649 117081556.54749     13054.88349        50.000  

 16 04 02 13 07  1.7000000  0  4G25G06G20G12                                    
  23676941.13349 124423162.62549     -7762.98049        49.000  

  23715036.43049 124623355.23849     -9709.81649        49.000  

  22310514.80549 117242546.39149      2163.34049        50.000  

  22279631.19549 117080251.23049     13051.86749        50.000  

 16 04 02 13 07  1.8000000  0  4G25G06G20G12                                    
  23677088.85949 124423938.95349     -7764.07849        49.000  

  23715221.21149 124624326.27749     -9711.28149        49.000  

  22310473.68049 117242330.27349      2158.86349        50.000  

  22279382.84449 117078946.14849     13049.71549        50.000  

 16 04 02 13 07  1.9000000  0  4G25G06G20G12                                    
  23677236.62549 124424715.41849     -7765.61349        49.000  

  23715406.03149 124625297.47749     -9712.97349        49.000  

  22310432.64149 117242114.62149      2154.12549        50.000  

  22279134.53149 117077641.27349     13047.60549        50.000  

 16 04 02 13 07  2.0000000  0  4G25G06G20G12                                    
  23677384.42249 124425492.09049     -7767.55949        49.000  

  23715590.89149 124626268.90249     -9715.28549        49.000  

  22310391.69549 117241899.46149      2149.10549        50.000  

  22278886.27349 117076336.67249     13044.77049        50.000  

 16 04 02 13 07  2.1000000  0  4G25G06G20G12                                    
  23677532.25049 124426268.95749     -7769.63349        49.000  

  23715775.78149 124627240.54349     -9717.44149        49.000  

  22310350.85249 117241684.82049      2143.91449        50.000  

  22278638.07049 117075032.34049     13042.05549        50.000  

 16 04 02 13 07  2.2000000  0  4G25G06G20G12                                    
  23677680.10249 124427045.90249     -7770.64549        49.000  

  23715960.70349 124628212.31249     -9718.82849        49.000  

  22310310.08649 117241470.59849      2139.66449        50.000  

  22278389.89849 117073728.19149     13040.18449        50.000  

 16 04 02 13 07  2.3000000  0  4G25G06G20G12                                    
  23677827.96949 124427822.93849     -7770.87949        49.000  

  23716145.63349 124629184.19549     -9719.63349        49.000  

  22310269.39849 117241256.78149      2135.95349        50.000  

  22278141.75849 117072424.20349     13038.90249        50.000  

 16 04 02 13 07  2.4000000  0  4G25G06G20G12                                    
  23677975.86749 124428600.16849     -7773.00849        49.000  

  23716330.60949 124630156.27049     -9721.64549        49.000  

  22310228.80549 117241043.44949      2131.04749        50.000  

  22277893.66449 117071120.46149     13036.38749        50.000  

 16 04 02 13 07  2.5000000  0  4G25G06G20G12                                    
  23678123.79749 124429377.50449     -7774.29749        49.000  

  23716515.62549 124631128.51249     -9723.38349        49.000  

  22310188.28949 117240830.57049      2126.41449        50.000  

  22277645.60949 117069816.93849     13034.13349        50.000  

 16 04 02 13 07  2.6000000  0  4G25G06G20G12                                    
  23678271.76649 124430155.08649     -7776.61749        49.000  

  23716700.68849 124632101.01649     -9725.96549        49.000  

  22310147.89149 117240618.24649      2120.88749        50.000  

  22277397.61749 117068513.71549     13031.02749        50.000  

 16 04 02 13 07  2.7000000  0  4G25G06G20G12                                    
  23678419.74249 124430932.73849     -7777.67649        49.000  

  23716885.77349 124633073.62149     -9727.32049        49.000  

  22310107.56249 117240406.30949      2116.86749        50.000  

  22277149.65649 117067210.66049     13029.26249        50.000  

 16 04 02 13 07  2.8000000  0  4G25G06G20G12                                    
  23678567.77349 124431710.61349     -7779.59449        49.000  

  23717070.90649 124634046.47349     -9729.51649        49.000  

  22310067.33649 117240194.92249      2111.43049        50.000  

  22276901.75049 117065907.90249     13026.39849        50.000  

 16 04 02 13 07  2.9000000  0  4G25G06G20G12                                    
  23678715.82049 124432488.64149     -7781.16049        49.000  

  23717256.07049 124635019.49249     -9731.28549        49.000  

  22310027.19549 117239983.99249      2106.80549        50.000  

  22276653.89149 117064605.35949     13024.16049        50.000  

 16 04 02 13 07  3.0000000  0  4G25G06G20G12                                    
  23678863.89149 124433266.75449     -7781.91849        49.000  

  23717441.25849 124635992.64849     -9732.33649        49.000  

  22309987.13349 117239773.47349      2102.95349        50.000  

  22276406.06249 117063302.99249     13022.66049        50.000  

 16 04 02 13 07  3.1000000  0  4G25G06G20G12                                    
  23679011.99249 124434045.03149     -7783.67249        49.000  

  23717626.48449 124636965.97349     -9734.34849        49.000  

  22309947.16449 117239563.44149      2098.01249        50.000  

  22276158.27349 117062000.87149     13020.10249        50.000  

 16 04 02 13 07  3.2000000  0  4G25G06G20G12                                    
  23679160.13349 124434823.49649     -7785.64549        49.000  

  23717811.74249 124637939.53549     -9736.55949        49.000  

  22309907.28949 117239353.91049      2092.77049        50.000  

  22275910.53949 117060699.00849     13017.32449        50.000  

 16 04 02 13 07  3.3000000  0  4G25G06G20G12                                    
  23679308.29749 124435602.09049     -7786.72349        49.000  

  23717997.03949 124638913.24249     -9738.00049        49.000  

  22309867.50849 117239144.83249      2088.51649        50.000  

  22275662.84449 117059397.36349     13015.38749        50.000  

 16 04 02 13 07  3.4000000  0  4G25G06G20G12                                    
  23679456.47749 124436380.81649     -7788.30549        49.000  

  23718182.35949 124639887.11749     -9740.02049        49.000  

  22309827.80549 117238936.19949      2083.73049        50.000  

  22275415.18049 117058095.92249     13013.12949        50.000  

 16 04 02 13 07  3.5000000  0  4G25G06G20G12                                    
  23679604.71149 124437159.75049     -7789.86349        49.000  

  23718367.72749 124640861.20749     -9741.67249        49.000  

  22309788.20349 117238728.08249      2078.95749        50.000  

  22275167.57849 117056794.76649     13010.58249        50.000  

 16 04 02 13 07  3.6000000  0  4G25G06G20G12                                    
  23679752.95349 124437938.77749     -7791.11749        49.000  

  23718553.11749 124641835.42649     -9743.10949        49.000  

  22309748.67249 117238520.39849      2074.55949        50.000  

  22274920.00849 117055493.78549     13008.70749        50.000  

 16 04 02 13 07  3.7000000  0  4G25G06G20G12                                    
  23679901.23449 124438717.96949     -7792.71949        49.000  

  23718738.53949 124642809.84449     -9745.30149        49.000  

  22309709.24249 117238313.18849      2069.62949        50.000  

  22274672.48449 117054193.05149     13006.16849        50.000  

 16 04 02 13 07  3.8000000  0  4G25G06G20G12                                    
  23680049.54749 124439497.35549     -7794.67249        49.000  

  23718924.00849 124643784.48449     -9747.32449        49.000  

  22309669.90649 117238106.49249      2064.59449        50.000  

  22274425.00849 117052892.58649     13003.51649        50.000  

 16 04 02 13 07  3.9000000  0  4G25G06G20G12                                    
  23680197.87549 124440276.84849     -7795.98849        49.000  

  23719109.50849 124644759.24249     -9748.80549        49.000  

  22309630.65649 117237900.21549      2060.12949        50.000  

  22274177.57049 117051592.29349     13001.60249        50.000  

 16 04 02 13 07  4.0000000  0  4G25G06G20G12                                    
  23680346.25849 124441056.58249     -7798.37549        49.000  

  23719295.05549 124645734.28149     -9751.46549        49.000  

  22309591.50849 117237694.49649      2054.62949        50.000  

  22273930.19549 117050292.34449     12998.21549        50.000  

 16 04 02 13 07  4.1000000  0  4G25G06G20G12                                    
  23680494.66449 124441836.46549     -7799.89549        49.000  

  23719480.63349 124646709.49649     -9753.18849        49.000  

  22309552.45349 117237489.26649      2049.84049        50.000  

  22273682.86749 117048992.61749     12996.00049        50.000  

 16 04 02 13 07  4.2000000  0  4G25G06G20G12                                    
  23680643.08649 124442616.43049     -7800.32449        49.000  

  23719666.23449 124647684.83249     -9754.16849        49.000  

  22309513.46949 117237284.42649      2046.22349        50.000  

  22273435.57049 117047693.04749     12994.71149        50.000  

 16 04 02 13 07  4.3000000  0  4G25G06G20G12                                    
  23680791.53149 124443396.53949     -7801.83249        49.000  

  23719851.85249 124648660.31249     -9755.66049        49.000  

  22309474.57849 117237080.02749      2041.74249        50.000  

  22273188.31249 117046393.69149     12992.64149        50.000  

 16 04 02 13 07  4.4000000  0  4G25G06G20G12                                    
  23680940.01649 124444176.81649     -7803.40649        49.000  

  23720037.52349 124649636.00849     -9757.78949        49.000  

  22309435.78149 117236876.14849      2036.66449        50.000  

  22272941.10249 117045094.60549     12989.89849        50.000  

 16 04 02 13 07  4.5000000  0  4G25G06G20G12                                    
  23681088.51649 124444957.22749     -7804.77349        49.000  

  23720223.22749 124650611.85249     -9759.24649        49.000  

  22309397.06249 117236672.69949      2032.23049        50.000  

  22272693.93049 117043795.70749     12987.91449        50.000  

 16 04 02 13 07  4.6000000  0  4G25G06G20G12                                    
  23681237.06249 124445737.82449     -7806.92649        49.000  

  23720408.96149 124651587.92249     -9761.82049        49.000  

  22309358.44549 117236469.76249      2026.94149        50.000  

  22272446.80549 117042497.08649     12985.02049        50.000  

 16 04 02 13 07  4.7000000  0  4G25G06G20G12                                    
  23681385.64149 124446518.61349     -7809.04349        49.000  

  23720594.74249 124652564.19149     -9764.07049        49.000  

  22309319.93049 117236267.34049      2021.49249        50.000  

  22272199.74249 117041198.73449     12982.10249        50.000  

 16 04 02 13 07  4.8000000  0  4G25G06G20G12                                    
  23681534.26649 124447299.60949     -7810.85949        49.000  

  23720780.57049 124653540.71949     -9766.22349        49.000  

  22309281.50849 117236065.43449      2016.55149        50.000  

  22271952.73449 117039900.67649     12979.39549        50.000  

 16 04 02 13 07  4.9000000  0  4G25G06G20G12                                    
  23681682.89149 124448080.66449     -7811.34449        49.000  

  23720966.41449 124654517.31249     -9766.91049        49.000  

  22309243.16449 117235863.91049      2012.89149        50.000  

  22271705.74249 117038602.74249     12978.09449        50.000  

 16 04 02 13 07  5.0000000  0  4G25G06G20G12                                    
  23681831.55549 124448861.89849     -7813.26249        49.000  

  23721152.28949 124655494.11749     -9769.12549        49.000  

  22309204.91449 117235662.89149      2007.77049        50.000  

  22271458.80549 117037305.07449     12975.48449        50.000  

 16 04 02 13 07  5.1000000  0  4G25G06G20G12                                    
  23681980.24249 124449643.25449     -7814.34449        49.000  

  23721338.19549 124656471.07849     -9770.53149        49.000  

  22309166.74249 117235462.29749      2003.64849        50.000  

  22271211.90649 117036007.60549     12973.62949        50.000  

 16 04 02 13 07  5.2000000  0  4G25G06G20G12                                    
  23682128.95349 124450424.73449     -7815.53149        49.000  

  23721524.13349 124657448.17649     -9771.92249        49.000  

  22309128.65649 117235262.16449      1999.10949        50.000  

  22270965.03949 117034710.33649     12971.59449        50.000  

 16 04 02 13 07  5.3000000  0  4G25G06G20G12                                    
  23682277.70349 124451206.41049     -7817.62949        49.000  

  23721710.11749 124658425.51649     -9774.38749        49.000  

  22309090.66449 117235062.54349      1993.79349        50.000  

  22270718.23449 117033413.35549     12968.78149        50.000  

 16 04 02 13 07  5.4000000  0  4G25G06G20G12                                    
  23682426.47749 124451988.22349     -7818.93849        49.000  

  23721896.12549 124659403.00049     -9775.80549        49.000  

  22309052.76649 117234863.37149      1989.39149        50.000  

  22270471.46949 117032116.57849     12966.62149        50.000  

 16 04 02 13 07  5.5000000  0  4G25G06G20G12                                    
  23682575.27349 124452770.16449     -7820.12149        49.000  

  23722082.17249 124660380.65249     -9777.30949        49.000  

  22309014.95349 117234664.64849      1985.03149        50.000  

  22270224.74249 117030820.02049     12964.59849        50.000  

 16 04 02 13 07  5.6000000  0  4G25G06G20G12                                    
  23682724.10249 124453552.25449     -7821.60949        49.000  

  23722268.25049 124661358.47749     -9779.18049        49.000  

  22308977.21949 117234466.38749      1980.26649        50.000  

  22269978.04749 117029523.68049     12962.30949        50.000  

 16 04 02 13 07  5.7000000  0  4G25G06G20G12                                    
  23682872.94549 124454334.44949     -7822.77049        49.000  

  23722454.34449 124662336.44149     -9780.57049        49.000  

  22308939.57049 117234268.56649      1975.94149        50.000  

  22269731.39849 117028227.53149     12960.40249        50.000  

 16 04 02 13 07  5.8000000  0  4G25G06G20G12                                    
  23683021.82049 124455116.78949     -7824.16849        49.000  

  23722640.47749 124663314.56249     -9782.00849        49.000  

  22308902.01649 117234071.20349      1971.35949        50.000  

  22269484.78949 117026931.59849     12958.36749        50.000  

 16 04 02 13 07  5.9000000  0  4G25G06G20G12                                    
  23683170.73449 124455899.30549     -7826.05149        49.000  

  23722826.64149 124664292.89549     -9784.33249        49.000  

  22308864.55549 117233874.32449      1966.39149        50.000  

  22269238.22749 117025635.93049     12955.46949        50.000  

 16 04 02 13 07  6.0000000  0  4G25G06G20G12                                    
  23683319.66449 124456681.96549     -7827.43849        49.000  

  23723012.84449 124665271.38749     -9785.94549        49.000  

  22308827.18049 117233677.91049      1961.75449        50.000  

  22268991.71949 117024340.47749     12953.38749        50.000  

 16 04 02 13 07  6.1000000  0  4G25G06G20G12                                    
  23683468.62549 124457464.77049     -7829.00049        49.000  

  23723199.07049 124666250.06249     -9787.80549        49.000  

  22308789.89149 117233481.97349      1957.01649        50.000  

  22268745.24249 117023045.25049     12951.09849        50.000  

 16 04 02 13 07  6.2000000  0  4G25G06G20G12                                    
  23683617.63349 124458247.77349     -7830.79349        49.000  

  23723385.35249 124667228.96549     -9790.03149        49.000  

  22308752.70349 117233286.54749      1951.80549        50.000  

  22268498.82849 117021750.32849     12948.06249        50.000  

 16 04 02 13 07  6.3000000  0  4G25G06G20G12                                    
  23683766.66449 124459030.94149     -7832.80949        49.000  

  23723571.68049 124668208.06649     -9792.12549        49.000  

  22308715.60249 117233091.60249      1946.92649        50.000  

  22268252.45349 117020455.62549     12945.59849        50.000  

 16 04 02 13 07  6.4000000  0  4G25G06G20G12                                    
  23683915.71949 124459814.25449     -7833.87949        49.000  

  23723758.02349 124669187.31249     -9793.54749        49.000  

  22308678.59449 117232897.12549      1942.39149        50.000  

  22268006.12549 117019161.13749     12943.74249        50.000  

 16 04 02 13 07  6.5000000  0  4G25G06G20G12                                    
  23684064.80549 124460597.69149     -7835.12949        49.000  

  23723944.39149 124670166.73049     -9795.04349        49.000  

  22308641.67249 117232703.08649      1938.03549        50.000  

  22267759.83649 117017866.86749     12941.65649        50.000  

 16 04 02 13 07  6.6000000  0  4G25G06G20G12                                    
  23684213.91449 124461381.27049     -7836.76249        49.000  

  23724130.79749 124671146.30149     -9796.85949        49.000  

  22308604.82849 117232509.51249      1933.39849        50.000  

  22267513.57049 117016572.80549     12939.36349        50.000  

 16 04 02 13 07  6.7000000  0  4G25G06G20G12                                    
  23684363.07049 124462165.05949     -7838.64549        49.000  

  23724317.25849 124672126.13349     -9799.21149        49.000  

  22308568.09449 117232316.47749      1928.07449        50.000  

  22267267.38349 117015279.05949     12936.44149        50.000  

 16 04 02 13 07  6.8000000  0  4G25G06G20G12                                    
  23684512.23449 124462948.91849     -7839.47749        49.000  

  23724503.72749 124673106.04349     -9800.16049        49.000  

  22308531.43849 117232123.81649      1924.19149        50.000  

  22267021.21949 117013985.43849     12934.92649        50.000  

 16 04 02 13 07  6.9000000  0  4G25G06G20G12                                    
  23684661.44549 124463733.00449     -7841.39149        49.000  

  23724690.24249 124674086.21149     -9802.53549        49.000  

  22308494.88349 117231931.70749      1918.87949        50.000  

  22266775.11749 117012692.14149     12931.92649        50.000  

 16 04 02 13 07  7.0000000  0  4G25G06G20G12                                    
  23684810.67249 124464517.19549     -7842.97349        49.000  

  23724876.78149 124675066.50449     -9804.16849        49.000  

  22308458.40649 117231740.02749      1914.27749        50.000  

  22266529.03949 117011399.02049     12929.93449        50.000  

 16 04 02 13 07  7.1000000  0  4G25G06G20G12                                    
  23684959.93849 124465301.59049     -7844.74249        49.000  

  23725063.37549 124676047.03549     -9806.23049        49.000  

  22308422.03149 117231548.86349      1909.27749        50.000  

  22266283.02349 117010106.19149     12927.02349        50.000  

 16 04 02 13 07  7.2000000  0  4G25G06G20G12                                    
  23685109.22749 124466086.11349     -7846.10549        49.000  

  23725249.99249 124677027.72349     -9807.87949        49.000  

  22308385.74249 117231358.14549      1904.78549        50.000  

  22266037.03949 117008813.55149     12925.12949        50.000  

 16 04 02 13 07  7.3000000  0  4G25G06G20G12                                    
  23685258.54749 124466870.78149     -7847.75049        49.000  

  23725436.64149 124678008.58249     -9809.67249        49.000  

  22308349.53949 117231167.89849      1899.97749        50.000  

  22265791.10949 117007521.15249     12922.68849        50.000  

 16 04 02 13 07  7.4000000  0  5G25G29G06G20G12                                 
  23685407.89849 124467655.60249     -7848.87149        49.000  

  24374430.93049 128088498.27059    -28868.80549        48.000  

  23725623.32049 124678989.61749     -9811.27749        49.000  

  22308313.42249 117230978.12549      1895.42249        50.000  

  22265545.22749 117006228.98449     12920.66849        50.000  

 16 04 02 13 07  7.5000000  0  5G25G29G06G20G12                                 
  23685557.28149 124468440.61349     -7851.09049        49.000  

  24374980.30549 128091385.25449    -28870.49649        48.000  

  23725810.04749 124679970.86749     -9813.63749        49.000  

  22308277.40649 117230788.85549      1890.24249        50.000  

  22265299.38349 117004937.08649     12917.71149        50.000  

 16 04 02 13 07  7.6000000  0  5G25G29G06G20G12                                 
  23685706.69549 124469225.80149     -7852.72749        49.000  

  24375529.70349 128094272.35249    -28871.66449        48.000  

  23725996.81249 124680952.32849     -9815.67649        49.000  

  22308241.48449 117230600.08249      1885.16049        50.000  

  22265053.58649 117003645.43449     12915.24249        50.000  

 16 04 02 13 07  7.7000000  0  6G05G25G29G06G20G12                              
  21046182.36749 110598434.31659    -21698.98449        49.000  

  23685856.13349 124470011.09449     -7853.73049        49.000  

  24376079.10949 128097159.52349    -28872.25049        48.000  

  23726183.60249 124681933.90249     -9816.68049        49.000  

  22308205.64149 117230411.73049      1881.13749        50.000  

  22264807.83649 117002353.98449     12913.34849        50.000  

 16 04 02 13 07  7.8000000  0  7G02G05G25G29G06G20G12                           
  21423570.66449 112581623.04359    -24823.48449        50.000  

  21046595.32849 110600604.46949    -21703.97349        49.000  

  23686005.59449 124470796.52049     -7854.93849        49.000  

  24376628.53949 128100046.77349    -28872.91049        48.000  

  23726370.42249 124682915.64849     -9818.38749        49.000  

  22308169.88349 117230223.83249      1876.77049        50.000  

  22264562.11749 117001062.73449     12911.40649        50.000  

 16 04 02 13 07  7.9000000  0  7G02G05G25G29G06G20G12                           
  21424043.07049 112584105.56249    -24826.63749        50.000  

  21047008.40649 110602775.16849    -21709.43449        49.000  

  23686155.07849 124471582.08249     -7856.58649        49.000  

  24377177.97749 128102934.11749    -28873.87149        48.000  

  23726557.27349 124683897.57449     -9820.26249        49.000  

  22308134.21949 117230036.40249      1871.93449        50.000  

  22264316.44549 116999771.70749     12909.10549        50.000  

 16 04 02 13 07  8.0000000  0  7G02G05G25G29G06G20G12                           
  21424515.55549 112586588.46149    -24830.53149        50.000  

  21047421.58649 110604946.47349    -21715.59449        49.000  

  23686304.60949 124472367.86349     -7858.73449        49.000  

  24377727.48449 128105821.62949    -28875.67249        48.000  

  23726744.17249 124684879.71949     -9822.59049        49.000  

  22308098.64849 117229849.50449      1866.45349        50.000  

  22264070.83649 116998480.98849     12905.98049        50.000  

 16 04 02 13 07  8.1000000  0  7G02G05G25G29G06G20G12                           
  21424988.08649 112589071.62949    -24833.30949        50.000  

  21047834.85949 110607118.28149    -21720.62549        49.000  

  23686454.16449 124473153.76649     -7859.87149        49.000  

  24378276.96949 128108709.19949    -28876.24249        48.000  

  23726931.09449 124685862.01649     -9823.99649        49.000  

  22308063.16449 117229663.04349      1862.10949        50.000  

  22263825.25049 116997190.44949     12904.14849        50.000  

 16 04 02 13 07  8.2000000  0  7G02G05G25G29G06G20G12                           
  21425460.67249 112591555.14149    -24836.50049        50.000  

  21048248.25049 110609290.66449    -21726.17649        49.000  

  23686603.74249 124473939.83249     -7861.32449        49.000  

  24378826.48449 128111596.90649    -28877.44149        48.000  

  23727118.05549 124686844.51249     -9825.68049        49.000  

  22308027.77349 117229477.07449      1857.41849        50.000  

  22263579.71949 116995900.17249     12901.78549        50.000  

 16 04 02 13 07  8.3000000  0  7G02G05G25G29G06G20G12                           
  21425933.31249 112594038.89149    -24839.03949        50.000  

  21048661.71949 110611463.52749    -21731.19949        49.000  

  23686753.34449 124474726.00449     -7862.66049        49.000  

  24379376.00849 128114484.64549    -28877.83649        48.000  

  23727305.04749 124687827.13749     -9827.28549        49.000  

  22307992.46949 117229291.50849      1853.21149        50.000  

  22263334.21949 116994610.06649     12899.88749        50.000  

 16 04 02 13 07  8.4000000  0  7G02G05G25G29G06G20G12                           
  21426405.99249 112596522.93049    -24841.71149        50.000  

  21049075.29749 110613636.89849    -21736.06649        49.000  

  23686902.96949 124475512.27749     -7863.37549        49.000  

  24379925.55549 128117372.46549    -28878.44949        48.000  

  23727492.05549 124688809.88349     -9828.28949        49.000  

  22307957.23449 117229106.38749      1849.05549        50.000  

  22263088.75849 116993320.15649     12898.13349        50.000  

 16 04 02 13 07  8.5000000  0  7G02G05G25G29G06G20G12                           
  21426878.74249 112599007.25049    -24844.45749        50.000  

  21049488.96949 110615810.77749    -21741.07849        49.000  

  23687052.61749 124476298.67249     -7864.55949        49.000  

  24380475.10249 128120260.34849    -28879.08249        48.000  

  23727679.10249 124689792.78949     -9829.79749        49.000  

  22307922.09449 117228921.69949      1844.62549        50.000  

  22262843.33649 116992030.44949     12896.12949        50.000  

 16 04 02 13 07  8.6000000  0  7G02G05G25G29G06G20G12                           
  21427351.54749 112601491.80549    -24846.79349        50.000  

  21049902.73449 110617985.12149    -21745.71949        49.000  

  23687202.28149 124477085.14849     -7865.21949        49.000  

  24381024.63349 128123148.24649    -28879.16449        48.000  

  23727866.15649 124690775.78949     -9830.60549        49.000  

  22307887.02349 117228737.40249      1840.95749        50.000  

  22262597.93849 116990740.88749     12894.72349        50.000  

 16 04 02 13 07  8.7000000  0  7G02G05G25G29G06G20G12                           
  21427824.38349 112603976.59849    -24849.26649        50.000  

  21050316.57849 110620159.95349    -21750.63749        49.000  

  23687351.95349 124477871.70349     -7866.09049        49.000  

  24381574.19549 128126036.20349    -28879.83649        48.000  

  23728053.24249 124691758.91449     -9832.06249        49.000  

  22307852.03149 117228553.51649      1836.69149        50.000  

  22262352.57849 116989451.50449     12892.82049        50.000  

 16 04 02 13 07  8.8000000  0  7G02G05G25G29G06G20G12                           
  21428297.28949 112606461.66449    -24851.78549        50.000  

  21050730.52349 110622335.26249    -21755.36349        49.000  

  23687501.64849 124478658.35249     -7867.04349        49.000  

  24382123.76649 128128924.19949    -28880.08649        48.000  

  23728240.34449 124692742.12949     -9832.94149        49.000  

  22307817.11749 117228370.04349      1832.72749        50.000  

  22262107.25049 116988162.28549     12891.34849        50.000  

 16 04 02 13 07  8.9000000  0  7G02G05G25G29G06G20G12                           
  21428770.21949 112608946.93849    -24853.91449        50.000  

  21051144.55549 110624511.03149    -21759.95349        49.000  

  23687651.35949 124479445.07849     -7867.71549        49.000  

  24382673.33649 128131812.20749    -28880.23049        48.000  

  23728427.47749 124693725.47349     -9834.00849        49.000  

  22307782.27349 117228186.95749      1828.86749        50.000  

  22261861.94549 116986873.21949     12889.87549        50.000  

 16 04 02 13 07  9.0000000  0  7G02G05G25G29G06G20G12                           
  21429243.22749 112611432.49649    -24856.67649        50.000  

  21051558.68049 110626687.29349    -21764.77349        49.000  

  23687801.07849 124480231.87149     -7868.52049        49.000  

  24383222.89849 128134700.25449    -28880.46549        48.000  

  23728614.61749 124694708.92249     -9835.08649        49.000  

  22307747.51649 117228004.28949      1824.66049        50.000  

  22261616.68849 116985584.32849     12888.11749        50.000  

 16 04 02 13 07  9.1000000  0  7G02G05G25G29G06G20G12                           
  21429716.25049 112613918.24649    -24858.66449        50.000  

  21051972.91449 110628863.99249    -21769.13349        49.000  

  23687950.82049 124481018.75849     -7869.05149        49.000  

  24383772.48449 128137588.32849    -28880.80949        48.000  

  23728801.78149 124695692.44549     -9835.78149        49.000  

  22307712.82849 117227821.98849      1821.03549        50.000  

  22261371.44549 116984295.56649     12886.88749        50.000  

 16 04 02 13 07  9.2000000  0  7G02G05G25G29G06G20G12                           
  21430189.30549 112616404.18049    -24860.28949        50.000  

  21052387.20349 110631041.10249    -21773.06249        49.000  

  23688100.55549 124481805.62949     -7868.77349        49.000  

  24384322.05549 128140476.34049    -28879.99249        48.000  

  23728988.95349 124696676.02349     -9835.83649        49.000  

  22307678.19549 117227640.02049      1817.98849        50.000  

  22261126.21149 116983006.89849     12886.23049        50.000  

 16 04 02 13 07  9.3000000  0  7G02G05G25G29G06G20G12                           
  21430662.39149 112618890.23049    -24861.48049        50.000  

  21052801.55549 110633218.56249    -21776.58649        49.000  

  23688250.28949 124482592.46949     -7868.60949        49.000  

  24384871.60949 128143364.29349    -28879.44149        48.000  

  23729176.11749 124697659.57849     -9835.88349        49.000  

  22307643.62549 117227458.33649      1815.08649        50.000  

  22260881.00049 116981718.28549     12885.57049        50.000  

 16 04 02 13 07  9.4000000  0  7G02G05G25G29G06G20G12                           
  21431135.50849 112621376.48449    -24863.24249        50.000  

  21053215.99249 110635396.44149    -21780.61749        49.000  

  23688400.02349 124483379.34849     -7868.75449        49.000  

  24385421.15649 128146252.19549    -28878.71949        48.000  

  23729363.28949 124698643.18849     -9836.25449        49.000  

  22307609.11749 117227277.00449      1811.71149        50.000  

  22260635.80549 116980429.77049     12884.73849        50.000  

 16 04 02 13 07  9.5000000  0  7G02G05G25G29G06G20G12                           
  21431608.66449 112623862.93049    -24865.27749        50.000  

  21053630.50849 110637574.75449    -21784.95749        49.000  

  23688549.77349 124484166.25449     -7869.07049        49.000  

  24385970.70349 128149140.11349    -28878.85549        48.000  

  23729550.48449 124699626.86749     -9836.95349        49.000  

  22307574.68049 117227096.02749      1808.17249        50.000  

  22260390.63349 116979141.38349     12883.44149        50.000  

 16 04 02 13 07  9.6000000  0  7G02G05G25G29G06G20G12                           
  21432081.84449 112626349.49649    -24866.55949        50.000  

  21054045.09449 110639753.43049    -21788.72749        49.000  

  23688699.50849 124484953.13349     -7868.98449        49.000  

  24386520.25049 128152027.93849    -28878.13749        48.000  

  23729737.66449 124700610.52349     -9836.94149        49.000  

  22307540.28949 117226915.34049      1805.11349        50.000  

  22260145.46149 116977853.03149     12882.91449        50.000  

 16 04 02 13 07  9.7000000  0  7G02G05G25G29G06G20G12                           
  21432555.05549 112628836.20749    -24867.68449        50.000  

  21054459.75849 110641932.45349    -21791.84449        49.000  

  23688849.25049 124485739.98049     -7868.19149        49.000  

  24387069.76649 128154915.68049    -28876.95349        48.000  

  23729924.85949 124701594.18449     -9836.47749        49.000  

  22307505.96149 117226734.93449      1802.69149        50.000  

  22259900.31249 116976564.73449     12882.80549        50.000  

 16 04 02 13 07  9.8000000  0  7G02G05G25G29G06G20G12                           
  21433028.25849 112631322.96149    -24867.98849        50.000  

  21054874.46949 110644111.77749    -21794.68049        49.000  

  23688998.96149 124486526.72349     -7867.06649        49.000  

  24387619.23449 128157803.27749    -28875.33249        48.000  

  23730112.03149 124702577.78949     -9835.47349        49.000  

  22307471.68049 117226554.75449      1800.68849        50.000  

  22259655.14149 116975276.42649     12883.09449        50.000  

 16 04 02 13 07  9.9000000  0  7G02G05G25G29G06G20G12                           
  21433501.49249 112633809.82449    -24868.95349        50.000  

  21055289.25849 110646291.42249    -21797.97749        49.000  

  23689148.65649 124487313.38349     -7866.21949        49.000  

  24388168.70349 128160690.75849    -28874.20349        48.000  

  23730299.18849 124703561.33249     -9835.25849        49.000  

  22307437.43849 117226374.82049      1798.08649        50.000  

  22259409.98449 116973988.10949     12883.10549        50.000  

 16 04 02 13 07 10.0000000  0  7G02G05G25G29G06G20G12                           
  21433974.75849 112636296.71149    -24869.31649        50.000  

  21055704.07849 110648471.32449    -21800.49249        49.000  

  23689298.33649 124488099.94549     -7865.15649        49.000  

  24388718.14149 128163578.06649    -28872.51249        48.000  

  23730486.33649 124704544.77349     -9834.12149        49.000  

  22307403.23449 117226195.08249      1796.12949        50.000  

  22259164.82849 116972699.77049     12883.38349        50.000  

 16 04 02 13 07 10.1000000  0  7G02G05G25G29G06G20G12                           
  21434448.01649 112638783.70349    -24870.16449        50.000  

  21056118.97749 110650651.56249    -21803.68449        49.000  

  23689447.99249 124488886.41849     -7864.12549        49.000  

  24389267.54749 128166465.24649    -28871.18449        48.000  

  23730673.47749 124705528.19149     -9833.65249        49.000  

  22307369.07849 117226015.60249      1793.70749        50.000  

  22258919.66449 116971411.42649     12883.57849        50.000  

 16 04 02 13 07 10.2000000  0  7G02G05G25G29G06G20G12                           
  21434921.28149 112641270.76649    -24870.97349        50.000  

  21056533.92249 110652832.10249    -21806.78549        49.000  

  23689597.64149 124489672.82849     -7863.57049        49.000  

  24389816.94549 128169352.31249    -28870.10249        48.000  

  23730860.59449 124706511.52349     -9833.18849        49.000  

  22307334.96949 117225836.35549      1791.23049        50.000  

  22258674.49249 116970123.09449     12883.34449        50.000  

 16 04 02 13 07 10.3000000  0  7G02G05G25G29G06G20G12                           
  21435394.57849 112643757.95349    -24872.29349        50.000  

  21056948.93849 110655012.99649    -21810.34449        49.000  

  23689747.28149 124490459.18449     -7863.08649        49.000  

  24390366.31249 128172239.26649    -28868.92249        48.000  

  23731047.71949 124707494.87149     -9832.99649        49.000  

  22307300.91449 117225657.38749      1788.48449        50.000  

  22258429.33649 116968834.80149     12882.92649        50.000  

 16 04 02 13 07 10.4000000  0  7G02G05G25G29G06G20G12                           
  21435867.89849 112646245.17249    -24872.55949        50.000  

  21057364.00049 110657194.16049    -21813.03949        49.000  

  23689896.89849 124491245.42249     -7861.81649        49.000  

  24390915.66449 128175126.05949    -28867.25849        48.000  

  23731234.82049 124708478.10949     -9831.93449        49.000  

  22307266.89149 117225478.61349      1786.60949        50.000  

  22258184.18049 116967546.46149     12883.47349        50.000  

 16 04 02 13 07 10.5000000  0  7G02G05G25G29G06G20G12                           
  21436341.21949 112648732.46949    -24873.52349        50.000  

  21057779.12549 110659375.62549    -21816.18449        49.000  

  23690046.50849 124492031.57449     -7861.12149        49.000  

  24391464.97749 128178012.71949    -28866.02049        48.000  

  23731421.92249 124709461.28149     -9831.60249        49.000  

  22307232.91449 117225300.07449      1784.12549        50.000  

  22257939.00849 116966258.11349     12883.37149        50.000  

 16 04 02 13 07 10.6000000  0  7G02G05G25G29G06G20G12                           
  21436814.56249 112651219.92249    -24875.01249        50.000  

  21058194.32049 110661557.47749    -21819.96949        49.000  

  23690196.10249 124492817.71949     -7861.17249        49.000  

  24392014.24249 128180899.32449    -28865.37149        48.000  

  23731609.02349 124710444.49649     -9831.88749        49.000  

  22307199.00049 117225121.85949      1780.84849        50.000  

  22257693.85949 116964969.85549     12882.57049        50.000  

 16 04 02 13 07 10.7000000  0  7G02G05G25G29G06G20G12                           
  21437287.92249 112653707.43049    -24875.48449        50.000  

  21058609.56249 110663739.61349    -21822.80949        49.000  

  23690345.68049 124493603.75449     -7859.91049        49.000  

  24392563.51649 128183785.77349    -28863.92249        48.000  

  23731796.09449 124711427.60249     -9830.75449        49.000  

  22307165.12549 117224943.85249      1778.81649        50.000  

  22257448.71149 116963681.55949     12882.90649        50.000  

 16 04 02 13 07 10.8000000  0  7G02G05G25G29G06G20G12                           
  21437761.29749 112656195.00449    -24875.97749        50.000  

  21059024.85949 110665922.04749    -21825.68049        49.000  

  23690495.24249 124494389.69549     -7858.83649        49.000  

  24393112.81249 128186672.07849    -28862.34049        48.000  

  23731983.16449 124712410.65649     -9830.10949        49.000  

  22307131.29749 117224766.07049      1776.72349        50.000  

  22257203.54749 116962393.25449     12883.15649        50.000  

 16 04 02 13 07 10.9000000  0  7G02G05G25G29G06G20G12                           
  21438234.68049 112658682.66849    -24877.00849        50.000  

  21059440.24249 110668104.80549    -21829.08649        49.000  

  23690644.79749 124495175.58249     -7858.42649        49.000  

  24393662.03149 128189558.26649    -28861.34449        48.000  

  23732170.21949 124713393.65649     -9829.83249        49.000  

  22307097.51649 117224588.53949      1774.10549        50.000  

  22256958.39849 116961104.95749     12882.94949        50.000  

 16 04 02 13 07 11.0000000  0  7G02G05G25G29G06G20G12                           
  21438708.08649 112661170.40249    -24877.69549        50.000  

  21059855.66449 110670287.85549    -21832.03949        49.000  

  23690794.32049 124495961.35249     -7857.21549        49.000  

  24394211.21149 128192444.30549    -28859.83649        48.000  

  23732357.26649 124714376.59449     -9828.98449        49.000  

  22307063.77349 117224411.23049      1771.89849        50.000  

  22256713.24249 116959816.64849     12883.11749        50.000  

 16 04 02 13 07 11.1000000  0  7G02G05G25G29G06G20G12                           
  21439181.50849 112663658.25849    -24879.06649        50.000  

  21060271.15649 110672471.25849    -21835.57449        49.000  

  23690943.85249 124496747.10549     -7857.31649        49.000  

  24394760.39149 128195330.26249    -28858.99649        48.000  

  23732544.31249 124715359.53149     -9829.34449        49.000  

  22307030.08649 117224234.21149      1768.87149        50.000  

  22256468.09449 116958528.39149     12882.41849        50.000  

 16 04 02 13 07 11.2000000  0  7G02G05G25G29G06G20G12                           
  21439654.96149 112666146.28549    -24880.74649        50.000  

  21060686.72749 110674655.05949    -21839.58649        49.000  

  23691093.37549 124497532.86749     -7857.26649        49.000  

  24395309.56249 128198216.18449    -28858.66049        48.000  

  23732731.35949 124716342.48849     -9829.48049        49.000  

  22306996.46949 117224057.53149      1765.44549        50.000  

  22256222.96149 116957240.21949     12881.58649        50.000  

 16 04 02 13 07 11.3000000  0  7G02G05G25G29G06G20G12                           
  21440128.44549 112668634.44149    -24882.37949        50.000  

  21061102.36749 110676839.23449    -21843.66449        49.000  

  23691242.89149 124498318.57849     -7857.35949        49.000  

  24395858.71949 128201102.02049    -28858.19949        48.000  

  23732918.41449 124717325.44949     -9830.07849        49.000  

  22306962.89849 117223881.11749      1762.27349        50.000  

  22255977.84449 116955952.09849     12880.69149        50.000  

 16 04 02 13 07 11.4000000  0  7G02G05G25G29G06G20G12                           
  21440601.94549 112671122.82449    -24884.54749        50.000  

  21061518.08649 110679023.85249    -21848.00849        49.000  

  23691392.42249 124499104.36749     -7857.81649        49.000  

  24396407.88349 128203987.87949    -28858.41049        48.000  

  23733105.48449 124718308.48849     -9830.53549        49.000  

  22306929.40649 117223705.10249      1758.55149        50.000  

  22255732.75049 116954664.13349     12879.25049        50.000  

 16 04 02 13 07 11.5000000  0  7G02G05G25G29G06G20G12                           
  21441075.49249 112673611.31649    -24885.67649        50.000  

  21061933.86749 110681208.81649    -21851.38349        49.000  

  23691541.94549 124499890.10949     -7857.36749        49.000  

  24396957.02349 128206873.63749    -28857.35249        48.000  

  23733292.55549 124719291.53149     -9830.49649        49.000  

  22306895.96149 117223529.35249      1756.01249        50.000  

  22255487.65649 116953376.18849     12879.09049        50.000  

 16 04 02 13 07 11.6000000  0  7G02G05G25G29G06G20G12                           
  21441549.07049 112676099.96149    -24887.28149        50.000  

  21062349.72749 110683394.16049    -21855.32049        49.000  

  23691691.46949 124500675.83649     -7857.50049        49.000  

  24397506.17249 128209759.33249    -28856.84049        48.000  

  23733479.61749 124720274.56249     -9830.68849        49.000  

  22306862.57849 117223353.91849      1752.53549        50.000  

  22255242.58649 116952088.32049     12878.14549        50.000  

 16 04 02 13 07 11.7000000  0  7G02G05G25G29G06G20G12                           
  21442022.67249 112678588.75049    -24888.45749        50.000  

  21062765.64849 110685579.89849    -21859.07049        49.000  

  23691840.98449 124501461.55549     -7857.20749        49.000  

  24398055.28949 128212644.97749    -28856.10249        48.000  

  23733666.68049 124721257.62549     -9830.59449        49.000  

  22306829.25849 117223178.80549      1749.68449        50.000  

  22254997.52349 116950800.51649     12877.74249        50.000  

 16 04 02 13 07 11.8000000  0  7G02G05G25G29G06G20G12                           
  21442496.28949 112681077.66049    -24889.78549        50.000  

  21063181.64149 110687765.93049    -21862.10549        49.000  

  23691990.49249 124502247.22349     -7856.71949        49.000  

  24398604.37549 128215530.48849    -28854.82849        48.000  

  23733853.74249 124722240.64549     -9830.36749        49.000  

  22306795.98449 117223003.94149      1747.08249        50.000  

  22254752.46949 116949512.74649     12877.34849        50.000  

 16 04 02 13 07 11.9000000  0  7G02G05G25G29G06G20G12                           
  21442969.95349 112683566.75449    -24891.53949        50.000  

  21063597.72749 110689952.43449    -21866.46149        49.000  

  23692140.00849 124503032.92649     -7856.73049        49.000  

  24399153.47749 128218416.04349    -28855.16449        48.000  

  23734040.82049 124723223.74649     -9830.83649        49.000  

  22306762.77349 117222829.43849      1743.55949        50.000  

  22254507.43849 116948225.09449     12876.35949        50.000  

 16 04 02 13 07 12.0000000  0  7G02G05G25G29G06G20G12                           
  21443443.63349 112686055.98449    -24893.16849        50.000  

  21064013.87549 110692139.28949    -21870.44949        49.000  

  23692289.51649 124503818.60249     -7856.89149        49.000  

  24399702.57049 128221301.47349    -28854.33649        48.000  

  23734227.89149 124724206.82449     -9831.14549        49.000  

  22306729.62549 117222655.23049      1740.27349        50.000  

  22254262.40649 116946937.49649     12875.47749        50.000  

 16 04 02 13 07 12.1000000  0  7G02G05G25G29G06G20G12                           
  21443917.35949 112688545.43049    -24895.24649        50.000  

  21064430.11749 110694326.57449    -21874.69549        49.000  

  23692439.03949 124504604.32849     -7857.33249        49.000  

  24400251.64849 128224186.91449    -28854.26249        48.000  

  23734414.99249 124725190.00849     -9831.85949        49.000  

  22306696.53949 117222481.39549      1736.72349        50.000  

  22254017.41449 116945650.03549     12874.12149        50.000  

 16 04 02 13 07 12.2000000  0  7G02G05G25G29G06G20G12                           
  21444391.09449 112691034.99249    -24896.45349        50.000  

  21064846.41449 110696514.22349    -21878.31649        49.000  

  23692588.54749 124505390.02049     -7856.91849        49.000  

  24400800.70349 128227072.27349    -28853.40249        48.000  

  23734602.07849 124726173.16449     -9831.82049        49.000  

  22306663.51649 117222307.84849      1733.79749        50.000  

  22253772.42249 116944362.61749     12873.70349        50.000  

 16 04 02 13 07 12.3000000  0  7G02G05G25G29G06G20G12                           
  21444864.88349 112693524.73449    -24898.01249        50.000  

  21065262.79749 110698702.28949    -21882.43849        50.000  

  23692738.06249 124506175.74249     -7857.09449        49.000  

  24401349.76649 128229957.60949    -28853.11749        48.000  

  23734789.18849 124727156.36349     -9832.18049        49.000  

  22306630.55549 117222134.63749      1730.53949        50.000  

  22253527.45349 116943075.29749     12872.84849        50.000  

 16 04 02 13 07 12.4000000  0  7G02G05G25G29G06G20G12                           
  21445338.68049 112696014.66449    -24899.98049        50.000  

  21065679.25049 110700890.73049    -21886.34449        50.000  

  23692887.57849 124506961.44549     -7857.13749        49.000  

  24401898.83649 128232842.89549    -28852.61749        48.000  

  23734976.28949 124728139.61349     -9832.53149        49.000  

  22306597.65649 117221961.75449      1727.14849        50.000  

  22253282.50849 116941788.07049     12871.77749        50.000  

 16 04 02 13 07 12.5000000  0  7G02G05G25G29G06G20G12                           
  21445812.51649 112698504.67249    -24900.82849        50.000  

  21066095.75049 110703079.53949    -21889.81649        50.000  

  23693037.09449 124507747.13349     -7856.91049        49.000  

  24402447.86749 128235728.09449    -28851.69949        48.000  

  23735163.39149 124729122.81249     -9832.27349        49.000  

  22306564.80549 117221789.13749      1724.57449        50.000  

  22253037.56249 116940500.87949     12871.52749        50.000  

 16 04 02 13 07 12.6000000  0  7G02G05G25G29G06G20G12                           
  21446286.39149 112700994.97749    -24903.84449        50.000  

  21066512.35949 110705268.84049    -21895.13749        49.000  

  23693186.62549 124508532.90649     -7858.09049        49.000  

  24402996.91449 128238613.35949    -28852.67649        48.000  

  23735350.51649 124730106.18049     -9834.12149        49.000  

  22306532.04749 117221616.97349      1719.81249        50.000  

  22252792.64849 116939213.87949     12869.29349        50.000  

 16 04 02 13 07 12.7000000  0  7G02G05G25G29G06G20G12                           
  21446760.32049 112703485.47749    -24905.71149        50.000  

  21066929.03949 110707458.56649    -21899.23049        50.000  

  23693336.15649 124509318.73449     -7858.26649        49.000  

  24403545.95349 128241498.57449    -28852.12549        48.000  

  23735537.65649 124731089.57849     -9834.24649        49.000  

  22306499.34449 117221445.14149      1716.62149        50.000  

  22252547.76649 116937926.99249     12868.34849        50.000  

 16 04 02 13 07 12.8000000  0  7G02G05G25G29G06G20G12                           
  21447234.26649 112705976.17249    -24908.07449        50.000  

  21067345.81249 110709648.69949    -21903.43049        49.000  

  23693485.69549 124510104.57049     -7859.01649        49.000  

  24404095.00049 128244383.79349    -28852.10549        48.000  

  23735724.80549 124732073.05949     -9835.39549        49.000  

  22306466.71149 117221273.67649      1712.63349        50.000  

  22252302.89849 116936640.22749     12866.88749        50.000  

 16 04 02 13 07 12.9000000  0  7G02G05G25G29G06G20G12                           
  21447708.27349 112708467.10949    -24910.45349        50.000  

  21067762.68849 110711839.34849    -21908.62149        49.000  

  23693635.25849 124510890.53149     -7860.00849        49.000  

  24404644.05549 128247269.07849    -28852.93049        48.000  

  23735911.97749 124733056.65649     -9836.60249        49.000  

  22306434.16449 117221102.62949      1708.47749        50.000  

  22252058.07049 116935353.64149     12865.05149        50.000  

 16 04 02 13 07 13.0000000  0  7G02G05G25G29G06G20G12                           
  21448182.33649 112710958.30949    -24913.01249        50.000  

  21068179.64849 110714030.46949    -21913.28949        50.000  

  23693784.84449 124511676.57849     -7860.72349        49.000  

  24405193.10949 128250154.40249    -28853.25449        48.000  

  23736099.17249 124734040.37149     -9837.50849        49.000  

  22306401.69549 117220932.00049      1704.43449        50.000  

  22251813.27349 116934067.23049     12863.42249        50.000  

 16 04 02 13 07 13.1000000  0  7G02G05G25G29G06G20G12                           
  21448656.42249 112713449.67249    -24914.77349        50.000  

  21068596.66449 110716221.96549    -21917.14549        50.000  

  23693934.42249 124512462.62549     -7860.95749        49.000  

  24405742.15649 128253039.65249    -28852.62149        48.000  

  23736286.37549 124735024.10949     -9837.96549        49.000  

  22306369.28149 117220761.68049      1701.12149        50.000  

  22251568.49249 116932780.89549     12862.58249        50.000  

 16 04 02 13 07 13.2000000  0  7G02G05G25G29G06G20G12                           
  21449130.55549 112715941.29349    -24917.23449        50.000  

  21069013.79749 110718413.97349    -21922.23849        49.000  

  23694084.02349 124513248.77049     -7861.84449        49.000  

  24406291.22749 128255924.98849    -28853.29749        48.000  

  23736473.60249 124736007.98449     -9839.25049        49.000  

  22306336.95349 117220591.78549      1697.06649        50.000  

  22251323.74249 116931494.75049     12860.71549        50.000  

 16 04 02 13 07 13.3000000  0  7G02G05G25G29G06G20G12                           
  21449604.74249 112718433.17249    -24920.07849        50.000  

  21069431.01649 110720606.46149    -21927.13749        49.000  

  23694233.64149 124514035.01649     -7863.05149        49.000  

  24406840.28949 128258810.35249    -28853.98449        48.000  

  23736660.84449 124736991.98449     -9840.80149        49.000  

  22306304.71149 117220422.31649      1692.61349        50.000  

  22251079.03149 116930208.79349     12858.67649        50.000  

 16 04 02 13 07 13.4000000  0  7G02G05G25G29G06G20G12                           
  21450078.98449 112720925.29749    -24922.35949        50.000  

  21069848.32049 110722799.42249    -21931.64849        49.000  

  23694383.27349 124514821.34449     -7863.65649        49.000  

  24407389.35949 128261695.74649    -28853.89549        48.000  

  23736848.10949 124737976.07849     -9841.37949        49.000  

  22306272.53949 117220253.25849      1688.66049        50.000  

  22250834.35249 116928922.99249     12857.23049        50.000  

 16 04 02 13 07 13.5000000  0  7G02G05G25G29G06G20G12                           
  21450553.25849 112723417.59849    -24924.24249        50.000  

  21070265.71949 110724992.79749    -21935.90249        49.000  

  23694532.91449 124515607.68849     -7863.96949        49.000  

  24407938.43049 128264581.12949    -28853.88749        48.000  

  23737035.39149 124738960.22749     -9842.05949        49.000  

  22306240.43049 117220084.53149      1685.15649        50.000  

  22250589.69549 116927637.29349     12856.13349        50.000  

 16 04 02 13 07 13.6000000  0  7G02G05G25G29G06G20G12                           
  21451027.58649 112725910.18849    -24927.12549        50.000  

  21070683.20349 110727186.68049    -21940.95349        49.000  

  23694682.57049 124516394.16849     -7865.34849        49.000  

  24408487.53149 128267466.58249    -28854.66049        48.000  

  23737222.69549 124739944.53149     -9843.82849        49.000  

  22306208.40649 117219916.24649      1680.73849        50.000  

  22250345.07049 116926351.80149     12854.04749        50.000  

 16 04 02 13 07 13.7000000  0  7G02G05G25G29G06G20G12                           
  21451501.96949 112728403.05549    -24929.87549        50.000  

  21071100.78949 110729381.07849    -21946.08649        49.000  

  23694832.25849 124517180.76249     -7866.39149        49.000  

  24409036.62549 128270352.09849    -28855.26649        48.000  

  23737410.03149 124740928.97349     -9845.10549        49.000  

  22306176.46149 117219748.40649      1676.37549        50.000  

  22250100.49249 116925066.51649     12852.02349        50.000  

 16 04 02 13 07 13.8000000  0  7G02G05G25G29G06G20G12                           
  21451976.38349 112730896.12949    -24931.85549        50.000  

  21071518.45349 110731575.92649    -21950.63349        49.000  

  23694981.95349 124517967.40649     -7866.96549        49.000  

  24409585.73449 128273237.62149    -28855.30149        48.000  

  23737597.38349 124741913.49649     -9845.77349        49.000  

  22306144.59449 117219580.94549      1672.64549        50.000  

  22249855.93849 116923781.36349     12850.83249        50.000  

 16 04 02 13 07 13.9000000  0  7G02G05G25G29G06G20G12                           
  21452450.83649 112733389.40249    -24933.73449        50.000  

  21071936.19549 110733771.17649    -21954.50049        49.000  

  23695131.65649 124518754.07849     -7866.99249        49.000  

  24410134.82849 128276123.14149    -28855.27049        48.000  

  23737784.75049 124742898.07049     -9846.14849        49.000  

  22306112.79749 117219413.83249      1669.27049        50.000  

  22249611.39849 116922496.32849     12849.71149        50.000  

 16 04 02 13 07 14.0000000  0  7G02G05G25G29G06G20G12                           
  21452925.33649 112735882.92249    -24936.37149        50.000  

  21072354.03149 110735966.92649    -21959.71149        49.000  

  23695281.37549 124519540.86349     -7868.28949        49.000  

  24410683.93049 128279008.67249    -28855.52749        48.000  

  23737972.13349 124743882.78149     -9847.74649        49.000  

  22306081.07049 117219247.13349      1664.86349        50.000  

  22249366.89849 116921211.46549     12847.82849        50.000  

 16 04 02 13 07 14.1000000  0  7G02G05G25G29G06G20G12                           
  21453399.87549 112738376.62549    -24938.09849        50.000  

  21072771.95349 110738163.07849    -21963.65249        49.000  

  23695431.10249 124520327.65249     -7868.09449        49.000  

  24411233.02349 128281894.19149    -28855.29349        48.000  

  23738159.52349 124744867.51649     -9847.91849        49.000  

  22306049.41449 117219080.77749      1661.65249        50.000  

  22249122.42249 116919926.70749     12846.87949        50.000  

 16 04 02 13 07 14.2000000  0  7G02G05G25G29G06G20G12                           
  21453874.46949 112740870.60949    -24941.01249        50.000  

  21073189.96149 110740359.74249    -21968.93049        49.000  

  23695580.84449 124521114.57849     -7869.71549        49.000  

  24411782.12549 128284779.78149    -28856.08649        48.000  

  23738346.94549 124745852.41049     -9849.71149        49.000  

  22306017.84449 117218914.85949      1657.08649        50.000  

  22248877.98449 116918642.14849     12844.74649        50.000  

 16 04 02 13 07 14.3000000  0  7G02G05G25G29G06G20G12                           
  21454349.11749 112743364.89849    -24944.14549        50.000  

  21073608.09449 110742556.94149    -21974.27049        49.000  

  23695730.61749 124521901.64149     -7871.05949        49.000  

  24412331.25049 128287665.46149    -28857.03549        48.000  

  23738534.39849 124746837.48049     -9851.37549        49.000  

  22305986.36749 117218749.42249      1652.26249        50.000  

  22248633.58649 116917357.82849     12842.37949        50.000  

 16 04 02 13 07 14.4000000  0  7G02G05G25G29G06G20G12                           
  21454823.80549 112745859.39149    -24946.12149        50.000  

  21074026.28949 110744754.56249    -21978.47349        49.000  

  23695880.39849 124522688.74649     -7871.57849        49.000  

  24412880.39149 128290551.14849    -28857.04349        48.000  

  23738721.85949 124747822.60249     -9851.87949        49.000  

  22305954.94549 117218584.32849      1648.80149        50.000  

  22248389.21149 116916073.62149     12841.19549        50.000  

 16 04 02 13 07 14.5000000  0  7G02G05G25G29G06G20G12                           
  21455298.53949 112748354.15649    -24948.86349        50.000  

  21074444.57849 110746952.70349    -21983.53549        49.000  

  23696030.20349 124523475.95749     -7872.62949        49.000  

  24413429.53149 128293436.88749    -28857.64149        48.000  

  23738909.35249 124748807.87949     -9853.32849        49.000  

  22305923.61749 117218419.68049      1644.46949        50.000  

  22248144.86749 116914789.61349     12839.27049        50.000  

 16 04 02 13 07 14.6000000  0  7G02G05G25G29G06G20G12                           
  21455773.32049 112750849.16449    -24951.28149        50.000  

  21074862.96149 110749151.30549    -21988.18049        49.000  

  23696180.02349 124524263.27049     -7873.52349        49.000  

  24413978.65649 128296322.66849    -28858.03949        48.000  

  23739096.86749 124749793.27049     -9854.40649        49.000  

  22305892.35949 117218255.43849      1640.40649        50.000  

  22247900.56249 116913505.78549     12837.47749        50.000  

 16 04 02 13 07 14.7000000  0  7G02G05G25G29G06G20G12                           
  21456248.14849 112753344.37149    -24953.20749        50.000  

  21075281.44549 110751350.35949    -21992.66849        49.000  

  23696329.85249 124525050.62549     -7873.93849        49.000  

  24414527.80549 128299208.43849    -28857.85549        48.000  

  23739284.39149 124750778.72349     -9855.17649        49.000  

  22305861.18049 117218091.56649      1636.74649        50.000  

  22247656.28149 116912222.07449     12836.28549        50.000  

 16 04 02 13 07 14.8000000  0  7G02G05G25G29G06G20G12                           
  21456723.03149 112755839.89149    -24956.46949        50.000  

  21075700.01649 110753549.92649    -21998.03549        49.000  

  23696479.70349 124525838.10549     -7875.45349        49.000  

  24415076.93849 128302094.30549    -28858.94149        48.000  

  23739471.95349 124751764.33249     -9856.94549        49.000  

  22305830.07849 117217928.15249      1631.89549        50.000  

  22247412.03949 116910938.59049     12833.89849        50.000  

 16 04 02 13 07 14.9000000  0  7G02G05G25G29G06G20G12                           
  21457197.96149 112758335.65649    -24958.90249        50.000  

  21076118.66449 110755749.98049    -22002.84449        49.000  

  23696629.57849 124526625.69149     -7876.48449        49.000  

  24415626.10949 128304980.21549    -28859.37949        48.000  

  23739659.53949 124752750.07449     -9858.02349        49.000  

  22305799.06249 117217765.15249      1627.80949        50.000  

  22247167.83649 116909655.28149     12832.12549        50.000  

 16 04 02 13 07 15.0000000  0  7G02G05G25G29G06G20G12                           
  21457672.94549 112760831.66849    -24961.35949        50.000  

  21076537.40649 110757950.50449    -22007.50449        49.000  

  23696779.46949 124527413.36749     -7877.25849        49.000  

  24416175.27349 128307866.16049    -28859.66049        48.000  

  23739847.14149 124753735.93049     -9859.27049        49.000  

  22305768.12549 117217602.55949      1623.83249        50.000  

  22246923.65649 116908372.14149     12830.55949        50.000  

 16 04 02 13 07 15.1000000  0  7G02G05G25G29G06G20G12                           
  21458147.97749 112763327.95749    -24964.22349        50.000  

  21076956.26649 110760151.55149    -22012.82849        49.000  

  23696929.37549 124528201.16449     -7878.67649        49.000  

  24416724.46949 128310752.17649    -28860.52749        48.000  

  23740034.77349 124754721.92249     -9860.82049        49.000  

  22305737.26649 117217440.41849      1619.14549        50.000  

  22246679.52349 116907089.20749     12828.24649        50.000  

 16 04 02 13 07 15.2000000  0  7G02G05G25G29G06G20G12                           
  21458623.07049 112765824.54749    -24967.09849        50.000  

  21077375.20349 110762353.10949    -22017.93049        49.000  

  23697079.31249 124528989.08649     -7879.82849        49.000  

  24417273.68049 128313638.28149    -28861.31249        48.000  

  23740222.43049 124755708.08649     -9862.28549        49.000  

  22305706.50049 117217278.71949      1614.82449        50.000  

  22246435.43049 116905806.48849     12826.23449        50.000  

 16 04 02 13 07 15.3000000  0  7G02G05G25G29G06G20G12                           
  21459098.19549 112768321.34849    -24969.38349        50.000  

  21077794.25049 110764555.11749    -22022.43449        49.000  

  23697229.26649 124529777.08249     -7880.44949        49.000  

  24417822.88349 128316524.38349    -28861.40249        48.000  

  23740410.10249 124756694.31649     -9863.05149        49.000  

  22305675.80549 117217117.40249      1610.95349        50.000  

  22246191.36749 116904523.90649     12824.78949        50.000  

 16 04 02 13 07 15.4000000  0  7G02G05G25G29G06G20G12                           
  21459573.35949 112770818.35549    -24971.29349        50.000  

  21078213.35949 110766757.56249    -22026.62949        49.000  

  23697379.21949 124530565.10549     -7880.89549        49.000  

  24418372.10949 128319410.49649    -28861.41449        48.000  

  23740597.79749 124757680.63749     -9864.08649        49.000  

  22305645.18049 117216956.46149      1607.35549        50.000  

  22245947.32849 116903241.46949     12823.52349        50.000  

 16 04 02 13 07 15.5000000  0  7G02G05G25G29G06G20G12                           
  21460048.59449 112773315.73849    -24975.00049        50.000  

  21078632.57849 110768960.60549    -22032.62949        49.000  

  23697529.21949 124531353.35949     -7883.06249        49.000  

  24418921.35249 128322296.76249    -28863.00049        48.000  

  23740785.53149 124758667.18849     -9866.15649        49.000  

  22305614.65649 117216796.05549      1601.89149        50.000  

  22245703.34449 116901959.31649     12820.56249        50.000  

 16 04 02 13 07 15.6000000  0  7G02G05G25G29G06G20G12                           
  21460523.89849 112775813.34449    -24977.41849        50.000  

  21079051.89149 110771164.10949    -22037.32849        50.000  

  23697679.23449 124532141.67249     -7883.78949        49.000  

  24419470.57049 128325183.05149    -28863.25849        48.000  

  23740973.28149 124759653.82449     -9867.05149        49.000  

  22305584.20349 117216636.02749      1597.99649        50.000  

  22245459.38349 116900677.30949     12819.11349        50.000  

 16 04 02 13 07 15.7000000  0  7G02G05G25G29G06G20G12                           
  21460999.23449 112778311.25449    -24980.50849        50.000  

  21079471.31249 110773368.16049    -22042.89149        49.000  

  23697829.27349 124532930.14849     -7885.28149        49.000  

  24420019.83649 128328069.43449    -28864.24649        48.000  

  23741161.07049 124760640.65649     -9869.08649        49.000  

  22305553.84449 117216476.48049      1593.20749        50.000  

  22245215.46949 116899395.55149     12816.49649        50.000  

 16 04 02 13 07 15.8000000  0  7G02G05G25G29G06G20G12                           
  21461474.62549 112780809.44949    -24983.41049        50.000  

  21079890.82849 110775572.71149    -22048.04749        50.000  

  23697979.32849 124533718.71549     -7886.62149        49.000  

  24420569.11749 128330955.89149    -28865.08649        48.000  

  23741348.89149 124761627.62149     -9870.77749        49.000  

  22305523.56249 117216317.37149      1588.63749        50.000  

  22244971.59449 116898113.98049     12814.42649        50.000  

 16 04 02 13 07 15.9000000  0  7G02G05G25G29G06G20G12                           
  21461950.07849 112783307.95749    -24986.26249        50.000  

  21080310.43049 110777777.79749    -22053.12549        49.000  

  23698129.43049 124534507.46949     -7887.84449        49.000  

  24421118.40649 128333842.43849    -28865.61749        48.000  

  23741536.73449 124762614.76249     -9872.03549        49.000  

  22305493.37549 117216158.73049      1584.34849        50.000  

  22244727.76649 116896832.65249     12812.49649        50.000  

 16 04 02 13 07 16.0000000  0  7G02G05G25G29G06G20G12                           
  21462425.54749 112785806.66449    -24988.45749        50.000  

  21080730.12549 110779983.32049    -22057.64149        49.000  

  23698279.53149 124535296.24649     -7888.62149        49.000  

  24421667.70349 128336728.99649    -28865.92649        48.000  

  23741724.59449 124763601.97749     -9872.92249        49.000  

  22305463.25849 117216000.46549      1580.37149        50.000  

  22244483.95349 116895551.45349     12810.88749        50.000  

 16 04 02 13 07 16.1000000  0  7G02G05G25G29G06G20G12                           
  21462901.09449 112788305.67249    -24991.30949        50.000  

  21081149.91449 110782189.37549    -22062.78149        50.000  

  23698429.65649 124536085.16049     -7889.66049        49.000  

  24422217.00849 128339615.63749    -28866.62549        48.000  

  23741912.48449 124764589.35549     -9874.46149        49.000  

  22305433.22749 117215842.65649      1576.04349        50.000  

  22244240.19549 116894270.47749     12808.86349        50.000  

 16 04 02 13 07 16.2000000  0  7G02G05G25G29G06G20G12                           
  21463376.69549 112790804.93849    -24994.08649        50.000  

  21081569.80549 110784395.91449    -22067.82049        50.000  

  23698579.80549 124536874.19549     -7891.00849        49.000  

  24422766.32849 128342502.33649    -28867.40249        48.000  

  23742100.39849 124765576.84849     -9875.96949        49.000  

  22305403.27349 117215685.27349      1571.54349        50.000  

  22243996.46949 116892989.67649     12806.92649        50.000  

 16 04 02 13 07 16.3000000  0  7G02G05G25G29G06G20G12                           
  21463852.34449 112793304.49649    -24996.97749        50.000  

  21081989.78149 110786602.98049    -22073.10949        50.000  

  23698729.97749 124537663.36349     -7892.45349        49.000  

  24423315.66449 128345389.11749    -28868.24249        48.000  

  23742288.35249 124766564.52349     -9877.59849        49.000  

  22305373.41449 117215528.34049      1567.04349        50.000  

  22243752.78149 116891709.10549     12804.63349        50.000  

 16 04 02 13 07 16.4000000  0  7G02G05G25G29G06G20G12                           
  21464328.04749 112795804.34449    -24999.76649        50.000  

  21082409.87549 110788810.56249    -22078.19949        50.000  

  23698880.17249 124538452.64849     -7893.48049        49.000  

  24423865.03949 128348275.96949    -28868.85549        48.000  

  23742476.32849 124767552.34449     -9878.89149        49.000  

  22305343.63349 117215371.86749      1562.52049        50.000  

  22243509.13349 116890428.74249     12802.66049        50.000  

 16 04 02 13 07 16.5000000  0  7G02G05G25G29G06G20G12                           
  21464803.80549 112798304.46149    -25002.68849        50.000  

  21082830.05549 110791018.63749    -22083.27049        50.000  

  23699030.39149 124539242.03949     -7894.83249        49.000  

  24424414.40649 128351162.88749    -28869.68049        48.000  

  23742664.33649 124768540.29749     -9880.59849        49.000  

  22305313.93849 117215215.81649      1558.02749        50.000  

  22243265.52349 116889148.57449     12800.50449        50.000  

 16 04 02 13 07 16.6000000  0  7G02G05G25G29G06G20G12                           
  21465279.63349 112800804.94149    -25006.37549        50.000  

  21083250.35249 110793227.32449    -22089.42649        50.000  

  23699180.64849 124540031.66049     -7897.12549        49.000  

  24424963.79749 128354049.95749    -28871.25049        48.000  

  23742852.38349 124769528.48849     -9883.09049        49.000  

  22305284.35249 117215060.30149      1552.67249        50.000  

  22243021.97749 116887868.69949     12797.51649        50.000  

 16 04 02 13 07 16.7000000  0  7G02G05G25G29G06G20G12                           
  21465755.50049 112803305.64549    -25008.34849        50.000  

  21083670.74249 110795436.44949    -22093.68049        50.000  

  23699330.92249 124540821.33249     -7897.36349        49.000  

  24425513.19549 128356937.04749    -28871.22749        48.000  

  23743040.44549 124770516.75049     -9883.35249        49.000  

  22305254.82849 117214905.16849      1549.10249        50.000  

  22242778.45349 116886588.96149     12796.41049        50.000  

 16 04 02 13 07 16.8000000  0  7G02G05G25G29G06G20G12                           
  21466231.42249 112805806.63349    -25011.19549        50.000  

  21084091.21949 110797646.08649    -22098.79349        50.000  

  23699481.21149 124541611.12949     -7898.71549        49.000  

  24426062.60249 128359824.21149    -28872.00049        48.000  

  23743228.53949 124771505.18849     -9884.99249        49.000  

  22305225.39149 117214750.48449      1544.67649        50.000  

  22242534.96949 116885309.43849     12794.26649        50.000  

 16 04 02 13 07 16.9000000  0  7G02G05G25G29G06G20G12                           
  21466707.39149 112808307.86749    -25013.62949        50.000  

  21084511.81249 110799856.19949    -22103.46549        50.000  

  23699631.52349 124542401.01249     -7899.44149        49.000  

  24426612.01649 128362711.40249    -28872.18449        48.000  

  23743416.64149 124772493.71949     -9886.06249        49.000  

  22305196.03149 117214596.20349      1540.68849        50.000  

  22242291.51649 116884030.08649     12792.58249        50.000  

 16 04 02 13 07 17.0000000  0  7G02G05G25G29G06G20G12                           
  21467183.39149 112810809.37149    -25016.35549        50.000  

  21084932.47749 110802066.81649    -22108.46149        50.000  

  23699781.85249 124543191.00449     -7900.58249        49.000  

  24427161.43849 128365598.67249    -28872.94149        48.000  

  23743604.78149 124773482.41049     -9887.68449        49.000  

  22305166.75849 117214442.37549      1536.15249        50.000  

  22242048.10949 116882750.93849     12790.55149        50.000  

 16 04 02 13 07 17.1000000  0  7G02G05G25G29G06G20G12                           
  21467659.46949 112813311.16849    -25019.32049        50.000  

  21085353.23449 110804277.95749    -22113.76249        50.000  

  23699932.21149 124543981.14549     -7902.06649        49.000  

  24427710.88349 128368486.01249    -28873.74249        48.000  

  23743792.96149 124774471.23849     -9889.10549        49.000  

  22305137.57049 117214288.98449      1531.60949        50.000  

  22241804.73449 116881471.99649     12788.34849        50.000  

 16 04 02 13 07 17.2000000  0  7G02G05G25G29G06G20G12                           
  21468135.60249 112815813.25849    -25022.19549        50.000  

  21085774.09449 110806489.61749    -22118.94149        50.000  

  23700082.59449 124544771.41049     -7903.39849        49.000  

  24428260.34449 128371373.44149    -28874.49249        48.000  

  23743981.15649 124775460.23449     -9890.72349        49.000  

  22305108.46949 117214136.05949      1527.05949        50.000  

  22241561.39849 116880193.28149     12786.19149        50.000  

 16 04 02 13 07 17.3000000  0  7G02G05G25G29G06G20G12                           
  21468611.79749 112818315.66849    -25025.46549        50.000  

  21086195.07049 110808701.82449    -22124.47749        50.000  

  23700233.01649 124545561.84849     -7904.96149        49.000  

  24428809.82849 128374260.99249    -28875.79349        48.000  

  23744169.39849 124776449.42249     -9892.71949        49.000  

  22305079.46149 117213983.61349      1522.21949        50.000  

  22241318.11749 116878914.81249     12783.67649        50.000  

 16 04 02 13 07 17.4000000  0  7G02G05G25G29G06G20G12                           
  21469088.03949 112820818.34449    -25028.10949        50.000  

  21086616.13349 110810914.53549    -22129.47749        50.000  

  23700383.44549 124546352.37949     -7906.09849        49.000  

  24429359.33649 128377148.58249    -28876.27749        48.000  

  23744357.65649 124777438.72749     -9893.80549        49.000  

  22305050.53149 117213831.59449      1517.93849        50.000  

  22241074.85949 116877636.52349     12781.80149        50.000  

 16 04 02 13 07 17.5000000  0  7G02G05G25G29G06G20G12                           
  21469564.33649 112823321.27349    -25030.71149        50.000  

  21087037.27349 110813127.72349    -22134.32049        50.000  

  23700533.89849 124547143.02349     -7907.07849        49.000  

  24429908.83649 128380036.22749    -28876.79349        48.000  

  23744545.94549 124778428.17649     -9895.35249        49.000  

  22305021.68049 117213680.00049      1513.63749        50.000  

  22240831.64849 116876358.42249     12780.00849        50.000  

 16 04 02 13 07 17.6000000  0  7G02G05G25G29G06G20G12                           
  21470040.69549 112825824.57049    -25034.34849        50.000  

  21087458.54749 110815341.51249    -22140.25849        50.000  

  23700684.39149 124547933.86349     -7909.16849        49.000  

  24430458.35249 128382924.04349    -28878.58649        48.000  

  23744734.27349 124779417.85549     -9897.69149        49.000  

  22304992.93849 117213528.93849      1508.31249        50.000  

  22240588.50049 116875080.62549     12776.85249        50.000  

 16 04 02 13 07 17.7000000  0  7G02G05G25G29G06G20G12                           
  21470517.11749 112828328.17649    -25037.65249        50.000  

  21087879.93849 110817555.83249    -22145.90249        50.000  

  23700834.91449 124548724.87149     -7911.12549        49.000  

  24431007.89849 128385811.93449    -28879.59449        48.000  

  23744922.63349 124780407.69949     -9899.65249        49.000  

  22304964.28149 117213378.34049      1503.34849        50.000  

  22240345.38349 116873803.03949     12774.40649        50.000  

 16 04 02 13 07 17.8000000  0  7G02G05G25G29G06G20G12                           
  21470993.60249 112830832.10549    -25040.60549        50.000  

  21088301.41449 110819770.71549    -22151.23849        50.000  

  23700985.46949 124549516.02749     -7912.37949        49.000  

  24431557.49249 128388699.95749    -28880.57049        48.000  

  23745111.03149 124781397.74649     -9901.35249        49.000  

  22304935.71949 117213228.23449      1498.79749        50.000  

  22240102.31249 116872525.72349     12772.12949        50.000  

 16 04 02 13 07 17.9000000  0  7G02G05G25G29G06G20G12                           
  21471470.13349 112833336.30149    -25043.36749        50.000  

  21088723.00049 110821986.09049    -22156.27749        50.000  

  23701136.03949 124550307.30149     -7913.62949        49.000  

  24432107.07849 128391588.03149    -28881.19549        48.000  

  23745299.45349 124782387.91449     -9902.70349        49.000  

  22304907.23449 117213078.55949      1494.35249        50.000  

  22239859.28149 116871248.59049     12770.18849        50.000  

 16 04 02 13 07 18.0000000  0  7G02G05G25G29G06G20G12                           
  21471946.73449 112835840.82449    -25046.66849        50.000  

  21089144.68049 110824202.01649    -22161.71949        50.000  

  23701286.64849 124551098.73849     -7915.09049        49.000  

  24432656.67249 128394476.22749    -28882.43449        48.000  

  23745487.91449 124783378.27349     -9904.35249        49.000  

  22304878.85249 117212929.37549      1489.52749        50.000  

  22239616.30549 116869971.70349     12767.64149        50.000  

 16 04 02 13 07 18.4000000  0  7G02G05G25G29G06G20G12                           
  21087742.10249 110816831.81249    -25057.83649        50.000  

  20704720.11749 108804037.23449    -22182.61749        50.000  

  23315773.55549 122525213.76649     -7920.23849        49.000  

  24048744.64149 126377004.76249    -28885.35949        48.000  

  23360126.78149 122758291.82049     -9910.51249        49.000  

  21918648.08649 115183273.02049      1471.71149        50.000  

  21852523.94549 114835787.65649     12759.33249        50.000  

 16 04 02 13 07 18.5000000  0  7G02G05G25G29G06G20G12                           
  21088218.97749 110819337.79349    -25061.13749        50.000  

  20705142.28149 108806255.77749    -22188.40249        50.000  

  23315924.28949 122526005.87549     -7922.04349        49.000  

  24049294.32049 126379893.36349    -28886.51249        48.000  

  23360315.39149 122759282.98049     -9912.49649        49.000  

  21918620.13349 115183126.11749      1466.74249        50.000  

  21852281.17249 114834511.86349     12756.72749        50.000  

 16 04 02 13 07 18.6000000  0  7G02G05G25G29G06G20G12                           
  21088695.92249 110821844.10549    -25064.57849        50.000  

  20705564.55549 108808474.86349    -22193.94149        49.000  

  23316075.05549 122526798.15249     -7923.78949        49.000  

  24049844.06249 126382782.09849    -28887.84849        48.000  

  23360504.03949 122760274.33649     -9914.63349        49.000  

  21918592.27349 115182979.70749      1461.70349        50.000  

  21852038.43849 114833236.32449     12754.15649        50.000  

 16 04 02 13 07 18.7000000  0  7G02G05G25G29G06G20G12                           
  21089172.92249 110824350.72349    -25067.55149        50.000  

  20705986.93849 108810694.50449    -22199.25449        50.000  

  23316225.85249 122527590.58249     -7925.12549        49.000  

  24050393.78949 126385670.92649    -28888.68049        48.000  

  23360692.71949 122761265.85949     -9916.17249        49.000  

  21918564.50049 115182833.77049      1457.14149        50.000  

  21851795.75849 114831961.02049     12751.94949        50.000  

 16 04 02 13 07 18.8000000  0  7G02G05G25G29G06G20G12                           
  21089649.96149 110826857.61749    -25070.32849        50.000  

  20706409.41449 108812914.64149    -22204.27349        50.000  

  23316376.67249 122528383.14149     -7926.39849        49.000  

  24050943.53949 126388559.82049    -28889.33249        48.000  

  23360881.43049 122762257.55149     -9917.69949        49.000  

  21918536.81249 115182688.27749      1452.61749        50.000  

  21851553.11749 114830685.93049     12749.81249        50.000  

 16 04 02 13 07 18.9000000  0  7G02G05G25G29G06G20G12                           
  21090127.06249 110829364.81649    -25073.41449        50.000  

  20706831.99249 108815135.32449    -22209.81249        50.000  

  23316527.50849 122529175.84049     -7927.72749        49.000  

  24051493.29749 126391448.82049    -28890.39549        48.000  

  23361070.18049 122763249.39849     -9919.54349        49.000  

  21918509.21949 115182543.25449      1447.92249        50.000  

  21851310.51649 114829411.06649     12747.38749        50.000  

 16 04 02 13 07 19.0000000  0  7G02G05G25G29G06G20G12                           
  21090604.21949 110831872.32049    -25076.43449        50.000  

  20707254.67249 108817356.54349    -22215.12149        50.000  

  23316678.39149 122529968.70349     -7929.20749        49.000  

  24052043.07849 126394337.92249    -28891.46949        48.000  

  23361258.95349 122764241.43049     -9921.28149        49.000  

  21918481.71149 115182398.70349      1443.22749        50.000  

  21851067.96149 114828136.44549     12745.10949        50.000  

 16 04 02 13 07 19.1000000  0  7G02G05G25G29G06G20G12                           
  21091081.43849 110834380.11749    -25079.27749        50.000  

  20707677.46149 108819578.26249    -22220.01649        50.000  

  23316829.28949 122530761.68849     -7930.48049        49.000  

  24052592.86749 126397227.09049    -28892.07049        48.000  

  23361447.75849 122765233.59049     -9922.47749        49.000  

  21918454.28949 115182254.59849      1438.90249        50.000  

  21850825.44549 114826862.02049     12743.23449        50.000  

 16 04 02 13 07 19.2000000  0  7G02G05G25G29G06G20G12                           
  21091558.71949 110836888.16049    -25081.82849        50.000  

  20708100.33649 108821800.46949    -22225.12149        50.000  

  23316980.20349 122531554.76649     -7931.71549        49.000  

  24053142.67249 126400116.30549    -28892.62149        48.000  

  23361636.58649 122766225.89549     -9923.89849        49.000  

  21918426.94549 115182110.91449      1434.50849        50.000  

  21850582.96949 114825587.79349     12741.05549        50.000  

 16 04 02 13 07 19.3000000  0  7G02G05G25G29G06G20G12                           
  21092036.04749 110839396.56249    -25085.27349        50.000  

  20708523.32049 108824023.27049    -22230.85549        50.000  

  23317131.15649 122532348.03149     -7933.41049        49.000  

  24053692.50049 126403005.67249    -28893.96149        48.000  

  23361825.46149 122767218.41849     -9926.04749        49.000  

  21918399.70349 115181967.75449      1429.45749        50.000  

  21850340.53949 114824313.83649     12738.54349        50.000  

 16 04 02 13 07 19.4000000  0  7G02G05G25G29G06G20G12                           
  21092513.45349 110841905.27049    -25088.59049        50.000  

  20708946.40649 108826246.59449    -22236.45349        49.000  

  23317282.14149 122533141.46549     -7935.28549        49.000  

  24054242.36749 126405895.13749    -28895.21949        48.000  

  23362014.36749 122768211.11749     -9928.10249        49.000  

  21918372.54749 115181825.06249      1424.53149        50.000  

  21850098.15649 114823040.10949     12736.01249        50.000  

 16 04 02 13 07 19.5000000  0  7G02G05G25G29G06G20G12                           
  21092990.90649 110844414.30949    -25091.74649        50.000  

  20709369.60949 108828470.49249    -22241.75049        50.000  

  23317433.16449 122533935.05949     -7936.65649        49.000  

  24054792.23449 126408784.71949    -28896.24249        48.000  

  23362203.31249 122769204.01649     -9929.72349        49.000  

  21918345.49249 115181682.87149      1419.72749        50.000  

  21849855.82849 114821766.65249     12733.48049        50.000  

 16 04 02 13 07 19.6000000  0  7G02G05G25G29G06G20G12                           
  21093468.40649 110846923.56649    -25093.94149        50.000  

  20709792.88349 108830694.82849    -22246.34049        50.000  

  23317584.18849 122534728.72349     -7937.52749        49.000  

  24055342.10249 126411674.32049    -28896.47349        48.000  

  23362392.27349 122770197.00449     -9930.92649        49.000  

  21918318.50849 115181541.05949      1415.81249        50.000  

  21849613.52349 114820493.33649     12732.01249        50.000  

 16 04 02 13 07 19.7000000  0  7G02G05G25G29G06G20G12                           
  21093945.97749 110849433.19949    -25097.58249        50.000  

  20710216.27349 108832919.77749    -22252.25849        50.000  

  23317735.26649 122535522.60949     -7939.50049        49.000  

  24055892.00849 126414564.08649    -28898.00849        48.000  

  23362581.26649 122771190.20749     -9933.05149        49.000  

  21918291.62549 115181399.78949      1410.46549        50.000  

  21849371.27349 114819220.32049     12729.09449        50.000  

 16 04 02 13 07 19.8000000  0  7G02G05G25G29G06G20G12                           
  21094423.60949 110851943.16449    -25101.16049        50.000  

  20710639.77349 108835145.27349    -22257.87949        50.000  

  23317886.36749 122536316.65649     -7941.40649        49.000  

  24056441.93849 126417453.96549    -28899.33249        48.000  

  23362770.31249 122772183.63749     -9935.10249        49.000  

  21918264.83649 115181259.01249      1405.35949        50.000  

  21849129.07049 114817947.56249     12726.43449        50.000  

 16 04 02 13 07 19.9000000  0  7G02G05G25G29G06G20G12                           
  21094901.29749 110854453.44149    -25104.48449        50.000  

  20711063.38349 108837371.32849    -22263.78149        50.000  

  23318037.50049 122537110.86349     -7943.08249        49.000  

  24056991.88349 126420343.95749    -28900.61749        48.000  

  23362959.38349 122773177.25049     -9937.39149        49.000  

  21918238.13349 115181118.71149      1400.41849        50.000  

  21848886.92249 114816675.05549     12723.69949        50.000  

 16 04 02 13 07 20.0000000  0  7G02G05G25G29G06G20G12                           
  21095379.03949 110856963.98849    -25106.93449        50.000  

  20711487.07849 108839597.87949    -22268.66049        50.000  

  23318188.66449 122537905.21549     -7944.35949        49.000  

  24057541.83649 126423234.02349    -28901.20349        48.000  

  23363148.49249 122774170.98449     -9938.52049        49.000  

  21918211.52349 115180978.86349      1396.11349        50.000  

  21848644.81249 114815402.74249     12721.82849        50.000  

 16 04 02 13 07 20.1000000  0  7G02G05G25G29G06G20G12                           
  21095856.85249 110859474.87949    -25110.16849        50.000  

  20711910.88349 108841824.99249    -22273.93449        50.000  

  23318339.85249 122538699.71549     -7945.73849        49.000  

  24058091.82049 126426124.21149    -28902.21949        48.000  

  23363337.63349 122775164.93849     -9940.24249        49.000  

  21918185.00049 115180839.50449      1391.44149        50.000  

  21848402.75049 114814130.68849     12719.54349        50.000  

 16 04 02 13 07 20.2000000  0  7G02G05G25G29G06G20G12                           
  21096334.71949 110861986.03549    -25112.95749        50.000  

  20712334.78949 108844052.61349    -22279.14549        49.000  

  23318491.06249 122539494.34049     -7947.06649        49.000  

  24058641.81249 126429014.46949    -28903.06649        48.000  

  23363526.79749 122776159.03949     -9942.00449        49.000  

  21918158.57049 115180700.59449      1386.82049        50.000  

  21848160.72749 114812858.84849     12717.34049        50.000  

 16 04 02 13 07 20.3000000  0  7G02G05G25G29G06G20G12                           
  21096812.63349 110864497.46949    -25115.60549        50.000  

  20712758.78149 108846280.73449    -22284.06649        49.000  

  23318642.30549 122540289.09049     -7948.16049        49.000  

  24059191.82049 126431904.77349    -28903.38749        48.000  

  23363715.99249 122777153.25449     -9942.96949        49.000  

  21918132.21949 115180562.10949      1382.66049        50.000  

  21847918.74249 114811587.19549     12715.49249        50.000  

 16 04 02 13 07 20.4000000  0  7G02G05G25G29G06G20G12                           
  21097290.57849 110867009.19149    -25118.56249        50.000  

  20713182.88349 108848509.37149    -22289.35949        50.000  

  23318793.56249 122541083.95349     -7949.50849        49.000  

  24059741.83649 126434795.18449    -28904.49649        48.000  

  23363905.21949 122778147.66049     -9945.03949        49.000  

  21918105.95349 115180424.09449      1377.95749        50.000  

  21847676.78949 114810315.78149     12713.11349        50.000  

 16 04 02 13 07 20.5000000  0  7G02G05G25G29G06G20G12                           
  21097768.61749 110869521.32449    -25122.75449        50.000  

  20713607.08649 108850738.65649    -22295.84849        50.000  

  23318944.86749 122541879.09049     -7952.12149        49.000  

  24060291.89849 126437685.77049    -28906.35949        48.000  

  23364094.50049 122779142.30549     -9947.46549        49.000  

  21918079.79749 115180286.64549      1372.19149        50.000  

  21847434.90649 114809044.67649     12709.91049        50.000  

 16 04 02 13 07 20.6000000  0  7G02G05G25G29G06G20G12                           
  21098246.71149 110872033.69949    -25125.36349        50.000  

  20714031.39149 108852968.39549    -22300.40249        50.000  

  23319096.19549 122542674.29749     -7952.86349        49.000  

  24060841.96949 126440576.41449    -28907.02749        48.000  

  23364283.80549 122780137.10949     -9948.98849        49.000  

  21918053.71949 115180149.60949      1367.92649        50.000  

  21847193.06249 114807773.75849     12707.97349        50.000  

 16 04 02 13 07 20.7000000  0  7G02G05G25G29G06G20G12                           
  21098724.85949 110874546.39849    -25128.52349        50.000  

  20714455.78949 108855198.69949    -22306.17249        50.000  

  23319247.55549 122543469.69549     -7954.94949        49.000  

  24061392.06249 126443467.16049    -28908.00449        48.000  

  23364473.13349 122781132.05949     -9950.65249        49.000  

  21918027.73449 115180013.05549      1363.07849        50.000  

  21846951.26649 114806503.09449     12705.43849        50.000  

 16 04 02 13 07 20.8000000  0  7G02G05G25G29G06G20G12                           
  21099203.07849 110877059.43449    -25131.85949        50.000  

  20714880.31249 108857429.57049    -22311.75449        50.000  

  23319398.94549 122544265.25449     -7956.52049        49.000  

  24061942.18049 126446358.04349    -28909.38349        48.000  

  23364662.50849 122782127.23849     -9952.84449        49.000  

  21918001.84449 115179877.01649      1358.03549        50.000  

  21846709.51649 114805232.70349     12702.56649        50.000  

 16 04 02 13 07 20.9000000  0  7G02G05G25G29G06G20G12                           
  21099681.35949 110879572.82449    -25135.47749        50.000  

  20715304.95349 108859661.04349    -22317.80149        50.000  

  23319550.38349 122545061.02749     -7958.67649        49.000  

  24062492.32849 126449249.08249    -28911.05149        48.000  

  23364851.93849 122783122.65649     -9955.31649        49.000  

  21917976.06249 115179741.49649      1352.70749        50.000  

  21846467.82049 114803962.58249     12699.84849        50.000  

 16 04 02 13 07 21.0000000  0  7G02G05G25G29G06G20G12                           
  21100159.69549 110882086.48449    -25137.99649        50.000  

  20715729.67249 108861892.97749    -22322.25049        50.000  

  23319701.82849 122545856.88749     -7959.42649        49.000  

  24063042.47749 126452140.15649    -28911.20749        48.000  

  23365041.37549 122784118.16849     -9956.07049        49.000  

  21917950.35249 115179606.39849      1348.68449        50.000  

  21846226.16449 114802692.64849     12698.16849        50.000  

 16 04 02 13 07 21.1000000  0  7G02G05G25G29G06G20G12                           
  21100638.08649 110884600.44149    -25141.12949        50.000  

  20716154.50849 108864125.46949    -22328.02749        50.000  

  23319853.30549 122546652.92649     -7961.32849        49.000  

  24063592.64849 126455031.34849    -28912.55949        48.000  

  23365230.84449 122785113.87549     -9958.16049        49.000  

  21917924.73449 115179471.78549      1343.70749        50.000  

  21845984.54749 114801422.96549     12695.52349        50.000  

 16 04 02 13 07 21.2000000  0  7G02G05G25G29G06G20G12                           
  21101116.53949 110887114.74649    -25144.37549        50.000  

  20716579.44549 108866358.52349    -22333.35549        49.000  

  23320004.82049 122547449.13349     -7962.77749        49.000  

  24064142.84449 126457922.66449    -28913.53549        48.000  

  23365420.36749 122786109.79749     -9960.05549        49.000  

  21917899.21949 115179337.67249      1338.94949        50.000  

  21845742.98449 114800153.54749     12693.12149        50.000  

 16 04 02 13 07 21.3000000  0  7G02G05G25G29G06G20G12                           
  21101595.04749 110889629.31649    -25147.10249        50.000  

  20717004.46149 108868592.07049    -22338.44949        49.000  

  23320156.35249 122548245.44949     -7964.00049        49.000  

  24064693.05549 126460814.04749    -28914.33249        48.000  

  23365609.91449 122787105.85249     -9961.46149        49.000  

  21917873.77349 115179203.99249      1334.49249        50.000  

  21845501.46149 114798884.32449     12690.96949        50.000  

 16 04 02 13 07 21.4000000  0  7G02G05G25G29G06G20G12                           
  21102073.59449 110892144.16849    -25149.81649        50.000  

  20717429.58649 108870826.13349    -22343.43849        49.000  

  23320307.91449 122549041.89549     -7965.21149        49.000  

  24065243.26649 126463705.49249    -28914.88349        48.000  

  23365799.47749 122788102.04349     -9962.78149        49.000  

  21917848.42249 115179070.76249      1330.06649        50.000  

  21845259.96949 114797615.30549     12689.12149        50.000  

 16 04 02 13 07 21.5000000  0  7G02G05G25G29G06G20G12                           
  21102552.21149 110894659.32049    -25152.82849        50.000  

  20717854.82049 108873060.72349    -22348.86349        50.000  

  23320459.50049 122549838.48849     -7966.64549        49.000  

  24065793.51649 126466597.03949    -28915.82849        48.000  

  23365989.08649 122789098.41449     -9964.62549        49.000  

  21917823.15649 115178937.99649      1325.43849        50.000  

  21845018.53149 114796346.51249     12686.89849        50.000  

 16 04 02 13 07 21.6000000  0  7G02G05G25G29G06G20G12                           
  21103030.89149 110897174.80149    -25156.00049        50.000  

  20718280.15649 108875295.86749    -22354.24249        50.000  

  23320611.11749 122550635.23849     -7968.19949        49.000  

  24066343.78149 126469488.69549    -28916.78949        48.000  

  23366178.72749 122790094.98049     -9966.40249        49.000  

  21917797.99249 115178805.72749      1320.57449        50.000  

  21844777.13349 114795077.99249     12684.27749        50.000  

 16 04 02 13 07 21.7000000  0  7G02G05G25G29G06G20G12                           
  21103509.63349 110899690.60949    -25159.54349        50.000  

  20718705.58649 108877531.57449    -22360.01249        49.000  

  23320762.77349 122551432.17649     -7970.27349        49.000  

  24066894.07049 126472380.48449    -28918.40249        48.000  

  23366368.40649 122791091.73449     -9968.61749        49.000  

  21917772.91449 115178673.94949      1315.41449        50.000  

  21844535.78949 114793809.71549     12681.58249        50.000  

 16 04 02 13 07 21.8000000  0  7G02G05G25G29G06G20G12                           
  21103988.41449 110902206.68449    -25162.20349        50.000  

  20719131.12549 108879767.77749    -22365.02349        49.000  

  23320914.44549 122552229.23449     -7971.34449        49.000  

  24067444.36749 126475272.32849    -28918.87549        48.000  

  23366558.10949 122792088.63349     -9969.87949        49.000  

  21917747.92249 115178542.60949      1311.05949        50.000  

  21844294.48449 114792541.64849     12679.56649        50.000  

 16 04 02 13 07 21.9000000  0  7G02G05G25G29G06G20G12                           
  21104467.26649 110904723.05549    -25165.08649        50.000  

  20719556.75049 108882004.50049    -22370.15249        50.000  

  23321066.14849 122553026.41849     -7972.68049        49.000  

  24067994.68849 126478164.26649    -28919.79749        48.000  

  23366747.84449 122793085.69549     -9971.52749        49.000  

  21917723.01649 115178411.73049      1306.47749        50.000  

  21844053.22749 114791273.79749     12677.37549        50.000  

 16 04 02 13 07 22.0000000  0  7G02G05G25G29G06G20G12                           
  21104946.16449 110907239.72349    -25168.00449        50.000  

  20719982.48449 108884241.75449    -22375.51649        49.000  

  23321217.87549 122553823.74649     -7974.06649        49.000  

  24068545.01649 126481056.28149    -28920.54749        48.000  

  23366937.61749 122794082.93049     -9973.16849        49.000  

  21917698.19549 115178281.31649      1301.84849        50.000  

  21843812.00049 114790006.17649     12675.11349        50.000  

 16 04 02 13 07 22.1000000  0  7G02G05G25G29G06G20G12                           
  21105425.14149 110909756.73049    -25171.57449        50.000  

  20720408.32849 108886479.58249    -22381.37549        49.000  

  23321369.63349 122554621.25449     -7976.10249        49.000  

  24069095.37549 126483948.44149    -28922.09049        48.000  

  23367127.41449 122795080.35549     -9975.42249        49.000  

  21917673.47749 115178151.40649      1296.61749        50.000  

  21843570.82849 114788738.82049     12672.27349        50.000  

 16 04 02 13 07 22.2000000  0  7G02G05G25G29G06G20G12                           
  21105904.18849 110912274.09049    -25175.05949        50.000  

  20720834.28149 108888717.98049    -22386.93849        49.000  

  23321521.43849 122555418.96149     -7978.00449        49.000  

  24069645.75849 126486840.73449    -28923.49249        48.000  

  23367317.26649 122796078.02049     -9977.52349        49.000  

  21917648.85949 115178022.02049      1291.47749        50.000  

  21843329.71149 114787471.74649     12669.54749        50.000  

 16 04 02 13 07 22.3000000  0  7G02G05G25G29G06G20G12                           
  21106383.28149 110914791.75049    -25178.27049        50.000  

  20721260.33649 108890956.92249    -22392.57049        49.000  

  23321673.26649 122556216.81649     -7979.62949        49.000  

  24070196.15649 126489733.12549    -28924.51249        48.000  

  23367507.14849 122797075.84449     -9979.43049        49.000  

  21917624.32049 115177893.09849      1286.68449        50.000  

  21843088.64149 114786204.91049     12667.00449        50.000  

 16 04 02 13 07 22.4000000  0  7G02G05G25G29G06G20G12                           
  21106862.44549 110917309.72349    -25181.21949        50.000  

  20721686.49249 108893196.39849    -22397.94949        49.000  

  23321825.12549 122557014.84049     -7981.12949        49.000  

  24070746.57849 126492625.63749    -28925.65649        48.000  

  23367697.06249 122798073.86349     -9981.27049        49.000  

  21917599.88349 115177764.66049      1281.99649        50.000  

  21842847.61749 114784938.31249     12664.69149        50.000  

 16 04 02 13 07 22.5000000  0  7G02G05G25G29G06G20G12                           
  21107341.65649 110919828.02049    -25184.32449        50.000  

  20722112.76649 108895436.41049    -22403.14149        49.000  

  23321977.00849 122557813.00449     -7982.50449        49.000  

  24071297.02349 126495518.23849    -28926.46549        48.000  

  23367887.01649 122799072.04349     -9982.75849        49.000  

  21917575.53149 115177636.69549      1277.34049        50.000  

  21842606.64149 114783671.95749     12662.42649        50.000  

 16 04 02 13 07 22.6000000  0  7G02G05G25G29G06G20G12                           
  21107820.91449 110922346.53949    -25186.39849        50.000  

  20722539.10949 108897676.88349    -22407.36749        49.000  

  23322128.90649 122558611.25449     -7982.97749        49.000  

  24071847.47749 126498410.86749    -28926.53149        48.000  

  23368076.97749 122800070.32849     -9983.52749        49.000  

  21917551.25849 115177509.14149      1273.52749        50.000  

  21842365.68849 114782405.76249     12661.04349        50.000  

 16 04 02 13 07 22.7000000  0  7G02G05G25G29G06G20G12                           
  21108300.22749 110924865.35949    -25189.60549        50.000  

  20722965.56249 108899917.90649    -22413.10249        49.000  

  23322280.84449 122559409.65249     -7984.73849        49.000  

  24072397.94549 126501303.60249    -28927.73449        48.000  

  23368266.98449 122801068.79749     -9985.61349        49.000  

  21917527.07849 115177382.05949      1268.53549        50.000  

  21842124.78149 114781139.80549     12658.49649        50.000  

 16 04 02 13 07 22.8000000  0  7G02G05G25G29G06G20G12                           
  21108779.62549 110927384.53949    -25193.09849        50.000  

  20723392.11749 108902159.50049    -22418.79749        49.000  

  23322432.81249 122560208.25049     -7986.76649        49.000  

  24072948.45349 126504196.47349    -28929.12949        48.000  

  23368457.03149 122802067.48849     -9987.80549        49.000  

  21917502.99249 115177255.49249      1263.37949        50.000  

  21841883.93849 114779874.13349     12655.66449        50.000  

 16 04 02 13 07 22.9000000  0  7G02G05G25G29G06G20G12                           
  21109259.06249 110929904.00049    -25196.06649        50.000  

  20723818.78949 108904401.61749    -22424.13749        49.000  

  23322584.80549 122561006.98449     -7988.20749        49.000  

  24073498.96149 126507089.42249    -28930.00849        48.000  

  23368647.10949 122803066.32049     -9989.37949        49.000  

  21917478.99249 115177129.37149      1258.73049        50.000  

  21841643.13349 114778608.67649     12653.30949        50.000  

 16 04 02 13 07 23.0000000  0  7G02G05G25G29G06G20G12                           
  21109738.56249 110932423.79349    -25199.48449        50.000  

  20724245.55549 108906644.27749    -22429.76249        49.000  

  23322736.82849 122561805.87549     -7989.89549        49.000  

  24074049.50049 126509982.49249    -28931.27349        48.000  

  23368837.21949 122804065.35549     -9991.52749        49.000  

  21917455.08649 115177003.75049      1253.69149        50.000  

  21841402.36749 114777343.46949     12650.63349        50.000  

 16 04 02 13 07 23.1000000  0  7G02G05G25G29G06G20G12                           
  21110218.13349 110934943.95349    -25203.09049        50.000  

  20724672.43849 108908887.54349    -22435.63749        49.000  

  23322888.89149 122562604.98449     -7991.96949        49.000  

  24074600.06249 126512875.72349    -28932.89549        48.000  

  23369027.38349 122805064.62949     -9993.66049        49.000  

  21917431.28149 115176878.66849      1248.42249        50.000  

  21841161.65649 114776078.56249     12647.84449        50.000  

 16 04 02 13 07 23.2000000  0  7G02G05G25G29G06G20G12                           
  21110697.75849 110937464.32449    -25205.19149        50.000  

  20725099.39849 108911131.25049    -22439.97349        49.000  

  23323040.96949 122563404.15249     -7992.40249        49.000  

  24075150.60249 126515768.96149    -28932.79749        48.000  

  23369217.55549 122806063.98449     -9994.44149        49.000  

  21917407.54749 115176753.95749      1244.78149        50.000  

  21840920.98449 114774813.80549     12646.44149        50.000  

 16 04 02 13 07 23.3000000  0  7G02G05G25G29G06G20G12                           
  21111177.43849 110939985.06649    -25209.00049        50.000  

  20725526.47749 108913375.54749    -22446.14149        49.000  

  23323193.08649 122564203.53549     -7994.82049        49.000  

  24075701.19549 126518662.35549    -28934.48449        48.000  

  23369407.77349 122807063.57049     -9996.97749        49.000  

  21917383.92249 115176629.79349      1239.18849        50.000  

  21840680.36749 114773549.34049     12643.35949        50.000  

 16 04 02 13 07 23.4000000  0  7G02G05G25G29G06G20G12                           
  21111657.19549 110942506.14149    -25212.21149        50.000  

  20725953.66449 108915620.43049    -22451.75449        49.000  

  23323345.24249 122565003.11349     -7996.60549        49.000  

  24076251.82849 126521555.89549    -28935.81249        48.000  

  23369598.03149 122808063.38349     -9999.04349        49.000  

  21917360.39149 115176506.13749      1234.17649        50.000  

  21840439.79749 114772285.15249     12640.67249        50.000  

 16 04 02 13 07 23.5000000  0  7G02G05G25G29G06G20G12                           
  21112136.99249 110945027.47349    -25214.69549        50.000  

  20726380.93849 108917865.77049    -22456.18449        49.000  

  23323497.41449 122565802.77049     -7997.41449        49.000  

  24076802.46149 126524449.47349    -28936.25049        48.000  

  23369788.30549 122809063.28949    -10000.03149        49.000  

  21917336.93849 115176382.89149      1230.13749        50.000  

  21840199.26649 114771021.14149     12638.98049        50.000  

 16 04 02 13 07 23.6000000  0  7G02G05G25G29G06G20G12                           
  21112616.85249 110947549.13349    -25218.15249        50.000  

  20726808.32049 108920111.69549    -22462.34449        49.000  

  23323649.62549 122566602.62149     -7999.42649        49.000  

  24077353.09449 126527343.17649    -28937.65249        48.000  

  23369978.62549 122810063.42649    -10002.40249        49.000  

  21917313.58649 115176260.15249      1224.96949        50.000  

  21839958.78949 114769757.39549     12636.18449        50.000  

 16 04 02 13 07 23.7000000  0  7G02G05G25G29G06G20G12                           
  21113096.76649 110950071.12149    -25221.34849        50.000  

  20727235.81249 108922358.14849    -22467.60549        49.000  

  23323801.85949 122567402.61349     -8000.88349        49.000  

  24077903.76649 126530236.98049    -28938.58649        48.000  

  23370168.97749 122811063.72749    -10004.07049        49.000  

  21917290.32049 115176137.89549      1220.18449        50.000  

  21839718.35249 114768493.89549     12633.77749        50.000  

 16 04 02 13 07 23.8000000  0  7G02G05G25G29G06G20G12                           
  21113576.74249 110952593.36749    -25223.84849        50.000  

  20727663.39149 108924605.11349    -22472.54349        49.000  

  23323954.11749 122568202.74649     -8002.13749        49.000  

  24078454.45349 126533130.86349    -28939.26649        48.000  

  23370359.35249 122812064.18449    -10005.52349        49.000  

  21917267.14149 115176016.08249      1215.80549        50.000  

  21839477.95349 114767230.59849     12631.74249        50.000  

