     2.10           OBSERVATION DATA    G (GPS)             RINEX VERSION / TYPE
Convert v1.8.0                          07-Jun-2016 18:54   PGM / RUN BY / DATE 
Signal Strength values S1,S2 are in dBHz                    COMMENT             
                                                            MARKER NAME         
                                                            MARKER NUMBER       
                                                            OBSERVER / AGENCY   
                    NovAtel GPSCard                         REC # / TYPE / VERS 
                                                            ANT # / TYPE        
0.0000        0.0000        0.0000                          APPROX POSITION XYZ 
        0.0000        0.0000        0.0000                  ANTENNA: DELTA H/E/N
     1     1                                                WAVELENGTH FACT L1/2
     1     1     7   G01   G08   G10   G11   G14   G18   G21WAVELENGTH FACT L1/2
     1     1     3   G22   G27   G32                        WAVELENGTH FACT L1/2
                                                            COMMENT             
                                                            COMMENT             
                                                            COMMENT             
                                                            COMMENT             
                                                            COMMENT             
     8    C1    L1    D1    S1    P2    L2    D2    S2      # / TYPES OF OBSERV 
     0.100                                                  INTERVAL            
  2016    04    02    12    16     7.7000000    GPS         TIME OF FIRST OBS   
  2016    04    02    12    20    27.8000000    GPS         TIME OF LAST OBS    
Leap Seconds Unknown                                        COMMENT             
                                                            END OF HEADER       
 16 04 02 12 16  7.7000000  0  1G27                                             
  17965083.72749  94407151.52049      1803.05949        49.000  

 16 04 02 12 16  7.8000000  0  1G27                                             
  17965049.47749  94406971.51249      1797.43449        49.000  

 16 04 02 12 16  7.9000000  0  1G27                                             
  17965015.28949  94406791.90649      1793.20349        49.000  

 16 04 02 12 16  8.0000000  0  1G27                                             
  17964981.21149  94406612.81649      1788.36349        49.000  

 16 04 02 12 16  8.1000000  0  1G27                                             
  17964947.22749  94406434.24249      1782.86749        49.000  

 16 04 02 12 16  8.2000000  0  1G27                                             
  17964913.32849  94406256.11749      1778.69149        49.000  

 16 04 02 12 16  8.3000000  0  1G27                                             
  17964879.51649  94406078.41449      1774.37149        49.000  

 16 04 02 12 16  8.4000000  0  1G27                                             
  17964845.79749  94405901.22349      1769.30949        49.000  

 16 04 02 12 16  8.5000000  0  1G27                                             
  17964812.15649  94405724.52749      1764.09049        49.000  

 16 04 02 12 16  8.6000000  0  1G27                                             
  17964778.61749  94405548.28949      1759.73849        49.000  

 16 04 02 12 16  8.7000000  0  1G27                                             
  17964745.16449  94405372.53549      1754.80949        49.000  

 16 04 02 12 16  8.8000000  0  1G27                                             
  17964711.81249  94405197.27349      1750.14149        49.000  

 16 04 02 12 16  8.9000000  0  1G27                                             
  17964678.56249  94405022.46149      1745.30149        49.000  

 16 04 02 12 16  9.0000000  0  1G27                                             
  17964645.39149  94404848.11749      1740.61349        49.000  

 16 04 02 12 16  9.1000000  0  1G27                                             
  17964612.33649  94404674.28949      1735.39849        49.000  

 16 04 02 12 16  9.2000000  0  1G27                                             
  17964579.35249  94404500.98049      1730.55149        49.000  

 16 04 02 12 16  9.3000000  0  1G27                                             
  17964546.45349  94404328.16449      1725.49649        49.000  

 16 04 02 12 16  9.4000000  0  1G27                                             
  17964513.64849  94404155.75849      1721.25449        49.000  

 16 04 02 12 16  9.5000000  0  1G27                                             
  17964480.95349  94403983.84449      1716.71949        49.000  

 16 04 02 12 16  9.6000000  0  1G27                                             
  17964448.32849  94403812.39149      1711.92649        49.000  

 16 04 02 12 16  9.7000000  0  1G27                                             
  17964415.82849  94403641.42249      1706.81249        49.000  

 16 04 02 12 16  9.8000000  0  1G27                                             
  17964383.39849  94403471.02349      1701.23049        49.000  

 16 04 02 12 16  9.9000000  0  1G27                                             
  17964351.05549  94403301.06649      1696.72349        49.000  

 16 04 02 12 16 10.0000000  0  1G27                                             
  17964318.79749  94403131.56649      1692.36749        49.000  

 16 04 02 12 16 10.1000000  0  1G27                                             
  17964286.63349  94402962.55149      1687.50049        49.000  

 16 04 02 12 16 10.2000000  0  1G27                                             
  17964254.57849  94402794.07849      1681.87949        49.000  

 16 04 02 12 16 10.3000000  0  1G27                                             
  17964222.59449  94402626.04749      1677.50049        49.000  

 16 04 02 12 16 10.4000000  0  1G27                                             
  17964190.72749  94402458.57049      1672.32049        49.000  

 16 04 02 12 16 10.5000000  0  1G27                                             
  17964158.92249  94402291.48049      1668.27049        49.000  

 16 04 02 12 16 10.6000000  0  1G27                                             
  17964127.21949  94402124.87549      1663.72749        49.000  

 16 04 02 12 16 10.7000000  0  1G27                                             
  17964095.60949  94401958.76649      1658.18849        49.000  

 16 04 02 12 16 10.8000000  0  1G27                                             
  17964064.09449  94401793.17249      1653.34049        49.000  

 16 04 02 12 16 10.9000000  0  1G27                                             
  17964032.66449  94401627.99649      1649.16049        49.000  

 16 04 02 12 16 11.0000000  0  1G27                                             
  17964001.32049  94401463.31249      1644.20749        49.000  

 16 04 02 12 16 11.1000000  0  1G27                                             
  17963970.07049  94401299.09849      1639.59449        49.000  

 16 04 02 12 16 11.2000000  0  1G27                                             
  17963938.91449  94401135.35949      1634.58249        49.000  

 16 04 02 12 16 11.3000000  0  1G27                                             
  17963907.83649  94400972.12549      1629.66849        49.000  

 16 04 02 12 16 11.4000000  0  1G27                                             
  17963876.85249  94400809.32849      1625.25049        49.000  

 16 04 02 12 16 11.5000000  0  1G27                                             
  17963845.96149  94400647.01249      1620.48849        49.000  

 16 04 02 12 16 11.6000000  0  1G27                                             
  17963815.17249  94400485.20749      1615.50049        49.000  

 16 04 02 12 16 11.7000000  0  1G27                                             
  17963784.46949  94400323.80949      1611.37949        49.000  

 16 04 02 12 16 11.8000000  0  1G27                                             
  17963753.84449  94400162.87149      1606.73049        49.000  

 16 04 02 12 16 11.9000000  0  1G27                                             
  17963723.31249  94400002.49249      1601.11349        49.000  

 16 04 02 12 16 12.0000000  0  1G27                                             
  17963692.88349  94399842.57449      1596.27049        49.000  

 16 04 02 12 16 12.1000000  0  1G27                                             
  17963662.56249  94399683.15249      1591.49649        49.000  

 16 04 02 12 16 12.2000000  0  1G27                                             
  17963632.31249  94399524.21149      1586.59049        49.000  

 16 04 02 12 16 12.3000000  0  1G27                                             
  17963602.17249  94399365.76249      1581.76649        49.000  

 16 04 02 12 16 12.4000000  0  1G27                                             
  17963572.11749  94399207.82849      1576.80149        49.000  

 16 04 02 12 16 12.5000000  0  1G27                                             
  17963542.15649  94399050.28149      1572.77049        49.000  

 16 04 02 12 16 12.6000000  0  1G27                                             
  17963512.28149  94398893.30949      1567.02049        49.000  

 16 04 02 12 16 12.7000000  0  1G27                                             
  17963482.50849  94398736.79749      1562.45349        49.000  

 16 04 02 12 16 12.8000000  0  1G27                                             
  17963452.81249  94398580.73449      1557.87949        49.000  

 16 04 02 12 16 12.9000000  0  1G27                                             
  17963423.19549  94398425.16449      1553.36349        49.000  

 16 04 02 12 16 13.0000000  0  1G27                                             
  17963393.68049  94398270.05149      1548.52749        49.000    17963396.90641
  73557106.64151      1206.64541        20.000  
 16 04 02 12 16 13.1000000  0  1G27                                             
  17963364.28949  94398115.46549      1543.06249        49.000    17963367.48441
  73556986.15641      1202.38741        20.000  
 16 04 02 12 16 13.2000000  0  1G27                                             
  17963334.96949  94397961.38749      1538.17249        49.000    17963338.78941
  73556866.07041      1198.57441        20.000  
 16 04 02 12 16 13.3000000  0  1G27                                             
  17963305.73449  94397807.73449      1533.60249        49.000    17963309.54741
  73556746.31241      1195.01241        20.000  
 16 04 02 12 16 13.4000000  0  1G27                                             
  17963276.58649  94397654.55149      1529.21949        49.000    17963278.96941
  73556626.95741      1191.59841        20.000  
 16 04 02 12 16 13.5000000  0  1G27                                             
  17963247.50849  94397501.82449      1524.56649        49.000    17963249.91441
  73556507.96941      1187.97741        20.000  
 16 04 02 12 16 13.6000000  0  1G27                                             
  17963218.54749  94397349.64549      1519.04749        49.000    17963224.85941
  73556389.40241      1183.67641        20.000  
 16 04 02 12 16 13.7000000  0  1G27                                             
  17963189.70349  94397197.93449      1514.39549        49.000    17963195.99241
  73556271.20341      1180.04741        20.000  
 16 04 02 12 16 13.8000000  0  1G27                                             
  17963160.93049  94397046.69549      1509.85549        49.000    17963165.60241
  73556153.37541      1176.51241        20.000  
 16 04 02 12 16 13.9000000  0  1G27                                             
  17963132.22749  94396895.89849      1505.18449        49.000  

 16 04 02 12 16 14.0000000  0  1G27                                             
  17963103.62549  94396745.59449      1500.65649        49.000  

 16 04 02 12 16 14.1000000  0  1G27                                             
  17963075.10249  94396595.73849      1495.84849        49.000  

 16 04 02 12 16 14.2000000  0  1G27                                             
  17963046.68049  94396446.38749      1490.84449        49.000  

 16 04 02 12 16 14.3000000  0  1G27                                             
  17963018.36749  94396297.51649      1485.87149        49.000  

 16 04 02 12 16 14.4000000  0  1G27                                             
  17962990.13349  94396149.13349      1481.29749        49.000  

 16 04 02 12 16 14.5000000  0  1G27                                             
  17962961.99249  94396001.21949      1476.21549        49.000  

 16 04 02 12 16 14.6000000  0  1G27                                             
  17962933.94549  94395853.82049      1470.96949        49.000  

 16 04 02 12 16 14.7000000  0  1G27                                             
  17962906.00049  94395706.96149      1466.03949        49.000  

 16 04 02 12 16 14.8000000  0  1G27                                             
  17962878.14849  94395560.57449      1461.10949        49.000  

 16 04 02 12 16 14.9000000  0  1G27                                             
  17962850.38349  94395414.60549      1456.99649        49.000  

 16 04 02 12 16 15.0000000  0  1G27                                             
  17962822.70349  94395269.16449      1451.72749        49.000    17962822.87541
  73554755.47751      1131.21541        20.000  
 16 04 02 12 16 15.1000000  0  1G27                                             
  17962795.14149  94395124.25849      1446.21549        49.000    17962795.30541
  73554642.57041      1126.92241        20.000  
 16 04 02 12 16 15.2000000  0  1G27                                             
  17962767.64149  94394979.74249      1442.43449        49.000    17962771.71141
  73554529.96941      1123.97741        20.000  
 16 04 02 12 16 15.3000000  0  1G27                                             
  17962740.25849  94394835.75449      1437.23849        49.000    17962744.31241
  73554417.78141      1119.92641        22.000  
 16 04 02 12 16 15.4000000  0  1G27                                             
  17962712.94549  94394692.23449      1432.66449        49.000    17962716.14141
  73554305.93041      1116.36341        23.000  
 16 04 02 12 16 15.5000000  0  1G27                                             
  17962685.72749  94394549.16449      1428.16849        49.000    17962688.91441
  73554194.43041      1112.85941        20.000  
 16 04 02 12 16 15.6000000  0  1G27                                             
  17962658.60249  94394406.60249      1422.89849        49.000    17962663.61741
  73554083.32441      1108.75041        20.000  
 16 04 02 12 16 15.7000000  0  1G27                                             
  17962631.55549  94394264.52049      1418.25849        49.000    17962636.57041
  73553972.59041      1105.13741        20.000  
 16 04 02 12 16 15.8000000  0  1G27                                             
  17962604.60949  94394122.90649      1413.45749        49.000    17962612.93841
  73553862.22341      1101.39541        20.000  
 16 04 02 12 16 15.9000000  0  1G27                                             
  17962577.74249  94393981.75049      1408.87949        49.000  

 16 04 02 12 16 16.0000000  0  1G27                                             
  17962550.97749  94393841.10249      1404.03149        49.000  

 16 04 02 12 16 16.1000000  0  1G27                                             
  17962524.29749  94393700.89549      1399.24249        49.000  

 16 04 02 12 16 16.2000000  0  1G27                                             
  17962497.70349  94393561.15649      1394.80949        49.000  

 16 04 02 12 16 16.3000000  0  1G27                                             
  17962471.21949  94393421.96949      1389.12949        49.000  

 16 04 02 12 16 16.4000000  0  1G27                                             
  17962444.82049  94393283.25049      1384.67649        49.000  

 16 04 02 12 16 16.5000000  0  1G27                                             
  17962418.47749  94393144.87149      1381.24249        49.000  

 16 04 02 12 16 16.6000000  0  1G27                                             
  17962392.26649  94393007.10249      1374.83249        49.000  

 16 04 02 12 16 16.7000000  0  1G27                                             
  17962366.14149  94392869.76649      1370.52049        49.000  

 16 04 02 12 16 16.8000000  0  1G27                                             
  17962340.10249  94392732.91449      1365.70349        49.000  

 16 04 02 12 16 16.9000000  0  1G27                                             
  17962314.16449  94392596.60549      1360.50449        49.000  

 16 04 02 12 16 17.0000000  0  1G27                                             
  17962288.31249  94392460.74649      1355.55949        49.000  

 16 04 02 12 16 17.1000000  0  1G27                                             
  17962262.54749  94392325.36349      1351.03949        49.000  

 16 04 02 12 16 17.2000000  0  1G27                                             
  17962236.88349  94392190.50049      1346.00849        49.000  

 16 04 02 12 16 17.3000000  0  1G27                                             
  17962211.31249  94392056.09049      1341.48049        49.000  

 16 04 02 12 16 17.4000000  0  1G27                                             
  17962185.83649  94391922.18849      1336.40649        49.000  

 16 04 02 12 16 17.5000000  0  1G27                                             
  17962160.43049  94391788.69149      1332.15249        49.000  

 16 04 02 12 16 17.6000000  0  1G27                                             
  17962135.10949  94391655.66849      1327.72349        49.000  

 16 04 02 12 16 17.7000000  0  1G27                                             
  17962109.87549  94391523.09849      1323.10549        49.000  

 16 04 02 12 16 17.8000000  0  1G27                                             
  17962084.74249  94391391.00449      1318.46549        49.000  

 16 04 02 12 16 17.9000000  0  1G27                                             
  17962059.68049  94391259.37149      1313.56249        49.000  

 16 04 02 12 16 18.0000000  0  1G27                                             
  17962034.72749  94391128.23849      1308.71949        49.000  

 16 04 02 12 16 18.1000000  0  1G27                                             
  17962009.86749  94390997.55549      1304.19949        49.000  

 16 04 02 12 16 18.2000000  0  1G27                                             
  17961985.09449  94390867.41449      1298.51249        49.000  

 16 04 02 12 16 18.3000000  0  1G27                                             
  17961960.41449  94390737.75849      1293.54349        49.000  

 16 04 02 12 16 18.4000000  0  1G27                                             
  17961935.84449  94390608.62149      1288.69149        49.000  

 16 04 02 12 16 18.5000000  0  1G27                                             
  17961911.35249  94390479.91449      1284.53149        49.000  

 16 04 02 12 16 18.6000000  0  1G27                                             
  17961886.94549  94390351.68849      1279.44149        49.000  

 16 04 02 12 16 18.7000000  0  1G27                                             
  17961862.64149  94390223.96149      1274.65249        49.000  

 16 04 02 12 16 18.8000000  0  1G27                                             
  17961838.42249  94390096.69149      1270.16449        49.000  

 16 04 02 12 16 18.9000000  0  1G27                                             
  17961814.28949  94389969.86349      1265.77049        49.000  

 16 04 02 12 16 19.0000000  0  1G27                                             
  17961790.24249  94389843.48049      1261.12149        49.000  

 16 04 02 12 16 19.1000000  0  1G27                                             
  17961766.29749  94389717.60949      1255.97749        49.000  

 16 04 02 12 16 19.2000000  0  1G27                                             
  17961742.45349  94389592.29749      1250.57049        49.000  

 16 04 02 12 16 19.3000000  0  1G27                                             
  17961718.65649  94389467.34449      1246.59449        49.000  

 16 04 02 12 16 19.4000000  0  1G27                                             
  17961695.00049  94389342.99249      1240.84449        49.000  

 16 04 02 12 16 19.5000000  0  1G27                                             
  17961671.39849  94389219.04749      1236.73849        49.000  

 16 04 02 12 16 19.6000000  0  2G27G14                                          
  17961647.90649  94389095.58249      1232.09049        49.000  

  19318008.35949 101516818.42659     11206.73049        50.000  

 16 04 02 12 16 19.7000000  0  4G08G22G27G14                                    
  19090699.74249 100322304.17259    -15937.32849        49.000  

  20196506.70349 106133358.65259     11553.67249        50.000  

  17961624.50049  94388972.58649      1227.27749        49.000  

  19317795.15649 101515698.05149     11200.71949        50.000  

 16 04 02 12 16 19.8000000  0  4G08G22G27G14                                    
  19091003.07849 100323898.19149    -15942.16049        49.000  

  20196286.90649 106132203.60249     11547.98449        50.000  

  17961601.20349  94388850.16849      1221.44949        49.000  

  19317582.11749 101514578.37949     11193.61349        50.000  

 16 04 02 12 16 19.9000000  0  4G08G22G27G14                                    
  19091306.43849 100325492.52749    -15945.47349        49.000  

  20196067.18849 106131048.94949     11543.83649        50.000  

  17961577.98449  94388728.16849      1217.14149        49.000  

  19317369.15649 101513459.27049     11187.89149        49.000  

 16 04 02 12 16 20.0000000  0  4G08G22G27G14                                    
  19091609.91449 100327087.27749    -15949.50849        49.000  

  20195847.56249 106129894.81249     11538.77749        50.000  

  17961554.86749  94388606.68449      1212.01649        49.000  

  19317156.32049 101512340.80949     11181.51649        49.000  

 16 04 02 12 16 20.1000000  0  4G08G22G27G14                                    
  19091913.45349 100328682.33649    -15952.20349        49.000  

  20195627.99249 106128741.09849     11534.84849        50.000  

  17961531.81249  94388485.62949      1208.05949        49.000  

  19316943.58649 101511222.90249     11176.11749        49.000  

 16 04 02 12 16 20.2000000  0  4G08G22G27G14                                    
  19092217.06249 100330277.80149    -15956.46549        49.000  

  20195408.53949 106127587.86749     11529.74249        50.000  

  17961508.87549  94388365.06649      1202.80949        49.000  

  19316730.96149 101510105.63349     11169.55149        49.000  

 16 04 02 12 16 20.3000000  0  4G08G22G27G14                                    
  19092520.73449 100331873.69149    -15960.72349        49.000  

  20195189.19549 106126435.14149     11524.85549        50.000  

  17961486.03149  94388245.03949      1197.77349        49.000  

  19316518.47749 101508989.00849     11163.20749        49.000  

 16 04 02 12 16 20.4000000  0  4G08G22G27G14                                    
  19092824.48449 100333469.91049    -15964.24649        49.000  

  20194969.92249 106125282.86349     11520.09049        50.000  

  17961463.28149  94388125.45349      1193.10249        49.000  

  19316306.09449 101507872.98049     11157.09449        49.000  

 16 04 02 12 16 20.5000000  0  4G08G22G27G14                                    
  19093128.32049 100335066.50449    -15967.73449        49.000  

  20194750.72749 106124131.03949     11515.76649        50.000  

  17961440.60249  94388006.34849      1188.43449        49.000  

  19316093.82849 101506757.54749     11151.29749        49.000  

 16 04 02 12 16 20.6000000  0  4G08G22G27G14                                    
  19093432.21949 100336663.48849    -15971.69149        49.000  

  20194531.64149 106122979.72349     11510.73849        50.000  

  17961418.03149  94387887.74249      1183.35949        49.000  

  19315881.68849 101505642.75449     11144.84049        49.000  

 16 04 02 12 16 20.7000000  0  4G08G22G27G14                                    
  19093736.18049 100338260.89849    -15976.03549        49.000  

  20194312.66449 106121828.90249     11505.68049        50.000  

  17961395.56249  94387769.66049      1178.11749        49.000  

  19315669.67249 101504528.61349     11138.22749        49.000  

 16 04 02 12 16 20.8000000  0  4G08G22G27G14                                    
  19094040.22749 100339858.66849    -15979.70749        49.000  

  20194093.75849 106120678.55949     11500.94149        50.000  

  17961373.18049  94387652.03949      1173.45749        49.000  

  19315457.77349 101503415.07449     11132.14549        49.000  

 16 04 02 12 16 20.9000000  0  4G08G22G27G14                                    
  19094344.34449 100341456.75849    -15982.63349        49.000  

  20193874.93849 106119528.61349     11496.96949        50.000  

  17961350.89849  94387534.85249      1169.26649        49.000  

  19315245.97749 101502302.10249     11126.66449        49.000  

 16 04 02 12 16 21.0000000  0  4G08G22G27G14                                    
  19094648.52349 100343055.25449    -15986.68049        49.000  

  20193656.20349 106118379.17649     11491.98449        50.000  

  17961328.69549  94387418.17649      1164.18849        49.000  

  19315034.30549 101501189.76249     11120.35249        49.000  

 16 04 02 12 16 21.1000000  0  4G08G22G27G14                                    
  19094952.78949 100344654.11749    -15990.45749        49.000  

  20193437.57049 106117230.19949     11487.38349        50.000  

  17961306.58649  94387301.96549      1159.55549        49.000  

  19314822.75049 101500078.03149     11114.27049        49.000  

 16 04 02 12 16 21.2000000  0  4G08G22G27G14                                    
  19095257.10249 100346253.28949    -15993.62549        49.000  

  20193219.00849 106116081.63749     11483.14149        50.000  

  17961284.54749  94387186.18449      1155.15249        49.000  

  19314611.28149 101498966.85549     11108.67249        49.000  

 16 04 02 12 16 21.3000000  0  4G08G22G27G14                                    
  19095561.47749 100347852.84049    -15997.15249        49.000  

  20193000.53949 106114933.53149     11478.78949        50.000  

  17961262.60949  94387070.86749      1150.77049        49.000  

  19314399.94549 101497856.27749     11102.98049        49.000  

 16 04 02 12 16 21.4000000  0  4G08G22G27G14                                    
  19095865.92249 100349452.71549    -16000.55949        49.000  

  20192782.14149 106113785.85949     11474.21549        50.000  

  17961240.75849  94386956.00049      1146.01649        49.000  

  19314188.72749 101496746.28949     11096.84049        49.000  

 16 04 02 12 16 21.5000000  0  4G08G22G27G14                                    
  19096170.46149 100351053.00049    -16004.63349        49.000  

  20192563.83649 106112638.68849     11469.40649        50.000  

  17961219.00049  94386841.64149      1141.10249        49.000  

  19313977.62549 101495636.92249     11090.69149        49.000  

 16 04 02 12 16 21.6000000  0  4G08G22G27G14                                    
  19096475.03949 100352653.59849    -16007.81649        49.000  

  20192345.61749 106111491.92249     11465.21949        50.000  

  17961197.31249  94386727.69149      1136.83649        49.000  

  19313766.60249 101494528.12149     11084.95749        49.000  

 16 04 02 12 16 21.7000000  0  4G08G22G27G14                                    
  19096779.71149 100354254.61349    -16011.90649        49.000  

  20192127.49249 106110345.68049     11460.03149        50.000  

  17961175.73449  94386614.28549      1131.52349        49.000  

  19313555.72749 101493419.98449     11078.37949        49.000  

 16 04 02 12 16 21.8000000  0  4G08G22G27G14                                    
  19097084.45349 100355856.04749    -16016.41449        49.000  

  20191909.46949 106109199.94149     11454.62549        50.000  

  17961154.25049  94386501.38349      1126.13749        49.000  

  19313344.97749 101492312.48449     11071.64149        49.000  

 16 04 02 12 16 21.9000000  0  4G08G22G27G14                                    
  19097389.27349 100357457.82849    -16019.71949        49.000  

  20191691.50049 106108054.65649     11450.32449        50.000  

  17961132.85249  94386388.95349      1121.52749        49.000  

  19313134.34449 101491205.59049     11065.82449        49.000  

 16 04 02 12 16 22.0000000  0  4G08G22G27G14                                    
  19097694.15649 100359060.00049    -16023.48449        49.000  

  20191473.64849 106106909.84849     11445.65249        50.000  

  17961111.54749  94386277.00449      1116.95749        49.000  

  19312923.83649 101490099.31649     11059.66449        49.000  

 16 04 02 12 16 22.1000000  0  4G08G22G27G14                                    
  19097999.10249 100360662.52349    -16027.24249        49.000  

  20191255.91449 106105765.49249     11440.91449        50.000  

  17961090.31249  94386165.52049      1112.12149        49.000  

  19312713.43049 101488993.63349     11053.55549        49.000  

 16 04 02 12 16 22.2000000  0  4G08G22G27G14                                    
  19098304.12549 100362265.44549    -16031.15249        49.000  

  20191038.24249 106104621.63349     11435.96149        50.000  

  17961069.19549  94386054.53949      1106.91849        49.000  

  19312503.15649 101487888.58249     11047.29749        49.000  

 16 04 02 12 16 22.3000000  0  4G08G22G27G14                                    
  19098609.22749 100363868.78149    -16035.22749        49.000  

  20190820.68049 106103478.27749     11431.11349        50.000  

  17961048.18049  94385944.08249      1101.97749        49.000  

  19312292.99249 101486784.19149     11040.84449        49.000  

 16 04 02 12 16 22.4000000  0  4G08G22G27G14                                    
  19098914.40649 100365472.49249    -16039.17649        49.000  

  20190603.20349 106102335.40249     11426.04749        50.000  

  17961027.25049  94385834.10549      1096.87549        49.000  

  19312082.93849 101485680.42249     11034.48449        49.000  

 16 04 02 12 16 22.5000000  0  4G08G22G27G14                                    
  19099219.64849 100367076.56649    -16042.58649        49.000  

  20190385.81249 106101192.98049     11421.67249        50.000  

  17961006.40649  94385724.59049      1092.37949        49.000  

  19311873.00849 101484577.24249     11028.63349        49.000  

 16 04 02 12 16 22.6000000  0  4G08G22G27G14                                    
  19099524.96149 100368681.00449    -16046.10249        49.000  

  20190168.50849 106100051.02049     11417.25049        50.000  

  17960985.65649  94385615.55149      1087.89549        49.000  

  19311663.19549 101483474.67249     11022.80949        49.000  

 16 04 02 12 16 22.7000000  0  4G08G22G27G14                                    
  19099830.35249 100370285.89849    -16050.91849        49.000  

  20189951.32049 106098909.61349     11411.40249        50.000  

  17960965.00849  94385507.07449      1081.93049        49.000  

  19311453.50849 101482372.78949     11015.62149        49.000  

 16 04 02 12 16 22.8000000  0  4G08G22G27G14                                    
  19100135.82849 100371891.17249    -16054.77049        49.000  

  20189734.21149 106097768.68049     11406.65649        50.000  

  17960944.45349  94385399.08649      1077.10249        49.000  

  19311243.95349 101481271.53149     11009.41049        49.000  

 16 04 02 12 16 22.9000000  0  4G08G22G27G14                                    
  19100441.35949 100373496.73449    -16057.39549        49.000  

  20189517.17249 106096628.13749     11403.03149        50.000  

  17960923.97749  94385291.48849      1073.43449        49.000  

  19311034.49249 101480170.80549     11004.34849        49.000  

 16 04 02 12 16 23.0000000  0  4G08G22G27G14                                    
  19100746.96149 100375102.68049    -16061.36749        49.000  

  20189300.22749 106095488.06649     11398.04749        50.000  

  17960903.59449  94385184.37949      1068.32849        49.000  

  19310825.15649 101479070.69949     10997.90649        49.000  

 16 04 02 12 16 23.1000000  0  4G08G22G27G14                                    
  19101052.62549 100376709.01649    -16065.16849        49.000  

  20189083.35949 106094348.48849     11393.32449        50.000  

  17960883.30549  94385077.77049      1063.49249        49.000  

  19310615.93049 101477971.22349     10991.75449        49.000  

 16 04 02 12 16 23.2000000  0  4G08G22G27G14                                    
  19101358.37549 100378315.76249    -16069.32449        49.000  

  20188866.60249 106093209.41849     11388.21949        50.000  

  17960863.11749  94384971.68049      1058.20749        49.000  

  19310406.84449 101476872.39149     10985.23049        49.000  

 16 04 02 12 16 23.3000000  0  4G08G22G27G14                                    
  19101664.18049 100379922.85249    -16072.74249        49.000  

  20188649.93049 106092070.78949     11383.86349        50.000  

  17960843.02349  94384866.03549      1053.78949        49.000  

  19310197.85249 101475774.15649     10979.32049        49.000  

 16 04 02 12 16 23.4000000  0  4G08G22G27G14                                    
  19101970.07049 100381530.31249    -16076.43049        49.000  

  20188433.34449 106090932.62149     11379.29749        50.000  

  17960823.00849  94384760.86749      1049.07849        49.000  

  19309988.96949 101474676.50849     10973.45349        49.000  

 16 04 02 12 16 23.5000000  0  4G08G22G27G14                                    
  19102276.01649 100383138.07449    -16079.43849        49.000  

  20188216.84449 106089794.85549     11375.16449        50.000  

  17960803.07049  94384656.09849      1045.04349        49.000  

  19309780.20349 101473579.42249     10967.90649        49.000  

 16 04 02 12 16 23.6000000  0  4G08G22G27G14                                    
  19102582.05549 100384746.35549    -16084.78949        49.000  

  20188000.45349 106088657.71149     11368.86349        50.000  

  17960783.25849  94384551.97749      1038.53949        49.000  

  19309571.56249 101472483.08649     10960.16049        49.000  

 16 04 02 12 16 23.7000000  0  4G08G22G27G14                                    
  19102888.14849 100386354.92249    -16087.63749        49.000  

  20187784.13349 106087520.94149     11365.06649        50.000  

  17960763.52349  94384448.24249      1034.52049        49.000  

  19309363.03149 101471387.28149     10954.87549        49.000  

 16 04 02 12 16 23.8000000  0  4G08G22G27G14                                    
  19103194.32849 100387963.88349    -16091.47749        49.000  

  20187567.90649 106086384.66849     11360.25049        50.000  

  17960743.87549  94384344.99649      1029.79749        49.000  

  19309154.63349 101470292.10949     10948.65649        49.000  

 16 04 02 12 16 23.9000000  0  4G08G22G27G14                                    
  19103500.57849 100389573.23849    -16095.54749        49.000  

  20187351.77349 106085248.88749     11355.12949        50.000  

  17960724.32849  94384242.26649      1024.42249        49.000  

  19308946.34449 101469197.57049     10942.14849        49.000  

 16 04 02 12 16 24.0000000  0  4G08G22G27G14                                    
  19103806.90649 100391183.00449    -16099.58649        49.000  

  20187135.73449 106084113.60949     11350.21549        50.000  

  17960704.87549  94384140.03149      1019.62949        49.000  

  19308738.17249 101468103.68049     10935.78149        49.000  

 16 04 02 12 16 24.1000000  0  4G08G22G27G14                                    
  19104113.29749 100392793.07849    -16102.69949        49.000  

  20186919.78949 106082978.74249     11346.12949        50.000  

  17960685.51649  94384038.23449      1015.34449        49.000  

  19308530.12549 101467010.34849     10930.21149        50.000  

 16 04 02 12 16 24.2000000  0  4G08G22G27G14                                    
  19104419.75849 100394403.54349    -16106.25849        49.000  

  20186703.92249 106081844.36749     11341.47749        50.000  

  17960666.23449  94383936.93449      1010.55549        49.000  

  19308322.18849 101465917.63749     10924.20349        50.000  

 16 04 02 12 16 24.3000000  0  4G08G22G27G14                                    
  19104726.28949 100396014.36349    -16110.03149        49.000  

  20186488.16449 106080710.43849     11336.68849        50.000  

  17960647.03949  94383836.08249      1005.83649        49.000  

  19308114.36749 101464825.52049     10918.01649        50.000  

 16 04 02 12 16 24.4000000  0  4G08G22G27G14                                    
  19105032.89149 100397625.55549    -16113.68049        49.000  

  20186272.47749 106079576.98049     11332.14149        50.000  

  17960627.93849  94383735.70749      1001.12549        49.000  

  19307906.67249 101463734.02349     10911.90249        50.000  

 16 04 02 12 16 24.5000000  0  4G08G22G27G14                                    
  19105339.57049 100399237.12549    -16117.62149        49.000  

  20186056.89849 106078443.99649     11327.18449        50.000  

  17960608.93049  94383635.83249       996.02749        49.000  

  19307699.08649 101462643.14549     10905.60949        49.000  

 16 04 02 12 16 24.6000000  0  4G08G22G27G14                                    
  19105646.32049 100400849.12549    -16121.90649        49.000  

  20185841.39849 106077311.53549     11322.03549        50.000  

  17960590.02349  94383536.47749       990.88749        49.000  

  19307491.60249 101461552.91449     10899.12549        49.000  

 16 04 02 12 16 24.7000000  0  4G08G22G27G14                                    
  19105953.15649 100402461.49649    -16125.74249        49.000  

  20185626.00049 106076179.55549     11317.12949        50.000  

  17960571.21949  94383437.62549       985.70349        49.000  

  19307284.25849 101460463.32449     10892.74249        49.000  

 16 04 02 12 16 24.8000000  0  4G08G22G27G14                                    
  19106260.04749 100404074.21949    -16129.09849        49.000  

  20185410.67249 106075048.01649     11312.94149        50.000  

  17960552.48449  94383339.20349       981.50449        49.000  

  19307077.00049 101459374.30949     10887.05949        49.000  

 16 04 02 12 16 24.9000000  0  4G08G22G27G14                                    
  19106567.02349 100405687.34049    -16133.28549        49.000  

  20185195.44549 106073916.97749     11307.68049        50.000  

  17960533.85949  94383241.30149       976.11749        49.000  

  19306869.89149 101458285.94549     10880.38349        49.000  

 16 04 02 12 16 25.0000000  0  4G08G22G27G14                                    
  19106874.06249 100407300.83249    -16136.80549        49.000  

  20184980.30549 106072786.40649     11303.09049        50.000    20184989.04741
  82654155.22751      8807.60241        20.000  
  17960515.32049  94383143.88749       971.43449        49.000  

  19306662.89149 101457198.19549     10874.32849        49.000  

 16 04 02 12 16 25.1000000  0  4G08G22G27G14                                    
  19107181.14849 100408914.68849    -16140.30549        49.000  

  20184765.23449 106071656.29749     11298.64549        50.000    20184774.00041
  82653274.63341      8804.14141        22.000  
  17960496.85949  94383046.92249       966.98049        49.000  

  19306456.00849 101456111.02749     10868.55149        50.000  

 16 04 02 12 16 25.2000000  0  4G08G22G27G14                                    
  19107488.32849 100410528.91049    -16144.06249        49.000  

  20184550.27349 106070526.65249     11293.94549        50.000    20184561.52341
  82652394.39541      8800.47741        20.000  
  17960478.50849  94382950.44549       962.14549        49.000  

  19306249.24249 101455024.48849     10862.48849        49.000  

 16 04 02 12 16 25.3000000  0  4G08G22G27G14                                    
  19107795.55549 100412143.46549    -16147.23049        49.000  

  20184335.38349 106069397.44549     11289.76649        50.000    20184346.64841
  82651514.50041      8797.21941        20.000  
  17960460.22749  94382854.40649       957.77749        49.000  

  19306042.58649 101453938.52349     10856.70749        49.000  

 16 04 02 12 16 25.4000000  0  4G08G22G27G14                                    
  19108102.86749 100413758.41049    -16151.37549        49.000  

  20184120.59449 106068268.71949     11284.53149        50.000    20184133.83641
  82650634.94941      8793.14141        20.000  
  17960442.04749  94382758.85249       952.66449        49.000  

  19305836.05549 101452853.16849     10850.40249        50.000  

 16 04 02 12 16 25.5000000  0  4G08G22G27G14                                    
  19108410.25849 100415373.77749    -16155.33249        49.000  

  20183905.89149 106067140.51249     11279.68449        50.000    20183919.13341
  82649755.79741      8789.36341        20.000  
  17960423.96949  94382663.84449       947.72349        49.000  

  19305629.64849 101451768.48849     10843.91049        50.000  

 16 04 02 12 16 25.6000000  0  4G08G22G27G14                                    
  19108717.71949 100416989.48449    -16159.08649        49.000  

  20183691.28949 106066012.74649     11274.93449        50.000    20183701.54741
  82648876.99241      8785.66441        20.000  
  17960405.96949  94382569.27349       942.78949        49.000  

  19305423.34449 101450684.39549     10837.71549        50.000  

 16 04 02 12 16 25.7000000  0  4G08G22G27G14                                    
  19109025.25849 100418605.52749    -16162.23049        49.000  

  20183476.77349 106064885.42249     11270.73049        50.000    20183487.01641
  82647998.52741      8782.38741        20.000  
  17960388.06249  94382475.15249       938.61749        49.000  

  19305217.15649 101449600.87549     10832.16049        50.000  

 16 04 02 12 16 25.8000000  0  4G08G22G27G14                                    
  19109332.86749 100420222.03149    -16166.86349        49.000  

  20183262.35249 106063758.64149     11265.26649        50.000    20183275.93841
  82647120.48841      8778.12941        20.000  
  17960370.25849  94382381.58649       932.93849        49.000  

  19305011.08649 101448518.05949     10825.16049        50.000  

 16 04 02 12 16 25.9000000  0  4G08G22G27G14                                    
  19109640.51649 100421838.81649    -16169.71549        49.000  

  20183048.02349 106062632.25049     11261.41849        50.000  

  17960352.53149  94382288.42649       928.91449        49.000  

  19304805.13349 101447435.76249     10819.95349        50.000  

 16 04 02 12 16 26.0000000  0  4G08G22G27G14                                    
  19109948.26649 100423456.03949    -16174.07049        49.000  

  20182833.77349 106061506.39149     11255.98049        50.000  

  17960334.90649  94382195.79349       923.55949        49.000  

  19304599.31249 101446354.14549     10812.93449        49.000  

 16 04 02 12 16 26.1000000  0  4G08G22G27G14                                    
  19110256.08649 100425073.66849    -16178.34849        49.000  

  20182619.64849 106060381.05149     11250.66049        50.000  

  17960317.37549  94382103.68849       918.04749        49.000  

  19304393.61749 101445273.18049     10806.28149        49.000  

 16 04 02 12 16 26.2000000  0  4G08G22G27G14                                    
  19110563.98449 100426691.68049    -16181.65249        49.000  

  20182405.59449 106059256.18049     11246.61349        50.000  

  17960299.94549  94382012.08249       913.74649        49.000  

  19304188.03949 101444192.84449     10800.44549        50.000  

 16 04 02 12 16 26.3000000  0  4G08G22G27G14                                    
  19110871.93849 100428309.97349    -16184.87949        49.000  

  20182191.60949 106058131.67649     11242.29349        50.000  

  17960282.57049  94381920.82849       909.48449        49.000  

  19303982.54749 101443113.00049     10795.05549        50.000  

 16 04 02 12 16 26.4000000  0  4G08G22G27G14                                    
  19111179.97749 100429928.70349    -16189.06649        49.000  

  20181977.72749 106057007.72749     11237.10549        50.000  

  17960265.31249  94381830.14849       904.23849        49.000  

  19303777.19549 101442033.86749     10788.47349        50.000  

 16 04 02 12 16 26.5000000  0  4G08G22G27G14                                    
  19111488.07849 100431547.82849    -16193.27349        49.000  

  20181763.95349 106055884.27749     11231.84849        50.000  

  17960248.15649  94381739.97349       898.84449        49.000  

  19303571.96949 101440955.35949     10781.69949        50.000  

 16 04 02 12 16 26.6000000  0  4G08G22G27G14                                    
  19111796.25049 100433167.30549    -16196.62949        49.000  

  20181550.25049 106054761.26249     11227.60249        50.000  

  17960231.07849  94381650.25049       894.46149        49.000  

  19303366.85949 101439877.44949     10775.93849        49.000  

 16 04 02 12 16 26.7000000  0  4G08G22G27G14                                    
  19112104.48449 100434787.11749    -16199.94549        49.000  

  20181336.63349 106053638.69549     11223.17649        50.000  

  17960214.09449  94381560.95749       890.25049        49.000  

  19303161.84449 101438800.10549     10770.33649        49.000  

 16 04 02 12 16 26.8000000  0  4G08G22G27G14                                    
  19112412.79749 100436407.32449    -16203.91049        49.000  

  20181123.10949 106052516.60949     11218.37149        50.000  

  17960197.19549  94381472.18449       885.10949        49.000  

  19302956.96149 101437723.40649     10763.91449        49.000  

 16 04 02 12 16 26.9000000  0  4G08G22G27G14                                    
  19112721.18849 100438027.90649    -16207.74249        49.000  

  20180909.66449 106051395.00449     11213.55549        50.000  

  17960180.40649  94381383.89149       880.13749        49.000  

  19302752.18849 101436647.32449     10757.60949        49.000  

 16 04 02 12 16 27.0000000  0  4G08G22G27G14                                    
  19113029.64149 100439648.84449    -16211.23849        49.000  

  20180696.32049 106050273.86349     11208.93049        50.000  

  17960163.68849  94381296.05149       875.60949        49.000  

  19302547.53949 101435571.84049     10751.80549        49.000  

 16 04 02 12 16 27.1000000  0  4G08G22G27G14                                    
  19113338.17249 100441270.16449    -16215.07449        49.000  

  20180483.05549 106049153.19149     11204.15649        50.000  

  17960147.06249  94381208.72349       870.66049        49.000  

  19302343.00049 101434496.98049     10745.53149        50.000  

 16 04 02 12 16 27.2000000  0  4G08G22G27G14                                    
  19113646.76649 100442891.86749    -16218.85949        49.000  

  20180269.89149 106048033.01249     11199.27349        50.000  

  17960130.53149  94381121.86349       865.79749        49.000  

  19302138.57049 101433422.74649     10739.25449        49.000  

 16 04 02 12 16 27.3000000  0  4G08G22G27G14                                    
  19113955.45349 100444513.94949    -16222.75849        49.000  

  20180056.82849 106046913.30549     11194.41049        50.000  

  17960114.10249  94381035.50049       860.65649        49.000  

  19301934.26649 101432349.13349     10732.89549        49.000  

 16 04 02 12 16 27.4000000  0  4G08G22G27G14                                    
  19114264.20349 100446136.46949    -16226.93049        49.000  

  20179843.85949 106045794.13349     11189.30949        50.000  

  17960097.77349  94380949.68449       855.68849        49.000  

  19301730.10249 101431276.19149     10726.45349        49.000  

 16 04 02 12 16 27.5000000  0  4G08G22G27G14                                    
  19114573.03949 100447759.32849    -16230.64849        49.000  

  20179630.96949 106044675.39149     11184.71549        50.000  

  17960081.51649  94380864.29349       851.00049        49.000  

  19301526.03949 101430203.83649     10720.28549        49.000  

 16 04 02 12 16 27.6000000  0  4G08G22G27G14                                    
  19114881.93049 100449382.55549    -16234.29349        49.000  

  20179418.17249 106043557.13749     11179.91849        50.000  

  17960065.35949  94380779.39849       846.08249        49.000  

  19301322.09449 101429132.09849     10714.18049        49.000  

 16 04 02 12 16 27.7000000  0  4G08G22G27G14                                    
  19115190.89149 100451006.23449    -16238.61749        49.000  

  20179205.49249 106042439.43449     11174.57049        50.000  

  17960049.32049  94380695.07849       840.68849        49.000  

  19301118.28149 101428061.05549     10707.37949        49.000  

 16 04 02 12 16 27.8000000  0  4G08G22G27G14                                    
  19115499.92249 100452630.19949    -16241.54749        49.000  

  20178992.86749 106041322.10549     11170.69549        50.000  

  17960033.34449  94380611.12549       836.77049        49.000  

  19300914.57849 101426990.53149     10702.07449        49.000  

 16 04 02 12 16 27.9000000  0  4G08G22G27G14                                    
  19115809.00849 100454254.51249    -16244.68049        49.000  

  20178780.32049 106040205.23849     11166.48849        50.000  

  17960017.44549  94380527.63749       832.55149        49.000  

  19300710.97749 101425920.60549     10696.43449        49.000  

 16 04 02 12 16 28.0000000  0  4G08G22G27G14                                    
  19116118.17249 100455879.18449    -16248.56649        49.000  

  20178567.86749 106039088.79749     11161.82449        50.000  

  17960001.64149  94380444.60949       827.56249        49.000  

  19300507.49249 101424851.26249     10690.36749        49.000  

 16 04 02 12 16 28.1000000  0  4G08G22G27G14                                    
  19116427.39149 100457504.21949    -16252.23049        49.000  

  20178355.51649 106037972.85249     11156.96549        50.000  

  17959985.92249  94380362.06249       822.78949        49.000  

  19300304.12549 101423782.55149     10684.05549        49.000  

 16 04 02 12 16 28.2000000  0  4G08G22G27G14                                    
  19116736.70349 100459129.67249    -16256.38349        49.000  

  20178143.25049 106036857.41849     11151.81649        50.000  

  17959970.31249  94380280.04349       817.52749        49.000  

  19300100.86749 101422714.49249     10677.41849        49.000  

 16 04 02 12 16 28.3000000  0  4G08G22G27G14                                    
  19117046.07049 100460755.48849    -16260.05549        49.000  

  20177931.07049 106035742.44549     11147.17649        50.000  

  17959954.78949  94380198.49249       812.79349        49.000  

  19299897.73449 101421647.02749     10671.43449        49.000  

 16 04 02 12 16 28.4000000  0  4G08G22G27G14                                    
  19117355.51649 100462381.62549    -16263.28549        49.000  

  20177718.97749 106034627.88749     11142.94549        50.000  

  17959939.35249  94380117.36349       808.37549        49.000  

  19299694.71949 101420580.14149     10665.68849        49.000  

 16 04 02 12 16 28.5000000  0  4G08G22G27G14                                    
  19117665.03949 100464008.16449    -16267.00849        49.000  

  20177506.97749 106033513.84449     11138.16049        50.000  

  17959924.01649  94380036.75449       803.68449        49.000  

  19299491.82049 101419513.88749     10659.64849        49.000    19299487.81241
  79028175.67251      8306.21941        20.000  
 16 04 02 12 16 28.6000000  0  4G08G22G27G14                                    
  19117974.61749 100465634.98049    -16269.83649        49.000  

  20177295.05549 106032400.17249     11134.43449        50.000  

  17959908.75049  94379956.53149       799.82849        49.000  

  19299289.00849 101418448.16049     10654.36749        49.000    19299285.00841
  79027345.23041      8302.10241        20.000  
 16 04 02 12 16 28.7000000  0  4G08G22G27G14                                    
  19118284.27349 100467262.20349    -16274.12149        49.000  

  20177083.21949 106031287.00449     11129.11349        50.000  

  17959893.57849  94379876.80949       794.44949        49.000  

  19299086.32849 101417383.07449     10647.78149        49.000    19299085.04741
  79026515.28541      8296.97341        20.000  
 16 04 02 12 16 28.8000000  0  4G08G22G27G14                                    
  19118594.00849 100468889.86749    -16278.59449        49.000  

  20176871.50049 106030174.38749     11123.53549        50.000  

  17959878.51649  94379797.65649       788.72749        49.000  

  19298883.79749 101416318.69149     10640.65649        49.000    19298882.50041
  79025685.89141      8291.42241        20.000  
 16 04 02 12 16 28.9000000  0  4G08G22G27G14                                    
  19118903.81249 100470517.92649    -16282.41049        49.000  

  20176659.85949 106029062.25849     11118.79349        50.000  

  17959863.54749  94379718.99249       784.04349        49.000  

  19298681.36749 101415254.93449     10634.46549        49.000  

 16 04 02 12 16 29.0000000  0  4G08G22G27G14                                    
  19119213.68049 100472146.29749    -16285.70349        49.000  

  20176448.30549 106027950.54749     11114.40649        50.000  

  17959848.65649  94379640.75049       779.48849        49.000  

  19298479.04749 101414191.73449     10628.71549        49.000  

 16 04 02 12 16 29.1000000  0  4G08G22G27G14                                    
  19119523.61749 100473775.10249    -16289.77349        49.000  

  20176236.85949 106026839.36749     11109.35549        50.000  

  17959833.85249  94379563.05549       774.41449        49.000  

  19298276.85249 101413129.21149     10622.17649        49.000  

 16 04 02 12 16 29.2000000  0  4G08G22G27G14                                    
  19119833.64149 100475404.26649    -16293.55549        49.000  

  20176025.49249 106025728.64149     11104.65649        50.000  

  17959819.15649  94379485.82449       769.50849        49.000  

  19298074.78149 101412067.28549     10615.98849        49.000  

 16 04 02 12 16 29.3000000  0  4G08G22G27G14                                    
  19120143.73449 100477033.80149    -16297.21949        49.000  

  20175814.20349 106024618.40649     11099.74249        50.000  

  17959804.56249  94379409.07449       764.70349        49.000  

  19297872.82849 101411005.98449     10609.89849        49.000  

 16 04 02 12 16 29.4000000  0  4G08G22G27G14                                    
  19120453.89149 100478663.69949    -16300.64849        49.000  

  20175603.01649 106023508.60949     11095.52349        50.000  

  17959790.04749  94379332.78549       760.47349        49.000  

  19297670.96149 101409945.27349     10604.18049        49.000  

 16 04 02 12 16 29.5000000  0  4G08G22G27G14                                    
  19120764.10249 100480293.91449    -16303.99649        49.000  

  20175391.92249 106022399.25049     11091.10949        50.000    20175401.41441
  82614895.30151      8642.42641        20.000  
  17959775.60949  94379256.94949       755.80549        49.000  

  19297469.22749 101408885.14549     10598.22349        49.000  

 16 04 02 12 16 29.6000000  0  4G08G22G27G14                                    
  19121074.39849 100481924.52349    -16307.74249        49.000  

  20175180.91449 106021290.37549     11086.30949        50.000    20175191.18041
  82614031.23841      8638.68041        20.000  
  17959761.26649  94379181.58249       750.95349        49.000  

  19297267.60949 101407825.62549     10592.16049        49.000  

 16 04 02 12 16 29.7000000  0  4G08G22G27G14                                    
  19121384.76649 100483555.53949    -16312.07049        49.000  

  20174970.00849 106020182.01249     11081.03549        50.000    20174980.25841
  82613167.57041      8634.57441        20.000  
  17959747.02349  94379106.75049       745.60549        49.000  

  19297066.11749 101406766.78149     10585.34049        49.000  

 16 04 02 12 16 29.8000000  0  4G08G22G27G14                                    
  19121695.20349 100485186.90249    -16315.52749        49.000  

  20174759.18049 106019074.11749     11076.33249        50.000    20174771.60241
  82612304.27341      8630.90641        20.000  
  17959732.86749  94379032.37549       741.06649        49.000  

  19296864.71149 101405708.52049     10579.43849        49.000  

 16 04 02 12 16 29.9000000  0  4G08G22G27G14                                    
  19122005.71949 100486818.63749    -16319.09449        49.000  

  20174548.42249 106017966.65649     11072.05549        50.000  

  17959718.80549  94378958.47349       736.43049        49.000  

  19296663.45349 101404650.87149     10573.43849        49.000  

 16 04 02 12 16 30.0000000  0  4G08G22G27G14                                    
  19122316.29749 100488450.76249    -16323.10249        49.000  

  20174337.78149 106016859.71949     11066.87549        50.000  

  17959704.83649  94378885.07449       731.34449        49.000  

  19296462.30549 101403593.86749     10566.98049        49.000  

 16 04 02 12 16 30.1000000  0  4G08G22G27G14                                    
  19122626.96149 100490083.23049    -16326.60549        49.000  

  20174127.21949 106015753.20349     11062.59849        50.000  

  17959690.95349  94378812.10949       726.88349        49.000  

  19296261.26649 101402537.43449     10561.15649        49.000  

 16 04 02 12 16 30.2000000  0  4G08G22G27G14                                    
  19122937.67249 100491716.02349    -16329.70349        49.000  

  20173916.74249 106014647.14149     11058.18849        50.000  

  17959677.15649  94378739.61349       722.31649        49.000  

  19296060.35949 101401481.59049     10555.28949        49.000  

 16 04 02 12 16 30.3000000  0  4G08G22G27G14                                    
  19123248.46149 100493349.30949    -16334.63349        49.000  

  20173706.36749 106013541.64849     11052.39849        50.000  

  17959663.47749  94378667.69149       716.36349        49.000  

  19295859.57049 101400426.46549     10548.07449        49.000  

 16 04 02 12 16 30.4000000  0  4G08G22G27G14                                    
  19123559.33649 100494982.94149    -16338.30949        49.000  

  20173496.08649 106012436.60949     11047.67249        50.000  

  17959649.87549  94378596.23849       711.85549        49.000  

  19295658.90649 101399371.93049     10542.09449        49.000  

 16 04 02 12 16 30.5000000  0  4G08G22G27G14                                    
  19123870.25849 100496616.93049    -16341.74249        49.000  

  20173285.89149 106011332.03149     11043.30549        50.000  

  17959636.35949  94378525.23049       707.44149        49.000  

  19295458.35249 101398317.99249     10536.30949        49.000  

 16 04 02 12 16 30.6000000  0  4G08G22G27G14                                    
  19124181.27349 100498251.29749    -16345.63349        49.000  

  20173075.78949 106010227.93049     11038.46549        50.000  

  17959622.94549  94378454.72749       702.22749        49.000  

  19295257.92249 101397264.68449     10529.90649        49.000  

 16 04 02 12 16 30.7000000  0  4G08G22G27G14                                    
  19124492.32849 100499886.00449    -16348.89549        49.000  

  20172865.77349 106009124.28149     11033.93849        50.000  

  17959609.60949  94378384.68049       697.69149        49.000  

  19295057.59449 101396211.96949     10524.16049        49.000  

 16 04 02 12 16 30.8000000  0  4G08G22G27G14                                    
  19124803.48449 100501521.16449    -16353.46549        49.000  

  20172655.85949 106008021.18449     11028.42249        50.000  

  17959596.38349  94378315.18049       692.24249        49.000  

  19294857.40649 101395159.94149     10517.16849        49.000  

 16 04 02 12 16 30.9000000  0  4G08G22G27G14                                    
  19125114.70349 100503156.63749    -16356.48849        49.000  

  20172446.03949 106006918.50049     11024.42249        50.000  

  17959583.23449  94378246.10249       688.23849        49.000  

  19294657.32049 101394108.47349     10511.61349        49.000  

 16 04 02 12 16 31.0000000  0  4G08G22G27G14                                    
  19125425.99249 100504792.44149    -16359.98049        49.000  

  20172236.28149 106005816.24649     11019.92649        50.000  

  17959570.17249  94378177.46549       683.68849        49.000  

  19294457.32849 101393057.58249     10505.86349        49.000  

 16 04 02 12 16 31.1000000  0  4G08G22G27G14                                    
  19125737.35249 100506428.62149    -16363.52749        49.000  

  20172026.62549 106004714.46949     11015.34449        50.000  

  17959557.21149  94378109.31649       678.91049        49.000  

  19294257.46949 101392007.31249     10499.75049        49.000  

 16 04 02 12 16 31.2000000  0  4G08G22G27G14                                    
  19126048.77349 100508065.17649    -16367.33249        49.000  

  20171817.05549 106003613.17249     11010.59049        50.000  

  17959544.33649  94378041.65649       674.05949        49.000  

  19294057.72749 101390957.65649     10493.50049        49.000  

 16 04 02 12 16 31.3000000  0  4G08G22G27G14                                    
  19126360.25849 100509702.10249    -16371.12149        49.000  

  20171607.56249 106002512.34049     11005.81249        50.000  

  17959531.55549  94377974.46149       669.23449        49.000  

  19293858.10249 101389908.61749     10487.20749        49.000  

 16 04 02 12 16 31.4000000  0  5G08G22G27G32G14                                 
  19126671.82049 100511339.37149    -16374.50449        49.000  

  20171398.17249 106001411.96949     11001.21149        50.000  

  17959518.85949  94377907.73449       664.61349        49.000  

  18865415.13349  99138424.33659     12578.66049        49.000  

  19293658.59449 101388860.18049     10481.34449        49.000  

 16 04 02 12 16 31.5000000  0  5G08G22G27G32G14                                 
  19126983.46149 100512977.06249    -16378.93049        49.000  

  20171188.87549 106000312.11749     10995.84449        50.000    20171191.75841
  82597658.05951      8568.19141        20.000  
  17959506.25049  94377841.53949       659.14549        49.000  

  18865175.84449  99137166.85249     12571.69949        49.000  

  19293459.20349 101387812.37549     10474.71949        49.000  

 16 04 02 12 16 31.6000000  0  5G08G22G27G32G14                                 
  19127295.15649 100514615.05949    -16381.87549        49.000  

  20170979.65649 105999212.66849     10991.96149        50.000    20170982.53141
  82596801.32441      8565.16441        20.000  
  17959493.73449  94377775.74249       655.16849        49.000  

  18864936.70349  99135909.92649     12566.11349        49.000  

  19293259.93049 101386765.15649     10469.14149        50.000  

 16 04 02 12 16 31.7000000  0  5G08G22G27G32G14                                 
  19127606.96149 100516253.53549    -16386.65649        49.000  

  20170770.55549 105998113.81249     10985.91449        50.000    20170769.51641
  82595945.05141      8560.45341        20.000  
  17959481.32849  94377710.54749       649.21149        49.000  

  18864697.66449  99134653.75449     12558.53949        49.000  

  19293060.78149 101385718.64149     10461.95749        49.000  

 16 04 02 12 16 31.8000000  0  5G08G22G27G32G14                                 
  19127918.80549 100517892.28949    -16389.27049        49.000  

  20170561.51649 105997015.32849     10982.40249        50.000    20170560.47741
  82595089.07041      8557.71541        20.000  
  17959469.00049  94377645.74649       645.53549        49.000  

  18864458.70349  99133398.12949     12553.23849        49.000  

  19292861.74249 101384672.66849     10456.74249        49.000  

 16 04 02 12 16 31.9000000  0  5G08G22G27G32G14                                 
  19128230.71149 100519531.41849    -16393.16049        49.000  

  20170352.57049 105995917.32049     10977.53949        50.000  

  17959456.75849  94377581.41049       640.60949        49.000  

  18864219.88349  99132143.12949     12546.87149        49.000  

  19292662.81249 101383627.28949     10450.66849        49.000  

 16 04 02 12 16 32.0000000  0  5G08G22G27G32G14                                 
  19128542.71149 100521170.97349    -16397.44949        49.000  

  20170143.73449 105994819.84849     10972.11749        50.000  

  17959444.61749  94377517.62949       635.00049        49.000  

  18863981.20349  99130888.83649     12539.77049        49.000  

  19292464.02349 101382582.60549     10443.62549        49.000  

 16 04 02 12 16 32.1000000  0  5G08G22G27G32G14                                 
  19128854.78949 100522810.92249    -16401.49249        49.000  

  20169934.99249 105993722.85949     10967.10549        50.000  

  17959432.57049  94377454.32849       630.09049        49.000  

  18863742.64149  99129635.19149     12533.12149        49.000  

  19292265.33649 101381538.53549     10437.38749        49.000  

 16 04 02 12 16 32.2000000  0  5G08G22G27G32G14                                 
  19129166.93849 100524451.24249    -16405.12149        49.000  

  20169726.33649 105992626.35949     10962.39149        50.000  

  17959420.62549  94377391.52749       625.36349        49.000  

  18863504.21149  99128382.20349     12526.75449        49.000  

  19292066.78149 101380495.10249     10431.23849        50.000  

 16 04 02 12 16 32.3000000  0  5G08G22G27G32G14                                 
  19129479.13349 100526091.93049    -16408.58249        49.000  

  20169517.76649 105991530.32049     10958.07049        50.000  

  17959408.75049  94377329.18849       620.81249        49.000  

  18863265.89149  99127129.82449     12520.75849        49.000  

  19291868.33649 101379452.27049     10425.34449        50.000  

 16 04 02 12 16 32.4000000  0  5G08G22G27G32G14                                 
  19129791.41449 100527732.98049    -16412.32049        49.000  

  20169309.28949 105990434.74649     10953.30949        50.000  

  17959396.97749  94377267.32449       616.04349        49.000  

  18863027.72749  99125878.08249     12514.40249        49.000  

  19291670.01649 101378410.04349     10419.24249        50.000  

 16 04 02 12 16 32.5000000  0  5G08G22G27G32G14                                 
  19130103.78149 100529374.39149    -16415.87949        49.000  

  20169100.89849 105989339.65249     10948.47349        50.000  

  17959385.30549  94377205.94949       611.13349        49.000  

  18862789.64849  99124626.98049     12507.98849        49.000  

  19291471.80549 101377368.44149     10413.02349        49.000    19291472.51641
  78995354.42651      8114.04741        20.000  
 16 04 02 12 16 32.6000000  0  5G08G22G27G32G14                                 
  19130416.19549 100531016.13749    -16419.19549        49.000  

  20168892.58649 105988244.98049     10944.27349        50.000  

  17959373.70349  94377144.99649       606.83649        49.000  

  18862551.64149  99123376.46949     12502.05149        49.000  

  19291273.70349 101376327.40249     10407.39849        50.000    19291274.41441
  78994543.23441      8109.66041        20.000  
 16 04 02 12 16 32.7000000  0  5G08G22G27G32G14                                 
  19130728.68049 100532658.26649    -16422.99249        49.000  

  20168684.37549 105987150.79349     10939.34449        50.000  

  17959362.20349  94377084.53949       602.03549        49.000  

  18862313.79749  99122126.60549     12495.62949        49.000  

  19291075.71949 101375287.00049     10401.03149        49.000    19291078.87541
  78993732.53541      8104.69941        20.000  
 16 04 02 12 16 32.8000000  0  5G08G22G27G32G14                                 
  19131041.24249 100534300.78549    -16427.05949        49.000  

  20168476.25849 105986057.10949     10934.27049        50.000  

  17959350.79749  94377024.59049       596.86749        49.000  

  18862076.06249  99120877.41049     12488.80549        49.000  

  19290877.85249 101374247.23449     10394.47349        49.000    19290881.01641
  78992922.33641      8099.59041        20.000  
 16 04 02 12 16 32.9000000  0  5G08G22G27G32G14                                 
  19131353.85249 100535943.62949    -16430.16049        49.000  

  20168268.22749 105984963.85549     10930.11349        50.000  

  17959339.46149  94376965.07049       592.60949        49.000  

  18861838.46149  99119628.79749     12483.04749        49.000  

  19290680.09449 101373208.03549     10389.01249        49.000    19290682.24241
  78992112.57441      8095.33241        20.000  
 16 04 02 12 16 33.0000000  0  5G08G22G27G32G14                                 
  19131666.54749 100537586.82049    -16433.71149        49.000  

  20168060.26649 105983871.03549     10925.65649        50.000  

  17959328.21949  94376906.00449       588.00849        49.000  

  18861600.94549  99118380.78549     12476.96549        49.000  

  19290482.46149 101372169.41849     10383.14149        49.000    19290484.59441
  78991303.26641      8090.75841        20.000  
 16 04 02 12 16 33.1000000  0  5G08G22G27G32G14                                 
  19131979.30549 100539230.43449    -16437.95749        49.000  

  20167852.40649 105982778.75849     10920.21549        50.000  

  17959317.08649  94376847.48049       582.52749        49.000  

  18861363.59449  99117133.48849     12469.84449        49.000  

  19290284.95349 101371131.49649     10376.12549        49.000    19290284.83641
  78990494.49641      8085.29341        20.000  
 16 04 02 12 16 33.2000000  0  5G08G22G27G32G14                                 
  19132292.14849 100540874.44149    -16442.05149        49.000  

  20167644.64849 105981686.96549     10915.21549        50.000  

  17959306.03949  94376789.44949       577.45749        49.000  

  18861126.35949  99115886.83649     12463.21949        49.000  

  19290087.56249 101370094.18849     10369.75049        49.000    19290087.43841
  78989686.20741      8080.32441        20.000  
 16 04 02 12 16 33.3000000  0  5G08G22G27G32G14                                 
  19132605.06249 100542518.78549    -16445.24249        49.000  

  20167436.96949 105980595.62549     10911.03149        50.000  

  17959295.07849  94376731.87949       573.23049        49.000  

  18860889.24249  99114640.79749     12457.45349        49.000  

  19289890.28149 101369057.47349     10364.13349        49.000    19289892.33641
  78988878.37941      8075.94941        20.000  
 16 04 02 12 16 33.4000000  0  5G08G22G27G32G14                                 
  19132918.05549 100544163.53949    -16449.43849        49.000  

  20167229.39149 105979504.79349     10905.65649        50.000  

  17959284.21949  94376674.81649       567.85949        49.000  

  18860652.25049  99113395.43049     12450.50449        49.000  

  19289693.12549 101368021.40649     10357.47349        49.000    19289695.18041
  78988071.05941      8070.75841        20.000  
 16 04 02 12 16 33.5000000  0  5G08G22G27G32G14                                 
  19133231.10249 100545808.62149    -16452.54349        49.000  

  20167021.89849 105978414.39149     10901.66849        50.000  

  17959273.45349  94376618.19149       563.63749        49.000  

  18860415.38349  99112150.65649     12444.69549        49.000  

  19289496.07849 101366985.91849     10351.87549        49.000    19289499.19541
  78987264.18841      8066.39541        20.000  
 16 04 02 12 16 33.6000000  0  5G08G22G27G32G14                                 
  19133544.21149 100547454.02049    -16455.83649        49.000  

  20166814.48449 105977324.41449     10897.25049        50.000  

  17959262.75849  94376561.99249       559.11749        49.000  

  18860178.63349  99110906.46549     12438.74649        49.000  

  19289299.14149 101365951.00049     10346.04349        50.000    19289302.25841
  78986457.76241      8061.85241        20.000  
 16 04 02 12 16 33.7000000  0  5G08G22G27G32G14                                 
  19133857.39149 100549099.84849    -16460.07449        49.000  

  20166607.17249 105976234.96549     10892.00449        50.000  

  17959252.17249  94376506.34449       553.96549        49.000  

  18859942.00849  99109662.97349     12431.95349        49.000  

  19289102.32849 101364916.74249     10339.55949        50.000    19289105.33641
  78985651.85241      8056.80141        21.000  
 16 04 02 12 16 33.8000000  0  5G08G22G27G32G14                                 
  19134170.65649 100550746.03949    -16463.89549        49.000  

  20166399.94549 105975145.98049     10887.13749        50.000  

  17959241.67249  94376451.15249       548.97749        49.000  

  18859705.47749  99108420.10549     12425.45349        49.000  

  19288905.63349 101363883.09849     10333.25449        50.000    19288908.64141
  78984846.41841      8051.88741        20.000  
 16 04 02 12 16 33.9000000  0  5G08G22G27G32G14                                 
  19134483.98449 100552392.59049    -16467.32049        49.000  

  20166192.80549 105974057.46949     10882.62949        50.000  

  17959231.26649  94376396.44149       544.53949        49.000  

  18859469.09449  99107177.87949     12419.18049        49.000  

  19288709.05549 101362850.07449     10327.20349        50.000    19288712.66441
  78984041.45741      8047.17241        20.000  
 16 04 02 12 16 34.0000000  0  5G08G22G27G32G14                                 
  19134797.38349 100554039.51249    -16471.00849        49.000  

  20165985.75849 105972969.43049     10877.88749        50.000  

  17959220.94549  94376342.20349       539.69149        49.000  

  18859232.82049  99105936.27749     12412.94949        49.000  

  19288512.60249 101361817.65249     10321.09449        50.000    19288516.19541
  78983236.95741      8042.41041        20.000  
 16 04 02 12 16 34.1000000  0  5G08G22G27G32G14                                 
  19135110.85949 100555686.80149    -16474.68449        49.000  

  20165778.79749 105971881.85949     10873.25049        50.000  

  17959210.71949  94376288.45749       534.91849        49.000  

  18858996.67249  99104695.31649     12406.62549        49.000  

  19288316.25049 101360785.84849     10315.02349        50.000    19288319.64841
  78982432.93041      8037.68041        20.000  
 16 04 02 12 16 34.2000000  0  5G08G22G27G32G14                                 
  19135424.38349 100557334.40649    -16477.73849        49.000  

  20165571.91449 105970794.70349     10869.19549        50.000  

  17959200.56249  94376235.10949       530.94949        49.000  

  18858760.61749  99103454.94549     12400.75449        49.000  

  19288120.01649 101359754.59849     10309.66849        50.000    19288123.40641
  78981629.34041      8033.50841        20.000  
 16 04 02 12 16 34.3000000  0  5G08G22G27G32G14                                 
  19135737.99249 100558982.42249    -16481.96549        49.000  

  20165365.13349 105969708.07449     10863.74649        50.000  

  17959190.51649  94376182.31649       525.25849        49.000  

  18858524.71149  99102215.25049     12393.78949        49.000  

  19287923.90649 101358724.02049     10302.66849        50.000    19287929.12541
  78980826.27341      8028.05141        20.000  
 16 04 02 12 16 34.4000000  0  5G08G22G27G32G14                                 
  19136051.67249 100560630.79349    -16485.35249        49.000  

  20165158.43849 105968621.89149     10859.44549        50.000  

  17959180.55549  94376129.96549       520.85549        49.000  

  18858288.89849  99100976.16849     12387.80149        49.000  

  19287727.88349 101357694.03949     10296.89149        49.000    19287733.11741
  78980023.67241      8023.55141        20.000  
 16 04 02 12 16 34.5000000  0  5G08G22G27G32G14                                 
  19136365.42249 100562279.55149    -16489.49249        49.000  

  20164951.84449 105967536.21949     10854.20349        50.000  

  17959170.69549  94376078.12549       515.67649        49.000  

  18858053.23449  99099737.74649     12381.12949        49.000  

  19287532.00849 101356664.68849     10290.31649        49.000    19287535.46141
  78979221.57041      8018.42641        20.000  
 16 04 02 12 16 34.6000000  0  5G08G22G27G32G14                                 
  19136679.24249 100563928.69149    -16493.25849        50.000  

  20164745.33649 105966451.02049     10849.46149        50.000  

  17959160.92249  94376026.77049       510.82449        49.000  

  18857817.68849  99098499.98049     12374.48449        49.000  

  19287336.24249 101355635.96949     10284.10949        49.000    19287339.69541
  78978419.95741      8013.59441        20.000  
 16 04 02 12 16 34.7000000  0  5G08G22G27G32G14                                 
  19136993.14849 100565578.27049    -16497.50449        49.000  

  20164538.93049 105965366.36349     10844.18049        50.000  

  17959151.24249  94375975.94949       505.74249        49.000  

  18857582.28149  99097262.91049     12367.68449        49.000  

  19287140.61749 101354607.93449     10277.38349        49.000    19287145.11741
  78977618.87941      8008.34841        20.000  
 16 04 02 12 16 34.8000000  0  5G08G22G27G32G14                                 
  19137307.10949 100567228.14149    -16500.75849        49.000  

  20164332.60249 105964282.11349     10839.70349        50.000  

  17959141.65649  94375925.56249       501.04349        49.000  

  18857346.98449  99096026.41449     12361.62549        49.000  

  19286945.07849 101353580.43849     10271.70349        49.000    19286949.59441
  78976818.22341      8003.92641        20.000  
 16 04 02 12 16 34.9000000  0  5G08G22G27G32G14                                 
  19137621.14849 100568878.40649    -16504.48849        49.000  

  20164126.38349 105963198.35549     10834.89849        50.000  

  17959132.16449  94375875.66049       496.23449        49.000  

  18857111.81249  99094790.56649     12355.18849        49.000  

  19286749.68049 101352553.58249     10265.36349        50.000  

 16 04 02 12 16 35.0000000  0  5G08G22G27G32G14                                 
  19137935.25049 100570529.02749    -16508.16049        49.000  

  20163920.23449 105962115.05949     10830.43849        50.000  

  17959122.75849  94375826.22749       491.63749        49.000  

  18856876.75849  99093555.34449     12349.04749        49.000  

  19286554.39849 101351527.32449     10259.45349        49.000  

 16 04 02 12 16 35.1000000  0  5G08G22G27G32G14                                 
  19138249.40649 100572179.96949    -16511.12949        49.000  

  20163714.17249 105961032.18449     10826.24249        50.000  

  17959113.43049  94375777.21949       487.55949        49.000  

  18856641.82049  99092320.71149     12343.28149        49.000  

  19286359.21949 101350501.63349     10253.93449        49.000  

 16 04 02 12 16 35.2000000  0  5G08G22G27G32G14                                 
  19138563.65649 100573831.35949    -16515.71949        50.000  

  20163508.21149 105959949.85949     10820.65649        50.000  

  17959104.20349  94375728.76649       481.66049        49.000  

  18856407.01649  99091086.79749     12335.91849        50.000  

  19286164.18049 101349476.64549     10246.77349        49.000  

 16 04 02 12 16 35.3000000  0  5G08G22G27G32G14                                 
  19138877.97749 100575483.12949    -16519.60249        50.000  

  20163302.32849 105958868.02749     10815.83249        50.000  

  17959095.07849  94375680.81649       476.91049        49.000  

  18856172.32849  99089853.53149     12329.51649        49.000  

  19285969.25049 101348452.27749     10240.53549        50.000  

 16 04 02 12 16 35.4000000  0  5G08G22G27G32G14                                 
  19139192.35949 100577135.22749    -16522.87949        49.000  

  20163096.54749 105957786.63349     10811.42249        50.000  

  17959086.03949  94375633.30549       472.44549        49.000  

  18855937.75849  99088620.86749     12323.45349        49.000  

  19285774.43049 101347428.49249     10234.73449        50.000  

 16 04 02 12 16 35.5000000  0  5G08G22G27G32G14                                 
  19139506.82849 100578787.72749    -16526.85249        49.000  

  20162890.87549 105956705.73049     10806.50049        50.000  

  17959077.09449  94375586.29749       467.36749        49.000  

  18855703.32049  99087388.86749     12316.86349        49.000  

  19285579.73449 101346405.34849     10228.36349        50.000  

 16 04 02 12 16 35.6000000  0  5G08G22G27G32G14                                 
  19139821.35249 100580440.54349    -16529.92649        49.000  

  20162685.26649 105955625.26649     10802.19149        50.000  

  17959068.23449  94375539.72349       463.19949        49.000  

  18855468.96949  99086157.45349     12311.12149        49.000  

  19285385.14149 101345382.77349     10222.72749        50.000  

 16 04 02 12 16 35.7000000  0  5G08G22G27G32G14                                 
  19140135.93049 100582093.71549    -16533.60249        49.000  

  20162479.73449 105954545.24649     10797.60949        50.000  

  17959059.45349  94375493.61349       458.47349        49.000  

  18855234.75849  99084926.66849     12304.73449        49.000  

  19285190.67249 101344360.79749     10216.72349        50.000  

 16 04 02 12 16 35.8000000  0  5G08G22G27G32G14                                 
  19140450.59449 100583747.27349    -16537.30149        50.000  

  20162274.31249 105953465.72749     10792.82449        50.000  

  17959050.77349  94375448.00049       453.51249        49.000  

  18855000.67249  99083696.52349     12298.37549        49.000  

  19284996.32849 101343339.44949     10210.45349        50.000  

 16 04 02 12 16 35.9000000  0  5G08G22G27G32G14                                 
  19140765.31249 100585401.21149    -16541.27049        50.000  

  20162068.97749 105952386.69549     10787.73849        50.000  

  17959042.19549  94375402.87549       448.44549        49.000  

  18854766.70349  99082467.03549     12291.73849        49.000  

  19284802.09449 101342318.74249     10203.91049        50.000  

 16 04 02 12 16 36.0000000  0  5G08G22G27G32G14                                 
  19141080.11749 100587055.50449    -16544.76649        50.000  

  20161863.73449 105951308.12549     10783.23449        50.000  

  17959033.69549  94375358.22349       443.83249        50.000  

  18854532.87549  99081238.18049     12285.57049        49.000  

  19284607.97749 101341298.62549     10198.12949        50.000  

 16 04 02 12 16 36.1000000  0  5G08G22G27G32G14                                 
  19141394.99249 100588710.19549    -16548.92249        50.000  

  20161658.58649 105950230.05549     10778.06649        50.000  

  17959025.28949  94375314.07449       438.64849        49.000  

  18854299.15649  99080009.98849     12278.68449        49.000  

  19284413.98449 101340279.16449     10191.46549        50.000  

 16 04 02 12 16 36.2000000  0  5G08G22G27G32G14                                 
  19141709.95349 100590365.32849    -16553.20349        50.000  

  20161453.53949 105949152.52749     10772.62549        50.000  

  17959016.99249  94375270.46949       433.26649        49.000  

  18854065.53949  99078782.49649     12271.66049        49.000  

  19284220.10249 101339260.38749     10184.55949        50.000  

 16 04 02 12 16 36.3000000  0  5G08G22G27G32G14                                 
  19142024.96149 100592020.73849    -16555.89849        50.000  

  20161248.56249 105948075.39549     10768.85549        50.000  

  17959008.77349  94375227.25849       429.55549        49.000  

  18853832.06249  99077555.57049     12266.15249        49.000  

  19284026.33649 101338242.13749     10179.41449        50.000  

 16 04 02 12 16 36.4000000  0  5G08G22G27G32G14                                 
  19142340.04749 100593676.54349    -16559.89549        50.000  

  20161043.68049 105946998.74649     10763.83249        50.000  

  17959000.64849  94375184.56649       424.13749        49.000  

  18853598.69549  99076329.28549     12259.68849        49.000  

  19283832.70349 101337224.52749     10172.93049        50.000  

 16 04 02 12 16 36.5000000  0  5G08G22G27G32G14                                 
  19142655.21949 100595332.72749    -16563.44549        50.000  

  20160838.90649 105945922.59049     10759.28549        50.000  

  17958992.60949  94375142.34049       419.82849        49.000  

  18853365.46949  99075103.65649     12253.37949        49.000  

  19283639.17249 101336207.53549     10167.02349        50.000  

 16 04 02 12 16 36.6000000  0  5G08G22G27G32G14                                 
  19142970.43849 100596989.23049    -16566.98049        50.000  

  20160634.20349 105944846.85949     10754.72749        50.000  

  17958984.66449  94375100.56249       414.95749        49.000  

  18853132.32849  99073878.62149     12247.12949        49.000  

  19283445.75849 101335191.12549     10161.00449        50.000  

 16 04 02 12 16 36.7000000  0  5G08G22G27G32G14                                 
  19143285.74249 100598646.17249    -16571.36749        50.000  

  20160429.59449 105943771.66449     10749.31249        50.000  

  17958976.81249  94375059.32049       409.62549        49.000  

  18852899.34449  99072654.28149     12240.29349        50.000  

  19283252.46949 101334175.39149     10154.13749        50.000  

 16 04 02 12 16 36.8000000  0  5G08G22G27G32G14                                 
  19143601.11749 100600303.49249    -16575.18849        50.000  

  20160225.08649 105942696.98049     10744.30949        50.000  

  17958969.06249  94375018.58249       404.62949        49.000  

  18852666.48449  99071430.60949     12233.48849        50.000  

  19283059.30549 101333160.28949     10147.84049        50.000  

 16 04 02 12 16 36.9000000  0  5G08G22G27G32G14                                 
  19143916.57849 100601961.12949    -16578.07849        50.000  

  20160020.64849 105941622.68849     10740.51249        50.000  

  17958961.39149  94374978.26249       400.69949        49.000  

  18852433.73449  99070207.50849     12227.98849        50.000  

  19282866.25049 101332145.74649     10142.40249        50.000  

 16 04 02 12 16 37.0000000  0  5G08G22G27G32G14                                 
  19144232.08649 100603619.14549    -16582.05549        50.000  

  20159816.32049 105940548.90649     10735.27349        50.000  

  17958953.81249  94374938.43849       395.48049        49.000  

  18852201.10949  99068985.06249     12221.34049        49.000  

  19282673.30549 101331131.84049     10135.94149        50.000  

 16 04 02 12 16 37.1000000  0  5G08G22G27G32G14                                 
  19144547.67249 100605277.53549    -16585.77049        50.000  

  20159612.07049 105939475.59049     10730.59849        50.000  

  17958946.33649  94374899.09449       390.76249        49.000  

  18851968.60949  99067763.25849     12214.96149        49.000  

  19282480.47749 101330118.53549     10129.94149        50.000  

 16 04 02 12 16 37.2000000  0  5G08G22G27G32G14                                 
  19144863.32849 100606936.32449    -16589.88749        50.000  

  20159407.92249 105938402.77349     10725.42649        50.000  

  17958938.94549  94374860.25449       385.60549        49.000  

  18851736.22749  99066542.12149     12208.10549        49.000  

  19282287.78949 101329105.90249     10123.18849        50.000  

 16 04 02 12 16 37.3000000  0  5G08G22G27G32G14                                 
  19145179.04749 100608595.47349    -16593.43849        50.000  

  20159203.85249 105937330.43849     10720.77049        50.000  

  17958931.64849  94374821.89149       380.78549        49.000  

  18851503.96949  99065321.60949     12201.90249        50.000  

  19282095.20349 101328093.86349     10117.10949        50.000  

 16 04 02 12 16 37.4000000  0  5G08G22G27G32G14                                 
  19145494.85949 100610255.07049    -16597.96549        50.000  

  20158999.89849 105936258.65249     10715.16849        50.000  

  17958924.45349  94374784.09049       375.19549        49.000  

  18851271.86749  99064101.83249     12194.53549        49.000  

  19281902.76649 101327082.52749     10110.12149        50.000  

 16 04 02 12 16 37.5000000  0  5G08G22G27G32G14                                 
  19145810.73449 100611914.99649    -16601.04349        50.000  

  20158796.03149 105935187.29749     10710.95749        50.000  

  17958917.35249  94374746.73049       371.01249        49.000  

  18851039.85949  99062882.63349     12188.86749        49.000  

  19281710.42249 101326071.76249     10104.59849        50.000  

 16 04 02 12 16 37.6000000  0  5G08G22G27G32G14                                 
  19146126.66449 100613575.23049    -16603.84049        50.000  

  20158592.24249 105934116.36349     10707.19149        50.000  

  17958910.32049  94374709.79349       367.03149        49.000  

  18850807.97749  99061664.03149     12183.18849        49.000  

  19281518.19549 101325061.56249     10099.20349        50.000  

 16 04 02 12 16 37.7000000  0  5G08G22G27G32G14                                 
  19146442.65649 100615235.81249    -16607.49649        50.000  

  20158388.53149 105933045.88349     10702.37149        50.000  

  17958903.36749  94374673.30549       362.30949        49.000  

  18850576.20349  99060446.03149     12177.04349        49.000  

  19281326.07849 101324051.95349     10093.08249        50.000  

 16 04 02 12 16 37.8000000  0  5G08G22G27G32G14                                 
  19146758.73449 100616896.78549    -16611.52049        50.000  

  20158184.92249 105931975.89549     10697.28949        50.000  

  17958896.52349  94374637.32049       357.12149        50.000  

  18850344.53949  99059228.71149     12170.12949        49.000  

  19281134.06249 101323042.97749     10086.63349        50.000  

 16 04 02 12 16 37.9000000  0  5G08G22G27G32G14                                 
  19147074.88349 100618558.13349    -16615.21949        50.000  

  20157981.40649 105930906.39149     10692.65249        50.000  

  17958889.77349  94374601.81649       352.50849        50.000  

  18850113.00849  99058012.00849     12163.89849        49.000  

  19280942.18849 101322034.63749     10080.46549        50.000  

 16 04 02 12 16 38.0000000  0  5G08G22G27G32G14                                 
  19147391.08649 100620219.78949    -16618.48049        50.000  

  20157777.96949 105929837.30149     10688.23449        50.000  

  17958883.10249  94374566.74249       347.87549        49.000  

  18849881.60249  99056795.89849     12157.91049        49.000  

  19280750.39849 101321026.83649     10074.77049        50.000  

 16 04 02 12 16 38.1000000  0  5G08G22G27G32G14                                 
  19147707.36749 100621881.89149    -16622.74249        50.000  

  20157574.62549 105928768.75849     10682.99249        50.000  

  17958876.53149  94374532.21949       342.68449        49.000  

  18849650.32049  99055580.51249     12150.80149        49.000  

  19280558.75849 101320019.74649     10067.90649        50.000  

 16 04 02 12 16 38.2000000  0  5G08G22G27G32G14                                 
  19148023.71149 100623544.30149    -16625.85549        50.000  

  20157371.36749 105927700.64149     10678.77049        50.000  

  17958870.03949  94374498.12149       338.43049        49.000  

  18849419.15649  99054365.69549     12145.09849        49.000  

  19280367.21949 101319013.20349     10062.39149        50.000  

 16 04 02 12 16 38.3000000  0  5G08G22G27G32G14                                 
  19148340.13349 100625207.12149    -16630.10949        50.000  

  20157168.21949 105926633.03949     10673.51649        50.000  

  17958863.64149  94374464.53549       333.06249        49.000  

  18849188.11749  99053151.55549     12138.23049        49.000  

  19280175.80549 101318007.32449     10055.71549        50.000  

 16 04 02 12 16 38.4000000  0  5G08G22G27G32G14                                 
  19148656.62549 100626870.30149    -16633.62949        50.000  

  20156965.14849 105925565.90649     10668.88349        50.000  

  17958857.34449  94374431.43449       328.49649        49.000  

  18848957.18049  99051938.05549     12131.85249        49.000  

  19279984.52349 101317002.05549     10049.59849        49.000  

 16 04 02 12 16 38.5000000  0  5G08G22G27G32G14                                 
  19148973.18049 100628533.78549    -16636.83249        50.000  

  20156762.15649 105924499.17649     10664.56249        50.000  

  17958851.12549  94374398.74249       324.08649        49.000  

  18848726.35949  99050725.12549     12126.01649        49.000  

  19279793.32849 101315997.33249     10044.02349        49.000  

 16 04 02 12 16 38.6000000  0  5G08G22G27G32G14                                 
  19149289.81249 100630197.69149    -16640.89549        50.000  

  20156559.26649 105923432.97349     10659.50849        50.000  

  17958845.00049  94374366.57049       319.04749        49.000  

  18848495.68849  99049512.87549     12119.38749        49.000  

  19279602.25849 101314993.27749     10037.49649        50.000  

 16 04 02 12 16 38.7000000  0  5G08G22G27G32G14                                 
  19149606.51649 100631861.96149    -16644.48849        49.000  

  20156356.44549 105922367.24649     10654.79749        50.000  

  17958838.96949  94374334.89149       314.27349        49.000  

  18848265.13349  99048301.28149     12112.94549        49.000  

  19279411.31249 101313989.85249     10031.26649        50.000  

 16 04 02 12 16 38.8000000  0  5G08G22G27G32G14                                 
  19149923.29749 100633526.63749    -16648.66849        50.000  

  20156153.75049 105921302.03949     10649.45349        50.000  

  17958833.03949  94374303.72349       308.93849        49.000  

  18848034.68849  99047090.35249     12106.05149        49.000  

  19279220.50049 101312987.07049     10024.68049        49.000  

 16 04 02 12 16 38.9000000  0  5G08G22G27G32G14                                 
  19150240.14849 100635191.68849    -16652.35949        50.000  

  20155951.13349 105920237.30149     10644.79749        50.000  

  17958827.20349  94374273.03549       304.11749        49.000  

  18847804.37549  99045880.06649     12099.71149        50.000  

  19279029.78949 101311984.91049     10018.45349        49.000  

 16 04 02 12 16 39.0000000  0  5G08G22G27G32G14                                 
  19150557.07049 100636857.12549    -16656.30949        50.000  

  20155748.61749 105919173.07049     10639.71949        50.000  

  17958821.46149  94374242.85549       299.03549        49.000  

  18847574.19549  99044670.44549     12092.97349        49.000  

  19278839.21149 101310983.39149     10011.93849        50.000  

 16 04 02 12 16 39.1000000  0  5G08G22G27G32G14                                 
  19150874.05549 100638522.87149    -16659.22349        50.000  

  20155546.18049 105918109.25049     10635.71949        50.000  

  17958815.79749  94374213.09449       294.97749        49.000  

  18847344.11749  99043461.40249     12087.39149        49.000  

  19278648.73449 101309982.43049     10006.57449        50.000  

 16 04 02 12 16 39.2000000  0  5G08G22G27G32G14                                 
  19151191.11749 100640189.03949    -16663.61349        50.000  

  20155343.83649 105917045.95749     10630.31249        50.000  

  17958810.23449  94374183.86349       289.56649        49.000  

  18847114.18849  99042253.05549     12080.31649        49.000  

  19278458.38349 101308982.12949      9999.79749        50.000  

 16 04 02 12 16 39.3000000  0  5G08G22G27G32G14                                 
  19151508.23449 100641855.53549    -16666.80949        50.000  

  20155141.59449 105915983.09849     10626.04349        50.000  

  17958804.75849  94374155.07449       285.23849        49.000  

  18846884.35949  99041045.29749     12074.44549        49.000  

  19278268.14149 101307982.42249      9994.09049        50.000    19278247.02341
  78941197.93451      7787.60241        20.000  
 16 04 02 12 16 39.4000000  0  5G08G22G27G32G14                                 
  19151825.42249 100643522.37949    -16670.25049        50.000  

  20154939.42249 105914920.69549     10621.50449        50.000  

  17958799.36749  94374126.73849       280.60549        49.000  

  18846654.62549  99039838.15649     12068.27749        49.000  

  19278078.00849 101306983.29349      9988.12549        50.000    19278056.89841
  78940419.40241      7782.95741        20.000  
 16 04 02 12 16 39.5000000  0  5G08G22G27G32G14                                 
  19152142.69549 100645189.64549    -16674.66849        49.000  

  20154737.36749 105913858.83249     10616.05549        50.000  

  17958794.07849  94374098.95349       275.02349        49.000  

  18846425.05549  99038631.72749     12061.13749        49.000  

  19277888.00849 101305984.85949      9981.20749        50.000    19277864.89141
  78939641.40641      7777.56241        20.000  
 16 04 02 12 16 39.6000000  0  5G08G22G27G32G14                                 
  19152460.03949 100646857.28549    -16678.28549        50.000  

  20154535.39149 105912797.44549     10611.30149        50.000  

  17958788.87549  94374071.63349       270.52049        49.000  

  18846195.59449  99037425.92649     12054.80949        49.000  

  19277698.12549 101304987.02349      9975.21149        49.000    19277675.00841
  78938863.87941      7772.89141        20.000  
 16 04 02 12 16 39.7000000  0  5G08G22G27G32G14                                 
  19152777.43049 100648525.23449    -16681.43049        49.000  

  20154333.48449 105911736.47349     10607.05549        50.000  

  17958783.75849  94374044.74649       266.12149        49.000  

  18845966.25049  99036220.71549     12048.94949        49.000  

  19277508.35949 101303989.77349      9969.48049        50.000  

 16 04 02 12 16 39.8000000  0  5G08G22G27G32G14                                 
  19153094.91449 100650193.59849    -16685.31249        49.000  

  20154131.68849 105910676.02349     10602.11349        50.000  

  17958778.74249  94374018.38749       261.04349        49.000  

  18845737.02349  99035016.18449     12042.35549        49.000  

  19277318.71149 101302993.16849      9963.01649        50.000  

 16 04 02 12 16 39.9000000  0  5G08G22G27G32G14                                 
  19153412.46149 100651862.30949    -16688.91849        49.000  

  20153929.96949 105909616.03549     10597.38349        50.000  

  17958773.82049  94373992.47749       256.35549        49.000  

  18845507.93049  99033812.27749     12035.89149        49.000  

  19277129.18049 101301997.16449      9956.92649        50.000  

 16 04 02 12 16 40.0000000  0  5G08G22G27G32G14                                 
  19153730.07049 100653531.36349    -16692.26649        49.000  

  20153728.34449 105908556.48849     10592.96549        50.000  

  17958768.97749  94373967.03149       251.81249        49.000  

  18845278.94549  99032608.98049     12029.92249        49.000  

  19276939.75849 101301001.76249      9951.00049        50.000  

 16 04 02 12 16 40.1000000  0  5G08G22G27G32G14                                 
  19154047.75049 100655200.75449    -16695.48849        50.000  

  20153526.80549 105907497.39549     10588.62149        50.000  

  17958764.21949  94373942.02749       247.60549        49.000  

  18845050.07849  99031406.28949     12023.99249        49.000  

  19276750.45349 101300006.93849      9945.26649        50.000  

 16 04 02 12 16 40.2000000  0  5G08G22G27G32G14                                 
  19154365.50049 100656870.52349    -16699.43449        50.000  

  20153325.35949 105906438.78949     10583.54749        50.000  

  17958759.55549  94373917.51649       242.42649        49.000  

  18844821.34449  99030204.25449     12017.33249        49.000  

  19276561.25849 101299012.73849      9938.93449        50.000  

 16 04 02 12 16 40.3000000  0  5G08G22G27G32G14                                 
  19154683.31249 100658540.66849    -16703.13749        50.000  

  20153124.00049 105905380.65649     10578.89149        50.000  

  17958754.99249  94373893.49649       237.65249        49.000  

  18844592.72749  99029002.86749     12010.85949        49.000  

  19276372.18849 101298019.16049      9932.85549        50.000  

 16 04 02 12 16 40.4000000  0  5G08G22G27G32G14                                 
  19155001.19549 100660211.17249    -16706.80949        50.000  

  20152922.73449 105904322.98849     10574.25449        50.000  

  17958750.50849  94373869.93849       232.95349        49.000  

  18844364.24249  99027802.09849     12004.63749        49.000  

  19276183.22749 101297026.20749      9926.48449        50.000  

 16 04 02 12 16 40.5000000  0  5G08G22G27G32G14                                 
  19155319.14849 100661882.03949    -16710.54349        50.000  

  20152721.56249 105903265.80549     10569.25449        50.000  

  17958746.10949  94373846.86349       227.98449        50.000  

  18844135.86749  99026601.97749     11998.07449        49.000  

  19275994.39149 101296033.85949      9920.31249        50.000  

 16 04 02 12 16 40.6000000  0  5G08G22G27G32G14                                 
  19155637.17249 100663553.25449    -16713.83649        50.000  

  20152520.47749 105902209.07849     10564.87549        50.000  

  17958741.80549  94373824.24649       223.63349        50.000  

  18843907.60949  99025402.47749     11991.97349        49.000  

  19275805.67249 101295042.10949      9914.48449        50.000  

 16 04 02 12 16 40.7000000  0  5G08G22G27G32G14                                 
  19155955.25849 100665224.83649    -16717.59849        50.000  

  20152319.47749 105901152.81249     10560.06649        50.000  

  17958737.59449  94373802.09849       218.75049        50.000  

  18843679.46949  99024203.60549     11985.62149        49.000  

  19275617.07049 101294050.97349      9908.25849        50.000  

 16 04 02 12 16 40.8000000  0  5G08G22G27G32G14                                 
  19156273.42249 100666896.75849    -16720.95349        50.000  

  20152118.56249 105900097.01649     10555.58249        50.000  

  17958733.46949  94373780.41849       214.16449        50.000  

  18843451.43849  99023005.35549     11979.47749        50.000  

  19275428.57849 101293060.43049      9902.33249        50.000  

 16 04 02 12 16 40.9000000  0  5G08G22G27G32G14                                 
  19156591.66449 100668569.13349    -16725.67249        50.000  

  20151917.75849 105899041.76249     10549.78549        50.000  

  17958729.45349  94373759.29349       208.40249        50.000  

  18843223.55549  99021807.82849     11972.02349        49.000  

  19275240.21949 101292070.58249      9895.27749        50.000  

 16 04 02 12 16 41.0000000  0  5G08G22G27G32G14                                 
  19156909.96949 100670241.85249    -16728.97349        50.000  

  20151717.03149 105897986.96949     10545.47349        50.000  

  17958725.52349  94373738.62149       204.11749        50.000  

  18842995.78949  99020610.90249     11966.07849        50.000  

  19275051.95349 101291081.34449      9889.35249        50.000  

 16 04 02 12 16 41.1000000  0  5G08G22G27G32G14                                 
  19157228.35249 100671914.91049    -16732.47749        50.000  

  20151516.39149 105896932.62149     10540.84049        50.000  

  17958721.67249  94373718.40249       199.37149        50.000  

  18842768.14149  99019414.60949     11959.75449        50.000  

  19274863.82049 101290092.68049      9883.39549        50.000  

 16 04 02 12 16 41.2000000  0  5G08G22G27G32G14                                 
  19157546.79749 100673588.35249    -16736.26649        50.000  

  20151315.85249 105895878.77349     10535.92649        50.000  

  17958717.91449  94373698.69149       194.54749        50.000  

  18842540.61749  99018218.95749     11953.43049        50.000  

  19274675.80549 101289104.66849      9877.04349        50.000  

 16 04 02 12 16 41.3000000  0  5G08G22G27G32G14                                 
  19157865.31249 100675262.12549    -16739.35249        50.000  

  20151115.39849 105894825.35549     10531.81649        50.000  

  17958714.25849  94373679.41849       190.26649        50.000  

  18842313.21149  99017023.91849     11947.40249        50.000  

  19274487.89849 101288117.22349      9871.51249        50.000  

 16 04 02 12 16 41.4000000  0  5G08G22G27G32G14                                 
  19158183.88349 100676936.22749    -16742.74649        50.000  

  20150915.01649 105893772.37549     10527.41049        50.000  

  17958710.67249  94373660.57449       185.93849        50.000  

  18842085.93049  99015829.46549     11941.63349        50.000  

  19274300.10949 101287130.35249      9865.74249        50.000  

 16 04 02 12 16 41.5000000  0  5G08G22G27G32G14                                 
  19158502.54749 100678610.76649    -16747.49249        50.000  

  20150714.75049 105892719.95749     10521.44149        50.000    20150708.87541
  82513783.86751      8198.52741        20.000  
  17958707.18849  94373642.29749       179.88349        50.000  

  18841858.77349  99014635.74649     11933.83249        50.000    18841859.46141
  77154263.59051      9299.09041        20.000  
  19274112.45349 101286144.19549      9858.28549        50.000  

 16 04 02 12 16 41.6000000  0  5G08G22G27G32G14                                 
  19158821.27349 100680285.70349    -16751.30149        50.000  

  20150514.57849 105891668.03149     10516.56649        50.000    20150508.70341
  82512964.18841      8194.72741        20.000  
  17958703.80549  94373624.51649       175.00849        50.000  

  18841631.75049  99013442.67649     11927.42649        50.000    18841632.43041
  77153333.92641      9294.09841        23.000  
  19273924.90649 101285158.65649      9852.09449        50.000    19273921.20341
  78923484.62151      7676.95741        20.000  
 16 04 02 12 16 41.7000000  0  5G08G22G27G32G14                                 
  19159140.06249 100681960.95749    -16754.66049        50.000  

  20150314.48449 105890616.53949     10512.22749        50.000    20150311.35941
  82512144.84841      8191.34441        20.000  
  17958700.51649  94373607.17649       170.54749        50.000  

  18841404.82849  99012250.21549     11921.31249        50.000    18841405.07041
  77152404.73441      9289.33641        21.000  
  19273737.47749 101284173.70749      9846.30149        50.000    19273733.76641
  78922717.10941      7672.44141        20.000  
 16 04 02 12 16 41.8000000  0  5G08G22G27G32G14                                 
  19159458.93049 100683636.59449    -16758.19149        50.000  

  20150114.48449 105889565.53149     10507.56649        50.000    20150111.35941
  82511325.88341      8187.71141        20.000  
  17958697.30549  94373590.32449       165.93849        50.000  

  18841178.03149  99011058.39149     11915.11349        50.000    18841178.27341
  77151476.04341      9284.50441        20.000  
  19273550.15649 101283189.37549      9840.22749        50.000    19273547.20341
  78921950.08641      7667.70741        20.000  
 16 04 02 12 16 41.9000000  0  5G08G22G27G32G14                                 
  19159777.85949 100685312.56649    -16761.46549        50.000  

  20149914.57849 105888514.98449     10503.04749        50.000    20149910.23441
  82510507.27041      8184.19141        20.000  
  17958694.18049  94373573.93049       161.41049        50.000  

  18840951.35249  99009867.18849     11908.98049        50.000    18840947.68841
  77150547.81241      9279.72741        20.000  
  19273362.96149 101282205.64849      9834.22349        50.000    19273360.00041
  78921183.52741      7663.03141        20.000  
 16 04 02 12 16 42.0000000  0  5G08G22G27G32G14                                 
  19160096.85949 100686988.89849    -16765.10549        50.000  

  20149714.75049 105887464.88749     10498.40249        50.000    20149710.40641
  82509688.99641      8180.57441        20.000  
  17958691.14849  94373557.99249       156.73449        50.000  

  18840724.79749  99008676.61349     11902.64549        50.000    18840721.11741
  77149620.06241      9274.78541        20.000  
  19273175.87549 101281222.51649      9828.28949        50.000  

 16 04 02 12 16 42.1000000  0  5G08G22G27G32G14                                 
  19160415.93049 100688665.58249    -16768.55549        50.000  

  20149515.00849 105886415.25849     10493.88749        50.000    20149514.57041
  82508871.08641      8177.05541        20.000  
  17958688.20349  94373542.53149       152.14549        50.000  

  18840498.35249  99007486.66049     11896.52049        50.000    18840495.78141
  77148692.79741      9270.01641        20.000  
  19272988.90649 101280239.98449      9822.34449        50.000  

 16 04 02 12 16 42.2000000  0  5G08G22G27G32G14                                 
  19160735.07049 100690342.65249    -16772.55149        50.000  

  20149315.36749 105885366.12949     10488.75049        50.000    20149314.92241
  82508053.56641      8173.05141        20.000  
  17958685.35249  94373527.56249       146.96949        50.000  

  18840272.03949  99006297.36749     11889.77049        50.000    18840269.45341
  77147766.04741      9264.75841        20.000  
  19272802.05549 101279258.10549      9815.65649        50.000  

 16 04 02 12 16 42.3000000  0  5G08G22G27G32G14                                 
  19161054.26649 100692020.08249    -16776.23449        50.000  

  20149115.81249 105884317.46949     10483.80549        50.000    20149116.03141
  82507236.41441      8169.19941        20.000  
  17958682.59449  94373513.07049       142.07049        50.000  

  18840045.85249  99005108.71949     11883.21149        50.000    18840041.68841
  77146839.80141      9259.64541        20.000  
  19272615.32049 101278276.83249      9809.50449        50.000  

 16 04 02 12 16 42.4000000  0  5G08G22G27G32G14                                 
  19161373.53949 100693697.89149    -16779.79349        50.000  

  20148916.35249 105883269.29349     10479.28149        50.000  

  17958679.93049  94373499.05949       137.43049        50.000  

  18839819.78949  99003920.70349     11877.07049        50.000  

  19272428.70349 101277296.17649      9803.43049        50.000  

 16 04 02 12 16 42.5000000  0  5G08G22G27G32G14                                 
  19161692.89849 100695376.09849    -16784.12949        50.000  

  20148716.98449 105882221.62149     10473.91449        50.000  

  17958677.35249  94373485.56649       132.04349        50.000  

  18839593.84449  99002733.35949     11870.18849        50.000  

  19272242.21149 101276316.18449      9796.65249        50.000  

 16 04 02 12 16 42.6000000  0  5G08G22G27G32G14                                 
  19162012.31249 100697054.64549    -16787.36349        50.000  

  20148517.70349 105881174.40649     10469.52349        50.000  

  17958674.87549  94373472.53149       127.57049        50.000  

  18839368.02349  99001546.64549     11863.89549        50.000  

  19272055.84449 101275336.77749      9790.86349        50.000  

 16 04 02 12 16 42.7000000  0  5G08G22G27G32G14                                 
  19162331.79749 100698733.57849    -16791.12949        50.000  

  20148318.52349 105880127.68449     10464.68049        50.000  

  17958672.49249  94373459.98449       122.81649        50.000  

  18839142.32049  99000360.58249     11857.55949        50.000  

  19271869.58649 101274358.00849      9784.65249        50.000  

 16 04 02 12 16 42.8000000  0  5G08G22G27G32G14                                 
  19162651.35949 100700412.87549    -16794.87149        50.000  

  20148119.43049 105879081.43849     10459.93049        50.000  

  17958670.19549  94373447.92249       118.00449        50.000  

  18838916.72749  98999175.15649     11851.19949        50.000  

  19271683.45349 101273379.85249      9778.45749        50.000  

 16 04 02 12 16 42.9000000  0  5G08G22G27G32G14                                 
  19162971.00049 100702092.55949    -16798.84049        50.000  

  20147920.42249 105878035.68449     10454.77749        50.000  

  17958667.99249  94373436.35249       112.80549        50.000  

  18838691.27349  98997990.38349     11844.34849        50.000  

  19271497.43849 101272402.33649      9771.92649        50.000  

 16 04 02 12 16 43.0000000  0  5G08G22G27G32G14                                 
  19163290.70349 100703772.60949    -16802.17649        50.000  

  20147721.51649 105876990.41849     10450.32849        50.000  

  17958665.88349  94373425.26649       108.38749        50.000  

  18838465.95349  98996806.26649     11838.17249        50.000  

  19271311.53949 101271425.44149      9765.96149        50.000  

 16 04 02 12 16 43.1000000  0  5G08G22G27G32G14                                 
  19163610.46949 100705452.96949    -16805.38749        50.000  

  20147522.68849 105875945.56249     10445.98449        50.000  

  17958663.85949  94373414.60949       103.96149        50.000  

  18838240.73449  98995622.71949     11832.38749        50.000  

  19271125.75049 101270449.10549      9760.27349        50.000  

 16 04 02 12 16 43.2000000  0  5G08G22G27G32G14                                 
  19163930.30549 100707133.71549    -16809.19149        50.000  

  20147323.95349 105874901.20349     10441.14849        50.000  

  17958661.92249  94373404.43849        99.12549        50.000  

  18838015.63349  98994439.83249     11825.83249        50.000  

  19270940.08649 101269473.40649      9753.99249        50.000  

 16 04 02 12 16 43.3000000  0  5G08G22G27G32G14                                 
  19164250.18849 100708814.81249    -16812.78149        50.000  

  20147125.30549 105873857.30949     10436.38749        50.000  

  17958660.08649  94373394.74249        94.31249        50.000  

  18837790.65649  98993257.57449     11819.42249        50.000  

  19270754.53149 101268498.31249      9747.81649        50.000  

 16 04 02 12 16 43.4000000  0  5G08G22G27G32G14                                 
  19164570.14849 100710496.21149    -16815.88749        50.000  

  20146926.73449 105872813.82849     10432.18049        50.000  

  17958658.32049  94373385.45749        90.02349        50.000  

  18837565.79749  98992075.89849     11813.59849        50.000  

  19270569.08649 101267523.77049      9742.18849        50.000  

 16 04 02 12 16 43.5000000  0  5G08G22G27G32G14                                 
  19164890.19549 100712178.02049    -16819.78149        50.000  

  20146728.26649 105871770.86349     10427.18849        50.000  

  17958656.64849  94373376.69549        85.05949        50.000  

  18837341.05549  98990894.90249     11806.94149        50.000    18837335.40641
  77135738.18451      9200.21541        20.000  
  19270383.76649 101266549.89149      9735.79749        50.000  

 16 04 02 12 16 43.6000000  0  5G08G22G27G32G14                                 
  19165210.28949 100713860.15249    -16823.18049        50.000  

  20146529.87549 105870728.32049     10422.84049        50.000  

  17958655.06249  94373368.35549        80.65249        50.000  

  18837116.43849  98989714.48449     11801.05549        50.000    18837110.78141
  77134818.36741      9195.62541        20.000  
  19270198.54749 101265576.57449      9730.05149        50.000  

 16 04 02 12 16 43.7000000  0  5G08G22G27G32G14                                 
  19165530.46149 100715542.67649    -16827.08249        50.000  

  20146331.58649 105869686.30549     10417.71549        50.000  

  17958653.57049  94373360.53549        75.61349        50.000  

  18836891.94549  98988534.75449     11794.26649        50.000    18836886.31241
  77133899.08241      9190.34041        20.000  
  19270013.46149 101264603.92249      9723.46149        50.000  

 16 04 02 12 16 43.8000000  0  5G08G22G27G32G14                                 
  19165850.70349 100717225.53949    -16830.63349        50.000  

  20146133.37549 105868644.71549     10413.19549        50.000  

  17958652.16449  94373353.16449        70.92249        50.000  

  18836667.56249  98987355.62949     11788.02349        50.000    18836661.93041
  77132980.27341      9185.47341        20.000  
  19269828.47749 101263631.84449      9717.53149        50.000  

 16 04 02 12 16 43.9000000  0  5G08G22G27G32G14                                 
  19166171.01649 100718908.78949    -16834.28549        50.000  

  20145935.25849 105867603.64549     10408.28549        50.000  

  17958650.85249  94373346.30549        66.09449        50.000  

  18836443.31249  98986177.17649     11781.47749        50.000  

  19269643.61749 101262660.41449      9711.27049        50.000  

 16 04 02 12 16 44.0000000  0  5G08G22G27G32G14                                 
  19166491.39849 100720592.41849    -16838.35249        50.000  

  20145737.24249 105866563.04749     10403.20749        50.000  

  17958649.64149  94373339.91449        60.94149        50.000  

  18836219.17249  98984999.35249     11774.82849        50.000  

  19269458.87549 101261689.60549      9704.79349        50.000  

 16 04 02 12 16 44.1000000  0  5G08G22G27G32G14                                 
  19166811.85949 100722276.46549    -16842.55149        50.000  

  20145539.32849 105865522.98849     10397.81649        50.000  

  17958648.52349  94373334.07449        55.46549        50.000  

  18835995.18049  98983822.24649     11767.79349        50.000  

  19269274.26649 101260719.47749      9698.03549        50.000  

 16 04 02 12 16 44.2000000  0  5G08G22G27G32G14                                 
  19167132.39149 100723960.87149    -16845.80149        50.000  

  20145341.50049 105864483.39849     10393.41049        50.000  

  17958647.50049  94373328.69149        51.25849        50.000  

  18835771.28949  98982645.75849     11761.76249        50.000  

  19269089.77349 101259749.95749      9692.19149        50.000  

 16 04 02 12 16 44.3000000  0  5G08G22G27G32G14                                 
  19167452.99249 100725645.60249    -16849.12149        50.000  

  20145143.75849 105863444.24249     10389.06249        50.000  

  17958646.57049  94373323.76249        46.71549        50.000  

  18835547.52349  98981469.87149     11755.77049        50.000  

  19268905.39149 101258781.02049      9686.35249        50.000  

 16 04 02 12 16 44.4000000  0  5G08G22G27G32G14                                 
  19167773.64849 100727330.67649    -16852.41849        50.000  

  20144946.10249 105862405.54349     10384.69149        50.000  

  17958645.71949  94373319.27749        42.38749        50.000  

  18835323.91449  98980294.60549     11749.70349        50.000  

  19268721.11749 101257812.67249      9680.57049        50.000  

 16 04 02 12 16 44.5000000  0  5G08G22G27G32G14                                 
  19168094.36749 100729016.08249    -16855.89149        50.000  

  20144748.53149 105861367.27049     10380.09849        50.000  

  17958644.95349  94373315.24249        37.64149        50.000  

  18835100.38349  98979119.94149     11743.50449        50.000  

  19268536.95349 101256844.90249      9674.58649        50.000  

 16 04 02 12 16 44.6000000  0  5G08G22G27G32G14                                 
  19168415.16449 100730701.88349    -16859.74249        50.000  

  20144551.05549 105860329.52749     10374.98049        50.000  

  17958644.28149  94373311.71549        32.65249        50.000  

  18834876.99249  98977945.95349     11736.84049        50.000  

  19268352.91449 101255877.79349      9668.07849        50.000  

 16 04 02 12 16 44.7000000  0  5G08G22G27G32G14                                 
  19168736.02349 100732388.04749    -16863.45349        50.000  

  20144353.68049 105859292.24649     10370.28949        50.000  

  17958643.69549  94373308.66049        27.82849        50.000  

  18834653.71149  98976772.59849     11730.42649        50.000  

  19268169.00049 101254911.28949      9661.93449        50.000  

 16 04 02 12 16 44.8000000  0  5G08G22G27G32G14                                 
  19169056.96149 100734074.57449    -16867.03149        50.000  

  20144156.37549 105858255.43849     10365.49649        50.000  

  17958643.20349  94373306.08249        23.07049        50.000  

  18834430.53949  98975599.87149     11724.19949        50.000  

  19267985.20349 101253945.40649      9655.66849        50.000  

 16 04 02 12 16 44.9000000  0  5G08G22G27G32G14                                 
  19169377.96149 100735761.44949    -16870.63349        50.000  

  20143959.17249 105857219.09849     10360.88749        50.000  

  17958642.79749  94373303.97749        18.44149        50.000  

  18834207.50049  98974427.78549     11717.81649        50.000  

  19267801.51649 101252980.11349      9649.81249        50.000  

 16 04 02 12 16 45.0000000  0  5G08G22G27G32G14                                 
  19169699.03149 100737448.68049    -16874.03149        50.000  

  20143762.05549 105856183.21949     10356.28549        50.000  

  17958642.48449  94373302.33249        13.71549        50.000  

  18833984.57849  98973256.32049     11711.62149        49.000  

  19267617.94549 101252015.44149      9643.67649        50.000  

 16 04 02 12 16 45.1000000  0  5G08G22G27G32G14                                 
  19170020.18049 100739136.34049    -16878.35249        50.000  

  20143565.02349 105855147.87549     10350.91849        50.000  

  17958642.26649  94373301.22749         8.39149        50.000  

  18833761.78949  98972085.55949     11704.57849        49.000  

  19267434.50049 101251051.44949      9636.85549        50.000  

 16 04 02 12 16 45.2000000  0  5G08G22G27G32G14                                 
  19170341.39849 100740824.37149    -16882.16449        50.000  

  20143368.10249 105854113.02349     10346.02749        50.000  

  17958642.14849  94373300.59849         3.60249        49.000  

  18833539.10949  98970915.44949     11697.94949        50.000  

  19267251.18049 101250088.06649      9630.67649        50.000  

 16 04 02 12 16 45.3000000  0  5G08G22G27G32G14                                 
  19170662.69549 100742512.75449    -16885.85249        50.000  

  20143171.25849 105853078.62949     10341.14849        50.000  

  17958642.11749  94373300.44949        -1.32849        49.000  

  18833316.57049  98969745.96149     11691.58249        50.000  

  19267067.96949 101249125.30549      9624.39549        50.000  

 16 04 02 12 16 45.4000000  0  5G08G22G27G32G14                                 
  19170984.04749 100744201.46949    -16888.96949        50.000  

  20142974.50849 105852044.68449     10336.90249        50.000  

  17958642.17249  94373300.74249        -5.57049        49.000  

  18833094.14849  98968577.08249     11685.71949        50.000  

  19266884.88349 101248163.12949      9618.66049        50.000  

 16 04 02 12 16 45.5000000  0  5G08G22G27G32G14                                 
  19171305.47749 100745890.55949    -16892.70349        50.000  

  20142777.84449 105851011.22349     10332.10549        50.000  

  17958642.32049  94373301.52349       -10.46949        49.000  

  18832871.84449  98967408.84849     11679.29749        49.000  

  19266701.90649 101247201.56649      9612.52749        50.000  

 16 04 02 12 16 45.6000000  0  5G08G22G27G32G14                                 
  19171626.97749 100747580.05149    -16896.75449        50.000  

  20142581.28149 105849978.27749     10326.89549        50.000  

  17958642.57049  94373302.82449       -15.66049        49.000  

  18832649.66449  98966241.29749     11672.37549        49.000  

  19266519.05549 101246240.67249      9605.82849        50.000  

 16 04 02 12 16 45.7000000  0  5G08G22G27G32G14                                 
  19171948.53149 100749269.87949    -16900.14149        50.000  

  20142384.79749 105848945.76649     10322.51649        50.000  

  17958642.89849  94373304.56249       -20.21149        49.000  

  18832427.60249  98965074.35249     11666.32849        49.000  

  19266336.31249 101245280.35949      9599.95749        50.000  

 16 04 02 12 16 45.8000000  0  5G08G22G27G32G14                                 
  19172270.16449 100750960.07849    -16903.79749        50.000  

  20142188.41449 105847913.76249     10317.60949        50.000  

  17958643.32049  94373306.80149       -24.98049        49.000  

  18832205.65649  98963908.06249     11659.85549        49.000  

  19266153.71149 101244320.68049      9593.75849        49.000  

 16 04 02 12 16 45.9000000  0  5G08G22G27G32G14                                 
  19172591.87549 100752650.63749    -16907.29349        49.000  

  20141992.10949 105846882.21549     10312.88749        50.000  

  17958643.83649  94373309.50449       -29.60249        49.000  

  18831983.84449  98962742.39849     11653.56249        49.000  

  19265971.20349 101243361.60949      9587.60249        50.000  

 16 04 02 12 16 46.0000000  0  5G08G22G27G32G14                                 
  19172913.66449 100754341.62149    -16911.69949        49.000  

  20141795.91449 105845851.20749     10307.45349        50.000  

  17958644.45349  94373312.74649       -35.08649        49.000  

  18831762.16449  98961577.44149     11646.50049        49.000    18831755.27341
  77112889.23051      9075.19541        20.000  
  19265788.82849 101242403.21149      9580.72749        50.000  

 16 04 02 12 16 46.1000000  0  5G08G22G27G32G14                                 
  19173235.51649 100756032.91449    -16914.84849        49.000  

  20141599.79749 105844820.61749     10303.31649        50.000  

  17958645.15649  94373316.41449       -39.39849        49.000  

  18831540.58649  98960413.06649     11640.55549        49.000    18831535.75841
  77111981.92641      9070.56241        20.000  
  19265606.56249 101241445.37149      9575.25849        49.000  

 16 04 02 12 16 46.2000000  0  5G08G22G27G32G14                                 
  19173557.43049 100757724.58249    -16918.39849        49.000  

  20141403.77349 105843790.51249     10298.53949        50.000  

  17958645.94549  94373320.56649       -44.06649        49.000  

  18831319.14149  98959249.34449     11634.13749        49.000    18831314.31241
  77111075.12941      9065.56241        21.000  
  19265424.40649 101240488.16849      9569.01249        50.000  

 16 04 02 12 16 46.3000000  0  5G08G22G27G32G14                                 
  19173879.39149 100759416.53949    -16921.28949        49.000  

  20141207.83649 105842760.82049     10294.50849        50.000  

  17958646.81249  94373325.12149       -48.13349        49.000  

  18831097.80549  98958086.18449     11628.50849        49.000    18831092.25841
  77110168.77341      9061.17641        20.000  
  19265242.35949 101239531.51249      9563.60549        50.000  

 16 04 02 12 16 46.4000000  0  5G08G22G27G32G14                                 
  19174201.43849 100761108.87949    -16925.02049        49.000  

  20141011.98449 105841731.60949     10289.68049        50.000  

  17958647.77349  94373330.17649       -53.05949        49.000  

  18830876.58649  98956923.68449     11622.07849        49.000    18830871.03941
  77109262.92641      9056.16441        20.000  
  19265060.43049 101238575.48049      9557.35549        50.000  

 16 04 02 12 16 46.5000000  0  5G08G22G27G32G14                                 
  19174523.53949 100762801.54749    -16928.40649        49.000  

  20140816.21149 105840702.85249     10285.19549        50.000  

  17958648.82049  94373335.67249       -57.52749        49.000  

  18830655.47749  98955761.78149     11615.96549        49.000    18830652.03141
  77108357.54341      9051.40241        20.000  
  19264878.61749 101237620.03949      9551.42649        49.000  

 16 04 02 12 16 46.6000000  0  5G08G22G27G32G14                                 
  19174845.71949 100764494.59049    -16932.14149        49.000  

  20140620.53949 105839674.58649     10280.24249        50.000  

  17958649.96149  94373341.66449       -62.39149        49.000  

  18830434.50049  98954600.53949     11609.42649        49.000    18830431.05541
  77107452.67641      9046.30541        20.000  
  19264696.92249 101236665.22349      9545.17649        50.000  

 16 04 02 12 16 46.7000000  0  5G08G22G27G32G14                                 
  19175167.96149 100766188.02049    -16936.17249        50.000  

  20140424.95349 105838646.80149     10275.23449        50.000  

  17958651.20349  94373348.14849       -67.56649        49.000  

  18830213.64849  98953439.95349     11602.65249        49.000    18830210.90641
  77106548.32041      9041.02741        20.000  
  19264515.35249 101235711.04749      9538.62149        50.000  

 16 04 02 12 16 46.8000000  0  5G08G22G27G32G14                                 
  19175490.28149 100767881.81649    -16939.75049        49.000  

  20140229.46949 105837619.50449     10270.49249        50.000  

  17958652.52349  94373355.10949       -72.23049        49.000  

  18829992.92249  98952280.01249     11596.29749        49.000    18829990.18041
  77105644.46941      9036.07441        20.000  
  19264333.89149 101234757.48849      9532.54349        50.000  

 16 04 02 12 16 46.9000000  0  5G08G22G27G32G14                                 
  19175812.66449 100769575.95349    -16943.26249        50.000  

  20140034.06249 105836592.66449     10265.79349        50.000  

  17958653.93849  94373362.53549       -77.01249        49.000  

  18829772.31249  98951120.69149     11590.05949        49.000  

  19264152.54749 101233804.53549      9526.47749        50.000  

 16 04 02 12 16 47.0000000  0  5G08G22G27G32G14                                 
  19176135.12549 100771270.50849    -16947.35549        50.000  

  20139838.75849 105835566.34449     10260.61749        50.000  

  17958655.45349  94373370.48449       -82.26649        49.000  

  18829551.83649  98949962.05549     11583.19549        49.000  

  19263971.33649 101232852.23849      9519.80949        50.000  

 16 04 02 12 16 47.1000000  0  5G08G22G27G32G14                                 
  19176457.65649 100772965.43049    -16951.14149        50.000  

  20139643.55549 105834540.51249     10255.67649        50.000  

  17958657.04749  94373378.91049       -87.02349        49.000  

  18829331.48449  98948804.07049     11576.58249        49.000  

  19263790.24249 101231900.57449      9513.44949        50.000  

 16 04 02 12 16 47.2000000  0  5G08G22G27G32G14                                 
  19176780.24249 100774660.63749    -16953.84849        50.000  

  20139448.42249 105833515.07849     10251.85249        50.000  

  17958658.73449  94373387.75049       -91.03149        49.000  

  18829111.21149  98947646.63749     11571.16049        49.000  

  19263609.24249 101230949.44549      9508.28549        50.000  

 16 04 02 12 16 47.3000000  0  5G08G22G27G32G14                                 
  19177102.91449 100776356.22349    -16957.61749        50.000  

  20139253.38349 105832490.12549     10246.94149        50.000  

  17958660.50049  94373397.07449       -95.93449        49.000  

  18828891.07849  98946489.86349     11564.67249        49.000  

  19263428.37549 101229998.94549      9501.91049        50.000  

 16 04 02 12 16 47.4000000  0  5G08G22G27G32G14                                 
  19177425.64849 100778052.21149    -16961.70749        50.000  

  20139058.43849 105831465.70349     10241.72349        50.000  

  17958662.37549  94373406.91049      -101.16849        49.000  

  18828671.08649  98945333.77749     11557.80149        49.000  

  19263247.62549 101229049.10549      9495.33249        50.000  

 16 04 02 12 16 47.5000000  0  5G08G22G27G32G14                                 
  19177748.45349 100779748.57449    -16965.28149        50.000  

  20138863.58649 105830441.76249     10236.96149        50.000  

  17958664.33649  94373417.24649      -105.83649        49.000  

  18828451.21149  98944178.33249     11551.42249        49.000  

  19263066.99249 101228099.89849      9489.09049        50.000  

 16 04 02 12 16 47.6000000  0  5G08G22G27G32G14                                 
  19178071.32849 100781445.27349    -16969.01249        50.000  

  20138668.82849 105829418.27049     10232.18449        50.000  

  17958666.39149  94373428.02049      -110.63349        49.000  

  18828231.46149  98943023.50049     11545.06649        49.000  

  19262886.46949 101227151.27049      9483.00049        50.000  

 16 04 02 12 16 47.7000000  0  5G08G22G27G32G14                                 
  19178394.27349 100783142.34449    -16972.59449        50.000  

  20138474.15649 105828395.26249     10227.52349        50.000  

  17958668.53949  94373439.29349      -115.37549        49.000  

  18828011.82849  98941869.32449     11538.65249        49.000  

  19262706.07049 101226203.27349      9476.87549        50.000  

 16 04 02 12 16 47.8000000  0  5G08G22G27G32G14                                 
  19178717.28949 100784839.78149    -16976.25449        50.000  

  20138279.57049 105827372.73449     10222.62549        50.000  

  17958670.77349  94373451.04749      -120.32449        49.000  

  18827792.32049  98940715.78949     11532.16849        49.000  

  19262525.79749 101225255.90649      9470.59849        50.000  

 16 04 02 12 16 47.9000000  0  5G08G22G27G32G14                                 
  19179040.36749 100786537.58649    -16979.89149        50.000  

  20138085.09449 105826350.68449     10218.03949        50.000  

  17958673.10249  94373463.26649      -124.80949        49.000  

  18827572.93049  98939562.89149     11525.84449        49.000  

  19262345.64149 101224309.14849      9464.53549        50.000  

 16 04 02 12 16 48.0000000  0  5G08G22G27G32G14                                 
  19179363.53149 100788235.81249    -16984.30949        50.000  

  20137890.70349 105825329.18449     10212.27349        50.000  

  17958675.53149  94373476.03549      -130.65649        49.000  

  18827353.68049  98938410.69949     11518.55149        49.000  

  19262165.60249 101223363.07849      9457.39149        50.000  

 16 04 02 12 16 48.1000000  0  5G08G22G27G32G14                                 
  19179686.75849 100789934.39849    -16987.69549        50.000  

  20137696.40649 105824308.13749     10207.94549        50.000  

  17958678.05549  94373489.27749      -135.05549        49.000  

  18827134.54749  98937259.13349     11512.41449        49.000  

  19261985.68849 101222417.60949      9451.54349        50.000  

 16 04 02 12 16 48.2000000  0  5G08G22G27G32G14                                 
  19180010.03949 100791633.27049    -16990.53949        50.000  

  20137502.18049 105823287.50049     10203.84849        50.000  

  17958680.64849  94373502.91049      -139.10249        49.000  

  18826915.51649  98936108.13749     11506.89549        49.000  

  19261805.86749 101221472.68449      9446.13749        50.000  

 16 04 02 12 16 48.3000000  0  5G08G22G27G32G14                                 
  19180333.39149 100793332.51649    -16994.08249        50.000  

  20137308.05549 105822267.35549     10199.20749        50.000  

  17958683.33649  94373517.04349      -143.85249        49.000  

  18826696.60949  98934957.78949     11500.62549        49.000  

  19261626.17249 101220528.39849      9440.04749        50.000  

 16 04 02 12 16 48.4000000  0  5G08G22G27G32G14                                 
  19180656.82049 100795032.14849    -16998.33649        50.000  

  20137114.02349 105821247.69949     10193.76649        50.000  

  17958686.12549  94373531.66849      -149.16849        49.000  

  18826477.82849  98933808.11349     11493.49649        49.000  

  19261446.60249 101219584.73849      9433.30949        50.000  

 16 04 02 12 16 48.5000000  0  5G08G22G27G32G14                                 
  19180980.32849 100796732.16049    -17001.93849        50.000  

  20136920.08649 105820228.53149     10189.12949        50.000  

  17958689.00049  94373546.77749      -153.74649        49.000  

  18826259.17249  98932659.07849     11487.25049        49.000  

  19261267.14849 101218641.71149      9427.16849        50.000  

 16 04 02 12 16 48.6000000  0  5G08G22G27G32G14                                 
  19181303.89149 100798432.50049    -17005.21149        50.000  

  20136726.23449 105819209.82049     10184.59049        50.000  

  17958691.96149  94373562.35249      -158.40649        49.000  

  18826040.64849  98931510.66449     11480.95749        49.000  

  19261087.81249 101217699.28549      9421.19149        50.000  

 16 04 02 12 16 48.7000000  0  5G08G22G27G32G14                                 
  19181627.53949 100800133.27349    -17009.65649        50.000  

  20136532.48449 105818191.65249     10178.98849        50.000  

  17958695.02349  94373578.46549      -163.89549        49.000  

  18825822.24249  98930362.94949     11473.96549        49.000  

  19260908.60249 101216757.53549      9414.39149        50.000  

 16 04 02 12 16 48.8000000  0  5G08G22G27G32G14                                 
  19181951.25849 100801834.43849    -17013.55549        50.000  

  20136338.82849 105817173.99249     10174.09049        50.000  

  17958698.18849  94373595.08649      -168.87549        49.000  

  18825603.97749  98929215.91449     11467.14549        49.000  

  19260729.53149 101215816.43449      9407.79749        49.000  

 16 04 02 12 16 48.9000000  0  5G08G22G27G32G14                                 
  19182275.02349 100803535.85549    -17015.88349        50.000  

  20136145.23449 105816156.69549     10170.36749        50.000  

  17958701.42249  94373612.07449      -172.49249        49.000  

  18825385.79749  98928069.39849     11462.01649        49.000  

  19260550.53949 101214875.83249      9402.91049        50.000  

 16 04 02 12 16 49.0000000  0  5G08G22G27G32G14                                 
  19182598.86749 100805237.67649    -17019.98849        50.000  

  20135951.75049 105815139.91049     10165.27049        50.000  

  17958704.75049  94373629.58249      -177.77349        49.000  

  18825167.75849  98926923.57449     11455.17249        49.000  

  19260371.68849 101213935.91049      9396.17649        50.000  

 16 04 02 12 16 49.1000000  0  5G08G22G27G32G14                                 
  19182922.78949 100806939.88349    -17023.78949        49.000  

  20135758.35949 105814123.63749     10160.28949        50.000  

  17958708.18049  94373647.58649      -182.60949        49.000  

  18824949.83649  98925778.40649     11448.64849        49.000  

  19260192.94549 101212996.60249      9389.98849        50.000  

 16 04 02 12 16 49.2000000  0  5G08G22G27G32G14                                 
  19183246.75849 100808642.38349    -17027.07849        50.000  

  20135565.03949 105813107.75849     10155.93449        50.000  

  17958711.68049  94373665.98849      -187.05549        49.000  

  18824732.03149  98924633.80549     11442.66049        49.000  

  19260014.31249 101212057.84849      9384.28949        50.000  

 16 04 02 12 16 49.3000000  0  5G08G22G27G32G14                                 
  19183570.82049 100810345.33249    -17031.23049        50.000  

  20135371.83649 105812092.44549     10150.68449        50.000  

  17958715.28949  94373684.96549      -192.32849        49.000  

  18824514.35949  98923489.93849     11435.66049        49.000  

  19259835.81249 101211119.82049      9377.25849        50.000  

 16 04 02 12 16 49.4000000  0  5G08G22G27G32G14                                 
  19183894.94549 100812048.61749    -17034.61749        50.000  

  20135178.71149 105811077.58249     10146.20349        50.000  

  17958718.99249  94373704.38749      -196.74249        50.000  

  18824296.80549  98922346.67249     11429.60949        49.000  

  19259657.40649 101210182.35249      9371.60949        50.000  

 16 04 02 12 16 49.5000000  0  5G08G22G27G32G14                                 
  19184219.12549 100813752.21149    -17037.82449        50.000  

  20134985.67249 105810063.15249     10141.73449        50.000  

  17958722.76649  94373724.24249      -201.32449        49.000  

  18824079.35949  98921204.00449     11423.55549        49.000  

  19259479.12549 101209245.46949      9365.77349        50.000  

 16 04 02 12 16 49.6000000  0  5G08G22G27G32G14                                 
  19184543.39149 100815456.23849    -17042.07849        50.000  

  20134792.72749 105809049.25449     10136.45349        50.000  

  17958726.64849  94373744.62949      -206.52349        49.000  

  18823862.05549  98920062.04749     11416.48849        49.000  

  19259300.97749 101208309.25849      9359.03949        50.000  

 16 04 02 12 16 49.7000000  0  5G08G22G27G32G14                                 
  19184867.72749 100817160.59449    -17045.39549        50.000  

  20134599.89149 105808035.82849     10131.72349        50.000  

  17958730.60949  94373765.48449      -211.19149        49.000  

  18823644.86749  98918920.69949     11410.29349        49.000  

  19259122.93849 101207373.65649      9352.98849        50.000  

 16 04 02 12 16 49.8000000  0  5G08G22G27G32G14                                 
  19185192.11749 100818865.30149    -17048.80549        50.000  

  20134407.12549 105807022.83249     10127.50849        50.000  

  17958734.66449  94373786.78149      -215.52749        49.000  

  18823427.78949  98917779.97349     11404.24249        49.000  

  19258945.00849 101206438.64549      9347.09849        50.000  

 16 04 02 12 16 49.9000000  0  5G08G22G27G32G14                                 
  19185516.57849 100820570.34849    -17052.28149        50.000  

  20134214.44549 105806010.31249     10122.74249        50.000  

  17958738.81249  94373808.55949      -220.25049        49.000  

  18823210.83649  98916639.87149     11397.94149        49.000  

  19258767.19549 101205504.23449      9340.96149        50.000  

 16 04 02 12 16 50.0000000  0  5G08G22G27G32G14                                 
  19185841.10949 100822275.75049    -17055.80949        50.000  

  20134021.85949 105804998.25849     10117.97349        50.000  

  17958743.04749  94373830.78549      -225.08249        49.000  

  18822994.00849  98915500.40249     11391.46149        49.000  

  19258589.50049 101204570.43049      9334.93049        50.000  

 16 04 02 12 16 50.1000000  0  5G08G22G27G32G14                                 
  19186165.71149 100823981.56249    -17059.94549        50.000  

  20133829.36749 105803986.72349     10112.77349        50.000  

  17958747.37549  94373853.54349      -230.19949        49.000  

  18822777.30549  98914361.60949     11384.79349        49.000  

  19258411.92249 101203637.28949      9328.27749        50.000  

 16 04 02 12 16 50.2000000  0  5G08G22G27G32G14                                 
  19186490.37549 100825687.68049    -17062.84449        50.000  

  20133636.96149 105802975.61749     10108.70749        50.000  

  17958751.78149  94373876.71949      -234.31649        49.000  

  18822560.71949  98913223.41049     11379.04349        49.000  

  19258234.46149 101202704.71549      9322.77749        50.000  

 16 04 02 12 16 50.3000000  0  5G08G22G27G32G14                                 
  19186815.09449 100827394.06249    -17065.42649        50.000  

  20133444.62549 105801964.88749     10104.96949        50.000  

  17958756.26649  94373900.27749      -238.09049        50.000  

  18822344.22749  98912085.75449     11373.62949        49.000  

  19258057.09449 101201772.65249      9317.76649        50.000  

 16 04 02 12 16 50.4000000  0  5G08G22G27G32G14                                 
  19187139.86749 100829100.78149    -17068.68449        50.000  

  20133252.37549 105800954.60949     10100.58249        50.000  

  17958760.83649  94373924.28949      -242.49249        49.000  

  18822127.85249  98910948.71149     11367.67249        49.000  

  19257879.84449 101200841.19149      9311.83649        50.000  

 16 04 02 12 16 50.5000000  0  5G08G22G27G32G14                                 
  19187464.71949 100830807.85549    -17072.28149        50.000  

  20133060.20349 105799944.79749     10095.82849        50.000  

  17958765.50049  94373948.76649      -247.18849        50.000  

  18821911.60249  98909812.30549     11361.13749        49.000  

  19257702.71149 101199910.34449      9305.71149        50.000  

 16 04 02 12 16 50.6000000  0  5G08G22G27G32G14                                 
  19187789.62549 100832515.26649    -17075.80149        50.000  

  20132868.13349 105798935.44149     10091.25049        50.000  

  17958770.24249  94373973.69549      -251.77349        50.000  

  18821695.46149  98908676.50049     11355.09449        49.000  

  19257525.68049 101198980.07449      9299.71949        50.000  

 16 04 02 12 16 50.7000000  0  5G08G22G27G32G14                                 
  19188114.58649 100834222.94549    -17078.11349        50.000  

  20132676.12549 105797926.46949     10087.78149        50.000  

  17958775.06249  94373999.01249      -255.18049        49.000  

  18821479.43849  98907541.26249     11349.73849        49.000  

  19257348.76649 101198050.34849      9294.69949        50.000  

 16 04 02 12 16 50.8000000  0  5G08G22G27G32G14                                 
  19188439.57849 100835930.77049    -17079.37549        50.000  

  20132484.18049 105796917.75449     10085.24249        50.000  

  17958779.92249  94374024.58249      -257.76249        50.000  

  18821263.49249  98906406.43449     11345.66849        49.000  

  19257171.91449 101197121.00449      9290.89549        50.000  

 16 04 02 12 16 50.9000000  0  5G08G22G27G32G14                                 
  19188764.60249 100837638.80149    -17081.26249        50.000  

  20132292.28149 105795909.35949     10082.35949        50.000  

  17958784.85949  94374050.48049      -260.66049        50.000  

  18821047.63349  98905272.09449     11341.11349        49.000  

  19256995.15649 101196192.13349      9286.45749        50.000  

 16 04 02 12 16 51.0000000  0  5G08G22G27G32G14                                 
  19189089.66449 100839347.00449    -17083.01649        50.000  

  20132100.43849 105794901.25049     10079.40249        50.000  

  17958789.84449  94374076.66049      -263.55149        49.000  

  18820831.87549  98904138.19949     11336.59849        49.000  

  19256818.47749 101195263.68449      9282.21949        50.000  

 16 04 02 12 16 51.1000000  0  5G08G22G27G32G14                                 
  19189414.77349 100841055.46149    -17085.61349        50.000  

  20131908.68049 105793893.52349     10075.55949        50.000  

  17958794.89149  94374103.21549      -267.43049        49.000  

  18820616.20349  98903004.85949     11331.14549        49.000  

  19256641.89849 101194335.75849      9276.87949        50.000  

 16 04 02 12 16 51.2000000  0  5G08G22G27G32G14                                 
  19189739.91449 100842764.09449    -17087.35249        50.000  

  20131716.96949 105792886.07449     10072.76649        50.000  

  17958800.00049  94374130.05949      -270.19149        49.000  

  18820400.61749  98901871.95349     11326.65249        49.000  

  19256465.41449 101193408.24649      9272.75049        50.000  

 16 04 02 12 16 51.3000000  0  5G08G22G27G32G14                                 
  19190065.08649 100844472.87549    -17088.57449        50.000  

  20131525.30549 105791878.89849     10070.33649        50.000  

  17958805.16449  94374157.16449      -272.58649        49.000  

  18820185.11749  98900739.48049     11322.55549        49.000  

  19256288.99249 101192481.14549      9268.88749        50.000  

 16 04 02 12 16 51.4000000  0  5G08G22G27G32G14                                 
  19190390.28149 100846181.78549    -17089.93849        50.000  

  20131333.69549 105790871.96949     10067.74649        50.000  

  17958810.37549  94374184.52349      -275.14849        50.000  

  18819969.68849  98899607.41049     11318.52749        49.000  

  19256112.64849 101191554.44149      9264.91449        50.000  

 16 04 02 12 16 51.5000000  0  5G08G22G27G32G14                                 
  19190715.50049 100847890.81649    -17090.91449        50.000  

  20131142.12549 105789865.26249     10065.84449        50.000  

  17958815.61749  94374212.10549      -277.04749        50.000  

  18819754.34449  98898475.74249     11314.85249        49.000  

  19255936.37549 101190628.09849      9261.57849        50.000  

 16 04 02 12 16 51.6000000  0  5G08G22G27G32G14                                 
  19191040.74249 100849599.98049    -17092.20349        50.000  

  20130950.60949 105788858.81249     10063.19949        50.000  

  17958820.91449  94374239.94149      -279.58649        50.000  

  18819539.04749  98897344.48849     11310.63349        49.000  

  19255760.17249 101189702.14849      9257.69149        50.000  

 16 04 02 12 16 51.7000000  0  5G08G22G27G32G14                                 
  19191366.00849 100851309.26249    -17093.58649        50.000  

  20130759.12549 105787852.60249     10060.73449        50.000  

  17958826.25849  94374268.01649      -282.19149        50.000  

  18819323.85949  98896213.64149     11306.41849        49.000  

  19255584.03949 101188776.58649      9253.59049        50.000  

 16 04 02 12 16 51.8000000  0  5G08G22G27G32G14                                 
  19191691.31249 100853018.73449    -17095.40249        50.000  

  20130567.70349 105786846.68049     10057.89149        50.000  

  17958831.65649  94374296.38749      -285.12149        50.000  

  18819108.75049  98895083.25049     11301.84049        49.000  

  19255408.00049 101187851.45749      9249.30549        50.000  

 16 04 02 12 16 51.9000000  0  5G08G22G27G32G14                                 
  19192016.63349 100854728.25849    -17095.93049        50.000  

  20130376.32049 105785840.94949     10055.88349        50.000  

  17958837.09449  94374324.93049      -286.88749        49.000  

  18818893.70349  98893953.19149     11298.47349        49.000  

  19255232.00849 101186926.64549      9246.10549        50.000  

 16 04 02 12 16 52.0000000  0  5G08G22G27G32G14                                 
  19192341.96949 100856437.90249    -17097.10949        50.000  

  20130184.98449 105784835.43849     10053.71549        50.000  

  17958842.56249  94374353.70349      -289.10549        49.000  

  18818678.74249  98892823.53149     11294.59849        49.000  

  19255056.09449 101186002.19149      9242.54349        50.000  

 16 04 02 12 16 52.1000000  0  5G08G22G27G32G14                                 
  19192667.33649 100858147.69549    -17098.68049        50.000  

  20129993.68049 105783830.19549     10050.91449        50.000  

  17958848.09449  94374382.75449      -291.99649        49.000  

  18818463.85949  98891694.30949     11290.08249        49.000  

  19254880.25849 101185078.16849      9238.24649        50.000  

 16 04 02 12 16 52.2000000  0  5G08G22G27G32G14                                 
  19192992.72749 100859857.62949    -17099.94549        50.000  

  20129802.43849 105782825.20749     10048.69149        50.000  

  17958853.66449  94374412.04749      -294.26249        49.000  

  18818249.05549  98890565.50049     11286.10949        49.000  

  19254704.49249 101184154.52749      9234.43049        50.000  

 16 04 02 12 16 52.3000000  0  5G08G22G27G32G14                                 
  19193318.14849 100861567.73049    -17101.77049        50.000  

  20129611.25849 105781820.50849     10045.62949        50.000  

  17958859.29749  94374441.62949      -297.21949        49.000  

  18818034.32849  98889437.12949     11281.62149        49.000  

  19254528.80549 101183231.30949      9230.14549        50.000  

 16 04 02 12 16 52.4000000  0  5G08G22G27G32G14                                 
  19193643.59449 100863277.96949    -17103.22349        50.000  

  20129420.11749 105780816.05949     10043.04349        50.000  

  17958864.97749  94374471.46549      -299.88749        49.000  

  18817819.69549  98888309.19149     11277.26249        49.000  

  19254353.20349 101182308.49649      9226.03149        50.000  

 16 04 02 12 16 52.5000000  0  5G08G22G27G32G14                                 
  19193969.05549 100864988.27349    -17103.65249        50.000  

  20129229.00849 105779811.79749     10041.43049        50.000  

  17958870.68849  94374501.48449      -301.41849        49.000  

  18817605.11749  98887181.58649     11274.14549        49.000  

  19254177.65649 101181385.99649      9223.06249        50.000  

 16 04 02 12 16 52.6000000  0  5G08G22G27G32G14                                 
  19194294.53949 100866698.72749    -17105.16449        50.000  

  20129037.95349 105778807.79349     10038.70749        50.000  

  17958876.44549  94374531.75849      -304.14849        49.000  

  18817390.61749  98886054.41849     11269.74649        49.000  

  19254002.18049 101180463.90649      9218.97749        50.000  

 16 04 02 12 16 52.7000000  0  5G08G22G27G32G14                                 
  19194620.06249 100868409.27349    -17106.02349        50.000  

  20128846.93849 105777804.00449     10036.69549        50.000  

  17958882.25849  94374562.25849      -306.14149        49.000  

  18817176.19549  98884927.62149     11266.10549        49.000  

  19253826.78149 101179542.16849      9215.59449        50.000  

 16 04 02 12 16 52.8000000  0  5G08G22G27G32G14                                 
  19194945.59449 100870119.96149    -17107.48049        50.000  

  20128655.97749 105776800.46949     10034.14549        50.000  

  17958888.10949  94374593.00049      -308.72349        49.000  

  18816961.84449  98883801.24249     11261.86749        49.000  

  19253651.46149 101178620.82049      9211.55149        50.000  

 16 04 02 12 16 52.9000000  0  5G08G22G27G32G14                                 
  19195271.14149 100871830.73849    -17108.41049        50.000  

  20128465.04749 105775797.14149     10032.03149        50.000  

  17958893.99249  94374623.94949      -310.87949        49.000  

  18816747.57049  98882675.23449     11258.11749        49.000  

  19253476.20349 101177699.82049      9208.11349        50.000  

 16 04 02 12 16 53.0000000  0  5G08G22G27G32G14                                 
  19195596.71949 100873541.66449    -17109.95749        50.000  

  20128274.17249 105774794.07849     10029.24649        50.000  

  17958899.93849  94374655.16849      -313.59449        50.000  

  18816533.39149  98881549.65249     11253.79749        49.000  

  19253301.00849 101176779.23449      9203.91849        50.000  

 16 04 02 12 16 53.1000000  0  5G08G22G27G32G14                                 
  19195922.33649 100875252.78949    -17112.13349        50.000  

  20128083.35949 105773791.33649     10025.96549        50.000  

  17958905.93049  94374686.69949      -316.84849        50.000  

  18816319.29749  98880424.55949     11248.84049        49.000  

  19253125.91449 101175859.10249      9199.23449        50.000  

 16 04 02 12 16 53.2000000  0  5G08G22G27G32G14                                 
  19196247.97749 100876964.07049    -17113.60549        50.000  

  20127892.59449 105772788.87149     10023.15649        50.000  

  17958911.98449  94374718.50849      -319.62949        50.000  

  18816105.28149  98879299.89849     11244.45349        49.000  

  19252950.89149 101174939.38749      9195.06649        50.000  

 16 04 02 12 16 53.3000000  0  5G08G22G27G32G14                                 
  19196573.65649 100878675.46149    -17114.51649        50.000  

  20127701.88349 105771786.61749     10021.18849        50.000  

  17958918.07049  94374750.53549      -321.67649        49.000  

  18815891.33649  98878175.63349     11240.65249        49.000  

  19252775.94549 101174020.03549      9191.59049        50.000  

 16 04 02 12 16 53.4000000  0  5G08G22G27G32G14                                 
  19196899.35949 100880387.04749    -17116.62949        50.000  

  20127511.21949 105770784.68049     10017.89849        50.000  

  17958924.21949  94374782.86749      -324.81249        49.000  

  18815677.48449  98877051.82049     11235.98449        49.000  

  19252601.08649 101173101.12549      9186.98449        50.000  

 16 04 02 12 16 53.5000000  0  5G08G22G27G32G14                                 
  19197225.07849 100882098.69549    -17116.96149        50.000  

  20127320.59449 105769782.92649     10016.40649        50.000  

  17958930.40649  94374815.39149      -326.30949        49.000  

  18815463.69549  98875928.37149     11232.66049        49.000  

  19252426.28149 101172182.54349      9184.08249        50.000  

 16 04 02 12 16 53.6000000  0  5G08G22G27G32G14                                 
  19197550.81249 100883810.44149    -17118.18449        50.000  

  20127130.00849 105768781.37949     10014.08249        50.000  

  17958936.63349  94374848.12549      -328.77349        50.000  

  18815249.98449  98874805.28949     11228.79749        49.000  

  19252251.55549 101171264.32049      9180.19149        50.000  

 16 04 02 12 16 53.7000000  0  5G08G22G27G32G14                                 
  19197876.59449 100885522.42249    -17120.59049        50.000  

  20126939.49249 105767780.20349     10010.35249        50.000  

  17958942.93849  94374881.21149      -332.41449        50.000  

  18815036.36749  98873682.73049     11223.48049        49.000  

  19252076.91449 101170346.59849      9175.18849        50.000  

 16 04 02 12 16 53.8000000  0  5G08G22G27G32G14                                 
  19198202.39849 100887234.55549    -17122.18449        50.000  

  20126749.02349 105766779.27749     10007.67649        50.000  

  17958949.28149  94374914.55149      -335.04749        50.000  

  18814822.82849  98872560.59449     11219.20349        49.000  

  19251902.35249 101169429.26649      9171.11349        50.000  

 16 04 02 12 16 53.9000000  0  5G08G22G27G32G14                                 
  19198528.25049 100888946.92649    -17124.85949        50.000  

  20126558.62549 105765778.71149     10003.82449        50.000  

  17958955.69549  94374948.26249      -338.96549        49.000  

  18814609.39849  98871438.98449     11213.67249        49.000  

  19251727.88349 101168512.43849      9165.85549        50.000  

 16 04 02 12 16 54.0000000  0  5G08G22G27G32G14                                 
  19198854.14849 100890659.54349    -17127.32449        50.000  

  20126368.28949 105764778.50849     10000.17649        50.000  

  17958962.18049  94374982.32449      -342.51649        49.000  

  18814396.05549  98870317.90649     11208.30949        49.000  

  19251553.51649 101167596.10549      9160.93049        50.000  

 16 04 02 12 16 54.1000000  0  5G08G22G27G32G14                                 
  19199180.07849 100892372.30149    -17128.57849        50.000  

  20126178.00849 105763778.56649      9997.73049        50.000  

  17958968.71149  94375016.65649      -345.05949        49.000  

  18814182.79749  98869197.23449     11204.31649        49.000  

  19251379.21949 101166680.18849      9156.91849        50.000  

 16 04 02 12 16 54.2000000  0  5G08G22G27G32G14                                 
  19199506.04749 100894085.27049    -17130.79749        50.000  

  20125987.78949 105762778.95349      9994.44549        50.000  

  17958975.30549  94375051.30949      -348.34849        49.000  

  18813969.63349  98868077.06649     11199.37549        49.000  

  19251205.01649 101165764.73049      9152.23849        50.000  

 16 04 02 12 16 54.3000000  0  5G08G22G27G32G14                                 
  19199832.07049 100895798.46949    -17133.09049        50.000  

  20125797.63349 105761779.69149      9990.87549        50.000  

  17958981.96149  94375086.30949      -351.82449        49.000  

  18813756.57049  98866957.41049     11194.14849        49.000  

  19251030.90649 101164849.77049      9147.23449        50.000  

 16 04 02 12 16 54.4000000  0  5G08G22G27G32G14                                 
  19200158.11749 100897511.88349    -17135.07849        50.000  

  20125607.53949 105760780.75849      9987.71549        50.000  

  17958988.68049  94375121.63349      -355.02049        50.000  

  18813543.58649  98865838.24249     11189.34449        49.000  

  19250856.88349 101163935.26649      9142.69949        50.000  

 16 04 02 12 16 54.5000000  0  5G08G22G27G32G14                                 
  19200484.22749 100899225.54349    -17137.87149        50.000  

  20125417.52349 105759782.18449      9983.66849        50.000  

  17958995.47749  94375157.32849      -359.05149        49.000  

  18813330.71949  98864719.60549     11183.77349        49.000  

  19250682.95349 101163021.27749      9137.34049        50.000  

 16 04 02 12 16 54.6000000  0  5G08G22G27G32G14                                 
  19200810.36749 100900939.43049    -17139.94149        50.000  

  20125227.56249 105758783.94949      9980.50049        50.000  

  17959002.32849  94375193.35549      -362.19549        50.000  

  18813117.95349  98863601.46949     11178.96549        49.000  

  19250509.10949 101162107.76249      9132.78149        50.000  

 16 04 02 12 16 54.7000000  0  5G08G22G27G32G14                                 
  19201136.53949 100902653.47749    -17141.38749        50.000  

  20125037.65649 105757786.00449      9978.01249        50.000  

  17959009.25049  94375229.67649      -364.76649        49.000  

  18812905.26649  98862483.79749     11174.47749        49.000  

  19250335.35949 101161194.68849      9128.61349        50.000  

 16 04 02 12 16 54.8000000  0  5G08G22G27G32G14                                 
  19201462.72749 100904367.62949    -17142.25849        50.000  

  20124847.79749 105756788.27349      9975.97749        50.000  

  17959016.19549  94375266.19949      -366.77349        49.000  

  18812692.64149  98861366.47749     11171.01249        49.000  

  19250161.67249 101160281.95349      9125.29349        50.000  

 16 04 02 12 16 54.9000000  0  5G08G22G27G32G14                                 
  19201788.96149 100906081.97749    -17144.43049        50.000  

  20124657.99249 105755790.86349      9972.54349        50.000  

  17959023.20349  94375303.04349      -370.17249        49.000  

  18812480.11749  98860249.65249     11166.05949        49.000  

  19249988.07049 101159369.68049      9120.55549        50.000  

 16 04 02 12 16 55.0000000  0  5G08G22G27G32G14                                 
  19202115.24249 100907796.60549    -17147.37149        50.000  

  20124468.27349 105754793.85249      9968.41449        50.000  

  17959030.28949  94375340.27749      -374.18049        50.000  

  18812267.69549  98859133.38749     11160.29749        49.000  

  19249814.57049 101158457.94549      9115.02349        50.000  

 16 04 02 12 16 55.1000000  0  5G08G22G27G32G14                                 
  19202441.56249 100909511.45749    -17149.79749        50.000  

  20124278.61749 105753797.18049      9964.70349        50.000  

  17959037.43849  94375377.86349      -377.89549        50.000  

  18812055.37549  98858017.62949     11154.96949        49.000  

  19249641.16449 101157546.69549      9109.98849        50.000  

 16 04 02 12 16 55.2000000  0  5G08G22G27G32G14                                 
  19202767.93849 100911226.55549    -17152.11749        50.000  

  20124089.03149 105752800.87549      9961.28549        50.000  

  17959044.65649  94375415.80549      -381.19149        50.000  

  18811843.15649  98856902.39849     11149.88749        50.000  

  19249467.85949 101156635.95749      9105.02049        50.000  

 16 04 02 12 16 55.3000000  0  5G08G22G27G32G14                                 
  19203094.35249 100912941.87149    -17154.62549        50.000  

  20123899.50049 105751804.90249      9957.56649        50.000  

  17959051.93849  94375454.09049      -385.09849        50.000  

  18811631.03149  98855787.67249     11144.50449        50.000  

  19249294.64149 101155725.69149      9099.86749        50.000  

 16 04 02 12 16 55.4000000  0  5G08G22G27G32G14                                 
  19203420.83649 100914657.55949    -17158.17249        50.000  

  20123710.06249 105750809.41849      9952.80949        50.000  

  17959059.31249  94375492.84849      -389.66849        50.000  

  18811419.03149  98854673.58249     11138.28549        50.000  

  19249121.54749 101154816.03949      9093.93849        50.000  

 16 04 02 12 16 55.5000000  0  5G08G22G27G32G14                                 
  19203747.36749 100916373.46949    -17160.56249        50.000  

  20123520.68849 105749814.28149      9949.27349        50.000  

  17959066.75849  94375531.96549      -393.35949        50.000  

  18811207.12549  98853560.02049     11132.91049        50.000  

  19248948.53949 101153906.89849      9088.71149        50.000  

 16 04 02 12 16 55.6000000  0  5G08G22G27G32G14                                 
  19204073.94549 100918089.64149    -17163.00849        50.000  

  20123331.39149 105748819.51649      9945.74649        50.000  

  17959074.26649  94375571.44149      -396.83649        50.000  

  18810995.30549  98852446.98049     11127.73449        50.000  

  19248775.62549 101152998.25049      9083.88349        50.000  

 16 04 02 12 16 55.7000000  0  5G08G22G27G32G14                                 
  19204400.57049 100919806.07849    -17165.79349        50.000  

  20123142.16449 105747825.14549      9941.53949        50.000  

  17959081.85949  94375611.30949      -400.90249        50.000  

  18810783.60949  98851334.50049     11122.03549        50.000  

  19248602.82049 101152090.14149      9078.37549        50.000  

 16 04 02 12 16 55.8000000  0  5G08G22G27G32G14                                 
  19204727.25849 100921522.82049    -17168.89549        50.000  

  20122953.02349 105746831.18849      9937.26249        50.000  

  17959089.52349  94375651.60249      -405.27049        50.000  

  18810572.02349  98850222.59849     11116.20349        50.000  

  19248430.11749 101151182.58649      9072.77349        50.000  

 16 04 02 12 16 55.9000000  0  5G08G22G27G32G14                                 
  19205053.99249 100923239.84049    -17171.49249        50.000  

  20122763.96149 105745837.63349      9933.56249        50.000  

  17959097.26649  94375692.28149      -408.97749        50.000  

  18810360.54749  98849111.26649     11110.66049        50.000  

  19248257.52349 101150275.58249      9067.48049        50.000  

 16 04 02 12 16 56.0000000  0  5G08G22G27G32G14                                 
  19205380.78149 100924957.14549    -17174.37949        50.000  

  20122574.96949 105744844.46949      9929.47349        50.000  

  17959105.08649  94375733.36749      -413.10249        50.000  

  18810149.17249  98848000.48849     11105.02749        49.000  

  19248085.02349 101149369.10549      9062.05149        50.000  

 16 04 02 12 16 56.1000000  0  5G08G22G27G32G14                                 
  19205707.64149 100926674.76249    -17177.62949        50.000  

  20122386.07049 105743851.75449      9924.97749        50.000  

  17959112.98449  94375774.87549      -417.46949        50.000  

  18809937.91449  98846890.31249     11098.93049        50.000  

  19247912.64149 101148463.21549      9056.09449        50.000  

 16 04 02 12 16 56.2000000  0  5G08G22G27G32G14                                 
  19206034.55549 100928392.70349    -17181.00049        50.000  

  20122197.24249 105742859.46949      9920.52049        50.000  

  17959120.96949  94375816.83249      -422.05549        50.000  

  18809726.76649  98845780.74249     11092.68449        50.000  

  19247740.35949 101147557.88749      9050.33249        50.000  

 16 04 02 12 16 56.3000000  0  5G08G22G27G32G14                                 
  19206361.50849 100930110.83649    -17182.58649        50.000  

  20122008.47749 105741867.50449      9917.66449        50.000  

  17959129.01649  94375859.09049      -424.55949        50.000  

  18809515.71149  98844671.64549     11088.34849        50.000  

  19247568.17249 101146653.02749      9046.03549        50.000  

 16 04 02 12 16 56.4000000  0  5G08G22G27G32G14                                 
  19206688.50049 100931829.19949    -17184.74649        50.000  

  20121819.77349 105740875.88349      9914.30149        50.000  

  17959137.12549  94375901.69949      -428.10549        50.000  

  18809304.75049  98843563.05949     11083.40649        50.000  

  19247396.07049 101145748.65249      9041.33249        50.000  

 16 04 02 12 16 56.5000000  0  5G08G22G27G32G14                                 
  19207015.56249 100933547.89849    -17188.30949        50.000  

  20121631.16449 105739884.71149      9909.68049        50.000  

  17959145.32049  94375944.76649      -432.75049        50.000  

  18809093.91449  98842455.09049     11077.02749        49.000  

  19247224.08649 101144844.87149      9035.21149        50.000  

 16 04 02 12 16 56.6000000  0  5G08G22G27G32G14                                 
  19207342.67249 100935266.87549    -17191.04749        50.000  

  20121442.62549 105738893.93449      9905.93449        50.000  

  17959153.58649  94375988.21149      -436.44949        50.000  

  18808883.18849  98841347.66849     11071.62549        49.000  

  19247052.20349 101143941.61349      9030.08249        50.000  

 16 04 02 12 16 56.7000000  0  5G08G22G27G32G14                                 
  19207669.82049 100936986.10549    -17193.94149        50.000  

  20121254.15649 105737903.54749      9901.47749        50.000  

  17959161.93849  94376032.04749      -440.85549        50.000  

  18808672.56249  98840240.80949     11065.75449        49.000  

  19246880.42249 101143038.89849      9024.29349        50.000  

 16 04 02 12 16 56.8000000  0  5G08G22G27G32G14                                 
  19207997.04749 100938705.68449    -17197.09449        50.000  

  20121065.78149 105736913.62149      9897.30949        50.000  

  17959170.36749  94376076.33649      -444.92249        49.000  

  18808462.04749  98839134.57049     11059.74249        49.000  

  19246708.75049 101142136.77049      9018.66449        50.000  

 16 04 02 12 16 56.9000000  0  5G08G22G27G32G14                                 
  19208324.31249 100940425.47749    -17199.51249        50.000  

  20120877.46149 105735924.02049      9893.66849        50.000  

  17959178.85249  94376120.96149      -448.59849        49.000  

  18808251.63349  98838028.82449     11054.60249        49.000  

  19246537.17249 101141235.11749      9013.66449        50.000  

 16 04 02 12 16 57.0000000  0  5G08G22G27G32G14                                 
  19208651.64149 100942145.59449    -17202.59049        50.000  

  20120689.23449 105734934.86349      9889.50449        50.000  

  17959187.43049  94376166.02749      -452.84849        50.000  

  18808041.32849  98836923.69149     11048.64549        49.000  

  19246365.70349 101140334.06249      9007.85549        50.000  

 16 04 02 12 16 57.1000000  0  5G08G22G27G32G14                                 
  19208979.00849 100943865.91849    -17204.73849        50.000  

  20120501.06249 105733946.03549      9886.01249        50.000  

  17959196.05549  94376211.41449      -456.25449        50.000  

  18807831.11749  98835819.03549     11043.67649        49.000  

  19246194.32049 101139433.45349      9003.21549        50.000  

 16 04 02 12 16 57.2000000  0  5G08G22G27G32G14                                 
  19209306.44549 100945586.60949    -17208.19149        50.000  

  20120312.98449 105732957.69149      9881.43049        50.000  

  17959204.78949  94376257.28149      -460.87549        49.000  

  18807621.03149  98834715.03549     11037.32049        49.000  

  19246023.06249 101138533.48049      8997.16849        50.000  

 16 04 02 12 16 57.3000000  0  5G08G22G27G32G14                                 
  19209633.93049 100947307.52349    -17210.57049        50.000  

  20120124.97749 105731969.70749      9877.58249        50.000  

  17959213.58649  94376303.50849      -464.54349        50.000  

  18807411.04749  98833611.55549     11032.07449        49.000  

  19245851.89149 101137634.00449      8991.95349        50.000  

 16 04 02 12 16 57.4000000  0  5G08G22G27G32G14                                 
  19209961.46949 100949028.74249    -17213.47349        50.000  

  20119937.04749 105730982.12549      9873.88749        50.000  

  17959222.45349  94376350.12949      -468.41049        50.000  

  18807201.17249  98832508.64549     11026.48049        49.000  

  19245680.82849 101136735.06249      8986.83249        50.000  

 16 04 02 12 16 57.5000000  0  5G08G22G27G32G14                                 
  19210289.07049 100950750.28549    -17217.10249        50.000  

  20119749.20349 105729994.98849      9869.03149        50.000  

  17959231.40649  94376397.20749      -473.18449        50.000  

  18806991.40649  98831406.34449     11020.09449        49.000  

  19245509.88349 101135836.72349      8980.53149        50.000  

 16 04 02 12 16 57.6000000  0  5G08G22G27G32G14                                 
  19210616.71949 100952472.10549    -17219.70349        50.000  

  20119561.43849 105729008.27049      9865.04349        50.000  

  17959240.43849  94376444.67649      -476.89549        50.000  

  18806781.75849  98830304.61349     11014.50849        49.000  

  19245339.03949 101134938.92649      8975.15649        50.000  

 16 04 02 12 16 57.7000000  0  5G08G22G27G32G14                                 
  19210944.42249 100954194.23449    -17222.82049        50.000  

  20119373.73449 105728021.95349      9860.83649        50.000  

  17959249.55549  94376492.56649      -481.22349        50.000  

  18806572.21149  98829203.44949     11008.75049        49.000  

  19245168.29749 101134041.68449      8969.54749        50.000  

 16 04 02 12 16 57.8000000  0  5G08G22G27G32G14                                 
  19211272.18849 100955916.64849    -17225.54749        50.000  

  20119186.12549 105727036.06649      9856.87149        50.000  

  17959258.75049  94376540.87949      -485.23849        50.000  

  18806362.78149  98828102.89149     11002.94949        49.000  

  19244997.66449 101133145.00049      8964.12949        50.000  

 16 04 02 12 16 57.9000000  0  5G08G22G27G32G14                                 
  19211600.00049 100957639.34849    -17228.40649        50.000  

  20118998.58649 105726050.57049      9852.78949        50.000  

  17959268.01649  94376589.57449      -489.29749        50.000  

  18806153.45349  98827002.87949     10997.27349        49.000  

  19244827.13349 101132248.85249      8958.72349        50.000  

 16 04 02 12 16 58.0000000  0  5G08G22G27G32G14                                 
  19211927.87549 100959362.34449    -17231.21949        50.000  

  20118811.13349 105725065.48049      9848.81249        50.000  

  17959277.35949  94376638.68449      -493.17649        50.000  

  18805944.23449  98825903.43449     10991.71949        49.000  

  19244656.69549 101131353.24649      8953.43449        50.000  

 16 04 02 12 16 58.1000000  0  5G08G22G27G32G14                                 
  19212255.80549 100961085.60949    -17234.07049        50.000  

  20118623.75049 105724080.80149      9844.63749        50.000  

  17959286.77349  94376688.18849      -497.35249        50.000  

  18805735.12549  98824804.56649     10985.93849        49.000  

  19244486.37549 101130458.20349      8947.74249        50.000  

 16 04 02 12 16 58.2000000  0  5G08G22G27G32G14                                 
  19212583.79749 100962809.20749    -17237.51649        50.000  

  20118436.45349 105723096.56249      9840.12149        50.000  

  17959296.28149  94376738.14149      -501.89849        50.000  

  18805526.14149  98823706.30549     10979.75849        49.000  

  19244316.15649 101129563.73049      8941.82849        50.000  

 16 04 02 12 16 58.3000000  0  5G08G22G27G32G14                                 
  19212911.83649 100964533.09049    -17240.29349        50.000  

  20118249.23449 105722112.72749      9836.15249        50.000  

  17959305.85949  94376788.49249      -505.80149        50.000  

  18805317.25849  98822608.61349     10974.05549        49.000  

  19244146.04749 101128669.80549      8936.45749        50.000  

 16 04 02 12 16 58.4000000  0  5G08G22G27G32G14                                 
  19213239.94549 100966257.32849    -17244.00849        50.000  

  20118062.10949 105721129.37949      9831.15649        50.000  

  17959315.53149  94376839.32449      -510.72749        49.000  

  18805108.50049  98821511.56249     10967.51249        49.000  

  19243976.06249 101127776.50049      8930.16049        50.000  

 16 04 02 12 16 58.5000000  0  5G08G22G27G32G14                                 
  19213568.11749 100967981.86349    -17247.12149        50.000  

  20117875.05549 105720146.43449      9826.91449        50.000  

  17959325.28149  94376890.56649      -515.10549        49.000  

  18804899.84449  98820415.08249     10961.67649        49.000  

  19243806.17249 101126883.74649      8924.50849        50.000  

 16 04 02 12 16 58.6000000  0  5G08G22G27G32G14                                 
  19213896.35249 100969706.75049    -17250.31649        50.000  

  20117688.10249 105719163.97349      9822.44949        50.000  

  17959335.12549  94376942.27749      -519.38349        50.000  

  18804691.32049  98819319.24649     10955.53549        49.000  

  19243636.41449 101125991.61749      8918.50849        50.000  

 16 04 02 12 16 58.7000000  0  5G08G22G27G32G14                                 
  19214224.63349 100971431.88749    -17253.05949        50.000  

  20117501.21949 105718181.87549      9818.52049        50.000  

  17959345.03949  94376994.35949      -523.28549        49.000  

  18804482.89149  98818223.94549     10949.84449        49.000  

  19243466.74249 101125099.98849      8913.28549        50.000  

 16 04 02 12 16 58.8000000  0  5G08G22G27G32G14                                 
  19214552.96949 100973157.30549    -17255.66849        49.000  

  20117314.40649 105717200.17649      9814.73049        50.000  

  17959355.02349  94377046.82849      -527.09049        50.000  

  18804274.57849  98817129.19149     10944.64149        49.000  

  19243297.17249 101124208.89849      8908.04749        50.000  

 16 04 02 12 16 58.9000000  0  5G08G22G27G32G14                                 
  19214881.36749 100974883.05149    -17258.93049        50.000  

  20117127.68849 105716218.94149      9810.14149        50.000  

  17959365.09449  94377099.75849      -531.55549        49.000  

  18804066.37549  98816035.07049     10938.52749        49.000  

  19243127.71949 101123318.40649      8902.17249        50.000  

 16 04 02 12 16 59.0000000  0  5G08G22G27G32G14                                 
  19215209.82849 100976609.12549    -17262.22349        50.000  

  20116941.04749 105715238.12549      9805.85549        50.000  

  17959375.25049  94377153.12149      -535.98849        50.000  

  18803858.27349  98814941.54749     10932.35549        49.000  

  19242958.37549 101122428.49249      8896.34449        50.000  

 16 04 02 12 16 59.1000000  0  5G08G22G27G32G14                                 
  19215538.33649 100978335.44949    -17264.82449        50.000  

  20116754.47749 105714257.71149      9801.77349        50.000  

  17959385.47749  94377206.85549      -539.95749        49.000  

  18803650.28949  98813848.57049     10926.86349        49.000  

  19242789.12549 101121539.09849      8891.00849        50.000  

 16 04 02 12 16 59.2000000  0  5G08G22G27G32G14                                 
  19215866.92249 100980062.17249    -17268.55949        50.000  

  20116568.00049 105713277.79349      9797.12949        50.000  

  17959395.79749  94377261.10549      -544.61349        50.000  

  18803442.43049  98812756.26649     10920.37949        49.000  

  19242620.00849 101120650.35249      8884.81649        50.000  

 16 04 02 12 16 59.3000000  0  5G08G22G27G32G14                                 
  19216195.55549 100981789.16049    -17271.38749        49.000  

  20116381.60949 105712298.27349      9793.02749        50.000  

  17959406.18849  94377315.73849      -548.58249        49.000  

  18803234.68049  98811664.51649     10914.69549        49.000  

  19242450.98449 101119762.14149      8879.35549        50.000  

 16 04 02 12 16 59.4000000  0  5G08G22G27G32G14                                 
  19216524.25849 100983516.50849    -17275.14849        50.000  

  20116195.30549 105711319.23049      9788.03949        50.000  

  17959416.68049  94377370.85549      -553.70749        50.000  

  18803027.04749  98810573.40649     10908.03549        49.000  

  19242282.07849 101118874.54749      8872.96949        50.000  

 16 04 02 12 16 59.5000000  0  5G08G22G27G32G14                                 
  19216853.03149 100985244.17649    -17278.41049        50.000  

  20116009.09449 105710340.63749      9783.62149        50.000  

  17959427.25049  94377426.41449      -558.07449        49.000  

  18802819.53149  98809482.91449     10901.94149        49.000  

  19242113.28949 101117987.55549      8866.92649        50.000  

 16 04 02 12 16 59.6000000  0  5G08G22G27G32G14                                 
  19217181.84449 100986972.08649    -17280.58249        50.000  

  20115822.93849 105709362.39549      9780.16049        50.000  

  17959437.89149  94377482.31649      -561.32849        50.000  

  18802612.11749  98808392.93049     10896.97749        49.000  

  19241944.59449 101117101.03149      8862.41449        50.000  

 16 04 02 12 16 59.7000000  0  5G08G22G27G32G14                                 
  19217510.73449 100988700.39149    -17284.66849        50.000  

  20115636.89149 105708384.67649      9774.93049        50.000  

  17959448.62549  94377538.73449      -566.59849        49.000  

  18802404.83649  98807303.63749     10889.96949        49.000  

  19241776.01649 101116215.18049      8855.64849        50.000  

 16 04 02 12 16 59.8000000  0  5G08G22G27G32G14                                 
  19217839.67249 100990428.97749    -17287.42649        50.000  

  20115450.90649 105707407.35549      9770.98049        50.000  

  17959459.43849  94377595.56249      -570.60949        49.000  

  18802197.64849  98806214.90249     10884.36749        49.000  

  19241607.54749 101115329.87149      8850.15649        50.000  

 16 04 02 12 16 59.9000000  0  5G08G22G27G32G14                                 
  19218168.65649 100992157.84449    -17290.31249        50.000  

  20115265.00849 105706430.44149      9766.75449        50.000  

  17959470.32849  94377652.78549      -574.67649        49.000  

  18801990.57849  98805126.73449     10878.71149        49.000  

  19241439.18049 101114445.10549      8844.69149        50.000  

 16 04 02 12 17  0.0000000  0  5G08G22G27G32G14                                 
  19218497.72749 100993887.09449    -17294.21549        50.000  

  20115079.20349 105705454.02349      9761.73049        50.000  

  17959481.30549  94377710.50049      -579.66449        49.000  

  18801783.64149  98804039.22749     10872.08649        49.000  

  19241270.93049 101113560.97749      8838.25049        50.000  

 16 04 02 12 17  0.1000000  0  5G08G22G27G32G14                                 
  19218826.85249 100995616.66849    -17297.34449        50.000  

  20114893.47749 105704478.05549      9757.30549        50.000  

  17959492.38349  94377768.66449      -584.04749        49.000  

  18801576.81249  98802952.34049     10865.87149        49.000  

  19241102.80549 101112677.43849      8832.46949        50.000  

 16 04 02 12 17  0.2000000  0  5G08G22G27G32G14                                 
  19219156.04749 100997346.58649    -17300.71149        50.000  

  20114707.84449 105703502.54749      9752.67249        50.000  

  17959503.53949  94377827.29349      -588.68049        50.000  

  18801370.10249  98801866.07849     10859.63349        49.000  

  19240934.78949 101111794.50449      8826.44949        50.000  

 16 04 02 12 17  0.3000000  0  5G08G22G27G32G14                                 
  19219485.28949 100999076.76649    -17303.55549        50.000  

  20114522.28949 105702527.44949      9748.56649        50.000  

  17959514.77349  94377886.30949      -592.66049        50.000  

  18801163.50049  98800780.37149     10854.02349        49.000  

  19240766.87549 101110912.10549      8820.95349        50.000  

 16 04 02 12 17  0.4000000  0  5G08G22G27G32G14                                 
  19219814.60949 101000807.33649    -17307.19149        50.000  

  20114336.82049 105701552.82849      9743.88749        50.000  

  17959526.09449  94377945.81249      -597.39549        50.000  

  18800957.02349  98799695.32049     10847.63349        49.000  

  19240599.07849 101110030.33649      8814.88749        50.000  

 16 04 02 12 17  0.5000000  0  5G08G22G27G32G14                                 
  19220143.96949 101002538.14549    -17309.69149        50.000  

  20114151.43049 105700578.57849      9740.02349        50.000  

  17959537.48449  94378005.68449      -601.27749        50.000  

  18800750.64849  98798610.80149     10842.23849        49.000  

  19240431.37549 101109149.08249      8809.56649        50.000  

 16 04 02 12 17  0.6000000  0  5G08G22G27G32G14                                 
  19220473.40649 101004269.36349    -17313.94549        50.000  

  20113966.13349 105699604.86349      9734.55149        50.000  

  17959548.97749  94378066.08249      -606.71149        50.000  

  18800544.40649  98797526.98049     10835.18449        49.000  

  19240263.80549 101108268.48449      8802.84849        50.000  

 16 04 02 12 17  0.7000000  0  5G08G22G27G32G14                                 
  19220802.92249 101006000.98449    -17317.95349        50.000  

  20113780.93849 105698631.66849      9729.50449        50.000  

  17959560.57049  94378127.00049      -611.80949        50.000  

  18800338.28949  98796443.84849     10828.25449        49.000  

  19240096.35949 101107388.56649      8796.14849        50.000  

 16 04 02 12 17  0.8000000  0  5G08G22G27G32G14                                 
  19221132.49249 101007732.87549    -17320.61349        50.000  

  20113595.82049 105697658.87149      9725.51249        50.000  

  17959572.23449  94378188.30549      -615.53949        50.000  

  18800132.26649  98795361.25849     10822.82849        49.000  

  19239929.01649 101106509.16449      8791.00449        50.000  

 16 04 02 12 17  0.9000000  0  5G08G22G27G32G14                                 
  19221462.10949 101009465.08649    -17323.69149        50.000  

  20113410.79749 105696686.50849      9721.35249        50.000  

  17959583.98449  94378250.05149      -619.82049        49.000  

  18799926.37549  98794279.28149     10816.88349        49.000  

  19239761.78949 101105630.36749      8785.11349        49.000  

 16 04 02 12 17  1.0000000  0  5G08G22G27G32G14                                 
  19221791.79749 101011197.59049    -17326.78549        50.000  

  20113225.83649 105695714.56249      9716.93049        50.000  

  17959595.81249  94378312.21149      -624.11349        50.000  

  18799720.59449  98793197.89149     10810.88349        49.000  

  19239594.65649 101104752.10249      8779.73449        50.000  

 16 04 02 12 17  1.1000000  0  5G08G22G27G32G14                                 
  19222121.56249 101012930.50049    -17330.86749        50.000  

  20113040.98449 105694743.15649      9711.63749        50.000  

  17959607.75049  94378374.89149      -629.35549        49.000  

  18799514.94549  98792117.18049     10804.00849        49.000  

  19239427.65649 101103874.51649      8772.83249        50.000  

 16 04 02 12 17  1.2000000  0  5G08G22G27G32G14                                 
  19222451.38349 101014663.75849    -17334.53149        50.000  

  20112856.21949 105693772.20349      9706.90249        50.000  

  17959619.76649  94378438.03949      -634.16049        50.000  

  18799309.41449  98791037.10549     10797.50849        49.000  

  19239260.76649 101102997.53949      8766.51649        50.000  

 16 04 02 12 17  1.3000000  0  5G08G22G27G32G14                                 
  19222781.28149 101016397.34849    -17337.80949        50.000  

  20112671.53949 105692801.71549      9702.23449        50.000  

  17959631.86749  94378501.64149      -638.72349        50.000  

  18799104.00049  98789957.65249     10791.34049        49.000  

  19239094.00049 101102121.15649      8760.60549        50.000  

 16 04 02 12 17  1.4000000  0  6G08G22G27G32G21G14                              
  19223111.23449 101018131.26649    -17340.85949        50.000  

  20112486.93849 105691831.66449      9697.95749        50.000  

  17959644.05549  94378565.67249      -642.88349        50.000  

  18798898.71149  98788878.79749     10785.52749        49.000  

  22560159.57049 118554438.21959      -504.77349        48.000  

  19238927.34449 101101245.35249      8755.04749        50.000  

 16 04 02 12 17  1.5000000  0  7G08G22G27G32G21G01G14                           
  19223441.25849 101019865.56249    -17344.84049        50.000  

  20112302.44549 105690862.12949      9692.75049        50.000  

  17959656.33649  94378630.21549      -648.05549        50.000  

  18798693.53949  98787800.62949     10778.55949        49.000  

  22560169.19549 118554488.80549      -506.69149        48.000  

  23122960.25849 121511975.92659    -15761.79349        48.000  

  19238760.81249 101100370.20349      8748.42649        50.000  

 16 04 02 12 17  1.9000000  0  9G18G08G10G22G27G32G21G01G14                     
  24459196.44549 128533943.83659    -28303.66049        48.000  

  21003096.23449 110372015.60949    -17357.50449        50.000  

  21497241.96949 112968768.50459    -27723.24249        50.000  

  21889930.07849 115032358.40649      9675.27049        50.000  

  19738059.40649 103724201.44549      -665.46149        50.000  

  20576240.00849 108128870.37949     10754.09049        49.000  

  24338561.26649 127900002.00449      -511.86349        48.000  

  24902496.26649 130863500.82449    -15767.94949        48.000  

  21016459.48449 110442239.78949      8725.51249        50.000  

 16 04 02 12 17  2.0000000  0  9G18G08G10G22G27G32G21G01G14                     
  24459735.07049 128536774.32449    -28305.60949        48.000  

  21003426.58649 110373751.59049    -17361.38749        50.000  

  21497769.57849 112971541.08249    -27727.64849        50.000  

  21889746.01649 115031391.14849      9670.28149        50.000  

  19738072.11749 103724268.25049      -670.39149        50.000  

  20576035.43049 108127795.30149     10747.40649        49.000  

  24338571.01649 127900053.31249      -513.77349        48.000  

  24902796.33649 130865077.72349    -15769.83249        48.000  

  21016293.51649 110441367.60949      8719.04749        50.000  

 16 04 02 12 17  2.1000000  0  9G18G08G10G22G27G32G21G01G14                     
  24460273.71149 128539604.97749    -28307.52349        48.000  

  21003757.00049 110375487.91449    -17365.07449        50.000  

  21498297.25849 112974314.07849    -27732.11749        50.000  

  21889562.03949 115030424.36749      9665.26649        50.000  

  19738084.92249 103724335.53549      -675.48849        49.000  

  20575830.96149 108126720.84449     10740.86749        49.000  

  24338580.81249 127900104.78549      -515.70749        48.000  

  24903096.46149 130866654.82049    -15772.03149        48.000  

  21016127.66449 110440496.05549      8712.52749        50.000  

 16 04 02 12 17  2.2000000  0  9G18G08G10G22G27G32G21G01G14                     
  24460812.39849 128542435.82049    -28309.49649        48.000  

  21004087.48449 110377224.63749    -17369.04749        50.000  

  21498825.03149 112977087.54349    -27736.82849        50.000  

  21889378.16449 115029458.09449      9660.16049        50.000  

  19738097.82049 103724403.30949      -680.41049        49.000  

  20575626.64149 108125647.07049     10733.98449        49.000  

  24338590.61749 127900156.44549      -517.58649        48.000  

  24903396.60949 130868232.13349    -15774.23449        48.000  

  21015961.93849 110439625.14849      8705.89549        50.000  

 16 04 02 12 17  2.3000000  0  9G18G08G10G22G27G32G21G01G14                     
  24461351.14849 128545266.80949    -28310.53949        48.000  

  21004418.03949 110378961.70349    -17372.26249        50.000  

  21499352.85949 112979861.40649    -27740.55549        50.000  

  21889194.38349 115028492.31249      9655.62949        50.000  

  19738110.81249 103724471.57849      -684.94549        50.000  

  20575422.43049 108124573.93449     10728.07449        49.000  

  24338600.47749 127900208.25449      -518.75449        48.000  

  24903696.80549 130869809.62549    -15775.61749        48.000  

  21015796.32049 110438754.83649      8700.28549        50.000  

 16 04 02 12 17  2.4000000  0  9G18G08G10G22G27G32G21G01G14                     
  24461889.89149 128548097.93849    -28312.14849        48.000  

  21004748.64849 110380699.08649    -17375.53549        50.000  

  21499880.78149 112982635.66049    -27744.62949        50.000  

  21889010.68049 115027526.93849      9651.20349        50.000  

  19738123.88349 103724540.25849      -689.45349        50.000  

  20575218.32849 108123501.40249     10721.62949        49.000  

  24338610.36749 127900260.19149      -520.18049        48.000  

  24903997.01649 130871387.27049    -15777.41849        48.000  

  21015630.82049 110437885.11749      8694.32049        50.000  

 16 04 02 12 17  2.5000000  0  9G18G08G10G22G27G32G21G01G14                     
  24462428.67249 128550929.27349    -28314.34449        48.000  

  21005079.34449 110382436.88749    -17379.73849        50.000  

  21500408.81249 112985410.39149    -27749.44149        50.000  

  21888827.08649 115026562.12949      9645.63349        50.000  

  19738137.04749 103724609.48449      -694.89849        50.000  

  20575014.35949 108122429.56249     10714.54749        49.000  

  24338620.28949 127900312.34849      -522.45749        48.000  

  24904297.30549 130872965.14849    -15779.83249        48.000  

  21015465.44549 110437016.07849      8687.41449        50.000  

 16 04 02 12 17  2.6000000  0  9G18G08G10G22G27G32G21G01G14                     
  24462967.48449 128553760.76249    -28315.57049        48.000  

  21005410.10249 110384175.02749    -17382.98849        50.000  

  21500936.90649 112988185.53549    -27753.44549        50.000  

  21888643.57049 115025597.76249      9641.33249        50.000  

  19738150.30549 103724679.16049      -699.07449        50.000  

  20574810.51649 108121358.35249     10708.77349        49.000  

  24338630.23449 127900364.64849      -523.69949        48.000  

  24904597.59449 130874543.19949    -15781.41449        48.000  

  21015300.18049 110436147.63349      8681.59049        50.000  

 16 04 02 12 17  2.7000000  0  9G18G08G10G22G27G32G21G01G14                     
  24463506.31249 128556592.37549    -28316.80549        48.000  

  21005740.93049 110385913.49649    -17386.34849        50.000  

  21501465.09449 112990961.05549    -27757.26649        50.000  

  21888460.14149 115024633.85249      9636.72749        50.000  

  19738163.64149 103724749.28149      -703.77749        50.000  

  20574606.78949 108120287.75849     10702.41449        49.000  

  24338640.21149 127900417.08249      -525.11349        48.000  

  24904897.96149 130876121.40249    -15782.94949        48.000  

  21015135.03149 110435279.77049      8675.75849        50.000  

 16 04 02 12 17  2.8000000  0  9G18G08G10G22G27G32G21G01G14                     
  24464045.16449 128559424.08649    -28317.62549        48.000  

  21006071.80549 110387652.23849    -17388.85549        50.000  

  21501993.32049 112993736.92649    -27760.43849        50.000  

  21888276.78949 115023670.34049      9633.09849        50.000  

  19738177.06249 103724819.80949      -707.34049        50.000  

  20574403.18049 108119217.71949     10697.22349        49.000  

  24338650.20349 127900469.59849      -525.60249        48.000  

  24905198.30549 130877699.71949    -15783.68849        48.000  

  21014969.99249 110434412.46949      8670.41849        50.000  

 16 04 02 12 17  2.9000000  0  9G18G08G10G22G27G32G21G01G14                     
  24464584.03949 128562255.86749    -28318.42249        48.000  

  21006402.72749 110389391.25449    -17391.55549        50.000  

  21502521.64149 112996513.14149    -27763.96549        50.000  

  21888093.51649 115022707.23449      9628.94149        50.000  

  19738190.56249 103724890.71949      -711.34449        49.000  

  20574199.66449 108118148.24649     10691.39849        49.000  

  24338660.21149 127900522.19549      -526.59049        48.000  

  24905498.68049 130879278.13749    -15784.81249        48.000  

  21014805.04749 110433545.68449      8665.19149        50.000  

 16 04 02 12 17  3.0000000  0  9G18G08G10G22G27G32G21G01G14                     
  24465122.93049 128565087.76249    -28319.37949        48.000  

  21006733.70349 110391130.57049    -17394.38349        50.000  

  21503050.00849 112999289.72349    -27767.43049        50.000  

  21887910.32849 115021744.55149      9624.90649        50.000  

  19738204.13349 103724962.06249      -715.36749        50.000  

  20573996.25849 108117079.35549     10685.87149        49.000  

  24338670.22749 127900574.90249      -527.48049        48.000  

  24905799.07049 130880856.68449    -15785.91049        48.000  

  21014640.21149 110432679.48849      8659.45349        50.000  

 16 04 02 12 17  3.1000000  0  9G18G08G10G22G27G32G21G01G14                     
  24465661.85249 128567919.69549    -28319.78949        48.000  

  21007064.73449 110392870.13349    -17396.91849        50.000  

  21503578.43849 113002066.60249    -27770.39849        50.000  

  21887727.20349 115020782.22349      9621.34449        50.000  

  19738217.77349 103725033.75049      -718.94149        50.000  

  20573792.95349 108116011.00049     10680.57449        50.000  

  24338680.26649 127900627.64149      -527.80949        48.000  

  24906099.50049 130882435.30549    -15786.75049        48.000  

  21014475.46949 110431813.76249      8654.67249        50.000  

 16 04 02 12 17  3.2000000  0  9G18G08G10G22G27G32G21G01G14                     
  24466200.76649 128570751.71949    -28320.92249        48.000  

  21007395.81249 110394609.97349    -17399.89149        50.000  

  21504106.93049 113004843.84049    -27774.32849        50.000  

  21887544.15649 115019820.30549      9616.99649        50.000  

  19738231.49249 103725105.84449      -723.38749        49.000  

  20573589.75849 108114943.20349     10674.52049        49.000  

  24338690.33649 127900680.48049      -529.06249        48.000  

  24906399.92249 130884014.02749    -15788.05149        48.000  

  21014310.84449 110430948.60249      8648.93849        50.000  

 16 04 02 12 17  3.3000000  0  9G18G08G10G22G27G32G21G01G14                     
  24466739.73449 128573583.94149    -28322.78549        48.000  

  21007726.96949 110396350.20749    -17403.76649        50.000  

  21504635.50849 113007621.53149    -27778.75849        50.000  

  21887361.21149 115018858.90249      9611.85949        50.000  

  19738245.31249 103725178.46149      -728.43449        49.000  

  20573386.68849 108113876.09849     10667.85949        49.000  

  24338700.43049 127900733.52049      -530.93849        48.000  

  24906700.39849 130885592.98849    -15790.33649        48.000  

  21014146.32849 110430084.09449      8642.48449        50.000  

 16 04 02 12 17  3.4000000  0  9G18G08G10G22G27G32G21G01G14                     
  24467278.70349 128576416.23849    -28323.62549        48.000  

  21008058.17249 110398090.69549    -17406.35249        50.000  

  21505164.14849 113010399.55549    -27782.13749        50.000  

  21887178.33649 115017897.89149      9607.89149        50.000  

  19738259.20349 103725251.43449      -732.10249        49.000  

  20573183.71949 108112809.53149     10662.30549        49.000  

  24338710.50049 127900786.62149      -531.75049        48.000  

  24907000.87549 130887172.02749    -15791.21549        48.000  

  21013981.92249 110429220.11349      8637.05949        50.000  

 16 04 02 12 17  3.5000000  0  9G18G08G10G22G27G32G21G01G14                     
  24467817.68049 128579248.72349    -28325.72349        48.000  

  21008389.45349 110399831.58649    -17410.55549        50.000  

  21505692.85249 113013178.02349    -27786.82449        50.000  

  21886995.55549 115016937.38349      9602.52349        50.000  

  19738273.18049 103725324.94149      -737.64549        50.000  

  20572980.89149 108111743.65249     10655.06649        49.000  

  24338720.64849 127900839.91849      -533.85249        48.000  

  24907301.37549 130888751.28549    -15793.58249        48.000  

  21013817.64149 110428356.78149      8630.37549        50.000  

 16 04 02 12 17  3.6000000  0  9G18G08G10G22G27G32G21G01G14                     
  24468356.72749 128582081.41049    -28327.53949        48.000  

  21008720.80549 110401572.86749    -17414.40649        50.000  

  21506221.66449 113015956.95749    -27791.25849        50.000  

  21886812.86749 115015977.39149      9597.64549        50.000  

  19738287.26649 103725398.94549      -742.47349        49.000  

  20572778.18849 108110678.43849     10648.68449        49.000  

  24338730.83649 127900893.40649      -535.59049        48.000  

  24907601.94549 130890330.77349    -15795.64849        48.000  

  21013653.46949 110427494.10549      8623.99649        50.000  

 16 04 02 12 17  3.7000000  0  9G18G08G10G22G27G32G21G01G14                     
  24468895.80549 128584914.20749    -28328.73449        48.000  

  21009052.21949 110403314.45749    -17417.53949        50.000  

  21506750.55549 113018736.27049    -27795.22749        50.000  

  21886630.27349 115015017.85549      9592.98049        50.000  

  19738301.43049 103725473.38749      -746.86749        50.000  

  20572575.60249 108109613.83249     10642.58649        49.000  

  24338741.03949 127900947.03149      -537.02349        48.000  

  24907902.56249 130891910.40249    -15797.17649        48.000  

  21013489.42249 110426632.01649      8618.02349        50.000  

 16 04 02 12 17  3.8000000  0  9G18G08G10G22G27G32G21G01G14                     
  24469434.89849 128587747.16849    -28330.14549        48.000  

  21009383.69549 110405056.39149    -17420.85249        50.000  

  21507279.51649 113021515.98849    -27799.09849        50.000  

  21886447.76649 115014058.76249      9588.66449        50.000  

  19738315.68049 103725548.28149      -751.26249        50.000  

  20572373.13349 108108549.85549     10636.43849        49.000  

  24338751.28949 127901000.78949      -538.27049        48.000  

  24908203.18849 130893490.20349    -15798.85949        48.000  

  21013325.49249 110425770.52049      8612.15649        50.000  

 16 04 02 12 17  3.9000000  0  9G18G08G10G22G27G32G21G01G14                     
  24469974.00049 128590580.25449    -28331.48049        48.000  

  21009715.23449 110406798.64849    -17424.17649        50.000  

  21507808.57049 113024296.09049    -27802.97749        50.000  

  21886265.34449 115013100.12149      9584.19149        50.000  

  19738330.02349 103725623.62949      -755.70349        50.000  

  20572170.78149 108107486.48849     10630.29349        49.000  

  24338761.54749 127901054.68049      -539.55949        48.000  

  24908503.82849 130895070.14849    -15800.26649        48.000  

  21013161.66449 110424909.60249      8606.44149        50.000  

 16 04 02 12 17  4.0000000  0  9G18G08G10G22G27G32G21G01G14                     
  24470513.14849 128593413.50849    -28333.29349        48.000  

  21010046.84449 110408541.27349    -17427.97749        50.000  

  21508337.68849 113027076.63349    -27807.45349        50.000  

  21886083.01649 115012141.97749      9579.03949        50.000  

  19738344.45349 103725699.46549      -760.89849        50.000  

  20571968.55549 108106423.77049     10623.44149        49.000  

  24338771.79749 127901108.74649      -541.41449        48.000  

  24908804.52349 130896650.30549    -15802.53549        48.000  

  21012997.96149 110424049.34049      8599.72349        50.000  

 16 04 02 12 17  4.1000000  0  9G18G08G10G22G27G32G21G01G14                     
  24471052.32849 128596246.91849    -28334.60249        48.000  

  21010378.51649 110410284.25049    -17431.19549        50.000  

  21508866.90649 113029857.59049    -27811.35949        50.000  

  21885900.78149 115011184.31249      9574.48449        50.000  

  19738358.97749 103725775.76649      -765.25049        50.000  

  20571766.45349 108105361.70349     10617.50449        49.000  

  24338782.11749 127901162.96949      -542.78549        48.000  

  24909105.25049 130898230.62149    -15803.78149        48.000  

  21012834.37549 110423189.68049      8593.92649        50.000  

 16 04 02 12 17  4.2000000  0  9G18G08G10G22G27G32G21G01G14                     
  24471591.53149 128599080.48049    -28336.23049        48.000  

  21010710.25849 110412027.56249    -17434.65649        50.000  

  21509396.18049 113032638.94949    -27815.44549        50.000  

  21885718.62549 115010227.09849      9569.97749        50.000  

  19738373.58649 103725852.52349      -769.90649        49.000  

  20571564.46149 108104300.25049     10611.09449        49.000  

  24338792.47749 127901217.33649      -544.25049        48.000  

  24909406.01649 130899811.13349    -15805.83249        48.000  

  21012670.89849 110422330.61349      8587.94549        50.000  

 16 04 02 12 17  4.3000000  0  9G18G08G10G22G27G32G21G01G14                     
  24472130.80549 128601914.20349    -28337.97349        48.000  

  21011042.06249 110413771.23849    -17438.33649        50.000  

  21509925.53149 113035420.74249    -27819.88349        50.000  

  21885536.57049 115009270.37949      9564.91449        50.000  

  19738388.28149 103725929.76649      -774.85949        49.000  

  20571362.59449 108103239.45349     10604.57849        49.000  

  24338802.85949 127901271.87549      -546.13349        48.000  

  24909706.81249 130901391.82049    -15807.77049        48.000  

  21012507.54749 110421472.18849      8581.45749        50.000  

 16 04 02 12 17  4.4000000  0  9G18G08G10G22G27G32G21G01G14                     
  24472670.07849 128604748.11749    -28340.05149        48.000  

  21011373.95349 110415515.31249    -17442.54349        49.000  

  21510454.96949 113038202.97349    -27824.54349        50.000  

  21885354.60249 115008314.15249      9559.73449        50.000  

  19738403.07049 103726007.50849      -780.00449        50.000  

  20571160.85249 108102179.32449     10597.56249        49.000  

  24338813.28149 127901326.59049      -548.13349        48.000  

  24910007.64849 130902972.72349    -15810.20349        48.000  

  21012344.32049 110420614.40249      8574.80949        50.000  

 16 04 02 12 17  4.5000000  0  9G18G08G10G22G27G32G21G01G14                     
  24473209.39149 128607582.10249    -28340.53149        48.000  

  21011705.87549 110417259.62149    -17444.77049        50.000  

  21510984.46949 113040985.53949    -27827.65249        50.000  

  21885172.72749 115007358.33249      9556.03149        50.000  

  19738417.93049 103726085.62949      -783.61349        50.000  

  20570959.21949 108101119.74249     10592.41449        49.000  

  24338823.71149 127901381.38349      -548.57049        48.000  

  24910308.50049 130904553.71149    -15810.71149        48.000  

  21012181.18849 110419757.14149      8569.78149        50.000  

 16 04 02 12 17  4.6000000  0  9G18G08G10G22G27G32G21G01G14                     
  24473748.70349 128610416.21949    -28341.77349        48.000  

  21012037.87549 110419004.28549    -17448.03949        50.000  

  21511514.04749 113043768.49649    -27831.36749        50.000  

  21884990.92249 115006402.95749      9551.59449        50.000  

  19738432.88349 103726164.20749      -788.13749        50.000  

  20570757.70349 108100060.77349     10586.22349        49.000  

  24338834.16449 127901436.31649      -549.86349        48.000  

  24910609.38349 130906134.87549    -15812.30549        48.000  

  21012018.17249 110418900.47349      8564.05949        50.000  

 16 04 02 12 17  4.7000000  0  9G18G08G10G22G27G32G21G01G14                     
  24474288.05549 128613250.55549    -28343.96949        48.000  

  21012369.94549 110420749.32449    -17451.87149        50.000  

  21512043.72749 113046551.91849    -27836.02049        50.000  

  21884809.22749 115005448.11749      9546.32449        50.000  

  19738447.93849 103726243.30549      -793.23049        50.000  

  20570556.32049 108099002.51249     10579.29349        49.000  

  24338844.65649 127901491.44949      -551.88349        48.000  

  24910910.30549 130907716.26649    -15814.69949        48.000  

  21011855.28149 110418044.47749      8557.27049        50.000  

 16 04 02 12 17  4.8000000  0  9G18G08G10G22G27G32G21G01G14                     
  24474827.43049 128616085.00449    -28345.35949        48.000  

  21012702.08649 110422494.71949    -17455.57849        50.000  

  21512573.47749 113049335.74249    -27840.34849        50.000  

  21884627.60949 115004493.71549      9541.60249        50.000  

  19738463.07049 103726322.85249      -798.00049        50.000  

  20570355.05549 108097944.85549     10572.87949        49.000  

  24338855.17249 127901546.71949      -553.51249        48.000  

  24911211.26649 130909297.81249    -15816.43849        48.000  

  21011692.50049 110417189.07449      8551.06649        50.000  

 16 04 02 12 17  4.9000000  0  9G18G08G10G22G27G32G21G01G14                     
  24475366.84449 128618919.60249    -28346.69949        48.000  

  21013034.28949 110424240.43449    -17458.74649        50.000  

  21513103.29749 113052119.95349    -27844.08249        50.000  

  21884446.08649 115003539.78149      9537.12549        50.000  

  19738478.29749 103726402.83649      -802.26249        50.000  

  20570153.90649 108096887.80549     10566.98049        49.000  

  24338865.71149 127901602.12549      -554.79749        48.000  

  24911512.25049 130910879.51249    -15817.87949        48.000  

  21011529.82849 110416334.24249      8545.51649        50.000  

 16 04 02 12 17  5.0000000  0  9G18G08G10G22G27G32G21G01G14                     
  24475906.28149 128621754.37149    -28348.36749        48.000  

  21013366.55549 110425986.50849    -17462.21949        50.000  

  21513633.19549 113054904.60249    -27848.44549        50.000  

  21884264.64849 115002586.34049      9532.03949        50.000  

  19738493.60949 103726483.32849      -807.26649        50.000  

  20569952.89149 108095831.43049     10560.34049        49.000  

  24338876.27349 127901657.71149      -556.55149        48.000  

  24911813.28149 130912461.41849    -15819.93049        48.000  

  21011367.28949 110415480.08649      8538.89149        50.000  

 16 04 02 12 17  5.1000000  0  9G18G08G10G22G27G32G21G01G14                     
  24476445.75049 128624589.31249    -28350.09449        48.000  

  21013698.89149 110427732.96549    -17466.09049        50.000  

  21514163.18049 113057689.68049    -27852.69149        50.000  

  21884083.30549 115001633.37949      9527.32849        50.000  

  19738509.01649 103726564.28549      -811.91849        50.000  

  20569751.99249 108094775.69949     10554.06249        49.000  

  24338886.88349 127901713.46149      -558.12149        48.000  

  24912114.32849 130914043.51249    -15821.60249        48.000  

  21011204.85949 110414626.53149      8532.76249        50.000  

 16 04 02 12 17  5.2000000  0  9G18G08G10G22G27G32G21G01G14                     
  24476985.23449 128627424.29749    -28350.66049        48.000  

  21014031.28149 110429479.65649    -17468.63349        50.000  

  21514693.21949 113060475.06249    -27855.89849        50.000  

  21883902.03149 115000680.78549      9523.53949        50.000  

  19738524.49249 103726645.61749      -815.80149        50.000  

  20569551.18849 108093720.50449     10548.42249        49.000  

  24338897.50049 127901769.26249      -558.81249        48.000  

  24912415.40649 130915625.68449    -15822.57449        48.000  

  21011042.53149 110413773.46949      8527.73449        50.000  

 16 04 02 12 17  5.3000000  0  9G18G08G10G22G27G32G21G01G14                     
  24477524.74249 128630259.51249    -28352.48849        48.000  

  21014363.74249 110431226.75849    -17472.33249        50.000  

  21515223.35249 113063260.93449    -27860.30149        50.000  

  21883720.86749 114999728.73849      9518.51249        50.000  

  19738540.07049 103726727.48449      -820.76649        50.000  

  20569350.52349 108092666.01649     10541.80549        49.000  

  24338908.15649 127901825.28549      -560.64849        48.000  

  24912716.54749 130917208.09849    -15824.66849        48.000  

  21010880.33649 110412921.12549      8520.95749        50.000  

 16 04 02 12 17  5.4000000  0  9G18G08G10G22G27G32G21G01G14                     
  24478064.27349 128633094.78949    -28353.48049        48.000  

  21014696.25849 110432974.14149    -17475.39849        50.000  

  21515753.54749 113066047.12549    -27863.91449        50.000  

  21883539.76649 114998777.07049      9514.34449        50.000  

  19738555.72749 103726809.73449      -824.85949        50.000  

  20569149.96949 108091612.05949     10536.06249        49.000  

  24338918.86749 127901881.39149      -561.80949        48.000  

  24913017.69549 130918790.62149    -15826.07849        48.000  

  21010718.23449 110412069.28149      8515.57049        50.000  

 16 04 02 12 17  5.5000000  0  9G18G08G10G22G27G32G21G01G14                     
  24478603.87549 128635930.28149    -28355.80949        48.000  

  21015028.84449 110434721.89849    -17479.37149        50.000  

  21516283.82849 113068833.78149    -27868.61349        50.000  

  21883358.77349 114997825.93849      9508.92249        50.000  

  19738571.47749 103726892.49649      -830.27349        50.000  

  20568949.53949 108090558.81249     10528.78949        49.000  

  24338929.57849 127901937.67649      -563.79349        48.000  

  24913318.87549 130920373.34849    -15828.30149        48.000  

  21010556.25849 110411218.09849      8508.97749        50.000  

 16 04 02 12 17  5.6000000  0  9G18G08G10G22G27G32G21G01G14                     
  24479143.48449 128638765.93449    -28357.34849        48.000  

  21015361.50849 110436470.05149    -17483.08649        50.000  

  21516814.19549 113071620.88349    -27872.97749        50.000  

  21883177.86749 114996875.30149      9504.00849        50.000  

  19738587.32049 103726975.75449      -835.02749        50.000  

  20568749.23449 108089506.21549     10522.28149        49.000  

  24338940.31249 127901994.14849      -565.46949        48.000  

  24913620.10249 130921956.30549    -15830.48849        48.000  

  21010394.40649 110410367.56649      8502.56649        50.000  

 16 04 02 12 17  5.7000000  0  9G18G08G10G22G27G32G21G01G14                     
  24479683.12549 128641601.75449    -28359.03549        48.000  

  21015694.23449 110438218.52749    -17486.57849        50.000  

  21517344.63349 113074408.38349    -27877.18449        50.000  

  21882997.06249 114995925.12949      9499.18049        50.000  

  19738603.25049 103727059.47749      -839.77749        50.000  

  20568549.05549 108088454.27049     10515.71549        49.000  

  24338951.08649 127902050.78149      -567.19949        48.000  

  24913921.37549 130923539.43049    -15832.43849        48.000  

  21010232.67249 110409517.64849      8496.22749        50.000  

 16 04 02 12 17  5.8000000  0  9G18G08G10G22G27G32G21G01G14                     
  24480222.80549 128644437.75849    -28360.84849        48.000  

  21016027.03149 110439967.42249    -17490.55549        50.000  

  21517875.16449 113077196.34849    -27881.71149        50.000  

  21882816.34449 114994975.48049      9494.00449        50.000  

  19738619.28149 103727143.71949      -844.89149        50.000  

  20568349.00849 108087402.96549     10509.28549        50.000  

  24338961.91449 127902107.60549      -569.01249        48.000  

  24914222.67249 130925122.75849    -15834.34849        48.000  

  21010071.06249 110408668.37149      8489.86349        50.000  

 16 04 02 12 17  5.9000000  0  9G18G08G10G22G27G32G21G01G14                     
  24480762.47749 128647273.86349    -28361.87149        48.000  

  21016359.89149 110441716.57449    -17493.18049        50.000  

  21518405.76649 113079984.65649    -27885.12549        50.000  

  21882635.71149 114994026.24249      9489.99649        50.000  

  19738635.39149 103727228.34849      -848.75049        50.000  

  20568149.06249 108086352.26249     10503.63349        49.000  

  24338972.74249 127902164.52349      -569.99649        48.000  

  24914524.00049 130926706.21549    -15835.60249        48.000  

  21009909.55549 110407819.64849      8484.31649        50.000  

 16 04 02 12 17  6.0000000  0  9G18G08G10G22G27G32G21G01G14                     
  24481302.19549 128650110.10949    -28362.99249        48.000  

  21016692.81249 110443466.09449    -17496.67649        50.000  

  21518936.44549 113082773.37149    -27888.99249        50.000  

  21882455.16449 114993077.46149      9485.72349        50.000  

  19738651.58649 103727313.45349      -853.15249        50.000  

  20567949.23449 108085302.18449     10497.48849        49.000  

  24338983.60249 127902221.59049      -571.19549        48.000  

  24914825.35949 130928289.84849    -15837.15649        48.000  

  21009748.16449 110406971.54349      8478.32049        50.000  

 16 04 02 12 17  6.1000000  0  9G18G08G10G22G27G32G21G01G14                     
  24481841.94549 128652946.50049    -28364.62549        48.000  

  21017025.78949 110445215.93849    -17500.07449        50.000  

  21519467.18049 113085562.49649    -27893.15249        50.000  

  21882274.69549 114992129.14549      9480.96949        50.000  

  19738667.86749 103727399.02049      -858.01249        50.000  

  20567749.53149 108084252.72349     10491.17649        49.000  

  24338994.48449 127902278.79349      -572.70749        48.000  

  24915126.72749 130929873.61749    -15838.53949        48.000  

  21009586.89149 110406124.02749      8472.35549        50.000  

 16 04 02 12 17  6.2000000  0  9G18G08G10G22G27G32G21G01G14                     
  24482381.72749 128655783.07449    -28366.55949        48.000  

  21017358.84449 110446966.16049    -17503.89149        50.000  

  21519998.01649 113088352.05549    -27897.57449        50.000  

  21882094.33649 114991181.34449      9475.74249        50.000  

  19738684.25049 103727485.08249      -863.14149        50.000  

  20567549.95349 108083203.93849     10484.32449        49.000  

  24339005.41449 127902336.20349      -574.91049        48.000  

  24915428.15649 130931457.63749    -15841.08649        48.000  

  21009425.74249 110405277.16449      8465.70349        50.000  

 16 04 02 12 17  6.3000000  0  9G18G08G10G22G27G32G21G01G14                     
  24482921.55549 128658619.86349    -28368.66049        48.000  

  21017691.97749 110448716.77749    -17507.80949        50.000  

  21520528.95349 113091142.08249    -27902.37549        50.000  

  21881914.07849 114990234.06249      9470.46549        50.000  

  19738700.71949 103727571.66049      -868.30149        50.000  

  20567350.50849 108082155.84449     10477.43849        49.000  

  24339016.37549 127902393.79349      -576.78149        48.000  

  24915729.64849 130933041.87549    -15843.34049        48.000  

  21009264.71149 110404430.96549      8458.96549        50.000  

 16 04 02 12 17  6.4000000  0  9G18G08G10G22G27G32G21G01G14                     
  24483461.39849 128661456.76649    -28369.91449        48.000  

  21018025.17249 110450467.73049    -17511.22349        50.000  

  21521059.95349 113093932.49649    -27906.19549        50.000  

  21881733.89849 114989287.21949      9466.02349        50.000  

  19738717.28149 103727658.67249      -872.69549        50.000  

  20567151.18849 108081108.35949     10471.24649        49.000  

  24339027.35249 127902451.53149      -578.15649        48.000  

  24916031.14149 130934626.24649    -15844.83649        48.000  

  21009103.78949 110403585.34049      8453.21149        50.000  

 16 04 02 12 17  6.5000000  0  9G18G08G10G22G27G32G21G01G14                     
  24484001.26649 128664293.84449    -28371.49249        48.000  

  21018358.43049 110452219.04749    -17514.81249        50.000  

  21521591.04749 113096723.34849    -27910.48849        50.000  

  21881553.82049 114988340.89149      9461.03949        50.000  

  19738733.93049 103727746.18849      -877.63349        50.000  

  20566951.98449 108080061.53149     10464.90649        49.000  

  24339038.37549 127902509.42249      -579.62949        48.000  

  24916332.68849 130936210.84049    -15846.76649        48.000  

  21008942.99249 110402740.34849      8447.09449        50.000  

 16 04 02 12 17  6.6000000  0  9G18G08G10G22G27G32G21G01G14                     
  24484541.16449 128667131.00849    -28372.39549        48.000  

  21018691.74249 110453970.63749    -17517.57849        50.000  

  21522122.19549 113099514.52749    -27913.75449        50.000  

  21881373.81249 114987394.94149      9457.21949        50.000  

  19738750.66449 103727834.09049      -881.45349        50.000  

  20566752.89149 108079015.27049     10459.23049        49.000  

  24339049.39849 127902567.42249      -580.63349        48.000  

  24916634.24249 130937795.52349    -15847.68049        48.000  

  21008782.30549 110401895.91449      8441.62949        50.000  

 16 04 02 12 17  6.7000000  0  9G18G08G10G22G27G32G21G01G14                     
  24485081.08649 128669968.33249    -28373.84449        48.000  

  21019025.13349 110455722.59049    -17520.96149        50.000  

  21522653.41449 113102306.14549    -27917.94549        50.000  

  21881193.89849 114986449.50449      9452.22349        50.000  

  19738767.48449 103727922.47749      -886.09449        50.000  

  20566553.92249 108077969.65649     10452.82449        49.000  

  24339060.46149 127902625.56649      -582.09449        48.000  

  24916935.82849 130939380.40249    -15849.43849        48.000  

  21008621.73449 110401052.09449      8435.54749        50.000  

 16 04 02 12 17  6.8000000  0  9G18G08G10G22G27G32G21G01G14                     
  24485621.03949 128672805.78949    -28375.10249        48.000  

  21019358.57849 110457474.86349    -17524.32049        50.000  

  21523184.71149 113105098.13749    -27921.84049        50.000  

  21881014.07049 114985504.48449      9447.91449        50.000  

  19738784.38349 103728011.30149      -890.62149        50.000  

  20566355.06249 108076924.65249     10446.62149        49.000  

  24339071.56249 127902683.86349      -583.67249        48.000  

  24917237.45349 130940965.44949    -15851.19149        48.000  

  21008461.27349 110400208.87149      8429.47349        50.000  

 16 04 02 12 17  6.9000000  0  9G18G08G10G22G27G32G21G01G14                     
  24486161.01649 128675643.35249    -28376.34449        48.000  

  21019692.07849 110459227.44549    -17527.35549        50.000  

  21523716.07849 113107890.50849    -27925.60949        50.000  

  21880834.32049 114984559.91449      9443.44949        50.000  

  19738801.36749 103728100.55949      -894.99249        50.000  

  20566156.31249 108075880.24249     10440.65649        50.000  

  24339082.68049 127902742.25049      -584.70749        48.000  

  24917539.10949 130942550.60549    -15852.50449        48.000  

  21008300.92249 110399366.20749      8423.85249        50.000  

 16 04 02 12 17  7.0000000  0  9G18G08G10G22G27G32G21G01G14                     
  24486701.02349 128678481.11349    -28378.20349        48.000  

  21020025.65649 110460980.40649    -17531.07449        50.000  

  21524247.53149 113110683.32449    -27930.00849        50.000  

  21880654.67249 114983615.84849      9438.48849        50.000  

  19738818.44549 103728190.31249      -899.77049        50.000  

  20565957.69549 108074836.50449     10434.10249        50.000  

  24339093.82849 127902800.82449      -586.41849        48.000  

  24917840.79749 130944135.99249    -15854.61749        48.000  

  21008140.69549 110398524.19949      8417.37549        50.000  

 16 04 02 12 17  7.1000000  0  9G18G08G10G22G27G32G21G01G14                     
  24487241.06249 128681319.00049    -28379.63749        48.000  

  21020359.29749 110462733.70349    -17534.57049        50.000  

  21524779.05549 113113476.52349    -27933.97349        50.000  

  21880475.10949 114982672.24249      9433.78149        50.000  

  19738835.61749 103728280.52349      -904.51649        50.000  

  20565759.19549 108073793.38749     10427.71149        49.000  

  24339105.00049 127902859.55949      -588.02749        48.000  

  24918142.54749 130945721.53149    -15856.20749        48.000  

  21007980.57849 110397682.78149      8411.35249        50.000  

 16 04 02 12 17  7.2000000  0  9G18G08G10G22G27G32G21G01G14                     
  24487781.11749 128684157.01249    -28380.86349        48.000  

  21020693.00049 110464487.30949    -17537.69549        50.000  

  21525310.66449 113116270.12149    -27937.89549        50.000  

  21880295.63349 114981729.07849      9429.26249        50.000  

  19738852.86749 103728371.16049      -908.80549        50.000  

  20565560.81249 108072750.87149     10421.74249        50.000  

  24339116.18049 127902918.39549      -589.21949        48.000  

  24918444.28949 130947307.22349    -15857.81249        48.000  

  21007820.57049 110396841.94949      8405.47749        50.000  

 16 04 02 12 17  7.3000000  0  9G18G08G10G22G27G32G21G01G14                     
  24488321.19549 128686995.15249    -28382.05549        48.000  

  21021026.75849 110466241.24649    -17540.99249        50.000  

  21525842.34449 113119064.09449    -27941.68849        50.000  

  21880116.23449 114980786.35549      9424.92249        50.000  

  19738870.19549 103728462.25049      -913.20749        50.000  

  20565362.54749 108071708.96949     10415.69549        50.000  

  24339127.40649 127902977.36749      -590.38749        48.000  

  24918746.04749 130948893.07049    -15859.34449        48.000  

  21007660.68049 110396001.70749      8399.64549        50.000  

 16 04 02 12 17  7.4000000  0 10G18G08G10G22G27G32G21G11G01G14                  
  24488861.31249 128689833.45749    -28383.79349        48.000  

  21021360.58649 110467995.54349    -17544.59449        50.000  

  21526374.10249 113121858.50049    -27946.02749        50.000  

  21879936.93049 114979844.12949      9419.96949        50.000  

  19738887.62549 103728553.82449      -918.25449        50.000  

  20565164.40649 108070667.72349     10408.93849        49.000  

  24339138.64849 127903036.50449      -592.18849        48.000  

  23980854.71149 126020241.62559    -22151.68049        48.000  

  24919047.85949 130950479.10549    -15861.33649        48.000  

  21007500.89849 110395162.08649      8393.42249        50.000  

 16 04 02 12 17  7.5000000  0 10G18G08G10G22G27G32G21G11G01G14                  
  24489401.46949 128692671.97349    -28385.83249        48.000  

  21021694.49249 110469750.24249    -17548.58249        50.000  

  21526905.95349 113124653.37149    -27950.68049        50.000  

  21879757.73449 114978902.42649      9414.75849        50.000  

  19738905.14849 103728645.91849      -923.33649        50.000  

  20564966.39849 108069627.16849     10402.09849        50.000  

  24339149.94549 127903095.87149      -594.36749        48.000  

  23981276.26649 126022456.93849    -22154.02049        48.000  

  24919349.71149 130952065.37149    -15863.55149        48.000  

  21007341.25849 110394323.14549      8386.60249        50.000  

 16 04 02 12 17  7.6000000  0 10G18G08G10G22G27G32G21G11G01G14                  
  24489941.64149 128695510.62149    -28387.13749        48.000  

  21022028.46949 110471505.26649    -17551.84449        50.000  

  21527437.86749 113127448.62549    -27954.51249        50.000  

  21879578.61749 114977961.19149      9410.15649        50.000  

  19738922.75849 103728738.46149      -927.78149        50.000  

  20564768.50049 108068587.22349     10396.07049        50.000  

  24339161.26649 127903155.33249      -595.34849        48.000  

  23981697.84449 126024672.38749    -22155.44949        48.000  

  24919651.59449 130953651.80149    -15865.11749        48.000  

  21007181.71949 110393484.78549      8380.74649        50.000  

 16 04 02 12 17  7.7000000  0 10G18G08G10G22G27G32G21G11G01G14                  
  24490481.85949 128698349.38749    -28388.50449        48.000  

  21022362.49249 110473260.61749    -17555.18449        50.000  

  21527969.85249 113130244.27349    -27958.52749        50.000  

  21879399.58649 114977020.39149      9405.49649        50.000  

  19738940.45349 103728831.43449      -932.32049        50.000  

  20564570.72749 108067547.89549     10389.84449        50.000  

  24339172.60949 127903214.94549      -596.80549        48.000  

  23982119.46149 126026888.01249    -22157.27349        48.000  

  24919953.53149 130955238.37949    -15866.93449        48.000  

  21007022.29749 110392647.01249      8374.82449        50.000  

 16 04 02 12 17  7.8000000  0 10G18G08G10G22G27G32G21G11G01G14                  
  24491022.09449 128701188.34049    -28390.21549        48.000  

  21022696.59449 110475016.33649    -17558.72349        50.000  

  21528501.92249 113133040.35249    -27962.69549        50.000  

  21879220.65649 114976080.09049      9400.68849        50.000  

  19738958.24249 103728924.91849      -937.25049        50.000  

  20564373.07049 108066509.23049     10383.25449        49.000  

  24339184.00049 127903274.75049      -598.75849        48.000  

  23982541.14149 126029103.82449    -22159.14149        48.000  

  24920255.48449 130956825.15249    -15868.63749        48.000  

  21006862.99249 110391809.88349      8368.48449        50.000  

 16 04 02 12 17  7.9000000  0 10G18G08G10G22G27G32G21G11G01G14                  
  24491562.35949 128704027.43449    -28391.54349        48.000  

  21023030.75849 110476772.39149    -17562.05549        50.000  

  21529034.08649 113135836.83249    -27966.71549        50.000  

  21879041.80549 114975140.25449      9396.09849        50.000  

  19738976.11749 103729018.85249      -941.61749        50.000  

  20564175.53949 108065471.19949     10376.93849        49.000  

  24339195.39849 127903334.67649      -599.89549        48.000  

  23982962.82849 126031319.80949    -22160.74249        48.000  

  24920557.46149 130958412.10249    -15870.28149        48.000  

  21006703.80549 110390973.34449      8362.70749        50.000  

 16 04 02 12 17  8.0000000  0 10G18G08G10G22G27G32G21G11G01G14                  
  24492102.63349 128706866.62549    -28392.57049        48.000  

  21023364.98449 110478528.75449    -17565.17249        50.000  

  21529566.30549 113138633.68049    -27970.34049        50.000  

  21878863.03949 114974200.83649      9391.92649        50.000  

  19738994.07049 103729113.20349      -945.84049        49.000  

  20563978.11749 108064433.74649     10371.09449        49.000  

  24339206.83649 127903394.72349      -601.08649        48.000  

  23983384.53149 126033535.93449    -22162.13349        48.000  

  24920859.46949 130959999.17649    -15871.49249        48.000  

  21006544.72749 110390137.38749      8356.93449        50.000  

 16 04 02 12 17  8.1000000  0 10G18G08G10G22G27G32G21G11G01G14                  
  24492642.94549 128709705.96549    -28393.99649        48.000  

  21023699.26649 110480285.44549    -17568.46149        50.000  

  21530098.59449 113141430.91449    -27974.20749        50.000  

  21878684.36749 114973261.88749      9387.37149        50.000  

  19739012.10949 103729208.01249      -950.50449        50.000  

  20563780.82049 108063396.91449     10364.78549        49.000  

  24339218.28949 127903454.89849      -602.53549        48.000  

  23983806.27349 126035752.20749    -22163.46549        48.000  

  24921161.53149 130961586.41849    -15873.18449        48.000  

  21006385.76649 110389302.02349      8350.92649        50.000  

 16 04 02 12 17  8.2000000  0 10G18G08G10G22G27G32G21G11G01G14                  
  24493183.28149 128712545.46949    -28395.80149        48.000  

  21024033.62549 110482042.48849    -17571.93049        50.000  

  21530630.97749 113144228.59049    -27978.68449        50.000  

  21878505.78149 114972323.43049      9382.30549        50.000  

  19739030.24249 103729303.29349      -955.25449        50.000  

  20563583.64149 108062360.71949     10358.30549        50.000  

  24339229.76649 127903515.25049      -604.22749        48.000  

  23984228.03149 126037968.68449    -22165.53949        48.000  

  24921463.60949 130963173.84849    -15875.21549        48.000  

  21006226.92249 110388467.28549      8344.57049        50.000  

 16 04 02 12 17  8.3000000  0 10G18G08G10G22G27G32G21G11G01G14                  
  24493723.64849 128715385.17649    -28397.84849        48.000  

  21024368.05549 110483799.95749    -17576.27749        50.000  

  21531163.45349 113147026.73449    -27983.46149        50.000  

  21878327.29749 114971385.50849      9376.90649        50.000  

  19739048.47749 103729399.11749      -960.68049        49.000  

  20563386.60249 108061325.25449     10351.21149        49.000  

  24339241.29749 127903575.82449      -606.52749        48.000  

  23984649.85949 126040185.41849    -22168.21149        48.000  

  24921765.77349 130964761.52749    -15877.72749        48.000  

  21006068.20349 110387633.23049      8337.61349        50.000  

 16 04 02 12 17  8.4000000  0 10G18G08G10G22G27G32G21G11G01G14                  
  24494264.05549 128718225.03949    -28399.40249        48.000  

  21024702.55549 110485557.75849    -17579.65249        50.000  

  21531696.00049 113149825.27049    -27987.39549        50.000  

  21878148.90649 114970448.03549      9372.31249        50.000  

  19739066.79749 103729495.39549      -965.20349        50.000  

  20563189.68049 108060290.40249     10345.04749        49.000  

  24339252.85249 127903636.52749      -607.88349        48.000  

  23985071.73449 126042402.29749    -22169.70349        48.000  

  24922067.92249 130966349.35549    -15879.25449        48.000  

  21005909.60949 110386799.76249      8331.78949        50.000  

 16 04 02 12 17  8.5000000  0 10G18G08G10G22G27G32G21G11G01G14                  
  24494804.48449 128721065.02049    -28400.52049        48.000  

  21025037.12549 110487315.88349    -17582.85549        50.000  

  21532228.60249 113152624.19949    -27991.23049        50.000  

  21877970.59449 114969511.02749      9367.82449        50.000  

  19739085.20349 103729592.11349      -969.55149        50.000  

  20562992.86749 108059256.17249     10338.88749        49.000  

  24339264.43049 127903697.37149      -609.19949        48.000  

  23985493.62549 126044619.34449    -22171.27349        48.000  

  24922370.09449 130967937.35949    -15880.76649        48.000  

  21005751.11749 110385966.89149      8325.91449        50.000  

 16 04 02 12 17  8.6000000  0 10G18G08G10G22G27G32G21G11G01G14                  
  24495344.93849 128723905.10249    -28401.59849        48.000  

  21025371.73449 110489074.28949    -17585.59449        50.000  

  21532761.28949 113155423.46949    -27994.67649        50.000  

  21877792.36749 114968574.43849      9363.69949        50.000  

  19739103.68049 103729689.23449      -973.59049        50.000  

  20562796.16449 108058222.50049     10333.24649        49.000  

  24339276.01649 127903758.29749      -610.03949        48.000  

  23985915.54749 126046836.50449    -22172.39849        48.000  

  24922672.30549 130969525.46549    -15881.91449        48.000  

  21005592.73449 110385134.58249      8320.28949        50.000  

 16 04 02 12 17  8.7000000  0 10G18G08G10G22G27G32G21G11G01G14                  
  24495885.44549 128726745.41849    -28403.98449        48.000  

  21025706.43049 110490833.14549    -17590.11349        50.000  

  21533294.07849 113158223.25449    -27999.82049        50.000  

  21877614.24249 114967638.39549      9358.03149        50.000  

  19739122.27349 103729786.93449      -979.42249        50.000  

  20562599.60249 108057189.57849     10325.66849        49.000  

  24339287.65649 127903819.48049      -612.70749        48.000  

  23986337.51649 126049053.94949    -22175.33249        48.000  

  24922974.55549 130971113.85249    -15884.74649        48.000  

  21005434.48449 110384302.97749      8313.08249        50.000  

 16 04 02 12 17  8.8000000  0 10G18G08G10G22G27G32G21G11G01G14                  
  24496425.96149 128729585.85949    -28405.15249        48.000  

  21026041.18849 110492592.30549    -17593.25849        50.000  

  21533826.93049 113161023.41449    -28003.58649        50.000  

  21877436.21149 114966702.81249      9353.57449        50.000  

  19739140.94549 103729885.04349      -983.48449        50.000  

  20562403.15649 108056157.25049     10319.86749        49.000  

  24339299.31249 127903880.77749      -613.74249        48.000  

  23986759.49249 126051271.52749    -22176.68449        48.000  

  24923276.84449 130972702.37949    -15886.19149        48.000  

  21005276.34449 110383471.93049      8307.58249        50.000  

 16 04 02 12 17  8.9000000  0 10G18G08G10G22G27G32G21G11G01G14                  
  24496966.52349 128732426.43449    -28406.44149        48.000  

  21026376.00849 110494351.80949    -17596.67649        50.000  

  21534359.85949 113163823.96949    -28007.52049        50.000  

  21877258.26649 114965767.68449      9348.90649        50.000  

  19739159.70349 103729983.63349      -988.28549        50.000  

  20562206.83649 108055125.55149     10313.46149        49.000  

  24339311.00849 127903942.21949      -615.05949        48.000  

  23987181.51649 126053489.27049    -22178.29749        48.000  

  24923579.18049 130974291.06249    -15887.73449        48.000  

  21005118.32049 110382641.50449      8301.53949        50.000  

 16 04 02 12 17  9.0000000  0 10G18G08G10G22G27G32G21G11G01G14                  
  24497507.09449 128735267.15649    -28407.96949        48.000  

  21026710.89849 110496111.64549    -17599.96549        50.000  

  21534892.85949 113166624.92649    -28011.49249        50.000  

  21877080.40649 114964833.02049      9344.29349        50.000  

  19739178.55549 103730082.66849      -992.75049        49.000  

  20562010.61749 108054094.47349     10307.31249        49.000  

  24339322.72749 127904003.80149      -616.48849        48.000  

  23987603.56249 126055707.18849    -22179.98449        48.000  

  24923881.53149 130975879.92649    -15889.41449        48.000  

  21004960.40649 110381811.68449      8295.47349        50.000  

 16 04 02 12 17  9.1000000  0 10G18G08G10G22G27G32G21G11G01G14                  
  24498047.71149 128738107.98049    -28408.91449        48.000  

  21027045.84449 110497871.78149    -17602.94949        50.000  

  21535425.94549 113169426.24649    -28015.20749        50.000  

  21876902.62549 114963898.78549      9339.93049        50.000  

  19739197.48449 103730182.13749      -997.09449        49.000  

  20561814.52349 108053063.99649     10301.31249        49.000  

  24339334.46949 127904065.50049      -617.59849        48.000  

  23988025.64149 126057925.25049    -22181.44549        48.000  

  24924183.91449 130977468.92249    -15890.85949        48.000  

  21004802.60249 110380982.42249      8289.74249        50.000  

 16 04 02 12 17  9.2000000  0 10G18G08G10G22G27G32G21G11G01G14                  
  24498588.32049 128740948.93449    -28410.11749        48.000  

  21027380.84449 110499632.23849    -17606.09449        50.000  

  21535959.09449 113172227.95749    -28018.97749        50.000  

  21876724.93049 114962965.00049      9335.55949        50.000  

  19739216.49249 103730282.02749     -1001.36749        49.000  

  20561618.54749 108052034.12149     10295.31249        49.000  

  24339346.22749 127904127.32449      -618.85949        48.000  

  23988447.75849 126060143.43849    -22182.62149        48.000  

  24924486.31249 130979058.06649    -15892.29349        48.000  

  21004644.90649 110380153.75849      8283.85549        50.000  

 16 04 02 12 17  9.3000000  0 10G18G08G10G22G27G32G21G11G01G14                  
  24499128.99249 128743790.07049    -28411.98449        48.000  

  21027715.92249 110501393.07049    -17609.76649        50.000  

  21536492.32049 113175030.09049    -28023.12949        50.000  

  21876547.32849 114962031.69949      9330.82449        50.000  

  19739235.60249 103730382.42249     -1006.20349        49.000  

  20561422.69549 108051004.91049     10288.88349        49.000  

  24339358.02349 127904189.31649      -620.59449        48.000  

  23988869.90649 126062361.84849    -22184.73049        48.000  

  24924788.75049 130980647.40649    -15894.11749        48.000  

  21004487.33649 110379325.71949      8277.66849        50.000  

 16 04 02 12 17  9.4000000  0 10G18G08G10G22G27G32G21G11G01G14                  
  24499669.66449 128746631.31249    -28413.14849        48.000  

  21028051.05549 110503154.22349    -17613.07049        50.000  

  21537025.62549 113177832.61349    -28027.10549        50.000  

  21876369.81249 114961098.86349      9326.15249        50.000  

  19739254.78949 103730483.25449     -1010.72749        50.000  

  20561226.95349 108049976.30549     10282.64549        49.000  

  24339369.84449 127904251.44549      -621.97349        48.000  

  23989292.10249 126064580.41449    -22186.47349        48.000  

  24925091.22749 130982236.90249    -15895.81649        48.000  

  21004329.87549 110378498.26649      8271.75049        50.000  

 16 04 02 12 17  9.5000000  0 10G18G08G10G22G27G32G21G11G01G14                  
  24500210.38349 128749472.73849    -28414.98849        48.000  

  21028386.27349 110504915.74249    -17616.81249        50.000  

  21537559.01649 113180635.57049    -28031.52049        50.000  

  21876192.39149 114960166.52349      9321.04349        50.000  

  19739274.07049 103730584.58649     -1015.79749        49.000  

  20561031.34449 108048948.37149     10275.84049        49.000  

  24339381.70349 127904313.75449      -623.86749        48.000  

  23989714.31249 126066799.17649    -22188.52049        48.000  

  24925393.73449 130983826.59849    -15897.87149        48.000  

  21004172.53949 110377671.46549      8265.15649        50.000  

 16 04 02 12 17  9.6000000  0 10G18G08G10G22G27G32G21G11G01G14                  
  24500751.11749 128752314.30549    -28416.30549        48.000  

  21028721.53949 110506677.59849    -17620.04749        50.000  

  21538092.47749 113183438.91849    -28035.46949        50.000  

  21876015.06249 114959234.63749      9316.58249        50.000  

  19739293.43849 103730686.35549     -1020.10549        49.000  

  20560835.85249 108047921.05549     10269.77049        49.000  

  24339393.60949 127904376.19549      -625.19549        48.000  

  23990136.54749 126069018.10249    -22190.07849        48.000  

  24925696.27349 130985416.45349    -15899.32849        48.000  

  21004015.32049 110376845.25449      8259.27349        50.000  

 16 04 02 12 17  9.7000000  0 10G18G08G10G22G27G32G21G11G01G14                  
  24501291.89849 128755156.05549    -28418.32849        48.000  

  21029056.88349 110508439.84049    -17624.05149        50.000  

  21538626.01649 113186242.71949    -28039.95749        50.000  

  21875837.82849 114958303.26649      9311.43449        50.000  

  19739312.89849 103730788.63749     -1025.24249        49.000  

  20560640.48449 108046894.40649     10263.07849        49.000  

  24339405.52349 127904438.82849      -627.08649        48.000  

  23990558.82849 126071237.23449    -22192.19549        48.000  

  24925998.85949 130987006.52049    -15901.51249        48.000  

  21003858.21949 110376019.68449      8252.85949        50.000  

 16 04 02 12 17  9.8000000  0 10G18G08G10G22G27G32G21G11G01G14                  
  24501832.67249 128757997.85249    -28418.83249        48.000  

  21029392.26649 110510202.31649    -17626.51649        50.000  

  21539159.61749 113189046.82049    -28043.12549        50.000  

  21875660.66449 114957372.26249      9307.63749        50.000  

  19739332.43049 103730891.28549     -1029.06649        49.000  

  20560445.22749 108045868.31249     10257.39149        49.000  

  24339417.44549 127904501.50449      -627.57849        48.000  

  23990981.10949 126073456.45749    -22193.04749        48.000  

  24926301.46149 130988596.67249    -15902.48049        48.000  

  21003701.21149 110375194.63349      8247.62149        50.000  

 16 04 02 12 17  9.9000000  0 10G18G08G10G22G27G32G21G11G01G14                  
  24502373.51649 128760839.93049    -28421.39149        48.000  

  21029727.75049 110511965.27349    -17631.14849        50.000  

  21539693.33649 113191851.46149    -28048.35249        50.000  

  21875483.61749 114956441.86749      9301.67249        50.000  

  19739352.07049 103730994.53149     -1034.76249        49.000  

  20560250.10949 108044842.96949     10250.03549        49.000  

  24339429.43049 127904564.47349      -630.26249        48.000  

  23991403.46949 126075675.98449    -22195.96549        48.000  

  24926604.10949 130990187.12549    -15905.25449        48.000  

  21003544.35249 110374370.32849      8240.31249        50.000  

 16 04 02 12 17 10.0000000  0 10G18G08G10G22G27G32G21G11G01G14                  
  24502914.36749 128763682.10549    -28422.61349        48.000  

  21030063.28149 110513728.53149    -17634.34049        50.000  

  21540227.10949 113194656.46149    -28052.09049        50.000  

  21875306.64849 114955511.88749      9297.35549        50.000  

  19739371.79749 103731098.18849     -1039.16449        49.000  

  20560055.10949 108043818.21549     10243.87549        49.000  

  24339441.42249 127904627.54749      -631.53549        48.000  

  23991825.85949 126077895.64149    -22197.51249        48.000  

  24926906.78949 130991777.71549    -15907.03549        48.000  

  21003387.60249 110373546.58249      8234.47749        49.000  

 16 04 02 12 17 10.1000000  0  9G18G08G10G22G27G32G21G11G14                     
  24503455.23449 128766524.39149    -28423.52749        48.000  

  21030398.87549 110515492.07449    -17637.00049        49.000  

  21540760.96949 113197461.81649    -28055.43449        50.000  

  21875129.75849 114954582.33649      9293.28549        50.000  

  19739391.60249 103731202.26649     -1043.02749        49.000  

  20559860.21949 108042794.04349     10238.20749        49.000  

  24339453.44549 127904690.71549      -632.33249        48.000  

  23992248.27349 126080115.41849    -22198.53549        48.000  

  21003230.95349 110372723.39549      8229.12949        50.000  

 16 04 02 12 17 10.2000000  0  9G18G08G10G22G27G32G21G11G14                     
  24503996.14849 128769366.91849    -28426.03549        48.000  

  21030734.55549 110517256.07449    -17641.63349        49.000  

  21541294.91449 113200267.69149    -28060.86349        50.000  

  21874952.98449 114953653.36749      9287.23049        50.000  

  19739411.51649 103731306.91449     -1048.94549        49.000  

  20559665.46149 108041770.61349     10230.80949        49.000  

  24339465.50849 127904754.14849      -635.09849        48.000  

  23992670.71949 126082335.48449    -22201.55549        48.000  

  21003074.44549 110371900.93449      8221.75449        50.000  

 16 04 02 12 17 10.3000000  0  9G18G08G10G22G27G32G21G11G14                     
  24504537.09449 128772209.56249    -28427.35949        48.000  

  21031070.28949 110519020.38349    -17644.83649        50.000  

  21541828.91449 113203073.92249    -28064.42649        50.000  

  21874776.28949 114952724.82449      9282.88349        50.000  

  19739431.51649 103731412.00049     -1053.50049        49.000  

  20559470.82849 108040747.79349     10224.55949        49.000  

  24339477.60249 127904817.68449      -636.28949        48.000  

  23993093.21149 126084555.68849    -22203.05549        48.000  

  21002918.03949 110371079.02749      8216.05949        50.000  

 16 04 02 12 17 10.4000000  0  9G18G08G10G22G27G32G21G11G14                     
  24505078.05549 128775052.33649    -28428.36349        48.000  

  21031406.08649 110520785.00449    -17647.82449        50.000  

  21542362.99249 113205880.55549    -28068.17649        50.000  

  21874599.68049 114951796.73449      9278.61749        50.000  

  19739451.59449 103731517.51649     -1057.53949        49.000  

  20559276.31249 108039725.57449     10218.76649        49.000  

  24339489.71949 127904881.36349      -637.36749        48.000  

  23993515.73449 126086776.04749    -22204.37149        48.000  

  21002761.75049 110370257.73049      8210.27749        50.000  

 16 04 02 12 17 10.5000000  0  9G18G08G10G22G27G32G21G11G14                     
  24505619.04749 128777895.23849    -28429.76249        48.000  

  21031741.94549 110522549.96549    -17651.17249        50.000  

  21542897.15649 113208687.57449    -28072.16849        50.000  

  21874423.15649 114950869.10949      9273.94149        50.000  

  19739471.75849 103731623.48049     -1062.14549        49.000  

  20559081.90649 108038703.98449     10212.34849        49.000  

  24339501.86749 127904945.17649      -638.84049        48.000  

  23993938.28149 126088996.56649    -22206.08249        48.000  

  21002605.57049 110369437.03549      8204.11749        50.000  

 16 04 02 12 17 10.6000000  0  9G18G08G10G22G27G32G21G11G14                     
  24506160.06249 128780738.31649    -28431.37149        48.000  

  21032077.87549 110524315.29349    -17654.75449        50.000  

  21543431.39849 113211495.03149    -28076.37949        50.000  

  21874246.72749 114949941.97749      9269.14149        50.000  

  19739492.02349 103731729.94549     -1066.98449        49.000  

  20558887.63349 108037683.04749     10205.90649        49.000  

  24339514.01649 127905009.16049      -640.44149        48.000  

  23994360.86749 126091217.28149    -22207.82849        48.000  

  21002449.51649 110368616.95749      8197.98849        50.000  

 16 04 02 12 17 10.7000000  0  9G18G08G10G22G27G32G21G11G14                     
  24506701.10249 128783581.52349    -28432.92249        48.000  

  21032413.87549 110526080.95349    -17658.32849        50.000  

  21543965.71149 113214302.86349    -28080.50449        50.000  

  21874070.38349 114949015.30149      9264.28149        50.000  

  19739512.35949 103731836.85949     -1071.69149        49.000  

  20558693.46949 108036662.73049     10199.50849        49.000  

  24339526.21949 127905073.28149      -642.08249        48.000  

  23994783.48449 126093438.17249    -22209.87149        48.000  

  21002293.57849 110367797.48449      8191.75049        50.000  

 16 04 02 12 17 10.8000000  0  9G18G08G10G22G27G32G21G11G14                     
  24507242.19549 128786424.97749    -28435.29749        48.000  

  21032749.94549 110527847.03549    -17662.45349        50.000  

  21544500.11749 113217111.18849    -28085.28149        50.000  

  21873894.14849 114948089.17649      9258.90249        50.000  

  19739532.81249 103731944.31649     -1076.96549        49.000  

  20558499.45349 108035643.12949     10192.46949        49.000  

  24339538.46949 127905137.62949      -644.23049        48.000  

  23995206.16449 126095659.30149    -22212.14849        48.000  

  21002137.76649 110366978.69949      8185.00449        50.000  

 16 04 02 12 17 10.9000000  0  9G18G08G10G22G27G32G21G11G14                     
  24507783.31249 128789268.53949    -28436.54749        48.000  

  21033086.08649 110529613.44149    -17665.76249        50.000  

  21545034.60949 113219919.91049    -28089.30549        50.000  

  21873718.00849 114947163.51249      9254.16849        50.000  

  19739553.34449 103732052.22349     -1081.66849        49.000  

  20558305.54749 108034624.16049     10186.10249        49.000  

  24339550.74249 127905202.12549      -645.89849        48.000  

  23995628.86749 126097880.60949    -22214.03549        48.000  

  21001982.07849 110366160.51649      8178.85949        50.000  

 16 04 02 12 17 11.0000000  0  9G18G08G10G22G27G32G21G11G14                     
  24508324.46149 128792112.30149    -28438.59849        48.000  

  21033422.29749 110531380.23449    -17669.69549        50.000  

  21545569.18049 113222729.07449    -28093.80549        50.000  

  21873541.95349 114946238.35549      9249.04349        50.000  

  19739573.97749 103732160.62949     -1086.77349        49.000  

  20558111.77349 108033605.85549     10179.21949        49.000  

  24339563.05549 127905266.79749      -647.72749        48.000  

  23996051.59449 126100102.11749    -22216.10949        48.000  

  21001826.50049 110365342.96949      8172.44149        50.000  

 16 04 02 12 17 11.1000000  0  9G18G08G10G22G27G32G21G11G14                     
  24508865.68849 128794956.32049    -28441.02749        48.000  

  21033758.59449 110533147.49249    -17674.20749        50.000  

  21546103.85249 113225538.75449    -28098.78949        50.000  

  21873366.01649 114945313.78949      9243.29349        50.000  

  19739594.71949 103732269.61749     -1092.32049        49.000  

  20557918.14149 108032588.30149     10172.00049        49.000  

  24339575.41449 127905331.74649      -650.23049        48.000  

  23996474.39149 126102323.92249    -22218.88749        48.000  

  21001671.07049 110364526.16849      8165.18449        50.000  

 16 04 02 12 17 11.2000000  0  9G18G08G10G22G27G32G21G11G14                     
  24509406.89149 128797800.39149    -28441.50049        48.000  

  21034094.93049 110534914.98449    -17676.61349        50.000  

  21546638.57849 113228348.75449    -28101.94949        50.000  

  21873190.14849 114944389.59449      9239.52749        50.000  

  19739615.53149 103732378.98449     -1096.07049        49.000  

  20557724.60949 108031571.28549     10166.66049        49.000  

  24339587.78149 127905396.74649      -650.75449        48.000  

  23996897.17249 126104545.80949    -22219.74249        48.000  

  21001515.72749 110363709.85949      8160.19949        50.000  

 16 04 02 12 17 11.3000000  0  9G18G08G10G22G27G32G21G11G14                     
  24509948.12549 128800644.61749    -28442.96549        48.000  

  21034431.34449 110536682.84049    -17680.07049        50.000  

  21547173.37549 113231159.15249    -28105.92249        50.000  

  21873014.36749 114943465.88349      9234.81649        50.000  

  19739636.43049 103732488.81249     -1100.70749        49.000  

  20557531.20349 108030554.91049     10160.29349        49.000  

  24339600.18049 127905461.89549      -652.18049        48.000  

  23997320.01649 126106767.87549    -22221.40249        48.000  

  21001360.51649 110362894.18849      8154.00049        50.000  

 16 04 02 12 17 11.4000000  0  9G18G08G10G22G27G32G21G11G14                     
  24510489.39849 128803489.02349    -28444.77749        48.000  

  21034767.82849 110538451.06249    -17683.87549        50.000  

  21547708.26649 113233970.00449    -28110.42249        50.000  

  21872838.68849 114942542.67649      9229.73849        50.000  

  19739657.42249 103732599.14549     -1105.73449        49.000  

  20557337.92249 108029539.20749     10153.50449        49.000  

  24339612.60249 127905527.24249      -654.17649        48.000  

  23997742.90649 126108990.15649    -22223.62149        48.000  

  21001205.41449 110362079.15649      8147.49249        50.000  

 16 04 02 12 17 11.5000000  0  9G18G08G10G22G27G32G21G11G14                     
  24511030.71949 128806333.56249    -28445.99249        48.000  

  21035104.36749 110540219.61749    -17687.00449        50.000  

  21548243.23449 113236781.23849    -28114.22749        50.000  

  21872663.09449 114941619.92649      9225.32049        50.000  

  19739678.50049 103732709.91849     -1109.97749        50.000  

  20557144.75849 108028524.12549     10147.60949        49.000  

  24339625.06249 127905592.71549      -655.34049        48.000  

  23998165.82049 126111212.58649    -22225.09049        48.000  

  21001050.43049 110361264.71149      8141.72749        50.000  

 16 04 02 12 17 11.6000000  0  9G18G08G10G22G27G32G21G11G14                     
  24511572.02349 128809178.16849    -28446.71549        48.000  

  21035440.96949 110541988.43849    -17689.76249        50.000  

  21548778.25849 113239592.79349    -28117.48849        50.000  

  21872487.57849 114940697.55949      9221.35249        50.000  

  19739699.65649 103732821.08249     -1113.98049        50.000  

  20556951.69549 108027509.59049     10141.78149        49.000  

  24339637.53949 127905658.26249      -656.14549        48.000  

  23998588.71949 126113435.11349    -22225.97749        48.000  

  21000895.54749 110360450.80949      8136.26249        50.000  

 16 04 02 12 17 11.7000000  0  9G18G08G10G22G27G32G21G11G14                     
  24512113.36749 128812023.03149    -28449.24649        48.000  

  21035777.65649 110543757.71949    -17694.34849        50.000  

  21549313.39849 113242404.87549    -28122.63349        50.000  

  21872312.17249 114939775.79749      9215.44149        50.000  

  19739720.92249 103732932.83249     -1119.78949        50.000  

  20556758.78149 108026495.82049     10134.45749        49.000  

  24339650.06249 127905724.07449      -658.71149        48.000  

  23999011.71149 126115657.94549    -22228.98849        48.000  

  21000740.80549 110359637.62949      8129.04749        50.000  

 16 04 02 12 17 11.8000000  0  9G18G08G10G22G27G32G21G11G14                     
  24512654.75049 128814868.02349    -28450.69149        48.000  

  21036114.39849 110545527.29749    -17697.53949        50.000  

  21549848.58649 113245217.34049    -28126.62549        50.000  

  21872136.84449 114938854.46149      9210.89149        50.000  

  19739742.27349 103733045.01649     -1124.50049        50.000  

  20556565.98449 108025482.64149     10128.01249        49.000  

  24339662.60949 127905790.00849      -660.24249        48.000  

  23999434.73449 126117880.91449    -22230.64849        48.000  

  21000586.17249 110358825.03149      8123.02349        50.000  

 16 04 02 12 17 11.9000000  0  9G18G08G10G22G27G32G21G11G14                     
  24513196.18049 128817713.17249    -28452.08649        48.000  

  21036451.21149 110547297.25049    -17700.97349        50.000  

  21550383.86749 113248030.20749    -28130.44549        50.000  

  21871961.61749 114937933.61749      9206.29349        50.000  

  19739763.71149 103733157.67649     -1128.93849        50.000  

  20556373.30549 108024470.11349     10121.99649        49.000  

  24339675.18849 127905856.10949      -661.64549        48.000  

  23999857.78949 126120104.07049    -22232.30949        48.000  

  21000431.65649 110358013.05149      8117.03149        50.000  

 16 04 02 12 17 12.0000000  0  9G18G08G10G22G27G32G21G11G14                     
  24513737.60949 128820558.39849    -28452.95749        48.000  

  21036788.07849 110549067.48849    -17703.96149        50.000  

  21550919.20349 113250843.43449    -28134.14849        50.000  

  21871786.46949 114937013.19149      9201.98049        50.000  

  19739785.22749 103733270.73449     -1133.07449        49.000  

  20556180.74249 108023458.17249     10115.91449        49.000  

  24339687.77349 127905922.29349      -662.53949        48.000  

  24000280.88349 126122327.34049    -22233.46549        48.000  

  21000277.25049 110357201.62949      8111.41849        50.000  

 16 04 02 12 17 12.1000000  0  9G18G08G10G22G27G32G21G11G14                     
  24514279.10249 128823403.78949    -28454.44149        48.000  

  21037125.00049 110550838.06249    -17707.19549        50.000  

  21551454.62549 113253657.06649    -28138.20349        50.000  

  21871611.39849 114936093.23449      9197.40249        50.000  

  19739806.82849 103733384.26649     -1137.55949        49.000  

  20555988.29749 108022446.85949     10109.75049        49.000  

  24339700.39849 127905988.63349      -664.02349        48.000  

  24000703.99249 126124550.79349    -22235.13749        48.000  

  21000122.96149 110356390.82449      8105.37549        50.000  

 16 04 02 12 17 12.2000000  0  9G18G08G10G22G27G32G21G11G14                     
  24514820.58649 128826249.29349    -28455.77049        48.000  

  21037461.99249 110552608.94949    -17710.40249        50.000  

  21551990.10949 113256471.06249    -28141.86749        50.000  

  21871436.42249 114935173.71949      9192.92249        50.000  

  19739828.51649 103733498.23849     -1142.07849        50.000  

  20555795.96949 108021436.15249     10103.62949        49.000  

  24339713.02349 127906055.09449      -665.27749        48.000  

  24001127.14149 126126774.39149    -22236.72749        48.000  

  20999968.78149 110355580.58649      8099.61749        50.000  

 16 04 02 12 17 12.3000000  0  9G18G08G10G22G27G32G21G11G14                     
  24515362.10949 128829094.99249    -28457.67649        48.000  

  21037799.05549 110554380.23849    -17714.46549        50.000  

  21552525.68049 113259285.53949    -28146.75449        50.000  

  21871261.54749 114934254.73849      9187.51249        50.000  

  19739850.30549 103733612.71549     -1147.21549        49.000  

  20555603.77349 108020426.14149     10096.60949        49.000  

  24339725.71149 127906121.76649      -667.34449        48.000  

  24001550.32049 126128998.22749    -22239.13749        48.000  

  20999814.72749 110354771.03149      8092.72349        50.000  

 16 04 02 12 17 12.4000000  0  9G18G08G10G22G27G32G21G11G14                     
  24515903.64149 128831940.76249    -28458.43049        48.000  

  21038136.18049 110556151.80149    -17717.22349        50.000  

  21553061.31249 113262100.32049    -28149.84449        50.000  

  21871086.74249 114933336.14849      9183.55149        50.000  

  19739872.16449 103733727.59449     -1151.24649        49.000  

  20555411.67249 108019416.68049     10091.13749        49.000  

  24339738.42249 127906188.50849      -668.21549        48.000  

  24001973.52349 126131222.14849    -22240.10949        48.000  

  20999660.76649 110353961.99649      8087.52749        50.000  

 16 04 02 12 17 12.5000000  0  9G18G08G10G22G27G32G21G11G14                     
  24516445.20349 128834786.73049    -28460.41049        48.000  

  21038473.36749 110557923.75049    -17721.12149        49.000  

  21553597.03949 113264915.56649    -28154.41049        50.000  

  21870912.03949 114932418.08249      9178.28949        50.000  

  19739894.12549 103733842.98049     -1156.38349        49.000  

  20555219.71149 108018407.91849     10084.04349        49.000  

  24339751.16449 127906255.44549      -670.13349        48.000  

  24002396.76649 126133446.30149    -22242.37149        48.000  

  20999506.94549 110353153.63749      8080.78949        50.000  

 16 04 02 12 17 12.6000000  0  9G18G08G10G22G27G32G21G11G14                     
  24516986.80549 128837632.87549    -28462.18449        48.000  

  21038810.62549 110559696.07049    -17724.82049        49.000  

  21554132.85249 113267731.25449    -28158.91049        50.000  

  21870737.43049 114931500.51249      9173.24649        50.000  

  19739916.17249 103733958.85549     -1161.21149        49.000  

  20555027.86749 108017399.80549     10077.52749        49.000  

  24339763.93049 127906322.56249      -671.94949        48.000  

  24002820.05549 126135670.66049    -22244.50449        48.000  

  20999353.22749 110352345.90649      8074.39549        50.000  

 16 04 02 12 17 12.7000000  0  9G18G08G10G22G27G32G21G11G14                     
  24517528.43049 128840479.18049    -28463.85249        48.000  

  21039147.95349 110561468.74649    -17728.47749        49.000  

  21554668.74249 113270547.34049    -28162.93049        50.000  

  21870562.92249 114930583.43849      9168.35949        50.000  

  19739938.32049 103734075.22749     -1166.18449        49.000  

  20554836.15649 108016392.34849     10071.03549        49.000  

  24339776.73449 127906389.85549      -673.72349        48.000  

  24003243.36749 126137895.20349    -22246.31249        48.000  

  20999199.64149 110351538.80949      8068.10949        50.000  

 16 04 02 12 17 12.8000000  0  9G18G08G10G22G27G32G21G11G14                     
  24518070.08649 128843325.59449    -28464.93449        48.000  

  21039485.34449 110563241.73049    -17731.53149        50.000  

  21555204.69549 113273363.80949    -28166.63749        50.000  

  21870388.49249 114929666.79349      9164.07849        50.000  

  19739960.53949 103734192.01249     -1170.36349        49.000  

  20554644.55549 108015385.48849     10065.01249        49.000  

  24339789.54749 127906457.25449      -674.70349        48.000  

  24003666.70349 126140119.88749    -22247.71949        48.000  

  20999046.17249 110350732.27749      8062.44549        50.000  

 16 04 02 12 17 12.9000000  0  9G18G08G10G22G27G32G21G11G14                     
  24518611.78949 128846172.16449    -28466.45349        48.000  

  21039822.79749 110565015.07049    -17735.01649        50.000  

  21555740.74249 113276180.68849    -28170.78949        50.000  

  21870214.14849 114928750.62949      9159.26649        50.000  

  19739982.85949 103734309.27749     -1175.06249        49.000  

  20554453.07849 108014379.28149     10058.57049        49.000  

  24339802.40649 127906524.81649      -676.38749        48.000  

  24004090.07849 126142344.75449    -22249.58249        48.000  

  20998892.81249 110349926.37549      8056.15649        49.000  

 16 04 02 12 17 13.0000000  0  9G18G08G10G22G27G32G21G11G14                     
  24519153.51649 128849018.94949    -28468.57849        48.000  

  21040160.33649 110566788.82049    -17739.19549        50.000  

  21556276.86749 113278998.04749    -28175.55549        50.000  

  21870039.90649 114927835.00849      9153.88749        50.000  

  19740005.27349 103734427.06649     -1180.43449        49.000  

  20554261.74249 108013373.76649     10051.65649        49.000  

  24339815.29749 127906592.59849      -678.62949        48.000  

  24004513.50049 126144569.87149    -22252.07849        48.000  

  20998739.57849 110349121.14849      8049.32849        50.000  

 16 04 02 12 17 13.1000000  0  9G18G08G10G22G27G32G21G11G14                     
  24519695.25049 128851865.87549    -28470.21549        48.000  

  21040497.93049 110568562.90249    -17742.63749        50.000  

  21556813.07849 113281815.78949    -28179.63349        50.000  

  21869865.76649 114926919.85549      9149.02749        50.000  

  19740027.78149 103734545.33249     -1185.32049        49.000  

  20554070.52349 108012368.89149     10044.92649        49.000  

  24339828.21949 127906660.51249      -680.09449        48.000  

  24004936.96149 126146795.14849    -22253.85949        48.000  

  20998586.46149 110348316.52349      8043.23049        50.000  

 16 04 02 12 17 13.2000000  0  9G18G08G10G22G27G32G21G11G14                     
  24520237.03149 128854712.96549    -28471.65649        48.000  

  21040835.59449 110570337.35249    -17746.09049        50.000  

  21557349.35949 113284633.97749    -28183.80549        50.000  

  21869691.71149 114926005.19549      9144.28949        50.000  

  19740050.38349 103734664.06649     -1189.73849        49.000  

  20553879.43049 108011364.66849     10038.84849        49.000  

  24339841.18049 127906728.60949      -681.66449        48.000  

  24005360.43049 126149020.62949    -22255.60949        48.000  

  20998433.46949 110347512.53149      8037.07449        49.000  

 16 04 02 12 17 13.3000000  0  9G18G08G10G22G27G32G21G11G14                     
  24520778.85249 128857560.18049    -28472.89549        48.000  

  21041173.32849 110572112.11749    -17749.31649        50.000  

  21557885.71949 113287452.52349    -28187.49649        50.000  

  21869517.73449 114925090.98449      9139.66849        50.000  

  19740073.05549 103734783.25049     -1194.21949        49.000  

  20553688.44549 108010361.05149     10032.69949        49.000  

  24339854.15649 127906796.82449      -682.92249        48.000  

  24005783.95349 126151246.25449    -22257.12549        48.000  

  20998280.58649 110346709.13349      8031.09449        49.000  

 16 04 02 12 17 13.4000000  0  9G18G08G10G22G27G32G21G11G14                     
  24521320.68849 128860407.53949    -28474.36749        48.000  

  21041511.12549 110573887.23449    -17752.76249        50.000  

  21558422.14849 113290271.48849    -28191.65649        50.000  

  21869343.85949 114924177.25049      9134.87549        50.000  

  19740095.82849 103734902.90249     -1198.93449        50.000  

  20553497.58649 108009358.08649     10026.11749        49.000  

  24339867.17249 127906865.20349      -684.53549        48.000  

  24006207.50849 126153472.06249    -22258.94949        48.000  

  20998127.82049 110345906.34049      8025.06249        49.000  

 16 04 02 12 17 13.5000000  0  9G18G08G10G22G27G32G21G11G14                     
  24521862.53949 128863255.02749    -28475.48849        48.000  

  21041848.97749 110575662.66049    -17755.82449        50.000  

  21558958.65649 113293090.82849    -28195.31649        50.000  

  21869170.07049 114923263.95349      9130.62949        50.000  

  19740118.68849 103735022.98449     -1203.20349        49.000  

  20553306.84449 108008355.71949     10020.26249        49.000  

  24339880.20349 127906933.70349      -685.67649        48.000  

  24006631.09449 126155698.00849    -22260.23449        48.000  

  20997975.16449 110345104.13749      8019.30949        49.000  

 16 04 02 12 17 13.6000000  0  9G18G08G10G22G27G32G21G11G14                     
  24522404.42249 128866102.62149    -28476.53149        48.000  

  21042186.89149 110577438.40649    -17758.96149        50.000  

  21559495.23449 113295910.54349    -28199.03149        50.000  

  21868996.35949 114922351.10249      9126.29349        50.000  

  19740141.61749 103735143.50849     -1207.48449        49.000  

  20553116.21149 108007353.95749     10014.24249        49.000  

  24339893.27349 127907002.31649      -686.74249        48.000  

  24007054.67249 126157924.10949    -22261.62549        48.000  

  20997822.61749 110344302.52049      8013.52749        49.000  

 16 04 02 12 17 13.7000000  0  9G18G08G10G22G27G32G21G11G14                     
  24522946.33649 128868950.39849    -28478.39549        48.000  

  21042524.86749 110579214.52349    -17762.68849        50.000  

  21560031.88349 113298730.68449    -28203.35249        50.000  

  21868822.74249 114921438.76649      9121.04749        50.000  

  19740164.64849 103735264.53149     -1212.60949        49.000  

  20552925.71149 108006352.87149     10007.34049        49.000  

  24339906.36749 127907071.12149      -688.71549        48.000  

  24007478.32049 126160150.42649    -22263.89549        48.000  

  20997670.20349 110343501.54749      8006.93049        49.000  

 16 04 02 12 17 13.8000000  0  9G18G08G10G22G27G32G21G11G14                     
  24523488.28149 128871798.34849    -28480.23849        48.000  

  21042862.92249 110580991.01649    -17766.57049        49.000  

  21560568.62549 113301551.26649    -28207.74249        50.000  

  21868649.22749 114920526.91849      9116.08649        50.000  

  19740187.77349 103735386.05149     -1217.69949        49.000  

  20552735.34449 108005352.44149     10000.73849        49.000  

  24339919.48449 127907140.09449      -690.46549        48.000  

  24007902.01649 126162376.93049    -22265.87549        48.000  

  20997517.89849 110342701.19949      8000.53149        50.000  

 16 04 02 12 17 13.9000000  0  9G18G08G10G22G27G32G21G11G14                     
  24524030.25849 128874646.46949    -28481.94149        48.000  

  21043201.05549 110582767.85949    -17770.09449        50.000  

  21561105.44549 113304372.27049    -28212.00049        50.000  

  21868475.80549 114919615.57449      9111.09049        50.000  

  19740210.98449 103735508.04749     -1222.45349        49.000  

  20552545.09449 108004352.67249      9994.16849        49.000  

  24339932.64149 127907209.24649      -692.28149        48.000  

  24008325.74249 126164603.64149    -22267.98049        48.000  

  20997365.72749 110341901.49249      7994.22749        50.000  

 16 04 02 12 17 14.0000000  0  9G18G08G10G22G27G32G21G11G14                     
  24524572.26649 128877494.72749    -28483.35949        48.000  

  21043539.24249 110584545.05149    -17773.58649        49.000  

  21561642.34449 113307193.68449    -28216.16449        50.000  

  21868302.46949 114918704.69149      9106.39149        50.000  

  19740234.28949 103735630.49249     -1227.03549        49.000  

  20552354.95349 108003353.52349      9987.91449        49.000  

  24339945.82049 127907278.54749      -693.86349        48.000  

  24008749.51649 126166830.51649    -22269.71949        48.000  

  20997213.65649 110341102.39849      7988.07449        50.000  

 16 04 02 12 17 14.1000000  0  9G18G08G10G22G27G32G21G11G14                     
  24525114.30549 128880343.09049    -28484.21949        48.000  

  21043877.48449 110586322.54749    -17776.48449        50.000  

  21562179.31249 113310015.44149    -28219.49649        50.000  

  21868129.21149 114917794.24249      9102.19949        50.000  

  19740257.67249 103735753.37949     -1231.23449        49.000  

  20552164.94549 108002354.99649      9982.05149        49.000  

  24339959.02349 127907347.94549      -694.70349        48.000  

  24009173.30549 126169057.52049    -22270.82849        48.000  

  20997061.70349 110340303.87549      7982.41449        49.000  

 16 04 02 12 17 14.2000000  0  9G18G08G10G22G27G32G21G11G14                     
  24525656.35949 128883191.61349    -28485.82049        48.000  

  21044215.79749 110588100.39849    -17780.02049        49.000  

  21562716.35249 113312837.63749    -28223.77049        50.000  

  21867956.05549 114916884.29349      9097.26649        50.000  

  19740281.14849 103735876.75049     -1236.10249        49.000  

  20551975.05549 108001357.09849      9975.55949        49.000  

  24339972.26649 127907417.52049      -696.37549        48.000  

  24009597.14149 126171284.73049    -22272.76249        48.000  

  20996909.85949 110339505.96549      7976.37549        49.000  

 16 04 02 12 17 14.3000000  0  9G18G08G10G22G27G32G21G11G14                     
  24526198.45349 128886040.23049    -28486.70349        48.000  

  21044554.16449 110589878.53949    -17782.85549        49.000  

  21563253.46949 113315660.16849    -28227.14149        50.000  

  21867782.97749 114915974.74249      9093.34049        50.000  

  19740304.70349 103736000.51249     -1239.92249        49.000  

  20551785.27349 108000359.79349      9969.68049        49.000  

  24339985.52349 127907487.18049      -697.16049        48.000  

  24010020.98449 126173512.04349    -22273.80949        48.000  

  20996758.13349 110338708.62149      7970.84449        49.000  

 16 04 02 12 17 14.4000000  0  9G18G08G10G22G27G32G21G11G14                     
  24526740.56249 128888889.05149    -28488.95749        48.000  

  21044892.60949 110591657.07849    -17787.00049        49.000  

  21563790.67249 113318483.16449    -28231.93849        50.000  

  21867610.00049 114915065.73849      9087.64549        50.000  

  19740328.35949 103736124.81649     -1245.51249        49.000  

  20551595.61749 107999363.17249      9962.62949        49.000  

  24339998.82049 127907557.05949      -699.47749        48.000  

  24010444.89849 126175739.60249    -22276.36349        48.000  

  20996606.52349 110337911.95349      7963.94549        49.000  

 16 04 02 12 17 14.5000000  0  9G18G08G10G22G27G32G21G11G14                     
  24527282.71149 128891738.00849    -28490.22749        48.000  

  21045231.11749 110593435.94549    -17790.31249        49.000  

  21564327.93849 113321306.55949    -28235.93449        50.000  

  21867437.10949 114914157.18849      9083.15649        50.000  

  19740352.10249 103736249.56249     -1249.97349        49.000  

  20551406.08649 107998367.18849      9956.34449        49.000  

  24340012.14149 127907627.07449      -700.93049        48.000  

  24010868.82049 126177967.31649    -22277.98049        48.000  

  20996455.03949 110337115.87549      7957.85549        49.000  

 16 04 02 12 17 14.6000000  0  9G18G08G10G22G27G32G21G11G14                     
  24527824.88349 128894587.15649    -28492.26249        48.000  

  21045569.69549 110595215.20749    -17794.21549        49.000  

  21564865.29749 113324130.39549    -28240.35249        50.000  

  21867264.32049 114913249.16449      9077.87949        50.000  

  19740375.93849 103736374.83249     -1255.21949        49.000  

  20551216.68049 107997371.87149      9949.55549        49.000  

  24340025.49249 127907697.28549      -702.84849        48.000  

  24011292.78149 126180195.26249    -22280.28549        48.000  

  20996303.67249 110336320.47349      7951.18449        50.000  

 16 04 02 12 17 14.7000000  0  9G18G08G10G22G27G32G21G11G14                     
  24528367.10249 128897436.46149    -28493.82849        48.000  

  21045908.34449 110596994.83649    -17797.86749        49.000  

  21565402.73449 113326954.66049    -28244.63349        50.000  

  21867091.61749 114912341.62949      9073.01649        50.000  

  19740399.86749 103736500.57449     -1259.89549        49.000  

  20551027.40649 107996377.22749      9942.93049        49.000  

  24340038.89149 127907767.66449      -704.53949        48.000  

  24011716.78149 126182423.39849    -22282.23449        48.000  

  20996152.43049 110335525.67649      7945.11349        50.000  

 16 04 02 12 17 14.8000000  0  9G18G08G10G22G27G32G21G11G14                     
  24528909.33649 128900285.91449    -28495.23049        48.000  

  21046247.05549 110598774.79349    -17801.21949        49.000  

  21565940.25049 113329779.31649    -28248.54749        50.000  

  21866919.01649 114911434.55949      9068.35249        50.000  

  19740423.88349 103736626.77749     -1264.45349        49.000  

  20550838.24249 107995383.19549      9936.86349        49.000  

  24340052.30549 127907838.19549      -706.01649        48.000  

  24012140.82049 126184651.69549    -22283.85249        48.000  

  20996001.30549 110334731.49649      7938.96149        49.000  

 16 04 02 12 17 14.9000000  0  9G18G08G10G22G27G32G21G11G14                     
  24529451.60949 128903135.47349    -28496.37149        48.000  

  21046585.82849 110600555.05949    -17804.31249        49.000  

  21566477.82849 113332604.34049    -28252.22749        50.000  

  21866746.48449 114910527.92649      9063.99249        50.000  

  19740447.97749 103736753.41049     -1268.84049        49.000  

  20550649.20349 107994389.77749      9930.75849        49.000  

  24340065.75049 127907908.82849      -707.08249        48.000  

  24012564.88349 126186880.14149    -22285.36349        48.000  

  20995850.28949 110333937.89849      7933.12949        50.000  

 16 04 02 12 17 15.0000000  0  9G18G08G10G22G27G32G21G11G14                     
  24529993.89149 128905985.20749    -28498.11349        48.000  

  21046924.67249 110602335.69949    -17808.00449        49.000  

  21567015.49249 113335429.79349    -28256.48049        50.000  

  21866574.05549 114909621.80549      9058.99249        50.000  

  19740472.17249 103736880.54349     -1273.57449        49.000  

  20550460.29749 107993397.02349      9924.09449        49.000  

  24340079.22749 127907979.64849      -708.82849        48.000  

  24012988.96949 126189108.78549    -22287.28949        48.000  

  20995699.39149 110333144.93849      7926.80549        50.000  

 16 04 02 12 17 15.1000000  0  9G18G08G10G22G27G32G21G11G14                     
  24530536.20349 128908835.04749    -28499.05949        48.000  

  21047263.57849 110604116.63349    -17810.91449        50.000  

  21567553.22749 113338255.62149    -28260.16849        50.000  

  21866401.71149 114908716.10549      9054.69949        50.000  

  19740496.44549 103737008.08649     -1277.80149        49.000  

  20550271.49249 107992404.85949      9918.19549        49.000  

  24340092.72749 127908050.58249      -709.97349        48.000  

  24013413.08649 126191337.55949    -22288.54349        48.000  

  20995548.60949 110332352.53949      7921.24249        49.000  

 16 04 02 12 17 15.2000000  0  9G18G08G10G22G27G32G21G11G14                     
  24531078.53949 128911685.04349    -28500.68449        48.000  

  21047602.54749 110605897.92249    -17814.45349        49.000  

  21568091.03949 113341081.84449    -28264.23049        50.000  

  21866229.45349 114907810.89549      9049.86349        50.000  

  19740520.80549 103737136.11349     -1282.65649        49.000  

  20550082.82049 107991413.34449      9911.66449        49.000  

  24340106.24249 127908121.66449      -711.51249        48.000  

  24013837.25049 126193566.52349    -22290.44949        48.000  

  20995397.93049 110331560.78149      7914.80949        50.000  

 16 04 02 12 17 15.3000000  0  9G18G08G10G22G27G32G21G11G14                     
  24531620.90649 128914535.17649    -28502.01649        48.000  

  21047941.58649 110607679.55949    -17817.89549        49.000  

  21568628.93849 113343908.47749    -28268.18449        50.000  

  21866057.28149 114906906.15249      9045.17249        50.000  

  19740545.26649 103737264.60549     -1287.14549        49.000  

  20549894.25849 107990422.47349      9905.35549        49.000  

  24340119.80549 127908192.91049      -713.12549        48.000  

  24014261.44549 126195795.67249    -22292.30949        48.000  

  20995247.38349 110330769.62149      7908.75849        49.000  

 16 04 02 12 17 15.4000000  0  9G18G08G10G22G27G32G21G11G14                     
  24532163.29749 128917385.44949    -28503.43449        48.000  

  21048280.68049 110609461.51649    -17821.12549        49.000  

  21569166.89849 113346735.49649    -28272.02749        50.000  

  21865885.20349 114906001.87949      9040.50049        50.000  

  19740569.79749 103737393.54749     -1291.69549        49.000  

  20549705.82049 107989432.21149      9899.20349        49.000  

  24340133.37549 127908264.27349      -714.30949        48.000  

  24014685.67249 126198024.96949    -22293.80149        48.000  

  20995096.94549 110329979.05949      7902.88749        49.000  

 16 04 02 12 17 15.5000000  0  9G18G08G10G22G27G32G21G11G14                     
  24532705.68849 128920235.85949    -28504.95349        48.000  

  21048619.83649 110611243.82049    -17824.66449        49.000  

  21569704.93849 113349562.92649    -28276.27349        50.000  

  21865713.21149 114905098.07049      9035.68449        50.000  

  19740594.42249 103737522.95349     -1296.54349        49.000  

  20549517.50049 107988442.59049      9892.71549        49.000  

  24340146.99249 127908335.80549      -716.07449        48.000  

  24015109.92249 126200254.43049    -22295.47749        48.000  

  20994946.62549 110329189.12149      7896.43849        49.000  

 16 04 02 12 17 15.6000000  0  9G18G08G10G22G27G32G21G11G14                     
  24533248.13349 128923086.41849    -28506.35949        48.000  

  21048959.06249 110613026.46949    -17828.14849        49.000  

  21570243.05549 113352390.74649    -28280.16049        50.000  

  21865541.31249 114904194.73449      9030.87149        50.000  

  19740619.14149 103737652.82849     -1301.26249        49.000  

  20549329.30549 107987453.60549      9886.26649        49.000  

  24340160.64149 127908407.48049      -717.49249        48.000  

  24015534.20349 126202484.08249    -22297.37149        48.000  

  20994796.41449 110328399.77749      7890.57049        50.000  

 16 04 02 12 17 15.7000000  0  9G18G08G10G22G27G32G21G11G14                     
  24533790.61749 128925937.15249    -28507.95349        48.000  

  21049298.36749 110614809.48849    -17831.66449        50.000  

  21570781.26649 113355219.01649    -28284.42649        50.000  

  21865369.51649 114903291.91049      9026.01649        50.000  

  19740643.94549 103737783.18449     -1305.91849        49.000  

  20549141.23449 107986465.28549      9879.91449        49.000  

  24340174.32049 127908479.33249      -719.08249        48.000  

  24015958.53149 126204713.94549    -22299.32449        48.000  

  20994646.33649 110327611.09049      7884.12949        49.000  

 16 04 02 12 17 15.8000000  0  9G18G08G10G22G27G32G21G11G14                     
  24534333.11749 128928788.00849    -28509.37949        48.000  

  21049637.72749 110616592.84049    -17835.22749        50.000  

  21571319.53949 113358047.66449    -28288.53149        50.000  

  21865197.79749 114902389.53949      9021.22349        50.000  

  19740668.84449 103737914.01249     -1310.79749        49.000  

  20548953.28149 107985477.60949      9873.17649        49.000  

  24340188.01649 127908551.33249      -720.85549        48.000  

  24016382.89149 126206943.94949    -22300.97349        48.000  

  20994496.36749 110326822.98849      7878.05949        49.000  

 16 04 02 12 17 15.9000000  0  9G18G08G10G22G27G32G21G11G14                     
  24534875.67249 128931639.09849    -28511.74249        48.000  

  21049977.16449 110618376.59049    -17839.27049        49.000  

  21571857.90649 113360876.78149    -28293.25849        50.000  

  21865026.18849 114901487.71549      9015.71949        50.000  

  19740693.83649 103738045.35949     -1316.07849        49.000  

  20548765.46149 107984490.60949      9866.08649        49.000  

  24340201.75849 127908623.54349      -723.03949        48.000  

  24016807.29749 126209174.20749    -22303.59849        48.000  

  20994346.52349 110326035.57449      7871.19149        49.000  

 16 04 02 12 17 16.0000000  0  9G18G08G10G22G27G32G21G11G14                     
  24535418.24249 128934490.32449    -28513.04749        48.000  

  21050316.67249 110620160.70749    -17842.81649        50.000  

  21572396.35249 113363706.30949    -28297.24649        50.000  

  21864854.66449 114900586.36749      9011.12549        50.000  

  19740718.91449 103738177.18049     -1320.69949        49.000  

  20548577.76649 107983504.26249      9859.96549        49.000  

  24340215.53949 127908695.90649      -724.43449        48.000  

  24017231.72749 126211404.65649    -22305.35949        48.000  

  20994196.81249 110325248.78949      7864.91049        49.000  

 16 04 02 12 17 16.1000000  0  9G18G08G10G22G27G32G21G11G14                     
  24535960.84449 128937341.65649    -28513.94949        48.000  

  21050656.22749 110621945.11749    -17845.66049        50.000  

  21572934.85949 113366536.21149    -28300.90649        50.000  

  21864683.22749 114899685.45749      9006.82049        50.000  

  19740744.08649 103738309.43849     -1324.85949        49.000  

  20548390.18849 107982518.52049      9854.02349        49.000  

  24340229.32849 127908768.38749      -725.43449        48.000  

  24017656.18849 126213635.22349    -22306.46149        48.000  

  20994047.19549 110324462.56249      7859.42249        49.000  

 16 04 02 12 17 16.2000000  0  9G18G08G10G22G27G32G21G11G14                     
  24536503.46149 128940193.14849    -28515.59049        48.000  

  21050995.85949 110623729.87549    -17849.24249        50.000  

  21573473.44549 113369366.50049    -28304.90649        50.000  

  21864511.88349 114898785.03149      9001.82849        50.000  

  19740769.34449 103738442.16049     -1329.82049        49.000  

  20548202.72749 107981533.41849      9847.39849        49.000  

  24340243.14149 127908841.02349      -727.12949        48.000  

  24018080.69549 126215865.98049    -22308.41449        48.000  

  20993897.69549 110323676.95349      7853.20349        50.000  

 16 04 02 12 17 16.3000000  0  9G18G08G10G22G27G32G21G11G14                     
  24537046.11749 128943044.83649    -28517.48449        48.000  

  21051335.56249 110625515.02349    -17853.03149        50.000  

  21574012.11749 113372197.26249    -28309.50849        50.000  

  21864340.63349 114897885.12149      8996.78149        50.000  

  19740794.69549 103738575.39149     -1334.71549        49.000  

  20548015.39849 107980548.99649      9840.65649        49.000  

  24340257.00849 127908913.86349      -729.01649        48.000  

  24018505.24249 126218096.96149    -22310.53949        48.000  

  20993748.32849 110322892.02049      7846.62949        49.000  

 16 04 02 12 17 16.4000000  0  9G18G08G10G22G27G32G21G11G14                     
  24537588.80549 128945896.68049    -28519.24649        48.000  

  21051675.33649 110627300.54349    -17856.84449        50.000  

  21574550.87549 113375028.43449    -28313.75449        50.000  

  21864169.48449 114896985.70349      8991.84449        50.000  

  19740820.14149 103738709.11349     -1339.64849        49.000  

  20547828.20349 107979565.23049      9834.14149        49.000  

  24340270.90649 127908986.86749      -730.78549        48.000  

  24018929.81249 126220328.11749    -22312.35949        48.000  

  20993599.07849 110322107.71149      7840.19949        49.000  

 16 04 02 12 17 16.5000000  0  9G18G08G10G22G27G32G21G11G14                     
  24538131.51649 128948748.67249    -28520.69549        48.000  

  21052015.17249 110629086.40249    -17860.28949        50.000  

  21575089.71149 113377860.00849    -28317.83249        50.000  

  21863998.42249 114896086.77749      8986.90649        50.000  

  19740845.68049 103738843.30149     -1344.46149        49.000  

  20547641.12549 107978582.11749      9827.59449        49.000  

  24340284.82849 127909060.02749      -732.37549        48.000  

  24019354.43049 126222559.48849    -22314.41049        48.000  

  20993449.95349 110321324.02049      7833.94949        49.000  

